Vers 81
USE_SERIAL_FEEDBACK=true
DEVELOPMENT_MODE=false
USE_RMC_ONLY=false

$GPRMC,193222.500,A,4305.1661,N,07740.8745,W,0.33,5.96,280923,,,A*70
$GPGGA,193222.750,4305.1662,N,07740.8745,W,1,04,3.31,182.2,M,-34.4,M,,*5C
$GPRMC,193223.000,A,4305.1663,N,07740.8745,W,0.40,6.24,280923,,,A*78
$GPGGA,193223.250,4305.1664,N,07740.8745,W,1,04,3.31,182.1,M,-34.4,M,,*5D
$GPRMC,193223.500,A,4305.1666,N,07740.8745,W,0.45,6.43,280923,,,A*7C
$GPGGA,193223.750,4305.1666,N,07740.8745,W,1,04,3.31,182.2,M,-34.4,M,,*59
$GPRMC,193224.000,A,4305.1667,N,07740.8745,W,0.45,355.14,280923,,,A*78
$GPGGA,193224.250,4305.1668,N,07740.8745,W,1,04,3.31,182.2,M,-34.4,M,,*55
$GPRMC,193224.500,A,4305.1669,N,07740.8745,W,0.57,358.62,280923,,,A*7C
$GPGGA,193224.750,4305.1669,N,07740.8745,W,1,04,3.31,182.3,M,-34.4,M,,*50
$GPRMC,193225.000,A,4305.1669,N,07740.8745,W,0.61,355.58,280923,,,A*79
$GPGGA,193225.250,4305.1669,N,07740.8746,W,1,04,3.32,182.3,M,-34.4,M,,*54
$GPRMC,193225.500,A,4305.1667,N,07740.8747,W,0.46,347.45,280923,,,A*7A
$GPGGA,193225.750,4305.1665,N,07740.8747,W,1,04,3.31,182.3,M,-34.4,M,,*5F
$GPRMC,193226.000,A,4305.1664,N,07740.8748,W,0.29,345.17,280923,,,A*7C
$GPGGA,193226.250,4305.1662,N,07740.8749,W,1,05,2.00,182.4,M,-34.4,M,,*55
$GPRMC,193226.500,A,4305.1661,N,07740.8749,W,0.19,353.91,280923,,,A*77
$GPGGA,193226.750,4305.1660,N,07740.8749,W,1,05,2.00,182.4,M,-34.4,M,,*52
$GPRMC,193227.000,A,4305.1659,N,07740.8750,W,0.19,2.19,280923,,,A*77
$GPGGA,193227.250,4305.1655,N,07740.8751,W,1,05,2.00,182.5,M,-34.4,M,,*58
$GPRMC,193227.500,A,4305.1654,N,07740.8751,W,0.07,256.06,280923,,,A*7C
$GPGGA,193227.750,4305.1654,N,07740.8751,W,1,05,1.92,182.6,M,-34.4,M,,*57
$GPRMC,193228.000,A,4305.1653,N,07740.8752,W,0.07,278.60,280923,,,A*7E
$GPGGA,193228.250,4305.1651,N,07740.8752,W,1,05,1.92,182.8,M,-34.4,M,,*55
$GPRMC,193228.500,A,4305.1650,N,07740.8753,W,0.13,259.14,280923,,,A*7C
$GPGGA,193228.750,4305.1649,N,07740.8753,W,1,05,1.92,182.9,M,-34.4,M,,*59
$GPRMC,193229.000,A,4305.1649,N,07740.8753,W,0.13,280.56,280923,,,A*72
$GPGGA,193229.250,4305.1647,N,07740.8753,W,1,05,1.92,183.1,M,-34.4,M,,*5A
$GPRMC,193229.500,A,4305.1646,N,07740.8754,W,0.11,316.27,280923,,,A*75
$GPGGA,193229.750,4305.1645,N,07740.8754,W,1,05,1.92,183.1,M,-34.4,M,,*5A
$GPRMC,193230.000,A,4305.1644,N,07740.8754,W,0.10,276.17,280923,,,A*7F
$GPGGA,193230.250,4305.1643,N,07740.8755,W,1,05,1.92,183.1,M,-34.4,M,,*50
$GPRMC,193230.500,A,4305.1643,N,07740.8754,W,0.06,284.29,280923,,,A*7A
$GPGGA,193230.750,4305.1643,N,07740.8753,W,1,05,1.92,183.2,M,-34.4,M,,*50
$GPRMC,193231.000,A,4305.1644,N,07740.8753,W,0.09,11.77,280923,,,A*44
$GPGGA,193231.250,4305.1643,N,07740.8753,W,1,05,2.00,183.2,M,-34.4,M,,*5C
$GPRMC,193231.500,A,4305.1643,N,07740.8753,W,0.06,299.84,280923,,,A*77
$GPGGA,193231.750,4305.1643,N,07740.8752,W,1,05,1.92,183.1,M,-34.4,M,,*53
$GPRMC,193232.000,A,4305.1642,N,07740.8752,W,0.04,26.96,280923,,,A*46
$GPGGA,193232.250,4305.1650,N,07740.8748,W,1,07,1.10,182.9,M,-34.4,M,,*5D
$GPRMC,193232.500,A,4305.1653,N,07740.8746,W,0.15,38.67,280923,,,A*47
$GPGGA,193232.750,4305.1656,N,07740.8744,W,1,07,1.09,182.7,M,-34.4,M,,*54
$GPRMC,193233.000,A,4305.1657,N,07740.8744,W,0.20,47.62,280923,,,A*4E
$GPGGA,193233.250,4305.1659,N,07740.8743,W,1,07,1.10,182.4,M,-34.4,M,,*53
$GPRMC,193233.500,A,4305.1660,N,07740.8742,W,0.26,17.18,280923,,,A*47
$GPGGA,193233.750,4305.1661,N,07740.8741,W,1,07,1.10,182.2,M,-34.4,M,,*59
$GPRMC,193234.000,A,4305.1661,N,07740.8740,W,0.25,28.54,280923,,,A*41
$GPGGA,193234.250,4305.1662,N,07740.8739,W,1,07,1.10,181.9,M,-34.4,M,,*5F
$GPRMC,193234.500,A,4305.1662,N,07740.8738,W,0.19,36.50,280923,,,A*4C
$GPGGA,193234.750,4305.1662,N,07740.8737,W,1,07,1.09,181.7,M,-34.4,M,,*52
$GPRMC,193235.000,A,4305.1662,N,07740.8736,W,0.17,39.75,280923,,,A*40
$GPGGA,193235.250,4305.1662,N,07740.8736,W,1,07,1.09,181.5,M,-34.4,M,,*55
$GPRMC,193235.500,A,4305.1662,N,07740.8735,W,0.13,54.32,280923,,,A*4A
$GPGGA,193235.750,4305.1662,N,07740.8735,W,1,07,1.10,181.4,M,-34.4,M,,*5A
$GPRMC,193236.000,A,4305.1662,N,07740.8735,W,0.01,350.67,280923,,,A*78
$GPGGA,193236.250,4305.1662,N,07740.8735,W,1,07,1.11,181.4,M,-34.4,M,,*5D
$GPRMC,193236.500,A,4305.1662,N,07740.8735,W,0.04,22.92,280923,,,A*44
$GPGGA,193236.750,4305.1662,N,07740.8735,W,1,07,1.10,181.4,M,-34.4,M,,*59
$GPRMC,193237.000,A,4305.1662,N,07740.8735,W,0.06,67.53,280923,,,A*4E
$GPGGA,193237.250,4305.1662,N,07740.8735,W,1,07,1.09,181.4,M,-34.4,M,,*55
$GPRMC,193237.500,A,4305.1662,N,07740.8735,W,0.03,197.45,280923,,,A*77
$GPGGA,193237.750,4305.1662,N,07740.8735,W,1,07,1.09,181.4,M,-34.4,M,,*50
$GPRMC,193238.000,A,4305.1662,N,07740.8735,W,0.02,68.32,280923,,,A*4D
$GPGGA,193238.250,4305.1662,N,07740.8735,W,1,07,1.10,181.4,M,-34.4,M,,*52
$GPRMC,193238.500,A,4305.1662,N,07740.8735,W,0.01,216.03,280923,,,A*72
$GPGGA,193238.750,4305.1662,N,07740.8735,W,1,07,1.10,181.4,M,-34.4,M,,*57
$GPRMC,193239.000,A,4305.1662,N,07740.8735,W,0.04,78.53,280923,,,A*4C
$GPGGA,193239.250,4305.1662,N,07740.8735,W,1,07,1.10,181.4,M,-34.4,M,,*53
$GPRMC,193239.500,A,4305.1662,N,07740.8735,W,0.03,61.08,280923,,,A*48
$GPGGA,193239.750,4305.1662,N,07740.8735,W,1,07,1.09,181.4,M,-34.4,M,,*5E
$GPRMC,193240.000,A,4305.1662,N,07740.8735,W,0.02,222.10,280923,,,A*7E
$GPGGA,193240.250,4305.1662,N,07740.8735,W,1,07,1.10,181.4,M,-34.4,M,,*5D
$GPRMC,193240.500,A,4305.1662,N,07740.8735,W,0.02,314.03,280923,,,A*7D
$GPGGA,193240.750,4305.1662,N,07740.8735,W,1,07,1.10,181.3,M,-34.4,M,,*5F
$GPRMC,193241.000,A,4305.1662,N,07740.8735,W,0.03,135.34,280923,,,A*7D
$GPGGA,193241.250,4305.1662,N,07740.8735,W,1,07,1.10,181.3,M,-34.4,M,,*5B
$GPRMC,193241.500,A,4305.1662,N,07740.8735,W,0.02,161.10,280923,,,A*7E
$GPGGA,193241.750,4305.1662,N,07740.8735,W,1,07,1.09,181.3,M,-34.4,M,,*56
$GPRMC,193242.000,A,4305.1662,N,07740.8735,W,0.01,325.96,280923,,,A*77
$GPGGA,193242.250,4305.1662,N,07740.8735,W,1,07,1.09,181.3,M,-34.4,M,,*50
$GPRMC,193242.500,A,4305.1662,N,07740.8735,W,0.02,72.47,280923,,,A*4C
$GPGGA,193242.750,4305.1662,N,07740.8735,W,1,07,1.09,181.3,M,-34.4,M,,*55
$GPRMC,193243.000,A,4305.1662,N,07740.8735,W,0.02,111.66,280923,,,A*7F
$GPGGA,193243.250,4305.1662,N,07740.8735,W,1,07,1.09,181.3,M,-34.4,M,,*51
$GPRMC,193243.500,A,4305.1662,N,07740.8735,W,0.04,45.00,280923,,,A*4C
$GPGGA,193243.750,4305.1662,N,07740.8735,W,1,07,1.10,181.3,M,-34.4,M,,*5C
$GPRMC,193244.000,A,4305.1662,N,07740.8735,W,0.03,114.71,280923,,,A*7A
$GPGGA,193244.250,4305.1662,N,07740.8735,W,1,07,1.09,181.3,M,-34.4,M,,*56
$GPRMC,193244.500,A,4305.1662,N,07740.8735,W,0.03,157.64,280923,,,A*7C
$GPGGA,193244.750,4305.1662,N,07740.8735,W,1,07,1.09,181.3,M,-34.4,M,,*53
$GPRMC,193245.000,A,4305.1662,N,07740.8735,W,0.04,20.15,280923,,,A*48
$GPGGA,193245.250,4305.1662,N,07740.8735,W,1,07,1.09,181.3,M,-34.4,M,,*57
$GPRMC,193245.500,A,4305.1662,N,07740.8735,W,0.02,75.49,280923,,,A*42
$GPGGA,193245.750,4305.1662,N,07740.8735,W,1,07,1.09,181.3,M,-34.4,M,,*52
$GPRMC,193246.000,A,4305.1662,N,07740.8735,W,0.03,77.65,280923,,,A*49
$GPGGA,193246.250,4305.1662,N,07740.8735,W,1,07,1.11,181.3,M,-34.4,M,,*5D
$GPRMC,193246.500,A,4305.1662,N,07740.8735,W,0.01,3.47,280923,,,A*7D
$GPGGA,193246.750,4305.1662,N,07740.8735,W,1,07,1.11,181.3,M,-34.4,M,,*58
$GPRMC,193247.000,A,4305.1662,N,07740.8735,W,0.01,142.57,280923,,,A*7C
$GPGGA,193247.250,4305.1662,N,07740.8735,W,1,07,1.11,181.3,M,-34.4,M,,*5C
$GPRMC,193247.500,A,4305.1662,N,07740.8735,W,0.01,259.12,280923,,,A*71
$GPGGA,193247.750,4305.1662,N,07740.8735,W,1,07,1.11,181.3,M,-34.4,M,,*59
$GPRMC,193248.000,A,4305.1662,N,07740.8735,W,0.00,0.00,280923,,,A*77
$GPGGA,193248.250,4305.1662,N,07740.8735,W,1,07,1.11,181.3,M,-34.4,M,,*53
$GPRMC,193248.500,A,4305.1662,N,07740.8735,W,0.01,63.31,280923,,,A*44
$GPGGA,193248.750,4305.1662,N,07740.8735,W,1,07,1.11,181.3,M,-34.4,M,,*56
$GPRMC,193249.000,A,4305.1662,N,07740.8735,W,0.00,198.36,280923,,,A*73
$GPGGA,193249.250,4305.1662,N,07740.8735,W,1,07,1.11,181.3,M,-34.4,M,,*52
$GPRMC,193249.500,A,4305.1662,N,07740.8735,W,0.01,291.27,280923,,,A*7D
$GPGGA,193249.750,4305.1662,N,07740.8735,W,1,07,1.11,181.2,M,-34.4,M,,*56
$GPRMC,193250.000,A,4305.1662,N,07740.8735,W,0.00,185.87,280923,,,A*7D
$GPGGA,193250.250,4305.1662,N,07740.8735,W,1,07,1.11,181.2,M,-34.4,M,,*5B
$GPRMC,193250.500,A,4305.1662,N,07740.8735,W,0.00,134.56,280923,,,A*7E
$GPGGA,193250.750,4305.1662,N,07740.8735,W,1,07,1.11,181.2,M,-34.4,M,,*5E
$GPRMC,193251.000,A,4305.1662,N,07740.8735,W,0.01,348.85,280923,,,A*7C
$GPGGA,193251.250,4305.1662,N,07740.8735,W,1,07,1.11,181.2,M,-34.4,M,,*5A
$GPRMC,193251.500,A,4305.1662,N,07740.8735,W,0.01,269.70,280923,,,A*71
$GPGGA,193251.750,4305.1662,N,07740.8735,W,1,07,1.11,181.2,M,-34.4,M,,*5F
$GPRMC,193252.000,A,4305.1662,N,07740.8735,W,0.00,322.87,280923,,,A*70
$GPGGA,193252.250,4305.1662,N,07740.8735,W,1,07,1.11,181.2,M,-34.4,M,,*59
$GPRMC,193252.500,A,4305.1662,N,07740.8735,W,0.01,83.26,280923,,,A*47
$GPGGA,193252.750,4305.1662,N,07740.8735,W,1,07,1.11,181.2,M,-34.4,M,,*5C
$GPRMC,193253.000,A,4305.1662,N,07740.8735,W,0.01,349.29,280923,,,A*79
$GPGGA,193253.250,4305.1662,N,07740.8735,W,1,07,1.11,181.2,M,-34.4,M,,*58
$GPRMC,193253.500,A,4305.1662,N,07740.8735,W,0.00,51.87,280923,,,A*43
$GPGGA,193253.750,4305.1662,N,07740.8735,W,1,07,1.11,181.2,M,-34.4,M,,*5D
$GPRMC,193254.000,A,4305.1662,N,07740.8735,W,0.01,174.00,280923,,,A*79
$GPGGA,193254.250,4305.1662,N,07740.8735,W,1,07,1.11,181.2,M,-34.4,M,,*5F
$GPRMC,193254.500,A,4305.1662,N,07740.8735,W,0.00,300.56,280923,,,A*7F
$GPGGA,193254.750,4305.1663,N,07740.8735,W,1,07,1.11,181.2,M,-34.4,M,,*5B
$GPRMC,193255.000,A,4305.1663,N,07740.8735,W,0.01,74.14,280923,,,A*4D
$GPGGA,193255.250,4305.1663,N,07740.8735,W,1,07,1.11,181.2,M,-34.4,M,,*5F
$GPRMC,193255.500,A,4305.1663,N,07740.8735,W,0.01,104.97,280923,,,A*75
$GPGGA,193255.750,4305.1663,N,07740.8735,W,1,07,1.11,181.2,M,-34.4,M,,*5A
$GPRMC,193256.000,A,4305.1663,N,07740.8735,W,0.00,97.47,280923,,,A*44
$GPGGA,193256.250,4305.1663,N,07740.8735,W,1,07,1.11,181.2,M,-34.4,M,,*5C
$GPRMC,193256.500,A,4305.1663,N,07740.8735,W,0.00,310.54,280923,,,A*7F
$GPGGA,193256.750,4305.1663,N,07740.8735,W,1,07,1.11,181.2,M,-34.4,M,,*59
$GPRMC,193257.000,A,4305.1663,N,07740.8735,W,0.00,168.91,280923,,,A*7F
$GPGGA,193257.250,4305.1663,N,07740.8735,W,1,07,1.11,181.2,M,-34.4,M,,*5D
$GPRMC,193257.500,A,4305.1663,N,07740.8735,W,0.00,29.65,280923,,,A*45
$GPGGA,193257.750,4305.1663,N,07740.8735,W,1,07,1.11,181.2,M,-34.4,M,,*58
$GPRMC,193258.000,A,4305.1663,N,07740.8735,W,0.00,179.12,280923,,,A*7B
$GPGGA,193258.250,4305.1663,N,07740.8735,W,1,07,1.11,181.2,M,-34.4,M,,*52
$GPRMC,193258.500,A,4305.1663,N,07740.8735,W,0.00,139.64,280923,,,A*7B
$GPGGA,193258.750,4305.1663,N,07740.8735,W,1,07,1.11,181.2,M,-34.4,M,,*57
$GPRMC,193259.000,A,4305.1663,N,07740.8735,W,0.00,221.98,280923,,,A*76
$GPGGA,193259.250,4305.1663,N,07740.8735,W,1,07,1.11,181.2,M,-34.4,M,,*53
$GPRMC,193259.500,A,4305.1663,N,07740.8735,W,0.00,27.85,280923,,,A*4B
$GPGGA,193259.750,4305.1663,N,07740.8735,W,1,07,1.11,181.2,M,-34.4,M,,*56
$GPRMC,193300.000,A,4305.1663,N,07740.8735,W,0.01,171.50,280923,,,A*78
$GPGGA,193300.250,4305.1663,N,07740.8735,W,1,07,1.11,181.2,M,-34.4,M,,*5E
$GPRMC,193300.500,A,4305.1663,N,07740.8735,W,0.00,50.17,280923,,,A*4D
$GPGGA,193300.750,4305.1663,N,07740.8735,W,1,07,1.11,181.2,M,-34.4,M,,*5B
$GPRMC,193301.000,A,4305.1663,N,07740.8735,W,0.01,239.16,280923,,,A*74
$GPGGA,193301.250,4305.1663,N,07740.8735,W,1,07,1.11,181.2,M,-34.4,M,,*5F
$GPRMC,193301.500,A,4305.1663,N,07740.8735,W,0.00,160.85,280923,,,A*75
$GPGGA,193301.750,4305.1663,N,07740.8735,W,1,07,1.11,181.2,M,-34.4,M,,*5A
$GPRMC,193302.000,A,4305.1662,N,07740.8735,W,0.00,169.50,280923,,,A*73
$GPGGA,193302.250,4305.1662,N,07740.8735,W,1,09,0.96,181.2,M,-34.4,M,,*5D
$GPRMC,193302.500,A,4305.1662,N,07740.8735,W,0.00,59.29,280923,,,A*4A
$GPGGA,193302.750,4305.1662,N,07740.8735,W,1,09,0.96,181.2,M,-34.4,M,,*58
$GPRMC,193303.000,A,4305.1662,N,07740.8735,W,0.00,327.15,280923,,,A*7B
$GPGGA,193303.250,4305.1662,N,07740.8735,W,1,09,0.96,181.2,M,-34.4,M,,*5C
$GPRMC,193303.500,A,4305.1662,N,07740.8735,W,0.01,66.27,280923,,,A*48
$GPGGA,193303.750,4305.1662,N,07740.8735,W,1,09,0.96,181.2,M,-34.4,M,,*59
$GPRMC,193304.000,A,4305.1662,N,07740.8735,W,0.00,0.00,280923,,,A*7E
$GPGGA,193304.250,4305.1662,N,07740.8735,W,1,09,0.96,181.2,M,-34.4,M,,*5B
$GPRMC,193304.500,A,4305.1662,N,07740.8735,W,0.00,105.59,280923,,,A*73
$GPGGA,193304.750,4305.1662,N,07740.8735,W,1,09,0.96,181.1,M,-34.4,M,,*5D
$GPRMC,193305.000,A,4305.1662,N,07740.8735,W,0.00,269.63,280923,,,A*77
$GPGGA,193305.250,4305.1662,N,07740.8735,W,1,09,0.96,181.1,M,-34.4,M,,*59
$GPRMC,193305.500,A,4305.1662,N,07740.8735,W,0.00,43.65,280923,,,A*4E
$GPGGA,193305.750,4305.1662,N,07740.8735,W,1,09,0.96,181.1,M,-34.4,M,,*5C
$GPRMC,193306.000,A,4305.1662,N,07740.8735,W,0.01,44.40,280923,,,A*49
$GPGGA,193306.250,4305.1662,N,07740.8735,W,1,09,0.96,181.1,M,-34.4,M,,*5A
$GPRMC,193306.500,A,4305.1662,N,07740.8735,W,0.05,191.28,280923,,,A*7F
$GPGGA,193306.750,4305.1662,N,07740.8735,W,1,09,0.96,181.1,M,-34.4,M,,*5F
$GPRMC,193307.000,A,4305.1662,N,07740.8735,W,0.14,186.94,280923,,,A*7A
$GPGGA,193307.250,4305.1662,N,07740.8735,W,1,09,0.96,181.1,M,-34.4,M,,*5B
$GPRMC,193307.500,A,4305.1662,N,07740.8735,W,0.63,181.61,280923,,,A*72
$GPGGA,193307.750,4305.1662,N,07740.8735,W,1,09,0.96,181.1,M,-34.4,M,,*5E
$GPRMC,193308.000,A,4305.1661,N,07740.8735,W,1.24,179.81,280923,,,A*70
$GPGGA,193308.250,4305.1661,N,07740.8735,W,1,09,0.96,180.9,M,-34.4,M,,*5E
$GPRMC,193308.500,A,4305.1660,N,07740.8735,W,1.32,176.37,280923,,,A*71
$GPGGA,193308.750,4305.1659,N,07740.8735,W,1,09,0.96,180.8,M,-34.4,M,,*51
$GPRMC,193309.000,A,4305.1658,N,07740.8735,W,1.06,163.27,280923,,,A*7C
$GPGGA,193309.250,4305.1658,N,07740.8735,W,1,09,0.96,180.7,M,-34.4,M,,*5B
$GPRMC,193309.500,A,4305.1657,N,07740.8735,W,1.44,174.10,280923,,,A*72
$GPGGA,193309.750,4305.1656,N,07740.8734,W,1,09,0.96,180.6,M,-34.4,M,,*50
$GPRMC,193310.000,A,4305.1655,N,07740.8734,W,1.68,162.78,280923,,,A*7B
$GPGGA,193310.250,4305.1654,N,07740.8734,W,1,09,0.96,180.4,M,-34.4,M,,*5D
$GPRMC,193310.500,A,4305.1653,N,07740.8733,W,1.91,166.56,280923,,,A*71
$GPGGA,193310.750,4305.1652,N,07740.8733,W,1,09,0.96,180.2,M,-34.4,M,,*5F
$GPRMC,193311.000,A,4305.1651,N,07740.8732,W,1.71,157.80,280923,,,A*71
$GPGGA,193311.250,4305.1650,N,07740.8731,W,1,09,0.96,180.0,M,-34.4,M,,*59
$GPRMC,193311.500,A,4305.1649,N,07740.8731,W,1.66,151.26,280923,,,A*72
$GPGGA,193311.750,4305.1649,N,07740.8730,W,1,09,0.96,179.8,M,-34.4,M,,*5B
$GPRMC,193312.000,A,4305.1648,N,07740.8730,W,1.59,148.17,280923,,,A*72
$GPGGA,193312.250,4305.1647,N,07740.8729,W,1,09,0.96,179.6,M,-34.4,M,,*55
$GPRMC,193312.500,A,4305.1646,N,07740.8729,W,2.10,149.83,280923,,,A*73
$GPGGA,193312.750,4305.1646,N,07740.8727,W,1,09,0.96,179.3,M,-34.4,M,,*5A
$GPRMC,193313.000,A,4305.1645,N,07740.8726,W,2.34,131.82,280923,,,A*73
$GPGGA,193313.250,4305.1644,N,07740.8724,W,1,09,0.96,179.2,M,-34.4,M,,*5E
$GPRMC,193313.500,A,4305.1643,N,07740.8722,W,2.81,125.44,280923,,,A*75
$GPGGA,193313.750,4305.1642,N,07740.8720,W,1,09,0.96,178.9,M,-34.4,M,,*53
$GPRMC,193314.000,A,4305.1642,N,07740.8718,W,2.54,120.40,280923,,,A*76
$GPGGA,193314.250,4305.1641,N,07740.8716,W,1,09,0.96,178.8,M,-34.4,M,,*56
$GPRMC,193314.500,A,4305.1641,N,07740.8715,W,1.65,122.38,280923,,,A*71
$GPGGA,193314.750,4305.1640,N,07740.8714,W,1,09,0.96,178.6,M,-34.4,M,,*5E
$GPRMC,193315.000,A,4305.1641,N,07740.8714,W,0.46,119.05,280923,,,A*72
$GPGGA,193315.250,4305.1641,N,07740.8715,W,1,09,0.96,178.5,M,-34.4,M,,*59
$GPRMC,193315.500,A,4305.1641,N,07740.8716,W,0.32,296.81,280923,,,A*7E
$GPGGA,193315.750,4305.1642,N,07740.8718,W,1,09,0.96,178.4,M,-34.4,M,,*53
$GPRMC,193316.000,A,4305.1643,N,07740.8725,W,2.14,280.68,280923,,,A*7C
$GPGGA,193316.250,4305.1643,N,07740.8727,W,1,09,0.96,178.5,M,-34.4,M,,*59
$GPRMC,193316.500,A,4305.1645,N,07740.8730,W,3.73,293.83,280923,,,A*7C
$GPGGA,193316.750,4305.1646,N,07740.8734,W,1,09,0.96,178.4,M,-34.4,M,,*5A
$GPRMC,193317.000,A,4305.1647,N,07740.8738,W,4.80,289.50,280923,,,A*7C
$GPGGA,193317.250,4305.1648,N,07740.8743,W,1,09,0.96,178.3,M,-34.4,M,,*57
$GPRMC,193317.500,A,4305.1649,N,07740.8748,W,5.56,282.29,280923,,,A*7F
$GPGGA,193317.750,4305.1650,N,07740.8753,W,1,09,0.96,178.2,M,-34.4,M,,*5B
$GPRMC,193318.000,A,4305.1650,N,07740.8758,W,5.93,276.94,280923,,,A*78
$GPGGA,193318.250,4305.1651,N,07740.8763,W,1,09,0.96,178.1,M,-34.4,M,,*50
$GPRMC,193318.500,A,4305.1651,N,07740.8769,W,6.19,270.53,280923,,,A*72
$GPGGA,193318.750,4305.1651,N,07740.8774,W,1,09,0.96,178.0,M,-34.4,M,,*52
$GPRMC,193319.000,A,4305.1651,N,07740.8780,W,6.14,269.04,280923,,,A*76
$GPGGA,193319.250,4305.1651,N,07740.8786,W,1,09,0.96,178.0,M,-34.4,M,,*5B
$GPRMC,193319.500,A,4305.1651,N,07740.8791,W,6.16,268.29,280923,,,A*7F
$GPGGA,193319.750,4305.1650,N,07740.8797,W,1,09,0.96,177.9,M,-34.4,M,,*59
$GPRMC,193320.000,A,4305.1651,N,07740.8802,W,5.64,268.77,280923,,,A*78
$GPGGA,193320.250,4305.1651,N,07740.8807,W,1,09,0.96,177.8,M,-34.4,M,,*50
$GPRMC,193320.500,A,4305.1651,N,07740.8811,W,4.20,274.23,280923,,,A*72
$GPGGA,193320.750,4305.1652,N,07740.8814,W,1,09,0.96,177.6,M,-34.4,M,,*5A
$GPRMC,193321.000,A,4305.1652,N,07740.8817,W,2.90,274.82,280923,,,A*75
$GPGGA,193321.250,4305.1653,N,07740.8819,W,1,09,0.96,177.5,M,-34.4,M,,*51
$GPRMC,193321.500,A,4305.1653,N,07740.8821,W,2.67,277.59,280923,,,A*79
$GPGGA,193321.750,4305.1654,N,07740.8824,W,1,09,0.96,177.5,M,-34.4,M,,*5D
$GPRMC,193322.000,A,4305.1655,N,07740.8827,W,3.39,288.00,280923,,,A*79
$GPGGA,193322.250,4305.1656,N,07740.8831,W,1,09,0.96,177.2,M,-34.4,M,,*5A
$GPRMC,193322.500,A,4305.1656,N,07740.8834,W,4.34,288.85,280923,,,A*7A
$GPGGA,193322.750,4305.1657,N,07740.8838,W,1,09,0.96,177.1,M,-34.4,M,,*54
$GPRMC,193323.000,A,4305.1659,N,07740.8843,W,4.99,293.28,280923,,,A*7B
$GPGGA,193323.250,4305.1661,N,07740.8846,W,1,09,0.96,177.0,M,-34.4,M,,*5D
$GPRMC,193323.500,A,4305.1664,N,07740.8850,W,5.40,310.87,280923,,,A*78
$GPGGA,193323.750,4305.1667,N,07740.8854,W,1,09,0.96,176.9,M,-34.4,M,,*55
$GPRMC,193324.000,A,4305.1671,N,07740.8858,W,6.24,325.47,280923,,,A*7D
$GPGGA,193324.250,4305.1676,N,07740.8860,W,1,09,0.96,176.8,M,-34.4,M,,*51
$GPRMC,193324.500,A,4305.1681,N,07740.8862,W,7.41,342.54,280923,,,A*7F
$GPGGA,193324.750,4305.1687,N,07740.8864,W,1,09,0.96,176.6,M,-34.4,M,,*50
$GPRMC,193325.000,A,4305.1693,N,07740.8865,W,9.01,349.77,280923,,,A*7F
$GPGGA,193325.250,4305.1700,N,07740.8865,W,1,09,0.96,176.4,M,-34.4,M,,*59
$GPRMC,193325.500,A,4305.1707,N,07740.8866,W,10.59,357.64,280923,,,A*4D
$GPGGA,193325.750,4305.1715,N,07740.8865,W,1,09,0.96,176.1,M,-34.4,M,,*5D
$GPRMC,193326.000,A,4305.1724,N,07740.8865,W,11.72,360.00,280923,,,A*47
$GPGGA,193326.250,4305.1733,N,07740.8864,W,1,09,0.96,175.9,M,-34.4,M,,*55
$GPRMC,193326.500,A,4305.1742,N,07740.8863,W,12.68,0.60,280923,,,A*4F
$GPGGA,193326.750,4305.1751,N,07740.8863,W,1,09,0.96,175.6,M,-34.4,M,,*5C
$GPRMC,193327.000,A,4305.1761,N,07740.8863,W,13.61,0.83,280923,,,A*4F
$GPGGA,193327.250,4305.1771,N,07740.8863,W,1,09,0.96,175.3,M,-34.4,M,,*5F
$GPRMC,193327.500,A,4305.1781,N,07740.8863,W,14.14,0.06,280923,,,A*4C
$GPGGA,193327.750,4305.1791,N,07740.8863,W,1,09,0.96,174.9,M,-34.4,M,,*5F
$GPRMC,193328.000,A,4305.1801,N,07740.8863,W,14.73,0.03,280923,,,A*45
$GPGGA,193328.250,4305.1812,N,07740.8863,W,1,09,0.96,174.6,M,-34.4,M,,*5E
$GPRMC,193328.500,A,4305.1822,N,07740.8863,W,15.08,0.55,280923,,,A*4F
$GPGGA,193328.750,4305.1833,N,07740.8864,W,1,09,0.96,174.3,M,-34.4,M,,*5A
$GPRMC,193329.000,A,4305.1843,N,07740.8864,W,15.09,359.62,280923,,,A*41
$GPGGA,193329.250,4305.1854,N,07740.8864,W,1,09,0.96,174.0,M,-34.4,M,,*5C
$GPRMC,193329.500,A,4305.1865,N,07740.8864,W,15.39,359.55,280923,,,A*47
$GPGGA,193329.750,4305.1876,N,07740.8864,W,1,09,0.96,173.6,M,-34.4,M,,*58
$GPRMC,193330.000,A,4305.1887,N,07740.8865,W,15.43,359.16,280923,,,A*4D
$GPGGA,193330.250,4305.1898,N,07740.8865,W,1,09,0.96,173.3,M,-34.4,M,,*51
$GPRMC,193330.500,A,4305.1909,N,07740.8865,W,15.52,358.94,280923,,,A*44
$GPGGA,193330.750,4305.1920,N,07740.8866,W,1,09,0.96,172.9,M,-34.4,M,,*5E
$GPRMC,193331.000,A,4305.1931,N,07740.8866,W,15.60,358.56,280923,,,A*47
$GPGGA,193331.250,4305.1942,N,07740.8866,W,1,09,0.96,172.6,M,-34.4,M,,*51
$GPRMC,193331.500,A,4305.1953,N,07740.8867,W,15.66,358.37,280923,,,A*46
$GPGGA,193331.750,4305.1964,N,07740.8867,W,1,09,0.96,172.3,M,-34.4,M,,*54
$GPRMC,193332.000,A,4305.1975,N,07740.8867,W,15.72,358.23,280923,,,A*44
$GPGGA,193332.250,4305.1986,N,07740.8868,W,1,09,0.96,172.0,M,-34.4,M,,*52
$GPRMC,193332.500,A,4305.1997,N,07740.8868,W,15.76,357.59,280923,,,A*44
$GPGGA,193332.750,4305.2008,N,07740.8869,W,1,09,0.96,171.7,M,-34.4,M,,*5E
$GPRMC,193333.000,A,4305.2019,N,07740.8869,W,15.81,358.54,280923,,,A*47
$GPGGA,193333.250,4305.2030,N,07740.8870,W,1,09,0.96,171.4,M,-34.4,M,,*5A
$GPRMC,193333.500,A,4305.2041,N,07740.8870,W,16.02,357.36,280923,,,A*44
$GPGGA,193333.750,4305.2053,N,07740.8872,W,1,09,0.96,171.1,M,-34.4,M,,*5D
$GPRMC,193334.000,A,4305.2065,N,07740.8873,W,16.78,358.95,280923,,,A*48
$GPGGA,193334.250,4305.2077,N,07740.8874,W,1,09,0.96,170.8,M,-34.4,M,,*57
$GPRMC,193334.500,A,4305.2089,N,07740.8874,W,17.50,358.13,280923,,,A*4D
$GPGGA,193334.750,4305.2102,N,07740.8876,W,1,09,0.96,170.5,M,-34.4,M,,*5E
$GPRMC,193335.000,A,4305.2114,N,07740.8877,W,18.04,357.02,280923,,,A*4E
$GPGGA,193335.250,4305.2126,N,07740.8878,W,1,09,0.96,170.2,M,-34.4,M,,*55
$GPRMC,193335.500,A,4305.2138,N,07740.8879,W,18.00,356.46,280923,,,A*4E
$GPGGA,193335.750,4305.2151,N,07740.8880,W,1,09,0.96,170.0,M,-34.4,M,,*55
$GPRMC,193336.000,A,4305.2164,N,07740.8881,W,18.23,355.62,280923,,,A*42
$GPGGA,193336.250,4305.2177,N,07740.8882,W,1,09,0.96,169.7,M,-34.4,M,,*5A
$GPRMC,193336.500,A,4305.2190,N,07740.8883,W,18.14,354.23,280923,,,A*4E
$GPGGA,193336.750,4305.2203,N,07740.8885,W,1,09,0.96,169.5,M,-34.4,M,,*5A
$GPRMC,193337.000,A,4305.2216,N,07740.8886,W,18.15,353.17,280923,,,A*43
$GPGGA,193337.250,4305.2229,N,07740.8888,W,1,09,0.96,169.2,M,-34.4,M,,*5C
$GPRMC,193337.500,A,4305.2242,N,07740.8890,W,18.12,353.01,280923,,,A*40
$GPGGA,193337.750,4305.2255,N,07740.8891,W,1,09,0.96,169.0,M,-34.4,M,,*58
$GPRMC,193338.000,A,4305.2268,N,07740.8893,W,18.11,352.57,280923,,,A*40
$GPGGA,193336.250,4305.2279,N,07740.8895,W,1,08,1.02,168.9,M,-34.4,M,,*53
$GPRMC,193336.500,A,4305.2289,N,07740.8897,W,17.59,351.66,280923,,,A*42
$GPGGA,193336.750,4305.2299,N,07740.8898,W,1,08,1.02,168.9,M,-34.4,M,,*55
$GPRMC,193337.000,A,4305.2309,N,07740.8899,W,16.26,350.17,280923,,,A*4F
$GPGGA,193337.250,4305.2319,N,07740.8899,W,1,08,1.02,168.9,M,-34.4,M,,*59
$GPRMC,193337.500,A,4305.2329,N,07740.8900,W,14.65,350.97,280923,,,A*44
$GPGGA,193337.750,4305.2337,N,07740.8899,W,1,09,0.96,168.8,M,-34.4,M,,*5C
$GPRMC,193338.000,A,4305.2345,N,07740.8899,W,12.47,351.98,280923,,,A*4D
$GPGGA,193338.250,4305.2352,N,07740.8899,W,1,09,0.96,168.6,M,-34.4,M,,*5B
$GPRMC,193338.500,A,4305.2357,N,07740.8900,W,9.38,353.57,280923,,,A*79
$GPGGA,193338.750,4305.2360,N,07740.8900,W,1,09,0.96,168.4,M,-34.4,M,,*5C
$GPRMC,193339.000,A,4305.2363,N,07740.8900,W,6.84,355.42,280923,,,A*70
$GPGGA,193339.250,4305.2367,N,07740.8901,W,1,09,0.96,168.2,M,-34.4,M,,*58
$GPRMC,193339.500,A,4305.2365,N,07740.8903,W,4.57,357.94,280923,,,A*75
$GPGGA,193339.750,4305.2365,N,07740.8903,W,1,09,0.96,167.9,M,-34.4,M,,*59
$GPRMC,193340.000,A,4305.2362,N,07740.8897,W,4.08,356.31,280923,,,A*71
$GPGGA,193340.250,4305.2360,N,07740.8894,W,1,09,0.96,167.8,M,-34.4,M,,*59
$GPRMC,193340.500,A,4305.2361,N,07740.8893,W,3.23,0.10,280923,,,A*7E
$GPGGA,193340.750,4305.2360,N,07740.8894,W,1,09,0.96,167.6,M,-34.4,M,,*52
$GPRMC,193341.000,A,4305.2361,N,07740.8898,W,1.85,0.10,280923,,,A*7F
$GPGGA,193341.250,4305.2360,N,07740.8901,W,1,09,0.96,167.3,M,-34.4,M,,*5E
$GPRMC,193341.500,A,4305.2360,N,07740.8903,W,0.84,0.10,280923,,,A*78
$GPGGA,193341.750,4305.2359,N,07740.8904,W,1,09,0.96,167.0,M,-34.4,M,,*57
$GPRMC,193342.000,A,4305.2360,N,07740.8905,W,0.59,0.10,280923,,,A*78
$GPGGA,193342.250,4305.2359,N,07740.8907,W,1,09,0.96,166.6,M,-34.4,M,,*55
$GPRMC,193342.500,A,4305.2359,N,07740.8907,W,0.06,0.10,280923,,,A*7F
$GPGGA,193342.750,4305.2359,N,07740.8909,W,1,09,0.96,166.6,M,-34.4,M,,*5E
$GPRMC,193343.000,A,4305.2359,N,07740.8909,W,0.32,0.10,280923,,,A*72
$GPGGA,193343.250,4305.2360,N,07740.8911,W,1,09,0.96,166.9,M,-34.4,M,,*56
$GPRMC,193343.500,A,4305.2361,N,07740.8911,W,1.97,0.10,280923,,,A*7B
$GPGGA,193343.750,4305.2364,N,07740.8911,W,1,09,0.96,166.7,M,-34.4,M,,*59
$GPRMC,193344.000,A,4305.2367,N,07740.8911,W,3.89,3.12,280923,,,A*73
$GPGGA,193344.250,4305.2370,N,07740.8910,W,1,09,0.96,166.7,M,-34.4,M,,*5F
$GPRMC,193344.500,A,4305.2374,N,07740.8911,W,5.92,6.88,280923,,,A*7E
$GPGGA,193344.750,4305.2379,N,07740.8912,W,1,09,0.96,166.6,M,-34.4,M,,*50
$GPRMC,193345.000,A,4305.2385,N,07740.8911,W,7.86,13.11,280923,,,A*47
$GPGGA,193345.250,4305.2391,N,07740.8910,W,1,09,0.96,166.5,M,-34.4,M,,*53
$GPRMC,193345.500,A,4305.2397,N,07740.8907,W,9.89,26.00,280923,,,A*41
$GPGGA,193345.750,4305.2403,N,07740.8903,W,1,09,0.96,166.3,M,-34.4,M,,*5E
$GPRMC,193346.000,A,4305.2410,N,07740.8899,W,11.31,38.41,280923,,,A*79
$GPGGA,193346.250,4305.2416,N,07740.8892,W,1,09,0.96,166.0,M,-34.4,M,,*56
$GPRMC,193346.500,A,4305.2422,N,07740.8884,W,12.50,51.92,280923,,,A*74
$GPGGA,193346.750,4305.2427,N,07740.8874,W,1,09,0.96,165.8,M,-34.4,M,,*52
$GPRMC,193347.000,A,4305.2431,N,07740.8864,W,14.26,63.90,280923,,,A*78
$GPGGA,193347.250,4305.2435,N,07740.8857,W,1,09,0.96,165.6,M,-34.4,M,,*5A
$GPRMC,193347.500,A,4305.2438,N,07740.8845,W,15.78,71.38,280923,,,A*7C
$GPGGA,193347.750,4305.2442,N,07740.8832,W,1,09,0.96,165.3,M,-34.4,M,,*59
$GPRMC,193348.000,A,4305.2446,N,07740.8817,W,17.40,73.52,280923,,,A*7F
$GPGGA,193348.250,4305.2449,N,07740.8800,W,1,09,0.96,165.1,M,-34.4,M,,*5B
$GPRMC,193348.500,A,4305.2453,N,07740.8783,W,18.84,74.61,280923,,,A*7C
$GPGGA,193348.750,4305.2457,N,07740.8765,W,1,09,0.96,164.8,M,-34.4,M,,*55
$GPRMC,193349.000,A,4305.2461,N,07740.8746,W,20.41,75.04,280923,,,A*70
$GPGGA,193349.250,4305.2465,N,07740.8727,W,1,09,0.96,164.6,M,-34.4,M,,*58
$GPRMC,193349.500,A,4305.2469,N,07740.8708,W,21.20,75.12,280923,,,A*76
$GPGGA,193349.750,4305.2473,N,07740.8688,W,1,09,0.96,164.4,M,-34.4,M,,*5C
$GPRMC,193350.000,A,4305.2476,N,07740.8668,W,22.25,75.45,280923,,,A*76
$GPGGA,193350.250,4305.2480,N,07740.8647,W,1,09,0.96,164.2,M,-34.4,M,,*58
$GPRMC,193350.500,A,4305.2484,N,07740.8626,W,22.85,75.94,280923,,,A*72
$GPGGA,193350.750,4305.2488,N,07740.8605,W,1,09,0.96,164.1,M,-34.4,M,,*50
$GPRMC,193351.000,A,4305.2492,N,07740.8583,W,23.47,77.11,280923,,,A*7D
$GPGGA,193351.250,4305.2495,N,07740.8562,W,1,09,0.96,163.9,M,-34.4,M,,*55
$GPRMC,193351.500,A,4305.2499,N,07740.8540,W,23.75,77.56,280923,,,A*7E
$GPGGA,193351.750,4305.2503,N,07740.8517,W,1,09,0.96,163.6,M,-34.4,M,,*53
$GPRMC,193352.000,A,4305.2506,N,07740.8495,W,23.57,78.54,280923,,,A*7B
$GPGGA,193352.250,4305.2510,N,07740.8473,W,1,09,0.96,163.3,M,-34.4,M,,*51
$GPRMC,193352.500,A,4305.2513,N,07740.8452,W,23.32,79.16,280923,,,A*75
$GPGGA,193352.750,4305.2516,N,07740.8430,W,1,09,0.96,163.0,M,-34.4,M,,*56
$GPRMC,193353.000,A,4305.2520,N,07740.8408,W,23.05,79.75,280923,,,A*7F
$GPGGA,193353.250,4305.2523,N,07740.8386,W,1,09,0.96,162.8,M,-34.4,M,,*57
$GPRMC,193353.500,A,4305.2526,N,07740.8364,W,23.22,80.59,280923,,,A*7C
$GPGGA,193353.750,4305.2529,N,07740.8342,W,1,09,0.96,162.6,M,-34.4,M,,*5E
$GPRMC,193354.000,A,4305.2531,N,07740.8320,W,23.59,81.54,280923,,,A*78
$GPGGA,193354.250,4305.2534,N,07740.8297,W,1,09,0.96,162.5,M,-34.4,M,,*5A
$GPRMC,193354.500,A,4305.2536,N,07740.8275,W,23.38,82.33,280923,,,A*7E
$GPGGA,193354.750,4305.2539,N,07740.8253,W,1,09,0.96,162.3,M,-34.4,M,,*5C
$GPRMC,193355.000,A,4305.2541,N,07740.8232,W,23.31,82.79,280923,,,A*7E
$GPGGA,193355.250,4305.2543,N,07740.8210,W,1,09,0.96,162.1,M,-34.4,M,,*50
$GPRMC,193355.500,A,4305.2545,N,07740.8189,W,23.13,83.58,280923,,,A*7E
$GPGGA,193355.750,4305.2547,N,07740.8167,W,1,09,0.96,161.9,M,-34.4,M,,*59
$GPRMC,193356.000,A,4305.2549,N,07740.8145,W,22.91,83.99,280923,,,A*72
$GPGGA,193356.250,4305.2551,N,07740.8124,W,1,09,0.96,161.7,M,-34.4,M,,*51
$GPRMC,193356.500,A,4305.2552,N,07740.8103,W,22.67,85.47,280923,,,A*73
$GPGGA,193356.750,4305.2554,N,07740.8082,W,1,09,0.96,161.5,M,-34.4,M,,*5E
$GPRMC,193357.000,A,4305.2555,N,07740.8061,W,22.26,86.16,280923,,,A*77
$GPGGA,193357.250,4305.2556,N,07740.8041,W,1,09,0.96,161.3,M,-34.4,M,,*51
$GPRMC,193357.500,A,4305.2557,N,07740.8020,W,21.64,86.68,280923,,,A*79
$GPGGA,193357.750,4305.2558,N,07740.8000,W,1,09,0.96,161.2,M,-34.4,M,,*5E
$GPRMC,193358.000,A,4305.2560,N,07740.7980,W,21.50,86.39,280923,,,A*78
$GPGGA,193358.250,4305.2561,N,07740.7960,W,1,09,0.96,161.0,M,-34.4,M,,*5C
$GPRMC,193358.500,A,4305.2563,N,07740.7941,W,20.93,85.57,280923,,,A*76
$GPGGA,193358.750,4305.2564,N,07740.7922,W,1,09,0.96,160.8,M,-34.4,M,,*53
$GPRMC,193359.000,A,4305.2565,N,07740.7902,W,20.30,84.94,280923,,,A*74
$GPGGA,193359.250,4305.2567,N,07740.7884,W,1,09,0.96,160.7,M,-34.4,M,,*56
$GPRMC,193359.500,A,4305.2568,N,07740.7866,W,19.42,84.11,280923,,,A*7D
$GPGGA,193359.750,4305.2570,N,07740.7848,W,1,09,0.96,160.5,M,-34.4,M,,*57
$GPRMC,193400.000,A,4305.2572,N,07740.7831,W,18.82,83.55,280923,,,A*70
$GPGGA,193400.250,4305.2573,N,07740.7813,W,1,09,0.96,160.3,M,-34.4,M,,*52
$GPRMC,193400.500,A,4305.2575,N,07740.7797,W,18.07,84.23,280923,,,A*7A
$GPGGA,193400.750,4305.2576,N,07740.7780,W,1,09,0.96,160.1,M,-34.4,M,,*55
$GPRMC,193401.000,A,4305.2577,N,07740.7764,W,17.29,84.49,280923,,,A*7F
$GPGGA,193401.250,4305.2578,N,07740.7749,W,1,09,0.96,159.9,M,-34.4,M,,*58
$GPRMC,193401.500,A,4305.2580,N,07740.7735,W,16.25,85.17,280923,,,A*71
$GPGGA,193401.750,4305.2580,N,07740.7721,W,1,09,0.96,159.7,M,-34.4,M,,*5A
$GPRMC,193402.000,A,4305.2581,N,07740.7706,W,14.83,86.28,280923,,,A*77
$GPGGA,193402.250,4305.2582,N,07740.7695,W,1,09,0.96,159.5,M,-34.4,M,,*52
$GPRMC,193402.500,A,4305.2583,N,07740.7683,W,12.56,86.04,280923,,,A*7C
$GPGGA,193402.750,4305.2583,N,07740.7674,W,1,09,0.96,159.2,M,-34.4,M,,*5E
$GPRMC,193403.000,A,4305.2583,N,07740.7666,W,9.49,85.77,280923,,,A*40
$GPGGA,193403.250,4305.2583,N,07740.7658,W,1,09,0.96,159.0,M,-34.4,M,,*56
$GPRMC,193403.500,A,4305.2584,N,07740.7652,W,6.85,85.86,280923,,,A*44
$GPGGA,193403.750,4305.2584,N,07740.7647,W,1,09,0.96,158.7,M,-34.4,M,,*5C
$GPRMC,193404.000,A,4305.2583,N,07740.7642,W,4.78,86.13,280923,,,A*4F
$GPGGA,193404.250,4305.2583,N,07740.7639,W,1,09,0.96,158.5,M,-34.4,M,,*52
$GPRMC,193404.500,A,4305.2583,N,07740.7635,W,3.26,84.19,280923,,,A*4E
$GPGGA,193404.750,4305.2583,N,07740.7632,W,1,09,0.96,158.3,M,-34.4,M,,*5A
$GPRMC,193405.000,A,4305.2583,N,07740.7629,W,3.16,86.20,280923,,,A*4C
$GPGGA,193405.250,4305.2582,N,07740.7626,W,1,09,0.96,158.1,M,-34.4,M,,*58
$GPRMC,193405.500,A,4305.2582,N,07740.7623,W,3.12,89.17,280923,,,A*4D
$GPGGA,193405.750,4305.2582,N,07740.7619,W,1,09,0.96,158.0,M,-34.4,M,,*50
$GPRMC,193406.000,A,4305.2581,N,07740.7616,W,3.18,87.11,280923,,,A*4C
$GPGGA,193406.250,4305.2581,N,07740.7613,W,1,09,0.96,157.8,M,-34.4,M,,*58
$GPRMC,193406.500,A,4305.2581,N,07740.7609,W,3.77,89.17,280923,,,A*46
$GPGGA,193406.750,4305.2581,N,07740.7606,W,1,09,0.96,157.8,M,-34.4,M,,*59
$GPRMC,193407.000,A,4305.2582,N,07740.7602,W,5.01,89.34,280923,,,A*4C
$GPGGA,193407.250,4305.2582,N,07740.7597,W,1,09,0.96,157.5,M,-34.4,M,,*58
$GPRMC,193407.500,A,4305.2582,N,07740.7592,W,5.79,85.90,280923,,,A*4E
$GPGGA,193407.750,4305.2583,N,07740.7587,W,1,09,0.96,157.4,M,-34.4,M,,*5C
$GPRMC,193408.000,A,4305.2583,N,07740.7581,W,6.73,83.24,280923,,,A*47
$GPGGA,193408.250,4305.2584,N,07740.7574,W,1,09,0.96,157.2,M,-34.4,M,,*5B
$GPRMC,193408.500,A,4305.2586,N,07740.7567,W,7.78,75.82,280923,,,A*40
$GPGGA,193408.750,4305.2588,N,07740.7559,W,1,09,0.96,157.0,M,-34.4,M,,*5F
$GPRMC,193409.000,A,4305.2590,N,07740.7552,W,8.57,69.90,280923,,,A*49
$GPGGA,193409.250,4305.2593,N,07740.7545,W,1,09,0.96,156.9,M,-34.4,M,,*54
$GPRMC,193409.500,A,4305.2598,N,07740.7536,W,10.07,59.31,280923,,,A*72
$GPGGA,193409.750,4305.2604,N,07740.7528,W,1,09,0.96,156.6,M,-34.4,M,,*58
$GPRMC,193410.000,A,4305.2609,N,07740.7520,W,10.88,52.01,280923,,,A*7C
$GPGGA,193410.250,4305.2615,N,07740.7512,W,1,09,0.96,156.4,M,-34.4,M,,*5E
$GPRMC,193410.500,A,4305.2621,N,07740.7505,W,12.39,38.89,280923,,,A*70
$GPGGA,193410.750,4305.2628,N,07740.7498,W,1,09,0.96,156.1,M,-34.4,M,,*53
$GPRMC,193411.000,A,4305.2637,N,07740.7491,W,13.74,30.67,280923,,,A*7F
$GPGGA,193411.250,4305.2646,N,07740.7487,W,1,09,0.96,155.8,M,-34.4,M,,*5B
$GPRMC,193411.500,A,4305.2656,N,07740.7483,W,14.74,15.50,280923,,,A*7A
$GPGGA,193411.750,4305.2667,N,07740.7480,W,1,09,0.96,155.6,M,-34.4,M,,*54
$GPRMC,193412.000,A,4305.2678,N,07740.7477,W,15.57,4.92,280923,,,A*45
$GPGGA,193412.250,4305.2689,N,07740.7476,W,1,09,0.96,155.3,M,-34.4,M,,*5E
$GPRMC,193412.500,A,4305.2701,N,07740.7475,W,16.64,0.30,280923,,,A*42
$GPGGA,193412.750,4305.2713,N,07740.7475,W,1,09,0.96,155.1,M,-34.4,M,,*58
$GPRMC,193413.000,A,4305.2725,N,07740.7475,W,17.31,358.63,280923,,,A*49
$GPGGA,193413.250,4305.2737,N,07740.7475,W,1,09,0.96,154.9,M,-34.4,M,,*53
$GPRMC,193413.500,A,4305.2749,N,07740.7475,W,17.96,357.21,280923,,,A*42
$GPGGA,193413.750,4305.2762,N,07740.7475,W,1,09,0.96,154.8,M,-34.4,M,,*57
$GPRMC,193414.000,A,4305.2775,N,07740.7476,W,18.86,357.98,280923,,,A*40
$GPGGA,193414.250,4305.2788,N,07740.7477,W,1,09,0.96,154.6,M,-34.4,M,,*5D
$GPRMC,193414.500,A,4305.2801,N,07740.7478,W,19.32,357.92,280923,,,A*43
$GPGGA,193414.750,4305.2814,N,07740.7478,W,1,09,0.96,154.6,M,-34.4,M,,*5D
$GPRMC,193415.000,A,4305.2828,N,07740.7479,W,19.65,357.49,280923,,,A*49
$GPGGA,193415.250,4305.2842,N,07740.7480,W,1,09,0.96,154.6,M,-34.4,M,,*5D
$GPRMC,193415.500,A,4305.2856,N,07740.7481,W,20.29,357.79,280923,,,A*43
$GPGGA,193415.750,4305.2870,N,07740.7481,W,1,09,0.96,154.6,M,-34.4,M,,*58
$GPRMC,193416.000,A,4305.2885,N,07740.7482,W,20.80,358.28,280923,,,A*40
$GPGGA,193416.250,4305.2899,N,07740.7482,W,1,09,0.96,154.4,M,-34.4,M,,*58
$GPRMC,193416.500,A,4305.2914,N,07740.7483,W,21.27,358.72,280923,,,A*4E
$GPGGA,193416.750,4305.2929,N,07740.7483,W,1,09,0.96,154.3,M,-34.4,M,,*51
$GPRMC,193417.000,A,4305.2945,N,07740.7484,W,21.62,359.21,280923,,,A*4F
$GPGGA,193417.250,4305.2960,N,07740.7485,W,1,09,0.96,154.1,M,-34.4,M,,*5C
$GPRMC,193417.500,A,4305.2975,N,07740.7485,W,21.37,359.37,280923,,,A*4F
$GPGGA,193417.750,4305.2990,N,07740.7486,W,1,09,0.96,154.0,M,-34.4,M,,*54
$GPRMC,193418.000,A,4305.3005,N,07740.7486,W,21.10,358.99,280923,,,A*49
$GPGGA,193418.250,4305.3020,N,07740.7487,W,1,09,0.96,153.8,M,-34.4,M,,*53
$GPRMC,193418.500,A,4305.3034,N,07740.7488,W,20.68,359.22,280923,,,A*4F
$GPGGA,193418.750,4305.3049,N,07740.7489,W,1,09,0.96,153.7,M,-34.4,M,,*58
$GPRMC,193419.000,A,4305.3063,N,07740.7489,W,20.45,359.33,280923,,,A*47
$GPGGA,193419.250,4305.3078,N,07740.7490,W,1,09,0.96,153.5,M,-34.4,M,,*54
$GPRMC,193419.500,A,4305.3092,N,07740.7491,W,19.91,359.21,280923,,,A*45
$GPGGA,193419.750,4305.3105,N,07740.7491,W,1,09,0.96,153.4,M,-34.4,M,,*5A
$GPRMC,193420.000,A,4305.3118,N,07740.7492,W,18.44,358.92,280923,,,A*4A
$GPGGA,193420.250,4305.3131,N,07740.7493,W,1,09,0.96,153.2,M,-34.4,M,,*56
$GPRMC,193420.500,A,4305.3143,N,07740.7494,W,16.31,358.77,280923,,,A*40
$GPGGA,193420.750,4305.3154,N,07740.7497,W,1,09,0.96,153.1,M,-34.4,M,,*57
$GPRMC,193421.000,A,4305.3165,N,07740.7499,W,14.62,359.03,280923,,,A*4B
$GPGGA,193421.250,4305.3176,N,07740.7500,W,1,09,0.96,152.9,M,-34.4,M,,*55
$GPRMC,193421.500,A,4305.3185,N,07740.7501,W,13.44,358.99,280923,,,A*41
$GPGGA,193421.750,4305.3194,N,07740.7503,W,1,09,0.96,152.8,M,-34.4,M,,*5E
$GPRMC,193422.000,A,4305.3202,N,07740.7503,W,11.92,359.65,280923,,,A*42
$GPGGA,193422.250,4305.3211,N,07740.7504,W,1,08,1.12,152.7,M,-34.4,M,,*52
$GPRMC,193422.500,A,4305.3218,N,07740.7504,W,10.68,359.17,280923,,,A*4A
$GPGGA,193422.750,4305.3225,N,07740.7504,W,1,08,1.12,152.6,M,-34.4,M,,*51
$GPRMC,193423.000,A,4305.3232,N,07740.7504,W,9.89,359.21,280923,,,A*74
$GPGGA,193423.250,4305.3239,N,07740.7504,W,1,09,0.96,152.5,M,-34.4,M,,*57
$GPRMC,193423.500,A,4305.3245,N,07740.7504,W,9.53,359.36,280923,,,A*70
$GPGGA,193423.750,4305.3252,N,07740.7504,W,1,09,0.96,152.4,M,-34.4,M,,*5E
$GPRMC,193424.000,A,4305.3259,N,07740.7503,W,9.13,359.96,280923,,,A*76
$GPGGA,193424.250,4305.3265,N,07740.7503,W,1,09,0.96,152.3,M,-34.4,M,,*58
$GPRMC,193424.500,A,4305.3271,N,07740.7503,W,8.88,358.75,280923,,,A*76
$GPGGA,193424.750,4305.3277,N,07740.7503,W,1,08,1.11,152.2,M,-34.4,M,,*50
$GPRMC,193425.000,A,4305.3283,N,07740.7503,W,8.48,359.83,280923,,,A*7B
$GPGGA,193425.250,4305.3288,N,07740.7503,W,1,08,1.11,152.1,M,-34.4,M,,*57
$GPRMC,193425.500,A,4305.3294,N,07740.7504,W,7.52,358.27,280923,,,A*74
$GPGGA,193425.750,4305.3299,N,07740.7504,W,1,08,1.11,152.1,M,-34.4,M,,*55
$GPRMC,193426.000,A,4305.3303,N,07740.7504,W,6.03,358.86,280923,,,A*73
$GPGGA,193426.250,4305.3307,N,07740.7504,W,1,08,1.12,152.0,M,-34.4,M,,*57
$GPRMC,193426.500,A,4305.3311,N,07740.7504,W,5.15,0.83,280923,,,A*7A
$GPGGA,193426.750,4305.3314,N,07740.7504,W,1,09,0.96,152.0,M,-34.4,M,,*5C
$GPRMC,193427.000,A,4305.3317,N,07740.7505,W,4.73,359.92,280923,,,A*77
$GPGGA,193427.250,4305.3320,N,07740.7505,W,1,08,1.11,152.0,M,-34.4,M,,*51
$GPRMC,193427.500,A,4305.3323,N,07740.7505,W,4.56,0.36,280923,,,A*73
$GPGGA,193427.750,4305.3326,N,07740.7505,W,1,08,1.11,152.0,M,-34.4,M,,*52
$GPRMC,193428.000,A,4305.3330,N,07740.7505,W,5.05,0.54,280923,,,A*78
$GPGGA,193428.250,4305.3333,N,07740.7506,W,1,08,1.11,151.9,M,-34.4,M,,*55
$GPRMC,193428.500,A,4305.3336,N,07740.7507,W,5.38,359.87,280923,,,A*76
$GPGGA,193428.750,4305.3338,N,07740.7508,W,1,08,1.11,151.8,M,-34.4,M,,*54
$GPRMC,193429.000,A,4305.3341,N,07740.7508,W,4.77,359.77,280923,,,A*78
$GPGGA,193429.250,4305.3344,N,07740.7509,W,1,08,1.11,151.7,M,-34.4,M,,*55
$GPRMC,193429.500,A,4305.3346,N,07740.7510,W,3.25,356.18,280923,,,A*75
$GPGGA,193429.750,4305.3348,N,07740.7510,W,1,09,0.96,151.7,M,-34.4,M,,*5B
$GPRMC,193430.000,A,4305.3349,N,07740.7510,W,1.77,356.18,280923,,,A*72
$GPGGA,193430.250,4305.3351,N,07740.7510,W,1,09,0.96,151.6,M,-34.4,M,,*5F
$GPRMC,193430.500,A,4305.3351,N,07740.7510,W,1.25,356.18,280923,,,A*79
$GPGGA,193430.750,4305.3352,N,07740.7510,W,1,09,0.96,151.5,M,-34.4,M,,*5A
$GPRMC,193431.000,A,4305.3352,N,07740.7510,W,1.00,356.18,280923,,,A*79
$GPGGA,193431.250,4305.3352,N,07740.7510,W,1,09,0.96,151.5,M,-34.4,M,,*5E
$GPRMC,193431.500,A,4305.3352,N,07740.7509,W,0.77,356.18,280923,,,A*75
$GPGGA,193431.750,4305.3352,N,07740.7508,W,1,09,0.96,151.4,M,-34.4,M,,*53
$GPRMC,193432.000,A,4305.3353,N,07740.7508,W,0.56,356.18,280923,,,A*70
$GPGGA,193432.250,4305.3353,N,07740.7507,W,1,09,0.96,151.4,M,-34.4,M,,*5B
$GPRMC,193432.500,A,4305.3352,N,07740.7506,W,0.47,356.18,280923,,,A*7A
$GPGGA,193432.750,4305.3352,N,07740.7505,W,1,09,0.96,151.4,M,-34.4,M,,*5D
$GPRMC,193433.000,A,4305.3352,N,07740.7504,W,0.40,59.46,280923,,,A*4C
$GPGGA,193433.250,4305.3352,N,07740.7504,W,1,09,0.96,151.4,M,-34.4,M,,*58
$GPRMC,193433.500,A,4305.3352,N,07740.7504,W,0.34,56.78,280923,,,A*48
$GPGGA,193433.750,4305.3352,N,07740.7503,W,1,09,0.96,151.4,M,-34.4,M,,*5A
$GPRMC,193434.000,A,4305.3352,N,07740.7503,W,0.41,27.78,280923,,,A*49
$GPGGA,193434.250,4305.3352,N,07740.7503,W,1,09,0.96,151.4,M,-34.4,M,,*58
$GPRMC,193434.500,A,4305.3353,N,07740.7503,W,0.94,359.33,280923,,,A*70
$GPGGA,193434.750,4305.3353,N,07740.7503,W,1,09,0.96,151.4,M,-34.4,M,,*5C
$GPRMC,193435.000,A,4305.3354,N,07740.7503,W,2.42,359.33,280923,,,A*7A
$GPGGA,193435.250,4305.3358,N,07740.7502,W,1,09,0.96,151.4,M,-34.4,M,,*52
$GPRMC,193435.500,A,4305.3361,N,07740.7501,W,4.10,356.35,280923,,,A*73
$GPGGA,193435.750,4305.3365,N,07740.7501,W,1,09,0.96,151.3,M,-34.4,M,,*5D
$GPRMC,193436.000,A,4305.3370,N,07740.7501,W,4.91,353.90,280923,,,A*76
$GPGGA,193436.250,4305.3376,N,07740.7499,W,1,09,0.96,151.3,M,-34.4,M,,*59
$GPRMC,193436.500,A,4305.3382,N,07740.7499,W,5.99,347.83,280923,,,A*70
$GPGGA,193436.750,4305.3389,N,07740.7502,W,1,09,0.96,151.2,M,-34.4,M,,*5E
$GPRMC,193437.000,A,4305.3396,N,07740.7505,W,7.86,339.57,280923,,,A*79
$GPGGA,193437.250,4305.3403,N,07740.7511,W,1,09,0.96,151.1,M,-34.4,M,,*5E
$GPRMC,193437.500,A,4305.3409,N,07740.7516,W,9.78,330.83,280923,,,A*70
$GPGGA,193437.750,4305.3415,N,07740.7521,W,1,09,0.96,150.9,M,-34.4,M,,*56
$GPRMC,193438.000,A,4305.3421,N,07740.7527,W,10.29,319.62,280923,,,A*4A
$GPGGA,193438.250,4305.3427,N,07740.7535,W,1,09,0.96,150.8,M,-34.4,M,,*59
$GPRMC,193438.500,A,4305.3433,N,07740.7544,W,11.24,313.09,280923,,,A*42
$GPGGA,193438.750,4305.3437,N,07740.7553,W,1,09,0.96,150.8,M,-34.4,M,,*5D
$GPRMC,193439.000,A,4305.3442,N,07740.7562,W,11.67,306.88,280923,,,A*4E
$GPGGA,193439.250,4305.3444,N,07740.7576,W,1,09,0.96,150.7,M,-34.4,M,,*55
$GPRMC,193439.500,A,4305.3447,N,07740.7590,W,13.12,291.51,280923,,,A*48
$GPGGA,193439.750,4305.3449,N,07740.7603,W,1,09,0.96,150.6,M,-34.4,M,,*5D
$GPRMC,193440.000,A,4305.3452,N,07740.7617,W,13.89,284.40,280923,,,A*4D
$GPGGA,193440.250,4305.3454,N,07740.7632,W,1,09,0.96,150.5,M,-34.4,M,,*5B
$GPRMC,193440.500,A,4305.3455,N,07740.7647,W,14.81,278.34,280923,,,A*45
$GPGGA,193440.750,4305.3456,N,07740.7663,W,1,09,0.96,150.4,M,-34.4,M,,*59
$GPRMC,193441.000,A,4305.3456,N,07740.7678,W,15.72,274.22,280923,,,A*48
$GPGGA,193441.250,4305.3454,N,07740.7699,W,1,09,0.96,150.4,M,-34.4,M,,*5A
$GPRMC,193441.500,A,4305.3454,N,07740.7718,W,18.44,268.07,280923,,,A*4A
$GPGGA,193441.750,4305.3453,N,07740.7736,W,1,09,0.96,150.4,M,-34.4,M,,*5C
$GPRMC,193442.000,A,4305.3452,N,07740.7754,W,18.94,265.96,280923,,,A*4A
$GPGGA,193442.250,4305.3451,N,07740.7774,W,1,09,0.96,150.5,M,-34.4,M,,*5F
$GPRMC,193442.500,A,4305.3450,N,07740.7793,W,19.81,264.96,280923,,,A*42
$GPGGA,193442.750,4305.3449,N,07740.7813,W,1,09,0.96,150.4,M,-34.4,M,,*5C
$GPRMC,193443.000,A,4305.3448,N,07740.7833,W,20.39,265.37,280923,,,A*49
$GPGGA,193443.250,4305.3447,N,07740.7853,W,1,09,0.96,150.4,M,-34.4,M,,*52
$GPRMC,193443.500,A,4305.3446,N,07740.7873,W,20.98,266.56,280923,,,A*49
$GPGGA,193443.750,4305.3445,N,07740.7894,W,1,09,0.96,150.5,M,-34.4,M,,*5F
$GPRMC,193444.000,A,4305.3445,N,07740.7915,W,21.56,267.35,280923,,,A*4E
$GPGGA,193444.250,4305.3444,N,07740.7936,W,1,09,0.96,150.6,M,-34.4,M,,*56
$GPRMC,193444.500,A,4305.3443,N,07740.7958,W,22.17,267.08,280923,,,A*4C
$GPGGA,193444.750,4305.3443,N,07740.7980,W,1,09,0.96,150.7,M,-34.4,M,,*58
$GPRMC,193445.000,A,4305.3443,N,07740.8002,W,22.25,267.77,280923,,,A*48
$GPGGA,193445.250,4305.3443,N,07740.8024,W,1,09,0.96,150.8,M,-34.4,M,,*5B
$GPRMC,193445.500,A,4305.3443,N,07740.8046,W,22.30,268.35,280923,,,A*40
$GPGGA,193445.750,4305.3443,N,07740.8068,W,1,08,1.11,150.9,M,-34.4,M,,*58
$GPRMC,193446.000,A,4305.3443,N,07740.8089,W,22.29,268.72,280923,,,A*4E
$GPGGA,193446.250,4305.3443,N,07740.8110,W,1,08,1.11,150.9,M,-34.4,M,,*50
$GPRMC,193446.500,A,4305.3443,N,07740.8131,W,21.64,269.10,280923,,,A*46
$GPGGA,193446.750,4305.3443,N,07740.8153,W,1,09,0.96,151.0,M,-34.4,M,,*55
$GPRMC,193447.000,A,4305.3444,N,07740.8174,W,21.41,269.27,280923,,,A*47
$GPGGA,193447.250,4305.3444,N,07740.8194,W,1,08,1.11,150.9,M,-34.4,M,,*5A
$GPRMC,193447.500,A,4305.3445,N,07740.8215,W,21.00,269.95,280923,,,A*4B
$GPGGA,193447.750,4305.3445,N,07740.8235,W,1,08,1.11,150.8,M,-34.4,M,,*57
$GPRMC,193448.000,A,4305.3445,N,07740.8255,W,20.69,269.92,280923,,,A*4C
$GPGGA,193448.250,4305.3445,N,07740.8275,W,1,08,1.11,150.9,M,-34.4,M,,*58
$GPRMC,193448.500,A,4305.3445,N,07740.8295,W,20.41,269.35,280923,,,A*42
$GPGGA,193448.750,4305.3445,N,07740.8314,W,1,09,0.96,150.9,M,-34.4,M,,*54
$GPRMC,193449.000,A,4305.3445,N,07740.8334,W,20.27,269.59,280923,,,A*46
$GPGGA,193449.250,4305.3445,N,07740.8353,W,1,09,0.96,151.0,M,-34.4,M,,*5B
$GPRMC,193449.500,A,4305.3445,N,07740.8372,W,19.64,269.96,280923,,,A*4F
$GPGGA,193449.750,4305.3446,N,07740.8391,W,1,08,1.11,151.1,M,-34.4,M,,*5D
$GPRMC,193450.000,A,4305.3446,N,07740.8410,W,19.58,270.47,280923,,,A*49
$GPGGA,193450.250,4305.3446,N,07740.8429,W,1,08,1.11,151.1,M,-34.4,M,,*54
$GPRMC,193450.500,A,4305.3447,N,07740.8447,W,19.16,272.07,280923,,,A*43
$GPGGA,193450.750,4305.3447,N,07740.8465,W,1,09,0.96,151.1,M,-34.4,M,,*57
$GPRMC,193451.000,A,4305.3448,N,07740.8484,W,19.01,271.43,280923,,,A*42
$GPGGA,193451.250,4305.3448,N,07740.8502,W,1,09,0.96,151.2,M,-34.4,M,,*5F
$GPRMC,193451.500,A,4305.3448,N,07740.8520,W,18.92,271.01,280923,,,A*45
$GPGGA,193451.750,4305.3449,N,07740.8537,W,1,09,0.96,151.4,M,-34.4,M,,*5B
$GPRMC,193452.000,A,4305.3449,N,07740.8555,W,18.55,271.27,280923,,,A*4F
$GPGGA,193452.250,4305.3450,N,07740.8573,W,1,09,0.96,151.4,M,-34.4,M,,*55
$GPRMC,193452.500,A,4305.3451,N,07740.8590,W,18.18,273.70,280923,,,A*43
$GPGGA,193452.750,4305.3452,N,07740.8607,W,1,08,1.11,151.4,M,-34.4,M,,*5D
$GPRMC,193453.000,A,4305.3453,N,07740.8624,W,17.94,274.37,280923,,,A*46
$GPGGA,193453.250,4305.3454,N,07740.8641,W,1,09,0.96,151.4,M,-34.4,M,,*52
$GPRMC,193453.500,A,4305.3456,N,07740.8658,W,17.44,276.41,280923,,,A*43
$GPGGA,193453.750,4305.3457,N,07740.8675,W,1,08,1.11,151.3,M,-34.4,M,,*5B
$GPRMC,193454.000,A,4305.3459,N,07740.8692,W,17.19,277.20,280923,,,A*46
$GPGGA,193454.250,4305.3462,N,07740.8710,W,1,09,0.96,151.3,M,-34.4,M,,*52
$GPRMC,193454.500,A,4305.3464,N,07740.8727,W,17.00,278.68,280923,,,A*49
$GPGGA,193454.750,4305.3467,N,07740.8744,W,1,09,0.96,151.3,M,-34.4,M,,*53
$GPRMC,193455.000,A,4305.3470,N,07740.8760,W,16.76,280.90,280923,,,A*4B
$GPGGA,193455.250,4305.3473,N,07740.8777,W,1,09,0.96,151.3,M,-34.4,M,,*52
$GPRMC,193455.500,A,4305.3477,N,07740.8795,W,16.66,283.32,280923,,,A*49
$GPGGA,193455.750,4305.3481,N,07740.8812,W,1,09,0.96,151.1,M,-34.4,M,,*54
$GPRMC,193456.000,A,4305.3484,N,07740.8829,W,16.52,285.10,280923,,,A*4A
$GPGGA,193456.250,4305.3488,N,07740.8845,W,1,09,0.96,151.0,M,-34.4,M,,*58
$GPRMC,193456.500,A,4305.3492,N,07740.8860,W,16.24,287.83,280923,,,A*4C
$GPGGA,193456.750,4305.3496,N,07740.8875,W,1,09,0.96,151.0,M,-34.4,M,,*51
$GPRMC,193457.000,A,4305.3500,N,07740.8889,W,15.23,290.88,280923,,,A*4C
$GPGGA,193457.250,4305.3503,N,07740.8901,W,1,09,0.96,151.0,M,-34.4,M,,*5A
$GPRMC,193457.500,A,4305.3507,N,07740.8913,W,13.67,292.75,280923,,,A*4A
$GPGGA,193457.750,4305.3510,N,07740.8924,W,1,09,0.96,151.0,M,-34.4,M,,*5A
$GPRMC,193458.000,A,4305.3513,N,07740.8934,W,12.24,294.30,280923,,,A*41
$GPGGA,193458.250,4305.3515,N,07740.8943,W,1,09,0.96,151.0,M,-34.4,M,,*54
$GPRMC,193458.500,A,4305.3517,N,07740.8952,W,9.95,295.55,280923,,,A*72
$GPGGA,193458.750,4305.3520,N,07740.8959,W,1,09,0.96,151.1,M,-34.4,M,,*5D
$GPRMC,193459.000,A,4305.3522,N,07740.8965,W,8.14,297.62,280923,,,A*7A
$GPGGA,193459.250,4305.3524,N,07740.8970,W,1,09,0.96,151.1,M,-34.4,M,,*56
$GPRMC,193459.500,A,4305.3525,N,07740.8974,W,6.35,300.24,280923,,,A*78
$GPGGA,193459.750,4305.3526,N,07740.8979,W,1,09,0.96,151.0,M,-34.4,M,,*59
$GPRMC,193500.000,A,4305.3527,N,07740.8982,W,5.21,301.91,280923,,,A*72
$GPGGA,193500.250,4305.3528,N,07740.8985,W,1,09,0.96,150.9,M,-34.4,M,,*54
$GPRMC,193500.500,A,4305.3529,N,07740.8987,W,4.00,309.88,280923,,,A*7E
$GPGGA,193500.750,4305.3530,N,07740.8989,W,1,09,0.96,150.9,M,-34.4,M,,*54
$GPRMC,193501.000,A,4305.3530,N,07740.8990,W,2.89,312.05,280923,,,A*7C
$GPGGA,193501.250,4305.3531,N,07740.8991,W,1,09,0.96,150.9,M,-34.4,M,,*58
$GPRMC,193501.500,A,4305.3531,N,07740.8991,W,1.73,312.05,280923,,,A*7F
$GPGGA,193501.750,4305.3530,N,07740.8990,W,1,09,0.96,150.7,M,-34.4,M,,*53
$GPRMC,193502.000,A,4305.3529,N,07740.8990,W,0.82,312.05,280923,,,A*7E
$GPGGA,193502.250,4305.3527,N,07740.8989,W,1,09,0.96,150.5,M,-34.4,M,,*59
$GPRMC,193502.500,A,4305.3527,N,07740.8987,W,0.54,312.05,280923,,,A*78
$GPGGA,193502.750,4305.3527,N,07740.8986,W,1,09,0.96,150.3,M,-34.4,M,,*55
$GPRMC,193503.000,A,4305.3526,N,07740.8984,W,0.44,312.05,280923,,,A*7F
$GPGGA,193503.250,4305.3526,N,07740.8983,W,1,09,0.96,150.1,M,-34.4,M,,*57
$GPRMC,193503.500,A,4305.3526,N,07740.8982,W,0.42,312.05,280923,,,A*7A
$GPGGA,193503.750,4305.3526,N,07740.8981,W,1,09,0.96,149.9,M,-34.4,M,,*50
$GPRMC,193504.000,A,4305.3526,N,07740.8980,W,0.34,312.05,280923,,,A*7B
$GPGGA,193504.250,4305.3526,N,07740.8979,W,1,09,0.96,149.7,M,-34.4,M,,*5B
$GPRMC,193504.500,A,4305.3526,N,07740.8978,W,0.24,312.05,280923,,,A*78
$GPGGA,193504.750,4305.3525,N,07740.8978,W,1,09,0.96,149.6,M,-34.4,M,,*5D
$GPRMC,193505.000,A,4305.3525,N,07740.8977,W,0.13,312.05,280923,,,A*74
$GPGGA,193505.250,4305.3525,N,07740.8977,W,1,09,0.96,149.6,M,-34.4,M,,*56
$GPRMC,193505.500,A,4305.3525,N,07740.8977,W,0.06,312.05,280923,,,A*75
$GPGGA,193505.750,4305.3525,N,07740.8977,W,1,09,0.96,149.6,M,-34.4,M,,*53
$GPRMC,193506.000,A,4305.3525,N,07740.8977,W,0.06,312.05,280923,,,A*73
$GPGGA,193506.250,4305.3525,N,07740.8977,W,1,09,0.96,149.5,M,-34.4,M,,*56
$GPRMC,193506.500,A,4305.3525,N,07740.8977,W,0.04,312.05,280923,,,A*74
$GPGGA,193506.750,4305.3525,N,07740.8977,W,1,09,0.96,149.5,M,-34.4,M,,*53
$GPRMC,193507.000,A,4305.3525,N,07740.8977,W,0.03,312.05,280923,,,A*77
$GPGGA,193507.250,4305.3525,N,07740.8977,W,1,09,0.96,149.5,M,-34.4,M,,*57
$GPRMC,193507.500,A,4305.3525,N,07740.8977,W,0.01,312.05,280923,,,A*70
$GPGGA,193507.750,4305.3525,N,07740.8977,W,1,09,0.96,149.5,M,-34.4,M,,*52
$GPRMC,193508.000,A,4305.3525,N,07740.8977,W,0.04,312.05,280923,,,A*7F
$GPGGA,193508.250,4305.3525,N,07740.8977,W,1,09,0.96,149.5,M,-34.4,M,,*58
$GPRMC,193508.500,A,4305.3525,N,07740.8977,W,0.02,312.05,280923,,,A*7C
$GPGGA,193508.750,4305.3525,N,07740.8977,W,1,09,0.96,149.5,M,-34.4,M,,*5D
$GPRMC,193509.000,A,4305.3525,N,07740.8977,W,0.05,312.05,280923,,,A*7F
$GPGGA,193509.250,4305.3525,N,07740.8977,W,1,09,0.96,149.5,M,-34.4,M,,*59
$GPRMC,193509.500,A,4305.3525,N,07740.8977,W,0.02,312.05,280923,,,A*7D
$GPGGA,193509.750,4305.3525,N,07740.8977,W,1,09,0.96,149.5,M,-34.4,M,,*5C
$GPRMC,193510.000,A,4305.3525,N,07740.8977,W,0.01,312.05,280923,,,A*73
$GPGGA,193510.250,4305.3525,N,07740.8977,W,1,09,0.96,149.5,M,-34.4,M,,*51
$GPRMC,193510.500,A,4305.3525,N,07740.8977,W,0.02,312.05,280923,,,A*75
$GPGGA,193510.750,4305.3525,N,07740.8977,W,1,09,0.96,149.5,M,-34.4,M,,*54
$GPRMC,193511.000,A,4305.3525,N,07740.8977,W,0.02,312.05,280923,,,A*71
$GPGGA,193511.250,4305.3525,N,07740.8977,W,1,09,0.96,149.5,M,-34.4,M,,*50
$GPRMC,193511.500,A,4305.3525,N,07740.8977,W,0.03,312.05,280923,,,A*75
$GPGGA,193511.750,4305.3525,N,07740.8977,W,1,09,0.96,149.5,M,-34.4,M,,*55
$GPRMC,193512.000,A,4305.3525,N,07740.8977,W,0.01,312.05,280923,,,A*71
$GPGGA,193512.250,4305.3525,N,07740.8977,W,1,09,0.96,149.5,M,-34.4,M,,*53
$GPRMC,193512.500,A,4305.3525,N,07740.8977,W,0.01,312.05,280923,,,A*74
$GPGGA,193512.750,4305.3525,N,07740.8977,W,1,09,0.96,149.5,M,-34.4,M,,*56
$GPRMC,193513.000,A,4305.3525,N,07740.8977,W,0.03,312.05,280923,,,A*72
$GPGGA,193513.250,4305.3525,N,07740.8977,W,1,09,0.96,149.5,M,-34.4,M,,*52
$GPRMC,193513.500,A,4305.3525,N,07740.8977,W,0.03,312.05,280923,,,A*77
$GPGGA,193513.750,4305.3525,N,07740.8977,W,1,09,0.96,149.5,M,-34.4,M,,*57
$GPRMC,193514.000,A,4305.3525,N,07740.8977,W,0.03,312.05,280923,,,A*75
$GPGGA,193514.250,4305.3525,N,07740.8977,W,1,09,0.96,149.5,M,-34.4,M,,*55
$GPRMC,193514.500,A,4305.3525,N,07740.8977,W,0.02,312.05,280923,,,A*71
$GPGGA,193514.750,4305.3525,N,07740.8977,W,1,09,0.96,149.5,M,-34.4,M,,*50
$GPRMC,193515.000,A,4305.3525,N,07740.8977,W,0.04,312.05,280923,,,A*73
$GPGGA,193515.250,4305.3525,N,07740.8977,W,1,09,0.96,149.5,M,-34.4,M,,*54
$GPRMC,193515.500,A,4305.3525,N,07740.8977,W,0.02,312.05,280923,,,A*70
$GPGGA,193515.750,4305.3525,N,07740.8977,W,1,09,0.96,149.5,M,-34.4,M,,*51
$GPRMC,193516.000,A,4305.3525,N,07740.8977,W,0.01,312.05,280923,,,A*75
$GPGGA,193516.250,4305.3525,N,07740.8977,W,1,09,0.96,149.5,M,-34.4,M,,*57
$GPRMC,193516.500,A,4305.3525,N,07740.8977,W,0.01,312.05,280923,,,A*70
$GPGGA,193516.750,4305.3525,N,07740.8977,W,1,09,0.96,149.5,M,-34.4,M,,*52
$GPRMC,193517.000,A,4305.3525,N,07740.8977,W,0.01,312.05,280923,,,A*74
$GPGGA,193517.250,4305.3525,N,07740.8977,W,1,09,0.96,149.5,M,-34.4,M,,*56
$GPRMC,193517.500,A,4305.3525,N,07740.8977,W,0.02,312.05,280923,,,A*72
$GPGGA,193517.750,4305.3525,N,07740.8977,W,1,09,0.96,149.5,M,-34.4,M,,*53
$GPRMC,193518.000,A,4305.3525,N,07740.8977,W,0.00,312.05,280923,,,A*7A
$GPGGA,193518.250,4305.3525,N,07740.8977,W,1,09,0.96,149.5,M,-34.4,M,,*59
$GPRMC,193518.500,A,4305.3525,N,07740.8977,W,0.01,312.05,280923,,,A*7E
$GPGGA,193518.750,4305.3525,N,07740.8977,W,1,09,0.96,149.5,M,-34.4,M,,*5C
$GPRMC,193519.000,A,4305.3525,N,07740.8977,W,0.01,312.05,280923,,,A*7A
$GPGGA,193519.250,4305.3525,N,07740.8977,W,1,09,0.96,149.5,M,-34.4,M,,*58
$GPRMC,193519.500,A,4305.3525,N,07740.8977,W,0.01,312.05,280923,,,A*7F
$GPGGA,193519.750,4305.3525,N,07740.8977,W,1,09,0.96,149.5,M,-34.4,M,,*5D
$GPRMC,193520.000,A,4305.3525,N,07740.8977,W,0.01,312.05,280923,,,A*70
$GPGGA,193520.250,4305.3525,N,07740.8977,W,1,09,0.96,149.5,M,-34.4,M,,*52
$GPRMC,193520.500,A,4305.3525,N,07740.8977,W,0.01,312.05,280923,,,A*75
$GPGGA,193520.750,4305.3525,N,07740.8977,W,1,09,0.96,149.5,M,-34.4,M,,*57
$GPRMC,193521.000,A,4305.3525,N,07740.8977,W,0.01,312.05,280923,,,A*71
$GPGGA,193521.250,4305.3525,N,07740.8977,W,1,09,0.96,149.5,M,-34.4,M,,*53
$GPRMC,193521.500,A,4305.3525,N,07740.8977,W,0.01,312.05,280923,,,A*74
$GPGGA,193521.750,4305.3525,N,07740.8977,W,1,09,0.96,149.5,M,-34.4,M,,*56
$GPRMC,193522.000,A,4305.3525,N,07740.8977,W,0.00,312.05,280923,,,A*73
$GPGGA,193522.250,4305.3525,N,07740.8977,W,1,09,0.96,149.5,M,-34.4,M,,*50
$GPRMC,193522.500,A,4305.3525,N,07740.8977,W,0.01,312.05,280923,,,A*77
$GPGGA,193522.750,4305.3525,N,07740.8977,W,1,09,0.96,149.5,M,-34.4,M,,*55
$GPRMC,193523.000,A,4305.3525,N,07740.8977,W,0.01,312.05,280923,,,A*73
$GPGGA,193523.250,4305.3525,N,07740.8977,W,1,09,0.96,149.5,M,-34.4,M,,*51
$GPRMC,193523.500,A,4305.3525,N,07740.8977,W,0.01,312.05,280923,,,A*76
$GPGGA,193523.750,4305.3525,N,07740.8977,W,1,09,0.96,149.5,M,-34.4,M,,*54
$GPRMC,193524.000,A,4305.3525,N,07740.8977,W,0.00,312.05,280923,,,A*75
$GPGGA,193524.250,4305.3525,N,07740.8977,W,1,09,0.96,149.5,M,-34.4,M,,*56
$GPRMC,193524.500,A,4305.3525,N,07740.8977,W,0.01,312.05,280923,,,A*71
$GPGGA,193524.750,4305.3525,N,07740.8977,W,1,09,0.96,149.5,M,-34.4,M,,*53
$GPRMC,193525.000,A,4305.3525,N,07740.8977,W,0.01,312.05,280923,,,A*75
$GPGGA,193525.250,4305.3525,N,07740.8977,W,1,09,0.96,149.5,M,-34.4,M,,*57
$GPRMC,193525.500,A,4305.3525,N,07740.8977,W,0.01,312.05,280923,,,A*70
$GPGGA,193525.750,4305.3525,N,07740.8977,W,1,09,0.96,149.5,M,-34.4,M,,*52
$GPRMC,193526.000,A,4305.3525,N,07740.8977,W,0.01,312.05,280923,,,A*76
$GPGGA,193526.250,4305.3525,N,07740.8977,W,1,09,0.96,149.5,M,-34.4,M,,*54
$GPRMC,193526.500,A,4305.3525,N,07740.8977,W,0.02,312.05,280923,,,A*70
$GPGGA,193526.750,4305.3525,N,07740.8977,W,1,09,0.96,149.5,M,-34.4,M,,*51
$GPRMC,193527.000,A,4305.3525,N,07740.8977,W,0.01,312.05,280923,,,A*77
$GPGGA,193527.250,4305.3525,N,07740.8977,W,1,09,0.96,149.5,M,-34.4,M,,*55
$GPRMC,193527.500,A,4305.3525,N,07740.8977,W,0.01,312.05,280923,,,A*72
$GPGGA,193527.750,4305.3525,N,07740.8977,W,1,09,0.96,149.5,M,-34.4,M,,*50
$GPRMC,193528.000,A,4305.3525,N,07740.8977,W,0.01,312.05,280923,,,A*78
$GPGGA,193528.250,4305.3525,N,07740.8977,W,1,09,0.96,149.5,M,-34.4,M,,*5A
$GPRMC,193528.500,A,4305.3525,N,07740.8977,W,0.01,312.05,280923,,,A*7D
$GPGGA,193528.750,4305.3525,N,07740.8977,W,1,09,0.96,149.5,M,-34.4,M,,*5F
$GPRMC,193529.000,A,4305.3525,N,07740.8977,W,0.01,312.05,280923,,,A*79
$GPGGA,193529.250,4305.3525,N,07740.8977,W,1,09,0.96,149.5,M,-34.4,M,,*5B
$GPRMC,193529.500,A,4305.3525,N,07740.8977,W,0.00,312.05,280923,,,A*7D
$GPGGA,193529.750,4305.3525,N,07740.8977,W,1,09,0.96,149.5,M,-34.4,M,,*5E
$GPRMC,193530.000,A,4305.3525,N,07740.8977,W,0.00,312.05,280923,,,A*70
$GPGGA,193530.250,4305.3525,N,07740.8977,W,1,09,0.96,149.5,M,-34.4,M,,*53
$GPRMC,193530.500,A,4305.3525,N,07740.8977,W,0.01,312.05,280923,,,A*74
$GPGGA,193530.750,4305.3525,N,07740.8977,W,1,09,0.96,149.5,M,-34.4,M,,*56
$GPRMC,193531.000,A,4305.3525,N,07740.8977,W,0.00,312.05,280923,,,A*71
$GPGGA,193531.250,4305.3525,N,07740.8977,W,1,09,0.96,149.5,M,-34.4,M,,*52
$GPRMC,193531.500,A,4305.3525,N,07740.8977,W,0.00,312.05,280923,,,A*74
$GPGGA,193531.750,4305.3525,N,07740.8977,W,1,09,0.96,149.5,M,-34.4,M,,*57
$GPRMC,193532.000,A,4305.3525,N,07740.8977,W,0.01,312.05,280923,,,A*73
$GPGGA,193532.250,4305.3525,N,07740.8977,W,1,09,0.96,149.5,M,-34.4,M,,*51
$GPRMC,193532.500,A,4305.3525,N,07740.8977,W,0.00,312.05,280923,,,A*77
$GPGGA,193532.750,4305.3525,N,07740.8977,W,1,09,0.96,149.5,M,-34.4,M,,*54
$GPRMC,193533.000,A,4305.3525,N,07740.8977,W,0.00,312.05,280923,,,A*73
$GPGGA,193533.250,4305.3525,N,07740.8977,W,1,09,0.96,149.5,M,-34.4,M,,*50
$GPRMC,193533.500,A,4305.3525,N,07740.8977,W,0.01,312.05,280923,,,A*77
$GPGGA,193533.750,4305.3525,N,07740.8977,W,1,09,0.96,149.5,M,-34.4,M,,*55
$GPRMC,193534.000,A,4305.3525,N,07740.8977,W,0.01,312.05,280923,,,A*75
$GPGGA,193534.250,4305.3525,N,07740.8977,W,1,09,0.96,149.5,M,-34.4,M,,*57
$GPRMC,193534.500,A,4305.3525,N,07740.8977,W,0.01,312.05,280923,,,A*70
$GPGGA,193534.750,4305.3525,N,07740.8977,W,1,09,0.96,149.5,M,-34.4,M,,*52
$GPRMC,193535.000,A,4305.3525,N,07740.8977,W,0.01,312.05,280923,,,A*74
$GPGGA,193535.250,4305.3525,N,07740.8977,W,1,09,0.96,149.5,M,-34.4,M,,*56
$GPRMC,193535.500,A,4305.3525,N,07740.8977,W,0.00,312.05,280923,,,A*70
$GPGGA,193535.750,4305.3525,N,07740.8977,W,1,09,0.96,149.5,M,-34.4,M,,*53
$GPRMC,193536.000,A,4305.3525,N,07740.8977,W,0.01,312.05,280923,,,A*77
$GPGGA,193536.250,4305.3525,N,07740.8977,W,1,09,0.96,149.5,M,-34.4,M,,*55
$GPRMC,193536.500,A,4305.3525,N,07740.8977,W,0.00,312.05,280923,,,A*73
$GPGGA,193536.750,4305.3525,N,07740.8977,W,1,09,0.96,149.5,M,-34.4,M,,*50
$GPRMC,193537.000,A,4305.3525,N,07740.8977,W,0.01,312.05,280923,,,A*76
$GPGGA,193537.250,4305.3525,N,07740.8977,W,1,09,0.96,149.5,M,-34.4,M,,*54
$GPRMC,193537.500,A,4305.3525,N,07740.8977,W,0.01,312.05,280923,,,A*73
$GPGGA,193537.750,4305.3525,N,07740.8977,W,1,09,0.96,149.5,M,-34.4,M,,*51
$GPRMC,193538.000,A,4305.3525,N,07740.8977,W,0.01,312.05,280923,,,A*79
$GPGGA,193538.250,4305.3525,N,07740.8977,W,1,09,0.96,149.5,M,-34.4,M,,*5B
$GPRMC,193538.500,A,4305.3525,N,07740.8977,W,0.01,312.05,280923,,,A*7C
$GPGGA,193538.750,4305.3525,N,07740.8977,W,1,09,0.96,149.5,M,-34.4,M,,*5E
$GPRMC,193539.000,A,4305.3525,N,07740.8977,W,0.00,312.05,280923,,,A*79
$GPGGA,193539.250,4305.3525,N,07740.8977,W,1,09,0.96,149.5,M,-34.4,M,,*5A
$GPRMC,193539.500,A,4305.3525,N,07740.8977,W,0.00,312.05,280923,,,A*7C
$GPGGA,193539.750,4305.3525,N,07740.8977,W,1,09,0.96,149.5,M,-34.4,M,,*5F
$GPRMC,193540.000,A,4305.3525,N,07740.8977,W,0.01,312.05,280923,,,A*76
$GPGGA,193540.250,4305.3525,N,07740.8977,W,1,09,0.96,149.5,M,-34.4,M,,*54
$GPRMC,193540.500,A,4305.3525,N,07740.8977,W,0.13,312.05,280923,,,A*70
$GPGGA,193540.750,4305.3525,N,07740.8977,W,1,09,0.96,149.5,M,-34.4,M,,*51
$GPRMC,193541.000,A,4305.3525,N,07740.8978,W,1.78,312.05,280923,,,A*77
$GPGGA,193541.250,4305.3526,N,07740.8979,W,1,09,0.96,149.5,M,-34.4,M,,*58
$GPRMC,193541.500,A,4305.3527,N,07740.8981,W,3.26,309.93,280923,,,A*7A
$GPGGA,193541.750,4305.3529,N,07740.8984,W,1,09,0.96,149.5,M,-34.4,M,,*50
$GPRMC,193542.000,A,4305.3531,N,07740.8986,W,3.87,312.64,280923,,,A*75
$GPGGA,193542.250,4305.3533,N,07740.8989,W,1,09,0.96,149.4,M,-34.4,M,,*51
$GPRMC,193542.500,A,4305.3534,N,07740.8991,W,3.76,318.27,280923,,,A*70
$GPGGA,193542.750,4305.3536,N,07740.8994,W,1,09,0.96,149.4,M,-34.4,M,,*5D
$GPRMC,193543.000,A,4305.3538,N,07740.8996,W,3.52,318.92,280923,,,A*77
$GPGGA,193543.250,4305.3540,N,07740.8998,W,1,09,0.96,149.3,M,-34.4,M,,*53
$GPRMC,193543.500,A,4305.3541,N,07740.9000,W,3.02,316.07,280923,,,A*7C
$GPGGA,193543.750,4305.3542,N,07740.9001,W,1,09,0.96,149.3,M,-34.4,M,,*5C
$GPRMC,193544.000,A,4305.3544,N,07740.9003,W,2.50,322.86,280923,,,A*70
$GPGGA,193544.250,4305.3545,N,07740.9004,W,1,09,0.96,149.3,M,-34.4,M,,*5C
$GPRMC,193544.500,A,4305.3546,N,07740.9005,W,1.85,324.48,280923,,,A*7E
$GPGGA,193544.750,4305.3547,N,07740.9006,W,1,09,0.96,149.2,M,-34.4,M,,*58
$GPRMC,193545.000,A,4305.3548,N,07740.9006,W,1.66,323.99,280923,,,A*71
$GPGGA,193545.250,4305.3548,N,07740.9008,W,1,09,0.96,149.2,M,-34.4,M,,*5D
$GPRMC,193545.500,A,4305.3550,N,07740.9009,W,2.12,322.59,280923,,,A*7F
$GPGGA,193545.750,4305.3551,N,07740.9010,W,1,09,0.96,149.2,M,-34.4,M,,*59
$GPRMC,193546.000,A,4305.3553,N,07740.9012,W,3.33,330.40,280923,,,A*79
$GPGGA,193546.250,4305.3556,N,07740.9013,W,1,09,0.96,149.2,M,-34.4,M,,*5B
$GPRMC,193546.500,A,4305.3560,N,07740.9016,W,5.43,336.62,280923,,,A*7F
$GPGGA,193546.750,4305.3564,N,07740.9018,W,1,09,0.96,149.2,M,-34.4,M,,*54
