Vers 81
USE_SERIAL_FEEDBACK=true
DEVELOPMENT_MODE=false
USE_RMC_ONLY=false

$GPRMC,211603.500,A,4305.1630,N,07740.8697,W,0.15,41.10,220923,,,A*44
$GPGGA,211603.750,4305.1631,N,07740.8695,W,1,05,1.21,167.6,M,-34.4,M,,*55
$GPRMC,211604.000,A,4305.1632,N,07740.8694,W,0.21,62.39,220923,,,A*4A
$GPGGA,211604.250,4305.1632,N,07740.8694,W,1,05,1.21,166.9,M,-34.4,M,,*5B
$GPRMC,211604.500,A,4305.1632,N,07740.8695,W,0.13,69.30,220923,,,A*4D
$GPGGA,211604.750,4305.1633,N,07740.8694,W,1,05,1.21,166.4,M,-34.4,M,,*52
$GPRMC,211605.000,A,4305.1633,N,07740.8694,W,0.17,42.58,220923,,,A*4A
$GPGGA,211605.250,4305.1634,N,07740.8694,W,1,05,1.21,166.1,M,-34.4,M,,*54
$GPRMC,211605.500,A,4305.1634,N,07740.8694,W,0.07,352.61,220923,,,A*71
$GPGGA,211605.750,4305.1634,N,07740.8694,W,1,05,1.22,166.0,M,-34.4,M,,*53
$GPRMC,211606.000,A,4305.1634,N,07740.8695,W,0.02,20.62,220923,,,A*46
$GPGGA,211606.250,4305.1633,N,07740.8694,W,1,05,1.21,165.6,M,-34.4,M,,*54
$GPRMC,211606.500,A,4305.1633,N,07740.8694,W,0.07,100.65,220923,,,A*74
$GPGGA,211606.750,4305.1633,N,07740.8693,W,1,05,1.21,165.0,M,-34.4,M,,*50
$GPRMC,211607.000,A,4305.1632,N,07740.8694,W,0.07,181.75,220923,,,A*79
$GPGGA,211607.250,4305.1632,N,07740.8693,W,1,05,1.21,164.6,M,-34.4,M,,*52
$GPRMC,211607.500,A,4305.1632,N,07740.8693,W,0.10,106.59,220923,,,A*7C
$GPGGA,211607.750,4305.1633,N,07740.8692,W,1,05,1.21,164.3,M,-34.4,M,,*52
$GPRMC,211608.000,A,4305.1633,N,07740.8692,W,0.09,99.66,220923,,,A*45
$GPGGA,211608.250,4305.1633,N,07740.8692,W,1,05,1.21,164.0,M,-34.4,M,,*5B
$GPRMC,211608.500,A,4305.1633,N,07740.8692,W,0.08,77.71,220923,,,A*47
$GPGGA,211608.750,4305.1633,N,07740.8692,W,1,05,1.21,163.7,M,-34.4,M,,*5E
$GPRMC,211609.000,A,4305.1633,N,07740.8692,W,0.09,66.59,220923,,,A*48
$GPGGA,211609.250,4305.1633,N,07740.8692,W,1,05,1.21,163.5,M,-34.4,M,,*58
$GPRMC,211609.500,A,4305.1634,N,07740.8692,W,0.17,53.01,220923,,,A*4E
$GPGGA,211609.750,4305.1634,N,07740.8693,W,1,05,1.21,163.4,M,-34.4,M,,*5A
$GPRMC,211610.000,A,4305.1634,N,07740.8693,W,0.07,46.80,220923,,,A*4E
$GPGGA,211610.250,4305.1634,N,07740.8693,W,1,05,1.21,163.2,M,-34.4,M,,*51
$GPRMC,211610.500,A,4305.1634,N,07740.8694,W,0.09,11.49,220923,,,A*45
$GPGGA,211610.750,4305.1634,N,07740.8694,W,1,05,1.22,163.1,M,-34.4,M,,*53
$GPRMC,211611.000,A,4305.1634,N,07740.8694,W,0.08,26.49,220923,,,A*44
$GPGGA,211611.250,4305.1635,N,07740.8695,W,1,05,1.21,163.0,M,-34.4,M,,*55
$GPRMC,211611.500,A,4305.1635,N,07740.8695,W,0.12,34.97,220923,,,A*4A
$GPGGA,211611.750,4305.1635,N,07740.8695,W,1,05,1.21,162.9,M,-34.4,M,,*58
$GPRMC,211612.000,A,4305.1636,N,07740.8695,W,0.12,48.20,220923,,,A*48
$GPGGA,211612.250,4305.1636,N,07740.8695,W,1,05,1.21,162.9,M,-34.4,M,,*5D
$GPRMC,211612.500,A,4305.1636,N,07740.8696,W,0.10,64.22,220923,,,A*40
$GPGGA,211612.750,4305.1636,N,07740.8696,W,1,05,1.21,162.8,M,-34.4,M,,*5A
$GPRMC,211613.000,A,4305.1636,N,07740.8696,W,0.09,60.28,220923,,,A*42
$GPGGA,211613.250,4305.1636,N,07740.8697,W,1,05,1.21,162.6,M,-34.4,M,,*51
$GPRMC,211613.500,A,4305.1636,N,07740.8697,W,0.06,85.83,220923,,,A*43
$GPGGA,211613.750,4305.1636,N,07740.8698,W,1,05,1.21,162.5,M,-34.4,M,,*58
$GPRMC,211614.000,A,4305.1636,N,07740.8698,W,0.06,76.25,220923,,,A*4E
$GPGGA,211614.250,4305.1636,N,07740.8698,W,1,05,1.21,162.4,M,-34.4,M,,*5B
$GPRMC,211614.500,A,4305.1635,N,07740.8699,W,0.03,315.51,220923,,,A*79
$GPGGA,211614.750,4305.1635,N,07740.8699,W,1,05,1.21,162.2,M,-34.4,M,,*5A
$GPRMC,211615.000,A,4305.1635,N,07740.8699,W,0.09,292.52,220923,,,A*7A
$GPGGA,211615.250,4305.1635,N,07740.8700,W,1,05,1.21,162.1,M,-34.4,M,,*5C
$GPRMC,211615.500,A,4305.1635,N,07740.8700,W,0.10,325.36,220923,,,A*79
$GPGGA,211615.750,4305.1635,N,07740.8700,W,1,05,1.21,162.1,M,-34.4,M,,*59
$GPRMC,211616.000,A,4305.1635,N,07740.8700,W,0.08,0.79,220923,,,A*79
$GPGGA,211616.250,4305.1634,N,07740.8701,W,1,05,1.22,162.1,M,-34.4,M,,*5C
$GPRMC,211616.500,A,4305.1634,N,07740.8702,W,0.20,202.63,220923,,,A*7E
$GPGGA,211616.750,4305.1634,N,07740.8702,W,1,05,1.21,162.2,M,-34.4,M,,*5A
$GPRMC,211617.000,A,4305.1634,N,07740.8702,W,0.18,216.14,220923,,,A*74
$GPGGA,211617.250,4305.1634,N,07740.8702,W,1,05,1.21,162.3,M,-34.4,M,,*5F
$GPRMC,211617.500,A,4305.1634,N,07740.8702,W,0.11,245.09,220923,,,A*72
$GPGGA,211617.750,4305.1634,N,07740.8702,W,1,05,1.21,162.5,M,-34.4,M,,*5C
$GPRMC,211618.000,A,4305.1635,N,07740.8702,W,0.08,248.04,220923,,,A*71
$GPGGA,211618.250,4305.1635,N,07740.8703,W,1,05,1.21,162.7,M,-34.4,M,,*54
$GPRMC,211618.500,A,4305.1635,N,07740.8703,W,0.20,246.74,220923,,,A*76
$GPGGA,211618.750,4305.1635,N,07740.8704,W,1,05,1.21,163.0,M,-34.4,M,,*50
$GPRMC,211619.000,A,4305.1635,N,07740.8704,W,0.26,257.74,220923,,,A*73
$GPGGA,211619.250,4305.1635,N,07740.8704,W,1,05,1.20,163.3,M,-34.4,M,,*56
$GPRMC,211619.500,A,4305.1635,N,07740.8704,W,0.22,251.70,220923,,,A*70
$GPGGA,211619.750,4305.1635,N,07740.8704,W,1,05,1.21,163.6,M,-34.4,M,,*57
$GPRMC,211620.000,A,4305.1635,N,07740.8704,W,0.20,234.08,220923,,,A*71
$GPGGA,211620.250,4305.1635,N,07740.8704,W,1,05,1.21,164.0,M,-34.4,M,,*59
$GPRMC,211620.500,A,4305.1635,N,07740.8704,W,0.17,243.48,220923,,,A*74
$GPGGA,211620.750,4305.1635,N,07740.8704,W,1,05,1.21,164.4,M,-34.4,M,,*58
$GPRMC,211621.000,A,4305.1635,N,07740.8704,W,0.13,242.23,220923,,,A*78
$GPGGA,211621.250,4305.1635,N,07740.8704,W,1,05,1.21,164.8,M,-34.4,M,,*50
$GPRMC,211621.500,A,4305.1635,N,07740.8704,W,0.08,249.04,220923,,,A*79
$GPGGA,211621.750,4305.1635,N,07740.8704,W,1,05,1.21,165.2,M,-34.4,M,,*5E
$GPRMC,211622.000,A,4305.1635,N,07740.8704,W,0.09,288.93,220923,,,A*7D
$GPGGA,211622.250,4305.1635,N,07740.8703,W,1,05,1.20,165.5,M,-34.4,M,,*59
$GPRMC,211622.500,A,4305.1635,N,07740.8703,W,0.01,34.84,220923,,,A*44
$GPGGA,211622.750,4305.1635,N,07740.8702,W,1,05,1.21,165.8,M,-34.4,M,,*51
$GPRMC,211623.000,A,4305.1635,N,07740.8702,W,0.05,67.36,220923,,,A*4A
$GPGGA,211623.250,4305.1635,N,07740.8702,W,1,05,1.21,166.2,M,-34.4,M,,*5C
$GPRMC,211623.500,A,4305.1636,N,07740.8702,W,0.02,357.63,220923,,,A*7B
$GPGGA,211623.750,4305.1636,N,07740.8702,W,1,05,1.22,166.5,M,-34.4,M,,*5E
$GPRMC,211624.000,A,4305.1636,N,07740.8702,W,0.02,355.98,220923,,,A*7F
$GPGGA,211624.250,4305.1636,N,07740.8702,W,1,05,1.22,166.9,M,-34.4,M,,*50
$GPRMC,211624.500,A,4305.1636,N,07740.8702,W,0.02,60.37,220923,,,A*4A
$GPGGA,211624.750,4305.1636,N,07740.8702,W,1,05,1.21,167.3,M,-34.4,M,,*5D
$GPRMC,211625.000,A,4305.1636,N,07740.8702,W,0.03,352.45,220923,,,A*78
$GPGGA,211625.250,4305.1636,N,07740.8702,W,1,05,1.22,167.7,M,-34.4,M,,*5E
$GPRMC,211625.500,A,4305.1636,N,07740.8702,W,0.04,341.12,220923,,,A*7A
$GPGGA,211625.750,4305.1636,N,07740.8701,W,1,05,1.21,168.0,M,-34.4,M,,*53
$GPRMC,211626.000,A,4305.1636,N,07740.8701,W,0.07,85.73,220923,,,A*40
$GPGGA,211626.250,4305.1636,N,07740.8701,W,1,05,1.21,168.3,M,-34.4,M,,*56
$GPRMC,211626.500,A,4305.1636,N,07740.8701,W,0.04,311.99,220923,,,A*7C
$GPGGA,211626.750,4305.1636,N,07740.8701,W,1,05,1.21,168.6,M,-34.4,M,,*56
$GPRMC,211627.000,A,4305.1637,N,07740.8701,W,0.02,18.49,220923,,,A*48
$GPGGA,211627.250,4305.1637,N,07740.8701,W,1,05,1.21,169.0,M,-34.4,M,,*54
$GPRMC,211627.500,A,4305.1637,N,07740.8700,W,0.02,12.03,220923,,,A*48
$GPGGA,211627.750,4305.1637,N,07740.8700,W,1,05,1.22,169.3,M,-34.4,M,,*50
$GPRMC,211628.000,A,4305.1637,N,07740.8701,W,0.08,292.08,220923,,,A*78
$GPGGA,211628.250,4305.1637,N,07740.8701,W,1,05,1.21,169.5,M,-34.4,M,,*5E
$GPRMC,211628.500,A,4305.1637,N,07740.8701,W,0.03,293.60,220923,,,A*79
$GPGGA,211628.750,4305.1637,N,07740.8701,W,1,05,1.21,169.8,M,-34.4,M,,*56
$GPRMC,211629.000,A,4305.1637,N,07740.8701,W,0.04,69.38,220923,,,A*40
$GPGGA,211629.250,4305.1637,N,07740.8701,W,1,05,1.21,170.0,M,-34.4,M,,*52
$GPRMC,211629.500,A,4305.1637,N,07740.8701,W,0.02,231.57,220923,,,A*75
$GPGGA,211629.750,4305.1637,N,07740.8701,W,1,05,1.21,170.2,M,-34.4,M,,*55
$GPRMC,211630.000,A,4305.1637,N,07740.8701,W,0.02,274.05,220923,,,A*7E
$GPGGA,211630.250,4305.1637,N,07740.8701,W,1,05,1.21,170.4,M,-34.4,M,,*5E
$GPRMC,211630.500,A,4305.1637,N,07740.8701,W,0.04,326.83,220923,,,A*75
$GPGGA,211630.750,4305.1637,N,07740.8701,W,1,05,1.21,170.5,M,-34.4,M,,*5A
$GPRMC,211631.000,A,4305.1637,N,07740.8702,W,0.02,103.60,220923,,,A*7C
$GPGGA,211631.250,4305.1637,N,07740.8702,W,1,05,1.21,170.7,M,-34.4,M,,*5F
$GPRMC,211631.500,A,4305.1637,N,07740.8702,W,0.11,103.33,220923,,,A*7D
$GPGGA,211631.750,4305.1637,N,07740.8702,W,1,05,1.21,170.8,M,-34.4,M,,*55
$GPRMC,211632.000,A,4305.1637,N,07740.8702,W,0.03,138.85,220923,,,A*7D
$GPGGA,211632.250,4305.1637,N,07740.8701,W,1,06,1.00,171.1,M,-34.4,M,,*58
$GPRMC,211632.500,A,4305.1637,N,07740.8701,W,0.04,71.69,220923,,,A*42
$GPGGA,211632.750,4305.1638,N,07740.8700,W,1,06,1.00,171.3,M,-34.4,M,,*51
$GPRMC,211633.000,A,4305.1638,N,07740.8700,W,0.02,21.40,220923,,,A*40
$GPGGA,211633.250,4305.1638,N,07740.8699,W,1,06,1.00,171.5,M,-34.4,M,,*52
$GPRMC,211633.500,A,4305.1638,N,07740.8699,W,0.02,286.72,220923,,,A*7A
$GPGGA,211633.750,4305.1638,N,07740.8699,W,1,06,1.00,171.7,M,-34.4,M,,*55
$GPRMC,211634.000,A,4305.1638,N,07740.8698,W,0.03,81.75,220923,,,A*4A
$GPGGA,211634.250,4305.1638,N,07740.8698,W,1,06,1.00,171.9,M,-34.4,M,,*58
$GPRMC,211634.500,A,4305.1639,N,07740.8698,W,0.04,90.97,220923,,,A*45
$GPGGA,211634.750,4305.1639,N,07740.8698,W,1,06,1.00,172.1,M,-34.4,M,,*57
$GPRMC,211635.000,A,4305.1639,N,07740.8697,W,0.04,76.25,220923,,,A*4F
$GPGGA,211635.250,4305.1639,N,07740.8697,W,1,06,1.00,172.3,M,-34.4,M,,*5E
$GPRMC,211635.500,A,4305.1639,N,07740.8697,W,0.00,224.04,220923,,,A*78
$GPGGA,211635.750,4305.1639,N,07740.8697,W,1,06,1.00,172.4,M,-34.4,M,,*5C
$GPRMC,211636.000,A,4305.1639,N,07740.8697,W,0.01,133.70,220923,,,A*79
$GPGGA,211636.250,4305.1639,N,07740.8697,W,1,06,1.00,172.4,M,-34.4,M,,*5A
$GPRMC,211636.500,A,4305.1639,N,07740.8697,W,0.04,306.50,220923,,,A*7F
$GPGGA,211636.750,4305.1639,N,07740.8697,W,1,06,1.00,172.4,M,-34.4,M,,*5F
$GPRMC,211637.000,A,4305.1639,N,07740.8697,W,0.03,99.98,220923,,,A*4D
$GPGGA,211637.250,4305.1639,N,07740.8697,W,1,06,1.00,172.4,M,-34.4,M,,*5B
$GPRMC,211637.500,A,4305.1639,N,07740.8697,W,0.04,99.06,220923,,,A*48
$GPGGA,211637.750,4305.1639,N,07740.8697,W,1,06,1.00,172.4,M,-34.4,M,,*5E
$GPRMC,211638.000,A,4305.1639,N,07740.8697,W,0.04,179.54,220923,,,A*7A
$GPGGA,211638.250,4305.1639,N,07740.8697,W,1,06,1.00,172.4,M,-34.4,M,,*54
$GPRMC,211638.500,A,4305.1639,N,07740.8697,W,0.01,123.62,220923,,,A*70
$GPGGA,211638.750,4305.1639,N,07740.8697,W,1,06,1.01,172.4,M,-34.4,M,,*50
$GPRMC,211639.000,A,4305.1639,N,07740.8697,W,0.01,43.13,220923,,,A*45
$GPGGA,211639.250,4305.1639,N,07740.8697,W,1,06,1.00,172.4,M,-34.4,M,,*55
$GPRMC,211639.500,A,4305.1639,N,07740.8697,W,0.00,202.72,220923,,,A*71
$GPGGA,211639.750,4305.1639,N,07740.8697,W,1,06,1.00,172.4,M,-34.4,M,,*50
$GPRMC,211640.000,A,4305.1639,N,07740.8697,W,0.02,107.54,220923,,,A*7A
$GPGGA,211640.250,4305.1639,N,07740.8697,W,1,06,1.00,172.4,M,-34.4,M,,*5B
$GPRMC,211640.500,A,4305.1639,N,07740.8697,W,0.03,131.16,220923,,,A*7D
$GPGGA,211640.750,4305.1639,N,07740.8697,W,1,06,1.00,172.4,M,-34.4,M,,*5E
$GPRMC,211641.000,A,4305.1639,N,07740.8697,W,0.02,55.03,220923,,,A*4F
$GPGGA,211641.250,4305.1639,N,07740.8697,W,1,06,1.00,172.4,M,-34.4,M,,*5A
$GPRMC,211641.500,A,4305.1639,N,07740.8697,W,0.03,263.16,220923,,,A*78
$GPGGA,211641.750,4305.1639,N,07740.8697,W,1,06,1.00,172.4,M,-34.4,M,,*5F
$GPRMC,211642.000,A,4305.1639,N,07740.8697,W,0.04,101.21,220923,,,A*7A
$GPGGA,211642.250,4305.1639,N,07740.8697,W,1,06,1.00,172.4,M,-34.4,M,,*59
$GPRMC,211642.500,A,4305.1639,N,07740.8697,W,0.05,262.48,220923,,,A*77
$GPGGA,211642.750,4305.1639,N,07740.8697,W,1,06,1.00,172.4,M,-34.4,M,,*5C
$GPRMC,211643.000,A,4305.1639,N,07740.8697,W,0.00,36.88,220923,,,A*49
$GPGGA,211643.250,4305.1639,N,07740.8697,W,1,06,1.00,172.4,M,-34.4,M,,*58
$GPRMC,211643.500,A,4305.1639,N,07740.8697,W,0.00,124.20,220923,,,A*7C
$GPGGA,211643.750,4305.1639,N,07740.8697,W,1,06,1.00,172.4,M,-34.4,M,,*5D
$GPRMC,211644.000,A,4305.1639,N,07740.8697,W,0.01,228.00,220923,,,A*72
$GPGGA,211644.250,4305.1639,N,07740.8697,W,1,06,1.00,172.4,M,-34.4,M,,*5F
$GPRMC,211644.500,A,4305.1639,N,07740.8697,W,0.01,159.71,220923,,,A*74
$GPGGA,211644.750,4305.1639,N,07740.8697,W,1,06,1.02,172.4,M,-34.4,M,,*58
$GPRMC,211645.000,A,4305.1639,N,07740.8697,W,0.01,146.82,220923,,,A*72
$GPGGA,211645.250,4305.1639,N,07740.8697,W,1,06,1.02,172.4,M,-34.4,M,,*5C
$GPRMC,211645.500,A,4305.1639,N,07740.8697,W,0.01,165.77,220923,,,A*7C
$GPGGA,211645.750,4305.1639,N,07740.8697,W,1,06,1.02,172.4,M,-34.4,M,,*59
$GPRMC,211646.000,A,4305.1639,N,07740.8697,W,0.01,152.14,220923,,,A*7B
$GPGGA,211646.250,4305.1639,N,07740.8697,W,1,06,1.02,172.4,M,-34.4,M,,*5F
$GPRMC,211646.500,A,4305.1639,N,07740.8697,W,0.01,308.94,220923,,,A*7B
$GPGGA,211646.750,4305.1639,N,07740.8697,W,1,06,1.02,172.4,M,-34.4,M,,*5A
$GPRMC,211647.000,A,4305.1639,N,07740.8697,W,0.01,140.26,220923,,,A*78
$GPGGA,211647.250,4305.1639,N,07740.8697,W,1,06,1.02,172.4,M,-34.4,M,,*5E
$GPRMC,211647.500,A,4305.1639,N,07740.8697,W,0.01,149.11,220923,,,A*70
$GPGGA,211647.750,4305.1639,N,07740.8697,W,1,06,1.02,172.4,M,-34.4,M,,*5B
$GPRMC,211648.000,A,4305.1639,N,07740.8697,W,0.01,138.64,220923,,,A*7E
$GPGGA,211648.250,4305.1639,N,07740.8697,W,1,06,1.02,172.4,M,-34.4,M,,*51
$GPRMC,211648.500,A,4305.1639,N,07740.8697,W,0.01,334.35,220923,,,A*71
$GPGGA,211648.750,4305.1639,N,07740.8697,W,1,06,1.02,172.5,M,-34.4,M,,*55
$GPRMC,211649.000,A,4305.1639,N,07740.8697,W,0.00,264.91,220923,,,A*7E
$GPGGA,211649.250,4305.1639,N,07740.8697,W,1,06,1.02,172.5,M,-34.4,M,,*51
$GPRMC,211649.500,A,4305.1639,N,07740.8697,W,0.00,350.64,220923,,,A*77
$GPGGA,211649.750,4305.1639,N,07740.8697,W,1,06,1.02,172.5,M,-34.4,M,,*54
$GPRMC,211650.000,A,4305.1639,N,07740.8697,W,0.01,303.72,220923,,,A*7A
$GPGGA,211650.250,4305.1639,N,07740.8697,W,1,08,0.97,172.5,M,-34.4,M,,*5A
$GPRMC,211650.500,A,4305.1639,N,07740.8697,W,0.01,124.26,220923,,,A*79
$GPGGA,211650.750,4305.1639,N,07740.8697,W,1,08,0.97,172.5,M,-34.4,M,,*5F
$GPRMC,211651.000,A,4305.1639,N,07740.8697,W,0.01,312.56,220923,,,A*7D
$GPGGA,211651.250,4305.1639,N,07740.8697,W,1,08,0.97,172.5,M,-34.4,M,,*5B
$GPRMC,211651.500,A,4305.1639,N,07740.8697,W,0.00,66.28,220923,,,A*40
$GPGGA,211651.750,4305.1639,N,07740.8697,W,1,08,0.97,172.5,M,-34.4,M,,*5E
$GPRMC,211652.000,A,4305.1639,N,07740.8697,W,0.01,115.73,220923,,,A*7C
$GPGGA,211652.250,4305.1639,N,07740.8697,W,1,08,0.97,172.5,M,-34.4,M,,*58
$GPRMC,211652.500,A,4305.1639,N,07740.8697,W,0.01,107.72,220923,,,A*7B
$GPGGA,211652.750,4305.1639,N,07740.8697,W,1,08,0.97,172.5,M,-34.4,M,,*5D
$GPRMC,211653.000,A,4305.1639,N,07740.8697,W,0.00,40.49,220923,,,A*44
$GPGGA,211653.250,4305.1639,N,07740.8697,W,1,08,0.97,172.5,M,-34.4,M,,*59
$GPRMC,211653.500,A,4305.1639,N,07740.8697,W,0.01,153.61,220923,,,A*79
$GPGGA,211653.750,4305.1639,N,07740.8697,W,1,08,0.97,172.5,M,-34.4,M,,*5C
$GPRMC,211654.000,A,4305.1639,N,07740.8697,W,0.01,52.42,220923,,,A*4A
$GPGGA,211654.250,4305.1639,N,07740.8697,W,1,08,0.97,172.5,M,-34.4,M,,*5E
$GPRMC,211654.500,A,4305.1639,N,07740.8697,W,0.00,114.81,220923,,,A*72
$GPGGA,211654.750,4305.1639,N,07740.8697,W,1,08,0.97,172.5,M,-34.4,M,,*5B
$GPRMC,211655.000,A,4305.1639,N,07740.8697,W,0.01,270.83,220923,,,A*74
$GPGGA,211655.250,4305.1639,N,07740.8697,W,1,08,0.97,172.5,M,-34.4,M,,*5F
$GPRMC,211655.500,A,4305.1639,N,07740.8697,W,0.01,154.58,220923,,,A*72
$GPGGA,211655.750,4305.1639,N,07740.8697,W,1,08,0.97,172.5,M,-34.4,M,,*5A
$GPRMC,211656.000,A,4305.1639,N,07740.8697,W,0.00,0.00,220923,,,A*78
$GPGGA,211656.250,4305.1639,N,07740.8697,W,1,08,0.97,172.5,M,-34.4,M,,*5C
$GPRMC,211656.500,A,4305.1639,N,07740.8697,W,0.00,197.48,220923,,,A*7E
$GPGGA,211656.750,4305.1639,N,07740.8697,W,1,08,0.97,172.5,M,-34.4,M,,*59
$GPRMC,211657.000,A,4305.1639,N,07740.8697,W,0.00,352.82,220923,,,A*77
$GPGGA,211657.250,4305.1639,N,07740.8697,W,1,08,0.97,172.5,M,-34.4,M,,*5D
$GPRMC,211657.500,A,4305.1639,N,07740.8697,W,0.00,254.81,220923,,,A*76
$GPGGA,211657.750,4305.1639,N,07740.8697,W,1,08,0.97,172.5,M,-34.4,M,,*58
$GPRMC,211658.000,A,4305.1639,N,07740.8697,W,0.01,345.48,220923,,,A*79
$GPGGA,211658.250,4305.1639,N,07740.8697,W,1,08,0.97,172.5,M,-34.4,M,,*52
$GPRMC,211658.500,A,4305.1639,N,07740.8697,W,0.00,324.45,220923,,,A*77
$GPGGA,211658.750,4305.1639,N,07740.8697,W,1,08,0.97,172.5,M,-34.4,M,,*57
$GPRMC,211659.000,A,4305.1639,N,07740.8697,W,0.01,303.28,220923,,,A*7C
$GPGGA,211659.250,4305.1639,N,07740.8697,W,1,08,0.97,172.5,M,-34.4,M,,*53
$GPRMC,211659.500,A,4305.1639,N,07740.8697,W,0.01,331.00,220923,,,A*72
$GPGGA,211659.750,4305.1639,N,07740.8697,W,1,08,0.97,172.5,M,-34.4,M,,*56
$GPRMC,211700.000,A,4305.1639,N,07740.8697,W,0.00,23.78,220923,,,A*44
$GPGGA,211700.250,4305.1639,N,07740.8697,W,1,08,0.97,172.5,M,-34.4,M,,*5E
$GPRMC,211700.500,A,4305.1639,N,07740.8697,W,0.00,226.27,220923,,,A*7C
$GPGGA,211700.750,4305.1639,N,07740.8697,W,1,08,0.97,172.5,M,-34.4,M,,*5B
$GPRMC,211701.000,A,4305.1639,N,07740.8697,W,0.00,25.27,220923,,,A*49
$GPGGA,211701.250,4305.1639,N,07740.8697,W,1,08,0.97,172.5,M,-34.4,M,,*5F
$GPRMC,211701.500,A,4305.1639,N,07740.8697,W,0.00,291.63,220923,,,A*71
$GPGGA,211701.750,4305.1639,N,07740.8697,W,1,08,0.97,172.5,M,-34.4,M,,*5A
$GPRMC,211702.000,A,4305.1639,N,07740.8697,W,0.01,145.53,220923,,,A*7F
$GPGGA,211702.250,4305.1639,N,07740.8697,W,1,08,0.97,172.5,M,-34.4,M,,*5C
$GPRMC,211702.500,A,4305.1639,N,07740.8697,W,0.01,132.40,220923,,,A*78
$GPGGA,211702.750,4305.1639,N,07740.8696,W,1,08,0.97,172.5,M,-34.4,M,,*58
$GPRMC,211703.000,A,4305.1639,N,07740.8696,W,0.00,37.99,220923,,,A*4C
$GPGGA,211703.250,4305.1639,N,07740.8696,W,1,08,0.97,172.5,M,-34.4,M,,*5C
$GPRMC,211703.500,A,4305.1639,N,07740.8696,W,0.01,143.03,220923,,,A*79
$GPGGA,211703.750,4305.1639,N,07740.8696,W,1,08,0.97,172.5,M,-34.4,M,,*59
$GPRMC,211704.000,A,4305.1639,N,07740.8696,W,0.00,243.65,220923,,,A*79
$GPGGA,211704.250,4305.1639,N,07740.8696,W,1,08,0.97,172.5,M,-34.4,M,,*5B
$GPRMC,211704.500,A,4305.1639,N,07740.8696,W,0.00,186.45,220923,,,A*74
$GPGGA,211704.750,4305.1639,N,07740.8696,W,1,08,0.97,172.5,M,-34.4,M,,*5E
$GPRMC,211705.000,A,4305.1639,N,07740.8696,W,0.00,78.80,220923,,,A*49
$GPGGA,211705.250,4305.1639,N,07740.8696,W,1,08,0.97,172.5,M,-34.4,M,,*5A
$GPRMC,211705.500,A,4305.1639,N,07740.8696,W,0.01,248.62,220923,,,A*70
$GPGGA,211705.750,4305.1639,N,07740.8696,W,1,08,0.97,172.5,M,-34.4,M,,*5F
$GPRMC,211706.000,A,4305.1639,N,07740.8696,W,0.00,175.25,220923,,,A*79
$GPGGA,211706.250,4305.1639,N,07740.8696,W,1,08,0.97,172.5,M,-34.4,M,,*59
$GPRMC,211706.500,A,4305.1639,N,07740.8696,W,0.01,348.10,220923,,,A*77
$GPGGA,211706.750,4305.1639,N,07740.8696,W,1,08,0.97,172.5,M,-34.4,M,,*5C
$GPRMC,211707.000,A,4305.1639,N,07740.8696,W,0.01,182.94,220923,,,A*7B
$GPGGA,211707.250,4305.1639,N,07740.8696,W,1,08,0.97,172.5,M,-34.4,M,,*58
$GPRMC,211707.500,A,4305.1639,N,07740.8696,W,0.00,16.28,220923,,,A*44
$GPGGA,211707.750,4305.1639,N,07740.8696,W,1,08,0.97,172.5,M,-34.4,M,,*5D
$GPRMC,211708.000,A,4305.1639,N,07740.8696,W,0.00,270.91,220923,,,A*7E
$GPGGA,211708.250,4305.1639,N,07740.8696,W,1,08,0.97,172.5,M,-34.4,M,,*57
$GPRMC,211708.500,A,4305.1639,N,07740.8696,W,0.01,159.93,220923,,,A*70
$GPGGA,211708.750,4305.1639,N,07740.8696,W,1,08,0.97,172.5,M,-34.4,M,,*52
$GPRMC,211709.000,A,4305.1639,N,07740.8696,W,0.00,250.03,220923,,,A*76
$GPGGA,211709.250,4305.1639,N,07740.8696,W,1,08,0.97,172.5,M,-34.4,M,,*56
$GPRMC,211709.500,A,4305.1639,N,07740.8696,W,0.01,332.85,220923,,,A*79
$GPGGA,211709.750,4305.1639,N,07740.8696,W,1,08,0.97,172.5,M,-34.4,M,,*53
$GPRMC,211710.000,A,4305.1639,N,07740.8696,W,0.00,334.59,220923,,,A*72
$GPGGA,211710.250,4305.1639,N,07740.8696,W,1,08,0.97,172.5,M,-34.4,M,,*5E
$GPRMC,211710.500,A,4305.1639,N,07740.8696,W,0.01,39.79,220923,,,A*4A
$GPGGA,211710.750,4305.1639,N,07740.8696,W,1,08,0.97,172.5,M,-34.4,M,,*5B
$GPRMC,211711.000,A,4305.1639,N,07740.8696,W,0.00,5.16,220923,,,A*79
$GPGGA,211711.250,4305.1639,N,07740.8696,W,1,08,0.97,172.5,M,-34.4,M,,*5F
$GPRMC,211711.500,A,4305.1639,N,07740.8696,W,0.00,40.78,220923,,,A*45
$GPGGA,211711.750,4305.1639,N,07740.8696,W,1,08,0.97,172.5,M,-34.4,M,,*5A
$GPRMC,211712.000,A,4305.1639,N,07740.8696,W,0.00,211.39,220923,,,A*70
$GPGGA,211712.250,4305.1639,N,07740.8696,W,1,08,0.97,172.5,M,-34.4,M,,*5C
$GPRMC,211712.500,A,4305.1639,N,07740.8696,W,0.00,150.39,220923,,,A*73
$GPGGA,211712.750,4305.1639,N,07740.8696,W,1,08,0.97,172.5,M,-34.4,M,,*59
$GPRMC,211713.000,A,4305.1639,N,07740.8696,W,0.01,110.72,220923,,,A*7D
$GPGGA,211713.250,4305.1639,N,07740.8696,W,1,08,0.97,172.5,M,-34.4,M,,*5D
$GPRMC,211713.500,A,4305.1639,N,07740.8696,W,0.01,127.64,220923,,,A*7B
$GPGGA,211713.750,4305.1639,N,07740.8696,W,1,08,0.97,172.5,M,-34.4,M,,*58
$GPRMC,211714.000,A,4305.1639,N,07740.8696,W,0.00,38.21,220923,,,A*46
$GPGGA,211714.250,4305.1639,N,07740.8696,W,1,08,0.97,172.5,M,-34.4,M,,*5A
$GPRMC,211714.500,A,4305.1639,N,07740.8696,W,0.01,27.63,220923,,,A*4A
$GPGGA,211714.750,4305.1639,N,07740.8696,W,1,08,0.97,172.5,M,-34.4,M,,*5F
$GPRMC,211715.000,A,4305.1639,N,07740.8696,W,0.01,180.35,220923,,,A*71
$GPGGA,211715.250,4305.1639,N,07740.8696,W,1,08,0.97,172.5,M,-34.4,M,,*5B
$GPRMC,211715.500,A,4305.1639,N,07740.8696,W,0.00,111.04,220923,,,A*7F
$GPGGA,211715.750,4305.1639,N,07740.8696,W,1,08,0.97,172.5,M,-34.4,M,,*5E
$GPRMC,211716.000,A,4305.1639,N,07740.8696,W,0.00,1.79,220923,,,A*73
$GPGGA,211716.250,4305.1639,N,07740.8696,W,1,08,0.97,172.5,M,-34.4,M,,*58
$GPRMC,211716.500,A,4305.1639,N,07740.8696,W,0.00,113.05,220923,,,A*7F
$GPGGA,211716.750,4305.1639,N,07740.8696,W,1,08,0.97,172.5,M,-34.4,M,,*5D
$GPRMC,211717.000,A,4305.1639,N,07740.8696,W,0.00,97.54,220923,,,A*42
$GPGGA,211717.250,4305.1639,N,07740.8696,W,1,08,0.97,172.5,M,-34.4,M,,*59
$GPRMC,211717.500,A,4305.1639,N,07740.8696,W,0.00,323.75,220923,,,A*78
$GPGGA,211717.750,4305.1639,N,07740.8696,W,1,08,0.97,172.5,M,-34.4,M,,*5C
$GPRMC,211718.000,A,4305.1639,N,07740.8696,W,0.00,292.84,220923,,,A*77
$GPGGA,211718.250,4305.1639,N,07740.8696,W,1,08,0.97,172.5,M,-34.4,M,,*56
$GPRMC,211718.500,A,4305.1639,N,07740.8696,W,0.00,242.03,220923,,,A*70
$GPGGA,211718.750,4305.1639,N,07740.8696,W,1,08,0.97,172.5,M,-34.4,M,,*53
$GPRMC,211719.000,A,4305.1639,N,07740.8696,W,0.00,7.59,220923,,,A*78
$GPGGA,211719.250,4305.1639,N,07740.8696,W,1,08,0.97,172.5,M,-34.4,M,,*57
$GPRMC,211719.500,A,4305.1639,N,07740.8696,W,0.00,26.27,220923,,,A*47
$GPGGA,211719.750,4305.1639,N,07740.8696,W,1,08,0.97,172.5,M,-34.4,M,,*52
$GPRMC,211720.000,A,4305.1639,N,07740.8696,W,0.00,273.31,220923,,,A*7D
$GPGGA,211720.250,4305.1639,N,07740.8696,W,1,08,0.97,172.5,M,-34.4,M,,*5D
$GPRMC,211720.500,A,4305.1639,N,07740.8696,W,0.00,132.88,220923,,,A*7C
$GPGGA,211720.750,4305.1639,N,07740.8696,W,1,08,0.97,172.5,M,-34.4,M,,*58
$GPRMC,211721.000,A,4305.1639,N,07740.8696,W,0.01,130.77,220923,,,A*7B
$GPGGA,211721.250,4305.1639,N,07740.8696,W,1,08,0.97,172.5,M,-34.4,M,,*5C
$GPRMC,211721.500,A,4305.1639,N,07740.8696,W,0.00,0.00,220923,,,A*7D
$GPGGA,211721.750,4305.1639,N,07740.8696,W,1,08,0.97,172.5,M,-34.4,M,,*59
$GPRMC,211722.000,A,4305.1639,N,07740.8696,W,0.00,9.74,220923,,,A*71
$GPGGA,211722.250,4305.1639,N,07740.8696,W,1,08,0.97,172.5,M,-34.4,M,,*5F
$GPRMC,211722.500,A,4305.1639,N,07740.8696,W,0.01,94.70,220923,,,A*45
$GPGGA,211722.750,4305.1639,N,07740.8696,W,1,08,0.97,172.5,M,-34.4,M,,*5A
$GPRMC,211723.000,A,4305.1639,N,07740.8696,W,0.01,123.38,220923,,,A*70
$GPGGA,211723.250,4305.1639,N,07740.8696,W,1,08,0.97,172.5,M,-34.4,M,,*5E
$GPRMC,211723.500,A,4305.1639,N,07740.8696,W,0.00,65.03,220923,,,A*4F
$GPGGA,211723.750,4305.1639,N,07740.8696,W,1,08,0.97,172.5,M,-34.4,M,,*5B
$GPRMC,211724.000,A,4305.1639,N,07740.8696,W,0.00,254.29,220923,,,A*75
$GPGGA,211724.250,4305.1639,N,07740.8696,W,1,08,0.97,172.5,M,-34.4,M,,*59
$GPRMC,211724.500,A,4305.1639,N,07740.8696,W,0.00,20.50,220923,,,A*4F
$GPGGA,211724.750,4305.1639,N,07740.8696,W,1,08,0.97,172.5,M,-34.4,M,,*5C
$GPRMC,211725.000,A,4305.1639,N,07740.8696,W,0.00,129.67,220923,,,A*77
$GPGGA,211725.250,4305.1639,N,07740.8696,W,1,08,0.97,172.5,M,-34.4,M,,*58
$GPRMC,211725.500,A,4305.1639,N,07740.8696,W,0.00,23.98,220923,,,A*49
$GPGGA,211725.750,4305.1639,N,07740.8696,W,1,08,0.97,172.5,M,-34.4,M,,*5D
$GPRMC,211726.000,A,4305.1639,N,07740.8696,W,0.00,172.93,220923,,,A*71
$GPGGA,211726.250,4305.1639,N,07740.8696,W,1,08,0.97,172.5,M,-34.4,M,,*5B
$GPRMC,211726.500,A,4305.1639,N,07740.8696,W,0.01,277.06,220923,,,A*7F
$GPGGA,211726.750,4305.1639,N,07740.8696,W,1,08,0.97,172.5,M,-34.4,M,,*5E
$GPRMC,211727.000,A,4305.1639,N,07740.8696,W,0.01,310.81,220923,,,A*74
$GPGGA,211727.250,4305.1639,N,07740.8696,W,1,08,0.97,172.5,M,-34.4,M,,*5A
$GPRMC,211727.500,A,4305.1639,N,07740.8696,W,0.00,251.64,220923,,,A*7F
$GPGGA,211727.750,4305.1639,N,07740.8696,W,1,08,0.97,172.5,M,-34.4,M,,*5F
$GPRMC,211728.000,A,4305.1639,N,07740.8696,W,0.00,353.61,220923,,,A*73
$GPGGA,211728.250,4305.1639,N,07740.8696,W,1,08,0.97,172.5,M,-34.4,M,,*55
$GPRMC,211728.500,A,4305.1639,N,07740.8696,W,0.01,95.66,220923,,,A*49
$GPGGA,211728.750,4305.1639,N,07740.8696,W,1,08,0.97,172.5,M,-34.4,M,,*50
$GPRMC,211729.000,A,4305.1639,N,07740.8696,W,0.00,221.46,220923,,,A*73
$GPGGA,211729.250,4305.1639,N,07740.8696,W,1,08,0.97,172.5,M,-34.4,M,,*54
$GPRMC,211729.500,A,4305.1639,N,07740.8696,W,0.00,254.27,220923,,,A*73
$GPGGA,211729.750,4305.1639,N,07740.8696,W,1,08,0.97,172.5,M,-34.4,M,,*51
$GPRMC,211730.000,A,4305.1639,N,07740.8696,W,0.01,306.61,220923,,,A*7B
$GPGGA,211730.250,4305.1639,N,07740.8696,W,1,08,0.97,172.5,M,-34.4,M,,*5C
$GPRMC,211730.500,A,4305.1639,N,07740.8696,W,0.00,279.30,220923,,,A*72
$GPGGA,211730.750,4305.1639,N,07740.8696,W,1,08,0.97,172.5,M,-34.4,M,,*59
$GPRMC,211731.000,A,4305.1639,N,07740.8696,W,0.00,5.04,220923,,,A*78
$GPGGA,211731.250,4305.1639,N,07740.8696,W,1,08,0.97,172.5,M,-34.4,M,,*5D
$GPRMC,211731.500,A,4305.1639,N,07740.8696,W,0.01,68.83,220923,,,A*48
$GPGGA,211731.750,4305.1639,N,07740.8696,W,1,08,0.97,172.6,M,-34.4,M,,*5B
$GPRMC,211732.000,A,4305.1639,N,07740.8696,W,0.00,0.00,220923,,,A*7A
$GPGGA,211732.250,4305.1639,N,07740.8696,W,1,08,0.97,172.6,M,-34.4,M,,*5D
$GPRMC,211732.500,A,4305.1639,N,07740.8697,W,0.01,286.23,220923,,,A*72
$GPGGA,211732.750,4305.1639,N,07740.8696,W,1,08,0.97,172.7,M,-34.4,M,,*59
$GPRMC,211733.000,A,4305.1639,N,07740.8697,W,0.00,348.20,220923,,,A*77
$GPGGA,211733.250,4305.1639,N,07740.8697,W,1,08,0.97,172.7,M,-34.4,M,,*5C
$GPRMC,211733.500,A,4305.1639,N,07740.8697,W,0.00,83.99,220923,,,A*44
$GPGGA,211733.750,4305.1639,N,07740.8697,W,1,08,0.97,172.7,M,-34.4,M,,*59
$GPRMC,211734.000,A,4305.1639,N,07740.8697,W,0.00,286.77,220923,,,A*71
$GPGGA,211734.250,4305.1639,N,07740.8697,W,1,08,0.97,172.8,M,-34.4,M,,*54
$GPRMC,211734.500,A,4305.1639,N,07740.8697,W,0.01,63.81,220923,,,A*45
$GPGGA,211734.750,4305.1639,N,07740.8698,W,1,08,0.97,172.8,M,-34.4,M,,*5E
$GPRMC,211735.000,A,4305.1639,N,07740.8698,W,0.00,294.43,220923,,,A*7B
$GPGGA,211735.250,4305.1639,N,07740.8698,W,1,08,0.97,172.8,M,-34.4,M,,*5A
$GPRMC,211735.500,A,4305.1639,N,07740.8698,W,0.01,234.67,220923,,,A*73
$GPGGA,211735.750,4305.1639,N,07740.8698,W,1,08,0.97,172.8,M,-34.4,M,,*5F
$GPRMC,211736.000,A,4305.1639,N,07740.8698,W,0.01,140.06,220923,,,A*72
$GPGGA,211736.250,4305.1639,N,07740.8698,W,1,08,0.97,172.8,M,-34.4,M,,*59
$GPRMC,211736.500,A,4305.1639,N,07740.8698,W,0.01,318.70,220923,,,A*79
$GPGGA,211736.750,4305.1639,N,07740.8698,W,1,08,0.97,172.8,M,-34.4,M,,*5C
$GPRMC,211737.000,A,4305.1639,N,07740.8698,W,0.00,7.94,220923,,,A*7B
$GPGGA,211737.250,4305.1639,N,07740.8698,W,1,08,0.97,172.8,M,-34.4,M,,*58
$GPRMC,211737.500,A,4305.1639,N,07740.8698,W,0.01,259.39,220923,,,A*71
$GPGGA,211737.750,4305.1639,N,07740.8698,W,1,08,0.97,172.8,M,-34.4,M,,*5D
$GPRMC,211738.000,A,4305.1639,N,07740.8698,W,0.01,309.98,220923,,,A*74
$GPGGA,211738.250,4305.1639,N,07740.8698,W,1,08,0.97,172.8,M,-34.4,M,,*57
$GPRMC,211738.500,A,4305.1639,N,07740.8698,W,0.01,189.26,220923,,,A*7E
$GPGGA,211738.750,4305.1639,N,07740.8698,W,1,08,0.97,172.8,M,-34.4,M,,*52
$GPRMC,211739.000,A,4305.1639,N,07740.8698,W,0.00,281.79,220923,,,A*7A
$GPGGA,211739.250,4305.1639,N,07740.8698,W,1,08,0.97,172.8,M,-34.4,M,,*56
$GPRMC,211739.500,A,4305.1639,N,07740.8698,W,0.01,305.10,220923,,,A*7C
$GPGGA,211739.750,4305.1639,N,07740.8698,W,1,08,0.97,172.8,M,-34.4,M,,*53
$GPRMC,211740.000,A,4305.1639,N,07740.8698,W,0.00,288.26,220923,,,A*77
$GPGGA,211740.250,4305.1639,N,07740.8698,W,1,08,0.97,172.8,M,-34.4,M,,*58
$GPRMC,211740.500,A,4305.1639,N,07740.8698,W,0.00,348.90,220923,,,A*72
$GPGGA,211740.750,4305.1639,N,07740.8698,W,1,08,0.97,172.8,M,-34.4,M,,*5D
$GPRMC,211741.000,A,4305.1639,N,07740.8698,W,0.00,23.99,220923,,,A*41
$GPGGA,211741.250,4305.1639,N,07740.8698,W,1,08,0.97,172.8,M,-34.4,M,,*59
$GPRMC,211741.500,A,4305.1639,N,07740.8698,W,0.00,66.70,220923,,,A*42
$GPGGA,211741.750,4305.1639,N,07740.8698,W,1,08,0.97,172.8,M,-34.4,M,,*5C
$GPRMC,211742.000,A,4305.1639,N,07740.8698,W,0.00,284.48,220923,,,A*71
$GPGGA,211742.250,4305.1639,N,07740.8698,W,1,08,0.97,172.8,M,-34.4,M,,*5A
$GPRMC,211742.500,A,4305.1639,N,07740.8698,W,0.01,302.83,220923,,,A*7D
$GPGGA,211742.750,4305.1639,N,07740.8698,W,1,08,0.97,172.8,M,-34.4,M,,*5F
$GPRMC,211743.000,A,4305.1639,N,07740.8698,W,0.00,336.65,220923,,,A*77
$GPGGA,211743.250,4305.1639,N,07740.8698,W,1,08,0.97,172.8,M,-34.4,M,,*5B
$GPRMC,211743.500,A,4305.1639,N,07740.8698,W,0.00,32.92,220923,,,A*4D
$GPGGA,211743.750,4305.1639,N,07740.8698,W,1,08,0.97,172.8,M,-34.4,M,,*5E
$GPRMC,211744.000,A,4305.1639,N,07740.8698,W,0.00,257.92,220923,,,A*7E
$GPGGA,211744.250,4305.1639,N,07740.8698,W,1,08,0.97,172.8,M,-34.4,M,,*5C
$GPRMC,211744.500,A,4305.1639,N,07740.8698,W,0.00,267.56,220923,,,A*70
$GPGGA,211744.750,4305.1639,N,07740.8698,W,1,08,0.97,172.8,M,-34.4,M,,*59
$GPRMC,211745.000,A,4305.1639,N,07740.8698,W,0.00,269.00,220923,,,A*79
$GPGGA,211745.250,4305.1639,N,07740.8698,W,1,08,0.97,172.8,M,-34.4,M,,*5D
$GPRMC,211745.500,A,4305.1639,N,07740.8698,W,0.00,0.00,220923,,,A*71
$GPGGA,211745.750,4305.1639,N,07740.8698,W,1,08,0.97,172.8,M,-34.4,M,,*58
$GPRMC,211746.000,A,4305.1639,N,07740.8698,W,0.00,119.42,220923,,,A*78
$GPGGA,211746.250,4305.1639,N,07740.8698,W,1,08,0.97,172.8,M,-34.4,M,,*5E
$GPRMC,211746.500,A,4305.1639,N,07740.8698,W,0.02,20.87,220923,,,A*4D
$GPGGA,211746.750,4305.1639,N,07740.8698,W,1,08,0.97,172.8,M,-34.4,M,,*5B
$GPRMC,211747.000,A,4305.1639,N,07740.8698,W,0.06,33.30,220923,,,A*43
$GPGGA,211747.250,4305.1639,N,07740.8698,W,1,08,0.97,172.8,M,-34.4,M,,*5F
$GPRMC,211747.500,A,4305.1639,N,07740.8698,W,0.09,26.25,220923,,,A*49
$GPGGA,211747.750,4305.1639,N,07740.8698,W,1,08,0.97,172.8,M,-34.4,M,,*5A
$GPRMC,211748.000,A,4305.1639,N,07740.8698,W,0.45,26.77,220923,,,A*4C
$GPGGA,211748.250,4305.1639,N,07740.8698,W,1,08,0.96,172.8,M,-34.4,M,,*51
$GPRMC,211748.500,A,4305.1640,N,07740.8698,W,1.86,20.03,220923,,,A*4C
$GPGGA,211748.750,4305.1642,N,07740.8697,W,1,08,0.96,172.8,M,-34.4,M,,*57
$GPRMC,211749.000,A,4305.1643,N,07740.8697,W,2.06,19.81,220923,,,A*4F
$GPGGA,211749.250,4305.1645,N,07740.8697,W,1,08,0.96,172.8,M,-34.4,M,,*54
$GPRMC,211749.500,A,4305.1647,N,07740.8696,W,2.51,23.65,220923,,,A*4E
$GPGGA,211749.750,4305.1648,N,07740.8695,W,1,08,0.96,172.9,M,-34.4,M,,*5F
$GPRMC,211750.000,A,4305.1650,N,07740.8694,W,2.69,33.41,220923,,,A*4B
$GPGGA,211750.250,4305.1652,N,07740.8693,W,1,08,0.96,172.9,M,-34.4,M,,*5F
$GPRMC,211750.500,A,4305.1654,N,07740.8691,W,3.03,38.09,220923,,,A*45
$GPGGA,211750.750,4305.1656,N,07740.8690,W,1,08,0.96,173.0,M,-34.4,M,,*55
$GPRMC,211751.000,A,4305.1657,N,07740.8688,W,2.88,54.20,220923,,,A*49
$GPGGA,211751.250,4305.1658,N,07740.8686,W,1,08,0.96,173.0,M,-34.4,M,,*58
$GPRMC,211751.500,A,4305.1660,N,07740.8684,W,3.10,50.20,220923,,,A*40
$GPGGA,211751.750,4305.1661,N,07740.8682,W,1,08,0.96,173.1,M,-34.4,M,,*52
$GPRMC,211752.000,A,4305.1662,N,07740.8681,W,1.86,54.86,220923,,,A*44
$GPGGA,211752.250,4305.1662,N,07740.8680,W,1,08,0.96,173.2,M,-34.4,M,,*56
$GPRMC,211752.500,A,4305.1663,N,07740.8679,W,0.45,48.33,220923,,,A*4A
$GPGGA,211752.750,4305.1663,N,07740.8680,W,1,08,0.96,173.2,M,-34.4,M,,*52
$GPRMC,211753.000,A,4305.1663,N,07740.8681,W,0.74,239.86,220923,,,A*71
$GPGGA,211753.250,4305.1662,N,07740.8682,W,1,08,0.96,173.3,M,-34.4,M,,*54
$GPRMC,211753.500,A,4305.1661,N,07740.8684,W,2.57,236.64,220923,,,A*73
$GPGGA,211753.750,4305.1660,N,07740.8687,W,1,08,0.96,173.4,M,-34.4,M,,*51
$GPRMC,211754.000,A,4305.1659,N,07740.8690,W,3.93,239.16,220923,,,A*7C
$GPGGA,211754.250,4305.1658,N,07740.8694,W,1,08,0.97,173.4,M,-34.4,M,,*5B
$GPRMC,211754.500,A,4305.1656,N,07740.8698,W,5.00,246.03,220923,,,A*7E
$GPGGA,211754.750,4305.1655,N,07740.8703,W,1,08,0.97,173.5,M,-34.4,M,,*5D
$GPRMC,211755.000,A,4305.1654,N,07740.8707,W,5.26,252.13,220923,,,A*7F
$GPGGA,211755.250,4305.1653,N,07740.8713,W,1,08,0.97,173.5,M,-34.4,M,,*5E
$GPRMC,211755.500,A,4305.1653,N,07740.8718,W,5.73,260.89,220923,,,A*71
$GPGGA,211755.750,4305.1653,N,07740.8724,W,1,08,0.97,173.6,M,-34.4,M,,*5C
$GPRMC,211756.000,A,4305.1652,N,07740.8731,W,6.28,264.53,220923,,,A*73
$GPGGA,211756.250,4305.1652,N,07740.8737,W,1,08,0.97,173.7,M,-34.4,M,,*58
$GPRMC,211756.500,A,4305.1652,N,07740.8744,W,6.86,268.14,220923,,,A*7F
$GPGGA,211756.750,4305.1652,N,07740.8751,W,1,08,0.97,173.7,M,-34.4,M,,*5D
$GPRMC,211757.000,A,4305.1653,N,07740.8759,W,7.30,271.15,220923,,,A*73
$GPGGA,211757.250,4305.1653,N,07740.8766,W,1,08,0.97,173.8,M,-34.4,M,,*53
$GPRMC,211757.500,A,4305.1654,N,07740.8773,W,7.52,278.75,220923,,,A*72
$GPGGA,211757.750,4305.1655,N,07740.8781,W,1,08,0.97,173.9,M,-34.4,M,,*58
$GPRMC,211758.000,A,4305.1657,N,07740.8789,W,7.78,281.69,220923,,,A*7D
$GPGGA,211758.250,4305.1658,N,07740.8796,W,1,08,0.97,174.0,M,-34.4,M,,*57
$GPRMC,211758.500,A,4305.1660,N,07740.8803,W,7.59,287.27,220923,,,A*7E
$GPGGA,211758.750,4305.1662,N,07740.8811,W,1,08,0.97,174.2,M,-34.4,M,,*59
$GPRMC,211759.000,A,4305.1664,N,07740.8818,W,8.15,291.62,220923,,,A*75
$GPGGA,211759.250,4305.1667,N,07740.8825,W,1,08,0.97,174.3,M,-34.4,M,,*5E
$GPRMC,211759.500,A,4305.1671,N,07740.8832,W,8.25,301.46,220923,,,A*71
$GPGGA,211759.750,4305.1675,N,07740.8839,W,1,08,0.97,174.3,M,-34.4,M,,*55
$GPRMC,211800.000,A,4305.1679,N,07740.8845,W,8.51,311.83,220923,,,A*74
$GPGGA,211800.250,4305.1686,N,07740.8850,W,1,08,0.97,174.4,M,-34.4,M,,*57
$GPRMC,211800.500,A,4305.1693,N,07740.8855,W,9.67,332.52,220923,,,A*7D
$GPGGA,211800.750,4305.1699,N,07740.8858,W,1,08,0.97,174.5,M,-34.4,M,,*55
$GPRMC,211801.000,A,4305.1707,N,07740.8861,W,10.53,343.37,220923,,,A*48
$GPGGA,211801.250,4305.1717,N,07740.8863,W,1,08,0.97,174.5,M,-34.4,M,,*5E
$GPRMC,211801.500,A,4305.1726,N,07740.8865,W,12.20,354.21,220923,,,A*4D
$GPGGA,211801.750,4305.1735,N,07740.8867,W,1,08,0.97,174.4,M,-34.4,M,,*5E
$GPRMC,211802.000,A,4305.1744,N,07740.8868,W,13.08,358.41,220923,,,A*43
$GPGGA,211802.250,4305.1753,N,07740.8868,W,1,08,0.97,174.3,M,-34.4,M,,*50
$GPRMC,211802.500,A,4305.1763,N,07740.8868,W,14.25,2.43,220923,,,A*45
$GPGGA,211802.750,4305.1774,N,07740.8867,W,1,08,0.97,174.1,M,-34.4,M,,*5D
$GPRMC,211803.000,A,4305.1784,N,07740.8867,W,14.93,3.16,220923,,,A*4B
$GPGGA,211803.250,4305.1794,N,07740.8866,W,1,08,0.97,173.9,M,-34.4,M,,*59
$GPRMC,211803.500,A,4305.1805,N,07740.8865,W,15.61,2.92,220923,,,A*4B
$GPGGA,211803.750,4305.1815,N,07740.8865,W,1,08,0.97,173.8,M,-34.4,M,,*58
$GPRMC,211804.000,A,4305.1825,N,07740.8865,W,14.88,0.70,220923,,,A*43
$GPGGA,211804.250,4305.1835,N,07740.8865,W,1,08,0.97,173.7,M,-34.4,M,,*57
$GPRMC,211804.500,A,4305.1846,N,07740.8865,W,14.82,358.17,220923,,,A*46
$GPGGA,211804.750,4305.1856,N,07740.8866,W,1,08,0.97,173.6,M,-34.4,M,,*55
$GPRMC,211805.000,A,4305.1866,N,07740.8866,W,14.94,358.53,220923,,,A*44
$GPGGA,211805.250,4305.1877,N,07740.8867,W,1,08,0.97,173.5,M,-34.4,M,,*50
$GPRMC,211805.500,A,4305.1887,N,07740.8868,W,15.20,357.74,220923,,,A*44
$GPGGA,211805.750,4305.1897,N,07740.8868,W,1,08,0.97,173.4,M,-34.4,M,,*55
$GPRMC,211806.000,A,4305.1908,N,07740.8869,W,15.42,358.03,220923,,,A*4E
$GPGGA,211806.250,4305.1918,N,07740.8870,W,1,08,0.97,173.1,M,-34.4,M,,*59
$GPRMC,211806.500,A,4305.1928,N,07740.8870,W,15.48,358.01,220923,,,A*49
$GPGGA,211806.750,4305.1938,N,07740.8871,W,1,08,0.97,172.9,M,-34.4,M,,*56
$GPRMC,211807.000,A,4305.1949,N,07740.8872,W,15.51,357.95,220923,,,A*42
$GPGGA,211807.250,4305.1959,N,07740.8872,W,1,08,0.97,172.7,M,-34.4,M,,*58
$GPRMC,211807.500,A,4305.1969,N,07740.8873,W,15.51,357.79,220923,,,A*46
$GPGGA,211807.750,4305.1979,N,07740.8874,W,1,08,0.97,172.4,M,-34.4,M,,*5A
$GPRMC,211808.000,A,4305.1989,N,07740.8875,W,15.56,358.06,220923,,,A*44
$GPGGA,211808.250,4305.2000,N,07740.8876,W,1,08,0.97,172.3,M,-34.4,M,,*51
$GPRMC,211808.500,A,4305.2011,N,07740.8876,W,15.59,359.03,220923,,,A*42
$GPGGA,211808.750,4305.2021,N,07740.8876,W,1,08,0.97,172.2,M,-34.4,M,,*56
$GPRMC,211809.000,A,4305.2031,N,07740.8876,W,15.60,0.76,220923,,,A*43
$GPGGA,211809.250,4305.2042,N,07740.8876,W,1,08,0.97,172.1,M,-34.4,M,,*54
$GPRMC,211809.500,A,4305.2052,N,07740.8877,W,15.65,359.55,220923,,,A*49
$GPGGA,211809.750,4305.2062,N,07740.8878,W,1,08,0.97,172.0,M,-34.4,M,,*5C
$GPRMC,211810.000,A,4305.2072,N,07740.8879,W,16.04,359.58,220923,,,A*41
$GPGGA,211810.250,4305.2083,N,07740.8880,W,1,08,0.97,171.9,M,-34.4,M,,*53
$GPRMC,211810.500,A,4305.2093,N,07740.8880,W,16.11,359.02,220923,,,A*46
$GPGGA,211810.750,4305.2104,N,07740.8881,W,1,08,0.97,171.8,M,-34.4,M,,*58
$GPRMC,211811.000,A,4305.2115,N,07740.8882,W,16.74,356.92,220923,,,A*4A
$GPGGA,211811.250,4305.2126,N,07740.8883,W,1,08,0.97,171.7,M,-34.4,M,,*51
$GPRMC,211811.500,A,4305.2137,N,07740.8884,W,16.48,357.30,220923,,,A*4F
$GPGGA,211811.750,4305.2148,N,07740.8885,W,1,08,0.97,171.7,M,-34.4,M,,*5A
$GPRMC,211812.000,A,4305.2160,N,07740.8886,W,16.45,356.88,220923,,,A*46
$GPGGA,211812.250,4305.2171,N,07740.8888,W,1,08,0.97,171.7,M,-34.4,M,,*5B
$GPRMC,211812.500,A,4305.2182,N,07740.8888,W,16.46,355.40,220923,,,A*45
$GPGGA,211812.750,4305.2193,N,07740.8890,W,1,08,0.97,171.7,M,-34.4,M,,*5B
$GPRMC,211813.000,A,4305.2204,N,07740.8891,W,16.35,355.62,220923,,,A*40
$GPGGA,211813.250,4305.2216,N,07740.8893,W,1,08,0.97,171.6,M,-34.4,M,,*53
$GPRMC,211813.500,A,4305.2228,N,07740.8894,W,16.28,353.39,220923,,,A*4A
$GPGGA,211813.750,4305.2240,N,07740.8896,W,1,08,0.97,171.6,M,-34.4,M,,*50
$GPRMC,211814.000,A,4305.2251,N,07740.8898,W,16.53,353.09,220923,,,A*45
$GPGGA,211814.250,4305.2263,N,07740.8901,W,1,08,0.97,171.5,M,-34.4,M,,*5F
$GPRMC,211814.500,A,4305.2275,N,07740.8903,W,15.89,351.86,220923,,,A*44
$GPGGA,211814.750,4305.2286,N,07740.8906,W,1,08,0.97,171.6,M,-34.4,M,,*55
$GPRMC,211815.000,A,4305.2298,N,07740.8908,W,15.50,351.89,220923,,,A*43
$GPGGA,211815.250,4305.2308,N,07740.8910,W,1,08,0.97,171.4,M,-34.4,M,,*53
$GPRMC,211815.500,A,4305.2318,N,07740.8912,W,13.47,349.87,220923,,,A*43
$GPGGA,211815.750,4305.2327,N,07740.8914,W,1,08,0.97,171.5,M,-34.4,M,,*5E
$GPRMC,211816.000,A,4305.2335,N,07740.8917,W,11.47,348.38,220923,,,A*48
$GPGGA,211816.250,4305.2343,N,07740.8919,W,1,08,0.97,171.6,M,-34.4,M,,*54
$GPRMC,211816.500,A,4305.2349,N,07740.8921,W,9.38,348.25,220923,,,A*7E
$GPGGA,211816.750,4305.2355,N,07740.8922,W,1,08,0.97,171.7,M,-34.4,M,,*5F
$GPRMC,211817.000,A,4305.2361,N,07740.8924,W,7.01,348.69,220923,,,A*79
$GPGGA,211817.250,4305.2366,N,07740.8925,W,1,08,0.97,171.8,M,-34.4,M,,*53
$GPRMC,211817.500,A,4305.2370,N,07740.8926,W,5.16,349.71,220923,,,A*72
$GPGGA,211817.750,4305.2372,N,07740.8927,W,1,08,0.97,171.9,M,-34.4,M,,*50
$GPRMC,211818.000,A,4305.2375,N,07740.8927,W,4.88,351.73,220923,,,A*71
$GPGGA,211818.250,4305.2377,N,07740.8927,W,1,08,0.97,172.0,M,-34.4,M,,*55
$GPRMC,211818.500,A,4305.2381,N,07740.8926,W,5.27,357.77,220923,,,A*78
$GPGGA,211818.750,4305.2386,N,07740.8925,W,1,08,0.97,172.0,M,-34.4,M,,*5C
$GPRMC,211819.000,A,4305.2390,N,07740.8924,W,6.36,4.94,220923,,,A*75
$GPGGA,211819.250,4305.2396,N,07740.8922,W,1,08,0.97,172.0,M,-34.4,M,,*5E
$GPRMC,211819.500,A,4305.2402,N,07740.8920,W,7.52,12.30,220923,,,A*42
$GPGGA,211819.750,4305.2407,N,07740.8918,W,1,08,0.97,172.0,M,-34.4,M,,*5D
$GPRMC,211820.000,A,4305.2412,N,07740.8915,W,7.74,16.36,220923,,,A*4C
$GPGGA,211820.250,4305.2417,N,07740.8913,W,1,08,0.97,172.1,M,-34.4,M,,*59
$GPRMC,211820.500,A,4305.2423,N,07740.8909,W,8.56,26.98,220923,,,A*4E
$GPGGA,211820.750,4305.2430,N,07740.8903,W,1,08,0.97,172.1,M,-34.4,M,,*58
$GPRMC,211821.000,A,4305.2436,N,07740.8897,W,9.74,34.98,220923,,,A*4A
$GPGGA,211821.250,4305.2442,N,07740.8890,W,1,08,0.96,172.1,M,-34.4,M,,*53
$GPRMC,211821.500,A,4305.2448,N,07740.8881,W,11.50,47.01,220923,,,A*7A
$GPGGA,211821.750,4305.2454,N,07740.8871,W,1,07,1.16,172.2,M,-34.4,M,,*5B
$GPRMC,211822.000,A,4305.2459,N,07740.8861,W,12.85,54.60,220923,,,A*7C
$GPGGA,211822.250,4305.2464,N,07740.8849,W,1,08,0.96,172.3,M,-34.4,M,,*52
$GPRMC,211822.500,A,4305.2468,N,07740.8835,W,14.63,62.61,220923,,,A*70
$GPGGA,211822.750,4305.2472,N,07740.8821,W,1,07,1.16,172.3,M,-34.4,M,,*58
$GPRMC,211823.000,A,4305.2477,N,07740.8807,W,15.44,66.91,220923,,,A*74
$GPGGA,211823.250,4305.2481,N,07740.8791,W,1,08,0.97,172.3,M,-34.4,M,,*53
$GPRMC,211823.500,A,4305.2484,N,07740.8775,W,16.64,70.43,220923,,,A*7E
$GPGGA,211823.750,4305.2488,N,07740.8758,W,1,08,0.97,172.2,M,-34.4,M,,*5B
$GPRMC,211824.000,A,4305.2491,N,07740.8740,W,18.11,72.72,220923,,,A*72
$GPGGA,211824.250,4305.2495,N,07740.8722,W,1,08,0.97,172.2,M,-34.4,M,,*58
$GPRMC,211824.500,A,4305.2498,N,07740.8704,W,19.33,74.52,220923,,,A*7B
$GPGGA,211824.750,4305.2501,N,07740.8685,W,1,08,0.97,172.2,M,-34.4,M,,*5D
$GPRMC,211825.000,A,4305.2505,N,07740.8665,W,20.10,75.43,220923,,,A*76
$GPGGA,211825.250,4305.2508,N,07740.8645,W,1,08,0.97,172.3,M,-34.4,M,,*5D
$GPRMC,211825.500,A,4305.2512,N,07740.8625,W,21.01,75.55,220923,,,A*77
$GPGGA,211825.750,4305.2515,N,07740.8604,W,1,08,0.96,172.3,M,-34.4,M,,*50
$GPRMC,211826.000,A,4305.2518,N,07740.8584,W,21.72,76.85,220923,,,A*79
$GPGGA,211826.250,4305.2521,N,07740.8563,W,1,08,0.97,172.4,M,-34.4,M,,*55
$GPRMC,211826.500,A,4305.2524,N,07740.8542,W,22.41,77.46,220923,,,A*74
$GPGGA,211826.750,4305.2527,N,07740.8521,W,1,08,0.97,172.4,M,-34.4,M,,*50
$GPRMC,211827.000,A,4305.2530,N,07740.8499,W,22.81,78.81,220923,,,A*7A
$GPGGA,211827.250,4305.2534,N,07740.8478,W,1,08,0.97,172.5,M,-34.4,M,,*5A
$GPRMC,211827.500,A,4305.2537,N,07740.8456,W,23.15,79.76,220923,,,A*7E
$GPGGA,211827.750,4305.2539,N,07740.8434,W,1,08,0.97,172.4,M,-34.4,M,,*5B
$GPRMC,211828.000,A,4305.2542,N,07740.8411,W,23.71,80.49,220923,,,A*7D
$GPGGA,211828.250,4305.2544,N,07740.8389,W,1,07,1.16,172.4,M,-34.4,M,,*5D
$GPRMC,211828.500,A,4305.2547,N,07740.8367,W,23.57,81.42,220923,,,A*75
$GPGGA,211828.750,4305.2549,N,07740.8345,W,1,08,0.97,172.4,M,-34.4,M,,*52
$GPRMC,211829.000,A,4305.2551,N,07740.8323,W,23.10,82.82,220923,,,A*7A
$GPGGA,211829.250,4305.2553,N,07740.8301,W,1,08,0.97,172.4,M,-34.4,M,,*5D
$GPRMC,211829.500,A,4305.2555,N,07740.8279,W,22.98,82.97,220923,,,A*70
$GPGGA,211829.750,4305.2557,N,07740.8257,W,1,08,0.97,172.4,M,-34.4,M,,*5E
$GPRMC,211830.000,A,4305.2558,N,07740.8235,W,22.58,83.90,220923,,,A*72
$GPGGA,211830.250,4305.2560,N,07740.8214,W,1,08,0.97,172.4,M,-34.4,M,,*50
$GPRMC,211830.500,A,4305.2562,N,07740.8193,W,22.28,83.25,220923,,,A*78
$GPGGA,211830.750,4305.2564,N,07740.8172,W,1,07,1.16,172.4,M,-34.4,M,,*55
$GPRMC,211831.000,A,4305.2566,N,07740.8150,W,21.92,84.08,220923,,,A*7D
$GPGGA,211831.250,4305.2567,N,07740.8129,W,1,07,1.16,172.3,M,-34.4,M,,*5B
$GPRMC,211831.500,A,4305.2569,N,07740.8108,W,21.54,85.29,220923,,,A*72
$GPGGA,211831.750,4305.2570,N,07740.8087,W,1,07,1.16,172.3,M,-34.4,M,,*5D
$GPRMC,211832.000,A,4305.2572,N,07740.8067,W,21.12,85.83,220923,,,A*74
$GPGGA,211832.250,4305.2573,N,07740.8046,W,1,09,0.88,172.2,M,-34.4,M,,*5C
$GPRMC,211832.500,A,4305.2575,N,07740.8026,W,20.87,86.66,220923,,,A*76
$GPGGA,211832.750,4305.2577,N,07740.8006,W,1,09,0.87,172.2,M,-34.4,M,,*56
$GPRMC,211833.000,A,4305.2578,N,07740.7986,W,20.50,86.48,220923,,,A*75
$GPGGA,211833.250,4305.2580,N,07740.7966,W,1,09,0.87,172.2,M,-34.4,M,,*5A
$GPRMC,211833.500,A,4305.2581,N,07740.7946,W,20.19,85.74,220923,,,A*7B
$GPGGA,211833.750,4305.2583,N,07740.7927,W,1,08,1.04,172.2,M,-34.4,M,,*52
$GPRMC,211834.000,A,4305.2585,N,07740.7908,W,19.81,85.29,220923,,,A*74
$GPGGA,211834.250,4305.2587,N,07740.7889,W,1,08,1.04,172.2,M,-34.4,M,,*51
$GPRMC,211834.500,A,4305.2588,N,07740.7870,W,19.30,85.54,220923,,,A*72
$GPGGA,211834.750,4305.2590,N,07740.7851,W,1,08,1.04,172.1,M,-34.4,M,,*54
$GPRMC,211835.000,A,4305.2591,N,07740.7833,W,18.57,85.62,220923,,,A*7C
$GPGGA,211835.250,4305.2592,N,07740.7815,W,1,09,0.87,172.1,M,-34.4,M,,*59
$GPRMC,211835.500,A,4305.2593,N,07740.7798,W,17.36,86.75,220923,,,A*78
$GPGGA,211835.750,4305.2594,N,07740.7782,W,1,09,0.87,172.0,M,-34.4,M,,*5A
$GPRMC,211836.000,A,4305.2595,N,07740.7766,W,15.74,88.32,220923,,,A*70
$GPGGA,211836.250,4305.2597,N,07740.7750,W,1,09,0.88,172.0,M,-34.4,M,,*5F
$GPRMC,211836.500,A,4305.2598,N,07740.7737,W,13.89,88.52,220923,,,A*7E
$GPGGA,211836.750,4305.2598,N,07740.7724,W,1,09,0.87,172.0,M,-34.4,M,,*59
$GPRMC,211837.000,A,4305.2598,N,07740.7712,W,11.62,89.30,220923,,,A*7F
$GPGGA,211837.250,4305.2598,N,07740.7702,W,1,09,0.87,172.0,M,-34.4,M,,*59
$GPRMC,211837.500,A,4305.2598,N,07740.7692,W,9.32,90.87,220923,,,A*4B
$GPGGA,211837.750,4305.2599,N,07740.7684,W,1,09,0.87,172.0,M,-34.4,M,,*52
$GPRMC,211838.000,A,4305.2599,N,07740.7676,W,7.86,89.61,220923,,,A*4B
$GPGGA,211838.250,4305.2599,N,07740.7668,W,1,09,0.87,172.1,M,-34.4,M,,*5B
$GPRMC,211838.500,A,4305.2600,N,07740.7661,W,6.77,88.42,220923,,,A*44
$GPGGA,211838.750,4305.2600,N,07740.7655,W,1,09,0.87,172.1,M,-34.4,M,,*53
$GPRMC,211839.000,A,4305.2601,N,07740.7649,W,5.56,88.57,220923,,,A*4F
$GPGGA,211839.250,4305.2601,N,07740.7644,W,1,09,0.87,172.1,M,-34.4,M,,*56
$GPRMC,211839.500,A,4305.2601,N,07740.7638,W,5.47,89.32,220923,,,A*4E
$GPGGA,211839.750,4305.2602,N,07740.7633,W,1,09,0.88,172.0,M,-34.4,M,,*5E
$GPRMC,211840.000,A,4305.2602,N,07740.7626,W,7.32,86.35,220923,,,A*41
$GPGGA,211840.250,4305.2603,N,07740.7619,W,1,09,0.87,172.0,M,-34.4,M,,*53
$GPRMC,211840.500,A,4305.2604,N,07740.7611,W,9.27,82.52,220923,,,A*49
$GPGGA,211840.750,4305.2605,N,07740.7602,W,1,09,0.87,171.9,M,-34.4,M,,*50
$GPRMC,211841.000,A,4305.2607,N,07740.7592,W,10.95,74.88,220923,,,A*79
$GPGGA,211841.250,4305.2609,N,07740.7582,W,1,09,0.87,171.9,M,-34.4,M,,*53
$GPRMC,211841.500,A,4305.2612,N,07740.7572,W,11.53,69.94,220923,,,A*7C
$GPGGA,211841.750,4305.2615,N,07740.7562,W,1,09,0.87,171.9,M,-34.4,M,,*55
$GPRMC,211842.000,A,4305.2619,N,07740.7551,W,11.86,64.54,220923,,,A*79
$GPGGA,211842.250,4305.2624,N,07740.7541,W,1,09,0.87,171.9,M,-34.4,M,,*50
$GPRMC,211842.500,A,4305.2629,N,07740.7530,W,12.65,56.77,220923,,,A*76
$GPGGA,211842.750,4305.2635,N,07740.7521,W,1,09,0.87,171.9,M,-34.4,M,,*53
$GPRMC,211843.000,A,4305.2641,N,07740.7512,W,13.04,49.33,220923,,,A*74
$GPGGA,211843.250,4305.2648,N,07740.7504,W,1,09,0.87,171.9,M,-34.4,M,,*5A
$GPRMC,211843.500,A,4305.2656,N,07740.7497,W,12.72,39.04,220923,,,A*78
$GPGGA,211843.750,4305.2664,N,07740.7493,W,1,09,0.87,171.8,M,-34.4,M,,*5F
$GPRMC,211844.000,A,4305.2672,N,07740.7488,W,13.00,29.43,220923,,,A*74
$GPGGA,211844.250,4305.2681,N,07740.7486,W,1,09,0.87,171.8,M,-34.4,M,,*52
$GPRMC,211844.500,A,4305.2689,N,07740.7484,W,13.49,17.07,220923,,,A*79
$GPGGA,211844.750,4305.2698,N,07740.7483,W,1,09,0.87,171.9,M,-34.4,M,,*5B
$GPRMC,211845.000,A,4305.2708,N,07740.7483,W,13.84,8.65,220923,,,A*49
$GPGGA,211845.250,4305.2718,N,07740.7483,W,1,09,0.87,171.9,M,-34.4,M,,*56
$GPRMC,211845.500,A,4305.2728,N,07740.7484,W,14.82,1.93,220923,,,A*48
$GPGGA,211845.750,4305.2738,N,07740.7486,W,1,09,0.87,172.0,M,-34.4,M,,*5E
$GPRMC,211846.000,A,4305.2749,N,07740.7488,W,15.29,358.69,220923,,,A*4F
$GPGGA,211846.250,4305.2760,N,07740.7490,W,1,09,0.87,172.1,M,-34.4,M,,*53
$GPRMC,211846.500,A,4305.2771,N,07740.7492,W,15.84,356.91,220923,,,A*44
$GPGGA,211846.750,4305.2783,N,07740.7494,W,1,09,0.87,172.2,M,-34.4,M,,*5C
$GPRMC,211847.000,A,4305.2794,N,07740.7496,W,16.24,356.64,220923,,,A*4C
$GPGGA,211847.250,4305.2806,N,07740.7497,W,1,09,0.87,172.2,M,-34.4,M,,*59
$GPRMC,211847.500,A,4305.2818,N,07740.7498,W,17.08,357.78,220923,,,A*4F
$GPGGA,211847.750,4305.2831,N,07740.7499,W,1,09,0.87,172.2,M,-34.4,M,,*56
$GPRMC,211848.000,A,4305.2844,N,07740.7499,W,17.97,0.47,220923,,,A*46
$GPGGA,211848.250,4305.2857,N,07740.7498,W,1,09,0.87,172.3,M,-34.4,M,,*5C
$GPRMC,211848.500,A,4305.2871,N,07740.7498,W,18.89,2.89,220923,,,A*44
$GPGGA,211848.750,4305.2884,N,07740.7497,W,1,09,0.87,172.3,M,-34.4,M,,*58
$GPRMC,211849.000,A,4305.2898,N,07740.7496,W,19.49,3.88,220923,,,A*44
$GPGGA,211849.250,4305.2912,N,07740.7495,W,1,09,0.87,172.1,M,-34.4,M,,*52
$GPRMC,211849.500,A,4305.2927,N,07740.7494,W,20.09,3.77,220923,,,A*48
$GPGGA,211849.750,4305.2942,N,07740.7495,W,1,09,0.87,172.2,M,-34.4,M,,*51
$GPRMC,211850.000,A,4305.2957,N,07740.7494,W,20.84,3.48,220923,,,A*4B
$GPGGA,211850.250,4305.2972,N,07740.7493,W,1,09,0.87,172.4,M,-34.4,M,,*5F
$GPRMC,211850.500,A,4305.2987,N,07740.7493,W,21.63,3.04,220923,,,A*44
$GPGGA,211850.750,4305.3002,N,07740.7493,W,1,09,0.87,172.4,M,-34.4,M,,*55
$GPRMC,211851.000,A,4305.3018,N,07740.7493,W,22.09,2.64,220923,,,A*46
$GPGGA,211851.250,4305.3033,N,07740.7492,W,1,09,0.87,172.4,M,-34.4,M,,*52
$GPRMC,211851.500,A,4305.3049,N,07740.7492,W,22.36,2.65,220923,,,A*4B
$GPGGA,211851.750,4305.3065,N,07740.7492,W,1,09,0.87,172.5,M,-34.4,M,,*55
$GPRMC,211852.000,A,4305.3081,N,07740.7491,W,22.70,2.58,220923,,,A*46
$GPGGA,211852.250,4305.3097,N,07740.7491,W,1,09,0.87,172.5,M,-34.4,M,,*5D
$GPRMC,211852.500,A,4305.3113,N,07740.7490,W,22.71,1.84,220923,,,A*4B
$GPGGA,211852.750,4305.3129,N,07740.7490,W,1,09,0.88,172.6,M,-34.4,M,,*51
$GPRMC,211853.000,A,4305.3145,N,07740.7491,W,22.47,0.60,220923,,,A*43
$GPGGA,211853.250,4305.3161,N,07740.7491,W,1,09,0.87,172.6,M,-34.4,M,,*57
$GPRMC,211853.500,A,4305.3177,N,07740.7491,W,22.18,359.51,220923,,,A*40
$GPGGA,211853.750,4305.3192,N,07740.7492,W,1,09,0.87,172.6,M,-34.4,M,,*5D
$GPRMC,211854.000,A,4305.3207,N,07740.7493,W,21.88,358.87,220923,,,A*44
$GPGGA,211854.250,4305.3223,N,07740.7494,W,1,09,0.87,172.7,M,-34.4,M,,*51
$GPRMC,211854.500,A,4305.3238,N,07740.7495,W,21.27,359.07,220923,,,A*47
$GPGGA,211854.750,4305.3252,N,07740.7496,W,1,09,0.87,172.7,M,-34.4,M,,*50
$GPRMC,211855.000,A,4305.3267,N,07740.7496,W,20.13,358.80,220923,,,A*42
$GPGGA,211855.250,4305.3280,N,07740.7497,W,1,09,0.87,172.8,M,-34.4,M,,*55
$GPRMC,211855.500,A,4305.3293,N,07740.7498,W,18.35,359.32,220923,,,A*45
$GPGGA,211855.750,4305.3306,N,07740.7498,W,1,09,0.87,172.9,M,-34.4,M,,*51
$GPRMC,211856.000,A,4305.3317,N,07740.7499,W,16.19,359.92,220923,,,A*45
$GPGGA,211856.250,4305.3328,N,07740.7500,W,1,09,0.87,173.0,M,-34.4,M,,*53
$GPRMC,211856.500,A,4305.3338,N,07740.7500,W,13.77,0.26,220923,,,A*41
$GPGGA,211856.750,4305.3347,N,07740.7501,W,1,09,0.87,173.2,M,-34.4,M,,*5C
$GPRMC,211857.000,A,4305.3355,N,07740.7501,W,11.58,0.26,220923,,,A*40
$GPGGA,211857.250,4305.3361,N,07740.7501,W,1,09,0.87,173.3,M,-34.4,M,,*5D
$GPRMC,211857.500,A,4305.3368,N,07740.7501,W,8.77,359.53,220923,,,A*73
$GPGGA,211857.750,4305.3373,N,07740.7501,W,1,09,0.87,173.4,M,-34.4,M,,*5C
$GPRMC,211858.000,A,4305.3378,N,07740.7501,W,6.62,0.74,220923,,,A*78
$GPGGA,211858.250,4305.3382,N,07740.7500,W,1,09,0.87,173.5,M,-34.4,M,,*58
$GPRMC,211858.500,A,4305.3387,N,07740.7500,W,6.17,0.07,220923,,,A*7A
$GPGGA,211858.750,4305.3392,N,07740.7500,W,1,09,0.87,173.7,M,-34.4,M,,*5E
$GPRMC,211859.000,A,4305.3397,N,07740.7501,W,6.88,353.36,220923,,,A*7F
$GPGGA,211859.250,4305.3401,N,07740.7503,W,1,09,0.87,173.8,M,-34.4,M,,*5B
$GPRMC,211859.500,A,4305.3406,N,07740.7505,W,7.10,344.06,220923,,,A*74
$GPGGA,211859.750,4305.3412,N,07740.7508,W,1,09,0.87,173.8,M,-34.4,M,,*57
$GPRMC,211900.000,A,4305.3418,N,07740.7512,W,8.69,330.59,220923,,,A*7D
$GPGGA,211900.250,4305.3424,N,07740.7516,W,1,09,0.87,173.9,M,-34.4,M,,*54
$GPRMC,211900.500,A,4305.3430,N,07740.7521,W,9.45,326.92,220923,,,A*7D
$GPGGA,211900.750,4305.3436,N,07740.7527,W,1,09,0.87,174.0,M,-34.4,M,,*5E
$GPRMC,211901.000,A,4305.3441,N,07740.7534,W,9.70,318.50,220923,,,A*7E
$GPGGA,211901.250,4305.3446,N,07740.7542,W,1,09,0.87,174.1,M,-34.4,M,,*5F
$GPRMC,211901.500,A,4305.3450,N,07740.7551,W,10.19,307.10,220923,,,A*45
$GPGGA,211901.750,4305.3454,N,07740.7561,W,1,09,0.87,174.3,M,-34.4,M,,*5A
$GPRMC,211902.000,A,4305.3457,N,07740.7571,W,10.83,299.09,220923,,,A*4B
$GPGGA,211902.250,4305.3460,N,07740.7581,W,1,09,0.87,174.4,M,-34.4,M,,*52
$GPRMC,211902.500,A,4305.3463,N,07740.7591,W,11.02,292.00,220923,,,A*4D
$GPGGA,211902.750,4305.3465,N,07740.7603,W,1,09,0.87,174.5,M,-34.4,M,,*5A
$GPRMC,211903.000,A,4305.3466,N,07740.7615,W,12.01,283.60,220923,,,A*45
$GPGGA,211903.250,4305.3467,N,07740.7628,W,1,09,0.87,174.6,M,-34.4,M,,*56
$GPRMC,211903.500,A,4305.3469,N,07740.7641,W,12.66,280.07,220923,,,A*4D
$GPGGA,211903.750,4305.3470,N,07740.7655,W,1,09,0.87,174.8,M,-34.4,M,,*51
$GPRMC,211904.000,A,4305.3470,N,07740.7672,W,13.80,277.80,220923,,,A*49
$GPGGA,211904.250,4305.3470,N,07740.7690,W,1,09,0.87,174.8,M,-34.4,M,,*5A
$GPRMC,211904.500,A,4305.3469,N,07740.7709,W,14.89,274.34,220923,,,A*4B
$GPGGA,211904.750,4305.3469,N,07740.7726,W,1,09,0.87,175.0,M,-34.4,M,,*52
$GPRMC,211905.000,A,4305.3468,N,07740.7745,W,15.68,272.13,220923,,,A*4B
$GPGGA,211905.250,4305.3467,N,07740.7763,W,1,09,0.87,175.0,M,-34.4,M,,*59
$GPRMC,211905.500,A,4305.3466,N,07740.7781,W,16.18,270.35,220923,,,A*4A
$GPGGA,211905.750,4305.3465,N,07740.7799,W,1,09,0.88,175.1,M,-34.4,M,,*55
$GPRMC,211906.000,A,4305.3464,N,07740.7817,W,17.01,268.91,220923,,,A*40
$GPGGA,211906.250,4305.3463,N,07740.7836,W,1,09,0.87,175.2,M,-34.4,M,,*53
$GPRMC,211906.500,A,4305.3461,N,07740.7858,W,18.05,267.49,220923,,,A*4A
$GPGGA,211906.750,4305.3460,N,07740.7878,W,1,09,0.87,175.3,M,-34.4,M,,*5E
$GPRMC,211907.000,A,4305.3459,N,07740.7897,W,18.81,267.53,220923,,,A*41
$GPGGA,211907.250,4305.3458,N,07740.7917,W,1,09,0.87,175.3,M,-34.4,M,,*59
$GPRMC,211907.500,A,4305.3457,N,07740.7938,W,19.47,267.37,220923,,,A*47
$GPGGA,211907.750,4305.3456,N,07740.7958,W,1,09,0.87,175.4,M,-34.4,M,,*5E
$GPRMC,211908.000,A,4305.3455,N,07740.7979,W,19.65,267.83,220923,,,A*45
$GPGGA,211908.250,4305.3454,N,07740.8000,W,1,09,0.87,175.5,M,-34.4,M,,*5C
$GPRMC,211908.500,A,4305.3453,N,07740.8020,W,20.11,267.74,220923,,,A*4D
$GPGGA,211908.750,4305.3452,N,07740.8041,W,1,09,0.87,175.6,M,-34.4,M,,*59
$GPRMC,211909.000,A,4305.3451,N,07740.8061,W,20.44,267.71,220923,,,A*4B
$GPGGA,211909.250,4305.3450,N,07740.8081,W,1,09,0.87,175.7,M,-34.4,M,,*52
$GPRMC,211909.500,A,4305.3450,N,07740.8102,W,20.54,268.26,220923,,,A*47
$GPGGA,211909.750,4305.3449,N,07740.8122,W,1,09,0.87,175.7,M,-34.4,M,,*57
$GPRMC,211910.000,A,4305.3448,N,07740.8142,W,20.47,268.37,220923,,,A*45
$GPGGA,211910.250,4305.3447,N,07740.8162,W,1,09,0.87,175.8,M,-34.4,M,,*5F
$GPRMC,211910.500,A,4305.3447,N,07740.8182,W,20.44,267.89,220923,,,A*4A
$GPGGA,211910.750,4305.3446,N,07740.8202,W,1,09,0.87,175.9,M,-34.4,M,,*5F
$GPRMC,211911.000,A,4305.3445,N,07740.8222,W,20.25,267.96,220923,,,A*4C
$GPGGA,211911.250,4305.3445,N,07740.8242,W,1,09,0.87,176.0,M,-34.4,M,,*56
$GPRMC,211911.500,A,4305.3445,N,07740.8263,W,20.20,268.19,220923,,,A*41
$GPGGA,211911.750,4305.3444,N,07740.8283,W,1,08,1.04,176.0,M,-34.4,M,,*54
$GPRMC,211912.000,A,4305.3444,N,07740.8303,W,20.23,268.34,220923,,,A*4D
$GPGGA,211912.250,4305.3443,N,07740.8324,W,1,09,0.87,176.1,M,-34.4,M,,*53
$GPRMC,211912.500,A,4305.3442,N,07740.8344,W,20.27,267.62,220923,,,A*45
$GPGGA,211912.750,4305.3441,N,07740.8364,W,1,09,0.87,176.2,M,-34.4,M,,*53
$GPRMC,211913.000,A,4305.3439,N,07740.8384,W,20.34,266.85,220923,,,A*4B
$GPGGA,211913.250,4305.3438,N,07740.8404,W,1,09,0.87,176.2,M,-34.4,M,,*58
$GPRMC,211913.500,A,4305.3437,N,07740.8425,W,20.55,266.84,220923,,,A*4A
$GPGGA,211913.750,4305.3436,N,07740.8445,W,1,09,0.87,176.3,M,-34.4,M,,*57
$GPRMC,211914.000,A,4305.3436,N,07740.8465,W,20.73,267.20,220923,,,A*46
$GPGGA,211914.250,4305.3435,N,07740.8484,W,1,09,0.87,176.4,M,-34.4,M,,*5C
$GPRMC,211914.500,A,4305.3435,N,07740.8504,W,20.77,268.37,220923,,,A*4B
$GPGGA,211914.750,4305.3435,N,07740.8524,W,1,09,0.87,176.5,M,-34.4,M,,*53
$GPRMC,211915.000,A,4305.3435,N,07740.8543,W,20.77,268.86,220923,,,A*46
$GPGGA,211915.250,4305.3435,N,07740.8563,W,1,09,0.87,176.6,M,-34.4,M,,*57
$GPRMC,211915.500,A,4305.3435,N,07740.8582,W,20.76,269.39,220923,,,A*4A
$GPGGA,211915.750,4305.3434,N,07740.8601,W,1,09,0.87,176.7,M,-34.4,M,,*55
$GPRMC,211916.000,A,4305.3435,N,07740.8620,W,20.79,270.25,220923,,,A*4D
$GPGGA,211916.250,4305.3435,N,07740.8639,W,1,09,0.87,176.7,M,-34.4,M,,*59
$GPRMC,211916.500,A,4305.3436,N,07740.8659,W,20.62,271.36,220923,,,A*4C
$GPGGA,211916.750,4305.3437,N,07740.8678,W,1,09,0.87,176.8,M,-34.4,M,,*54
$GPRMC,211917.000,A,4305.3439,N,07740.8697,W,20.23,272.83,220923,,,A*4D
$GPGGA,211917.250,4305.3440,N,07740.8717,W,1,09,0.87,176.8,M,-34.4,M,,*58
$GPRMC,211917.500,A,4305.3441,N,07740.8736,W,19.98,274.44,220923,,,A*4A
$GPGGA,211917.750,4305.3443,N,07740.8755,W,1,09,0.87,176.9,M,-34.4,M,,*59
$GPRMC,211918.000,A,4305.3445,N,07740.8774,W,19.75,276.28,220923,,,A*49
$GPGGA,211918.250,4305.3447,N,07740.8793,W,1,09,0.87,177.0,M,-34.4,M,,*55
$GPRMC,211918.500,A,4305.3450,N,07740.8811,W,19.32,279.93,220923,,,A*48
$GPGGA,211918.750,4305.3453,N,07740.8829,W,1,09,0.87,177.1,M,-34.4,M,,*5A
$GPRMC,211919.000,A,4305.3456,N,07740.8846,W,18.90,282.21,220923,,,A*4C
$GPGGA,211919.250,4305.3460,N,07740.8863,W,1,09,0.87,177.1,M,-34.4,M,,*50
$GPRMC,211919.500,A,4305.3464,N,07740.8879,W,17.57,287.29,220923,,,A*4D
$GPGGA,211919.750,4305.3469,N,07740.8895,W,1,09,0.87,177.1,M,-34.4,M,,*55
$GPRMC,211920.000,A,4305.3474,N,07740.8911,W,17.78,291.33,220923,,,A*4D
$GPGGA,211920.250,4305.3479,N,07740.8926,W,1,09,0.87,177.3,M,-34.4,M,,*50
$GPRMC,211920.500,A,4305.3485,N,07740.8939,W,16.92,294.92,220923,,,A*47
$GPGGA,211920.750,4305.3491,N,07740.8951,W,1,09,0.87,177.5,M,-34.4,M,,*55
$GPRMC,211921.000,A,4305.3496,N,07740.8963,W,15.66,298.86,220923,,,A*4F
$GPGGA,211921.250,4305.3502,N,07740.8975,W,1,09,0.87,177.6,M,-34.4,M,,*5F
$GPRMC,211921.500,A,4305.3509,N,07740.8987,W,14.63,302.28,220923,,,A*45
$GPGGA,211921.750,4305.3514,N,07740.8996,W,1,09,0.87,177.8,M,-34.4,M,,*5E
$GPRMC,211922.000,A,4305.3520,N,07740.9005,W,12.62,307.43,220923,,,A*45
$GPGGA,211922.250,4305.3526,N,07740.9014,W,1,09,0.88,177.9,M,-34.4,M,,*55
$GPRMC,211922.500,A,4305.3532,N,07740.9019,W,10.57,316.75,220923,,,A*4F
$GPGGA,211922.750,4305.3538,N,07740.9024,W,1,09,0.87,178.1,M,-34.4,M,,*54
$GPRMC,211923.000,A,4305.3543,N,07740.9029,W,8.96,322.52,220923,,,A*78
$GPGGA,211923.250,4305.3547,N,07740.9033,W,1,09,0.87,178.2,M,-34.4,M,,*5D
$GPRMC,211923.500,A,4305.3550,N,07740.9034,W,6.39,329.93,220923,,,A*7E
$GPGGA,211923.750,4305.3553,N,07740.9035,W,1,09,0.87,178.5,M,-34.4,M,,*5C
$GPRMC,211924.000,A,4305.3556,N,07740.9036,W,4.63,336.14,220923,,,A*74
$GPGGA,211924.250,4305.3557,N,07740.9036,W,1,08,1.04,178.6,M,-34.4,M,,*51
$GPRMC,211924.500,A,4305.3560,N,07740.9036,W,2.88,335.91,220923,,,A*79
$GPGGA,211924.750,4305.3560,N,07740.9036,W,1,09,0.87,178.7,M,-34.4,M,,*5A
$GPRMC,211925.000,A,4305.3562,N,07740.9035,W,1.33,335.91,220923,,,A*7F
$GPGGA,211925.250,4305.3563,N,07740.9035,W,1,08,1.04,178.8,M,-34.4,M,,*5A
$GPRMC,211925.500,A,4305.3564,N,07740.9034,W,0.79,335.91,220923,,,A*72
$GPGGA,211925.750,4305.3564,N,07740.9034,W,1,09,0.87,179.0,M,-34.4,M,,*5B
$GPRMC,211926.000,A,4305.3565,N,07740.9033,W,0.57,335.91,220923,,,A*7E
$GPGGA,211926.250,4305.3565,N,07740.9032,W,1,09,0.87,179.0,M,-34.4,M,,*5A
$GPRMC,211926.500,A,4305.3566,N,07740.9032,W,0.45,335.91,220923,,,A*7A
$GPGGA,211926.750,4305.3566,N,07740.9032,W,1,09,0.87,179.1,M,-34.4,M,,*5D
$GPRMC,211927.000,A,4305.3566,N,07740.9031,W,0.31,335.91,220923,,,A*7E
$GPGGA,211927.250,4305.3567,N,07740.9031,W,1,08,1.04,179.1,M,-34.4,M,,*50
$GPRMC,211927.500,A,4305.3567,N,07740.9030,W,0.20,335.91,220923,,,A*7B
$GPGGA,211927.750,4305.3567,N,07740.9030,W,1,09,0.87,178.5,M,-34.4,M,,*5A
$GPRMC,211928.000,A,4305.3567,N,07740.9029,W,0.13,335.91,220923,,,A*79
$GPGGA,211928.250,4305.3567,N,07740.9029,W,1,09,0.87,178.2,M,-34.4,M,,*5F
$GPRMC,211928.500,A,4305.3568,N,07740.9029,W,0.38,335.91,220923,,,A*7A
$GPGGA,211928.750,4305.3568,N,07740.9029,W,1,09,0.87,178.3,M,-34.4,M,,*54
$GPRMC,211929.000,A,4305.3568,N,07740.9029,W,0.74,335.91,220923,,,A*76
$GPGGA,211929.250,4305.3569,N,07740.9030,W,1,09,0.87,178.4,M,-34.4,M,,*5E
$GPRMC,211929.500,A,4305.3569,N,07740.9031,W,1.55,335.91,220923,,,A*79
$GPGGA,211929.750,4305.3570,N,07740.9031,W,1,09,0.87,178.4,M,-34.4,M,,*52
$GPRMC,211930.000,A,4305.3573,N,07740.9036,W,3.76,329.21,220923,,,A*7D
