Vers 81
USE_SERIAL_FEEDBACK=true
DEVELOPMENT_MODE=false
USE_RMC_ONLY=false

$GPRMC,185133.500,A,4307.7792,N,07726.8017,W,0.23,213.34,230923,,,A*7A
$GPGGA,185133.750,4307.7792,N,07726.8018,W,1,05,1.71,158.1,M,-34.3,M,,*59
$GPRMC,185134.000,A,4307.7791,N,07726.8019,W,0.36,233.60,230923,,,A*72
$GPGGA,185134.250,4307.7790,N,07726.8020,W,1,05,1.71,157.4,M,-34.3,M,,*58
$GPRMC,185134.500,A,4307.7791,N,07726.8021,W,0.32,253.87,230923,,,A*77
$GPGGA,185134.750,4307.7791,N,07726.8021,W,1,05,1.71,157.0,M,-34.3,M,,*59
$GPRMC,185135.000,A,4307.7791,N,07726.8021,W,0.26,267.59,230923,,,A*72
$GPGGA,185135.250,4307.7791,N,07726.8021,W,1,05,1.71,156.6,M,-34.3,M,,*5A
$GPRMC,185135.500,A,4307.7791,N,07726.8021,W,0.15,281.89,230923,,,A*72
$GPGGA,185135.750,4307.7792,N,07726.8020,W,1,05,1.71,156.3,M,-34.3,M,,*58
$GPRMC,185136.000,A,4307.7792,N,07726.8020,W,0.16,335.62,230923,,,A*7E
$GPGGA,185136.250,4307.7792,N,07726.8019,W,1,05,1.71,156.3,M,-34.3,M,,*54
$GPRMC,185136.500,A,4307.7793,N,07726.8019,W,0.14,346.98,230923,,,A*73
$GPGGA,185136.750,4307.7793,N,07726.8019,W,1,05,1.96,156.2,M,-34.3,M,,*58
$GPRMC,185137.000,A,4307.7794,N,07726.8018,W,0.29,4.75,230923,,,A*79
$GPGGA,185137.250,4307.7794,N,07726.8018,W,1,05,1.96,156.1,M,-34.3,M,,*59
$GPRMC,185137.500,A,4307.7794,N,07726.8018,W,0.25,357.23,230923,,,A*76
$GPGGA,185137.750,4307.7793,N,07726.8018,W,1,05,1.96,156.0,M,-34.3,M,,*5A
$GPRMC,185138.000,A,4307.7792,N,07726.8019,W,0.08,336.85,230923,,,A*7F
$GPGGA,185138.250,4307.7792,N,07726.8019,W,1,05,1.71,155.8,M,-34.3,M,,*52
$GPRMC,185138.500,A,4307.7791,N,07726.8019,W,0.04,327.68,230923,,,A*76
$GPGGA,185138.750,4307.7790,N,07726.8020,W,1,05,1.71,155.6,M,-34.3,M,,*51
$GPRMC,185139.000,A,4307.7790,N,07726.8021,W,0.15,187.72,230923,,,A*7B
$GPGGA,185139.250,4307.7789,N,07726.8021,W,1,05,1.71,155.5,M,-34.3,M,,*5F
$GPRMC,185139.500,A,4307.7789,N,07726.8021,W,0.17,190.23,230923,,,A*76
$GPGGA,185139.750,4307.7789,N,07726.8021,W,1,05,1.71,155.6,M,-34.3,M,,*59
$GPRMC,185140.000,A,4307.7789,N,07726.8021,W,0.01,253.49,230923,,,A*7A
$GPGGA,185140.250,4307.7789,N,07726.8021,W,1,05,1.71,155.7,M,-34.3,M,,*53
$GPRMC,185140.500,A,4307.7789,N,07726.8021,W,0.03,300.08,230923,,,A*7F
$GPGGA,185140.750,4307.7789,N,07726.8021,W,1,05,1.71,155.8,M,-34.3,M,,*59
$GPRMC,185141.000,A,4307.7789,N,07726.8021,W,0.06,320.54,230923,,,A*75
$GPGGA,185141.250,4307.7788,N,07726.8022,W,1,05,1.71,155.9,M,-34.3,M,,*5E
$GPRMC,185141.500,A,4307.7788,N,07726.8022,W,0.05,316.53,230923,,,A*73
$GPGGA,185141.750,4307.7789,N,07726.8022,W,1,05,1.71,155.9,M,-34.3,M,,*5A
$GPRMC,185142.000,A,4307.7789,N,07726.8022,W,0.21,341.81,230923,,,A*7F
$GPGGA,185142.250,4307.7789,N,07726.8022,W,1,05,1.71,156.0,M,-34.3,M,,*56
$GPRMC,185142.500,A,4307.7789,N,07726.8022,W,0.21,339.15,230923,,,A*78
$GPGGA,185142.750,4307.7790,N,07726.8023,W,1,05,1.71,156.1,M,-34.3,M,,*5B
$GPRMC,185143.000,A,4307.7790,N,07726.8023,W,0.18,339.08,230923,,,A*73
$GPGGA,185143.250,4307.7790,N,07726.8023,W,1,05,1.71,156.1,M,-34.3,M,,*5F
$GPRMC,185143.500,A,4307.7791,N,07726.8023,W,0.18,0.00,230923,,,A*76
$GPGGA,185143.750,4307.7791,N,07726.8023,W,1,05,1.96,156.3,M,-34.3,M,,*50
$GPRMC,185144.000,A,4307.7791,N,07726.8023,W,0.14,39.09,230923,,,A*4B
$GPGGA,185144.250,4307.7791,N,07726.8023,W,1,05,1.71,156.5,M,-34.3,M,,*5D
$GPRMC,185144.500,A,4307.7792,N,07726.8023,W,0.17,24.90,230923,,,A*42
$GPGGA,185144.750,4307.7792,N,07726.8022,W,1,05,1.71,156.6,M,-34.3,M,,*59
$GPRMC,185145.000,A,4307.7792,N,07726.8022,W,0.18,40.39,230923,,,A*49
$GPGGA,185145.250,4307.7793,N,07726.8022,W,1,05,1.71,156.7,M,-34.3,M,,*5D
$GPRMC,185145.500,A,4307.7793,N,07726.8022,W,0.19,32.23,230923,,,A*42
$GPGGA,185145.750,4307.7793,N,07726.8023,W,1,05,1.71,156.8,M,-34.3,M,,*56
$GPRMC,185146.000,A,4307.7793,N,07726.8023,W,0.12,349.69,230923,,,A*7F
$GPGGA,185146.250,4307.7793,N,07726.8024,W,1,05,1.96,156.8,M,-34.3,M,,*5E
$GPRMC,185146.500,A,4307.7792,N,07726.8025,W,0.08,264.78,230923,,,A*78
$GPGGA,185146.750,4307.7792,N,07726.8025,W,1,05,1.71,156.8,M,-34.3,M,,*52
$GPRMC,185147.000,A,4307.7792,N,07726.8025,W,0.04,326.16,230923,,,A*7F
$GPGGA,185147.250,4307.7792,N,07726.8025,W,1,05,1.71,156.7,M,-34.3,M,,*59
$GPRMC,185147.500,A,4307.7792,N,07726.8025,W,0.03,264.91,230923,,,A*75
$GPGGA,185147.750,4307.7791,N,07726.8026,W,1,05,1.71,156.6,M,-34.3,M,,*5D
$GPRMC,185148.000,A,4307.7792,N,07726.8026,W,0.06,264.41,230923,,,A*74
$GPGGA,185148.250,4307.7792,N,07726.8026,W,1,05,1.71,156.5,M,-34.3,M,,*57
$GPRMC,185148.500,A,4307.7792,N,07726.8027,W,0.01,243.14,230923,,,A*72
$GPGGA,185148.750,4307.7792,N,07726.8027,W,1,05,1.71,156.5,M,-34.3,M,,*53
$GPRMC,185149.000,A,4307.7792,N,07726.8027,W,0.10,69.24,230923,,,A*4F
$GPGGA,185149.250,4307.7792,N,07726.8027,W,1,05,1.71,156.5,M,-34.3,M,,*57
$GPRMC,185149.500,A,4307.7792,N,07726.8027,W,0.08,52.62,230923,,,A*49
$GPGGA,185149.750,4307.7792,N,07726.8028,W,1,05,1.71,156.4,M,-34.3,M,,*5C
$GPRMC,185150.000,A,4307.7791,N,07726.8028,W,0.07,39.70,230923,,,A*49
$GPGGA,185150.250,4307.7791,N,07726.8029,W,1,06,1.64,156.2,M,-34.3,M,,*52
$GPRMC,185150.500,A,4307.7791,N,07726.8029,W,0.06,11.27,230923,,,A*44
$GPGGA,185150.750,4307.7791,N,07726.8030,W,1,06,1.87,156.0,M,-34.3,M,,*50
$GPRMC,185151.000,A,4307.7791,N,07726.8030,W,0.04,27.12,230923,,,A*49
$GPGGA,185151.250,4307.7791,N,07726.8031,W,1,06,1.64,155.8,M,-34.3,M,,*53
$GPRMC,185151.500,A,4307.7789,N,07726.8031,W,0.13,200.71,230923,,,A*70
$GPGGA,185151.750,4307.7790,N,07726.8031,W,1,06,1.64,155.7,M,-34.3,M,,*58
$GPRMC,185152.000,A,4307.7790,N,07726.8032,W,0.06,154.09,230923,,,A*74
$GPGGA,185152.250,4307.7790,N,07726.8032,W,1,06,1.64,155.5,M,-34.3,M,,*5F
$GPRMC,185152.500,A,4307.7789,N,07726.8032,W,0.04,104.89,230923,,,A*76
$GPGGA,185152.750,4307.7789,N,07726.8032,W,1,06,1.64,155.4,M,-34.3,M,,*53
$GPRMC,185153.000,A,4307.7789,N,07726.8033,W,0.02,50.03,230923,,,A*47
$GPGGA,185153.250,4307.7789,N,07726.8033,W,1,06,1.64,155.2,M,-34.3,M,,*50
$GPRMC,185153.500,A,4307.7789,N,07726.8033,W,0.02,54.75,230923,,,A*47
$GPGGA,185153.750,4307.7789,N,07726.8033,W,1,06,1.64,155.1,M,-34.3,M,,*56
$GPRMC,185154.000,A,4307.7788,N,07726.8033,W,0.01,10.12,230923,,,A*46
$GPGGA,185154.250,4307.7788,N,07726.8034,W,1,06,1.87,155.0,M,-34.3,M,,*5E
$GPRMC,185154.500,A,4307.7788,N,07726.8034,W,0.03,338.83,230923,,,A*77
$GPGGA,185154.750,4307.7788,N,07726.8034,W,1,06,1.64,154.9,M,-34.3,M,,*5E
$GPRMC,185155.000,A,4307.7788,N,07726.8034,W,0.02,87.03,230923,,,A*4D
$GPGGA,185155.250,4307.7788,N,07726.8034,W,1,06,1.64,154.8,M,-34.3,M,,*5B
$GPRMC,185155.500,A,4307.7788,N,07726.8034,W,0.05,3.57,230923,,,A*72
$GPGGA,185155.750,4307.7787,N,07726.8034,W,1,06,1.87,154.7,M,-34.3,M,,*53
$GPRMC,185156.000,A,4307.7787,N,07726.8035,W,0.03,165.65,230923,,,A*7C
$GPGGA,185156.250,4307.7787,N,07726.8035,W,1,06,1.64,154.6,M,-34.3,M,,*58
$GPRMC,185156.500,A,4307.7787,N,07726.8035,W,0.04,269.99,230923,,,A*72
$GPGGA,185156.750,4307.7787,N,07726.8035,W,1,06,1.64,154.5,M,-34.3,M,,*5E
$GPRMC,185157.000,A,4307.7787,N,07726.8035,W,0.01,28.41,230923,,,A*41
$GPGGA,185157.250,4307.7787,N,07726.8035,W,1,06,1.64,154.4,M,-34.3,M,,*5B
$GPRMC,185157.500,A,4307.7786,N,07726.8035,W,0.07,48.40,230923,,,A*44
$GPGGA,185157.750,4307.7786,N,07726.8036,W,1,06,1.64,154.3,M,-34.3,M,,*5B
$GPRMC,185158.000,A,4307.7786,N,07726.8036,W,0.04,335.27,230923,,,A*76
$GPGGA,185158.250,4307.7786,N,07726.8036,W,1,06,1.64,154.2,M,-34.3,M,,*50
$GPRMC,185158.500,A,4307.7786,N,07726.8036,W,0.05,357.39,230923,,,A*79
$GPGGA,185158.750,4307.7785,N,07726.8037,W,1,06,1.87,154.1,M,-34.3,M,,*59
$GPRMC,185159.000,A,4307.7785,N,07726.8037,W,0.07,40.43,230923,,,A*45
$GPGGA,185159.250,4307.7785,N,07726.8037,W,1,06,1.64,154.0,M,-34.3,M,,*51
$GPRMC,185159.500,A,4307.7785,N,07726.8037,W,0.01,312.93,230923,,,A*7F
$GPGGA,185159.750,4307.7785,N,07726.8037,W,1,06,1.64,153.9,M,-34.3,M,,*5A
$GPRMC,185200.000,A,4307.7785,N,07726.8037,W,0.05,148.19,230923,,,A*7E
$GPGGA,185200.250,4307.7785,N,07726.8038,W,1,06,1.64,153.9,M,-34.3,M,,*5F
$GPRMC,185200.500,A,4307.7785,N,07726.8038,W,0.04,185.40,230923,,,A*78
$GPGGA,185200.750,4307.7785,N,07726.8038,W,1,06,1.64,153.8,M,-34.3,M,,*5B
$GPRMC,185201.000,A,4307.7785,N,07726.8038,W,0.02,42.81,230923,,,A*4D
$GPGGA,185201.250,4307.7785,N,07726.8038,W,1,06,1.64,153.8,M,-34.3,M,,*5F
$GPRMC,185201.500,A,4307.7785,N,07726.8039,W,0.02,222.66,230923,,,A*74
$GPGGA,185201.750,4307.7785,N,07726.8039,W,1,06,1.64,153.7,M,-34.3,M,,*54
$GPRMC,185202.000,A,4307.7784,N,07726.8039,W,0.04,77.48,230923,,,A*4B
$GPGGA,185202.250,4307.7784,N,07726.8039,W,1,08,1.19,153.6,M,-34.3,M,,*56
$GPRMC,185202.500,A,4307.7784,N,07726.8040,W,0.02,109.77,230923,,,A*72
$GPGGA,185202.750,4307.7784,N,07726.8040,W,1,08,1.19,153.5,M,-34.3,M,,*5E
$GPRMC,185203.000,A,4307.7784,N,07726.8040,W,0.03,173.36,230923,,,A*7F
$GPGGA,185203.250,4307.7784,N,07726.8041,W,1,08,1.19,153.5,M,-34.3,M,,*5B
$GPRMC,185203.500,A,4307.7784,N,07726.8041,W,0.03,134.53,230923,,,A*7B
$GPGGA,185203.750,4307.7784,N,07726.8041,W,1,08,1.19,153.4,M,-34.3,M,,*5F
$GPRMC,185204.000,A,4307.7783,N,07726.8041,W,0.02,245.83,230923,,,A*77
$GPGGA,185204.250,4307.7783,N,07726.8042,W,1,08,1.19,153.4,M,-34.3,M,,*59
$GPRMC,185204.500,A,4307.7783,N,07726.8042,W,0.04,42.70,230923,,,A*4E
$GPGGA,185204.750,4307.7783,N,07726.8042,W,1,08,1.19,153.3,M,-34.3,M,,*5B
$GPRMC,185205.000,A,4307.7783,N,07726.8042,W,0.02,194.24,230923,,,A*77
$GPGGA,185205.250,4307.7783,N,07726.8042,W,1,08,1.19,153.2,M,-34.3,M,,*5E
$GPRMC,185205.500,A,4307.7783,N,07726.8042,W,0.04,52.23,230923,,,A*48
$GPGGA,185205.750,4307.7783,N,07726.8042,W,1,08,1.19,153.2,M,-34.3,M,,*5B
$GPRMC,185206.000,A,4307.7783,N,07726.8042,W,0.01,115.10,230923,,,A*79
$GPGGA,185206.250,4307.7783,N,07726.8042,W,1,08,1.19,153.2,M,-34.3,M,,*5D
$GPRMC,185206.500,A,4307.7783,N,07726.8042,W,0.01,155.03,230923,,,A*7A
$GPGGA,185206.750,4307.7783,N,07726.8042,W,1,08,1.19,153.2,M,-34.3,M,,*58
$GPRMC,185207.000,A,4307.7783,N,07726.8042,W,0.03,130.22,230923,,,A*7C
$GPGGA,185207.250,4307.7783,N,07726.8042,W,1,08,1.19,153.2,M,-34.3,M,,*5C
$GPRMC,185207.500,A,4307.7783,N,07726.8042,W,0.02,108.41,230923,,,A*76
$GPGGA,185207.750,4307.7783,N,07726.8042,W,1,08,1.19,153.2,M,-34.3,M,,*59
$GPRMC,185208.000,A,4307.7783,N,07726.8042,W,0.02,286.85,230923,,,A*71
$GPGGA,185208.250,4307.7783,N,07726.8042,W,1,08,1.19,153.2,M,-34.3,M,,*53
$GPRMC,185208.500,A,4307.7783,N,07726.8042,W,0.01,0.18,230923,,,A*7F
$GPGGA,185208.750,4307.7783,N,07726.8042,W,1,08,1.21,153.2,M,-34.3,M,,*5D
$GPRMC,185209.000,A,4307.7783,N,07726.8042,W,0.00,203.83,230923,,,A*79
$GPGGA,185209.250,4307.7783,N,07726.8042,W,1,08,1.19,153.2,M,-34.3,M,,*52
$GPRMC,185209.500,A,4307.7783,N,07726.8042,W,0.04,199.58,230923,,,A*7E
$GPGGA,185209.750,4307.7783,N,07726.8042,W,1,08,1.19,153.2,M,-34.3,M,,*57
$GPRMC,185210.000,A,4307.7783,N,07726.8042,W,0.02,194.14,230923,,,A*70
$GPGGA,185210.250,4307.7783,N,07726.8042,W,1,08,1.19,153.2,M,-34.3,M,,*5A
$GPRMC,185210.500,A,4307.7783,N,07726.8042,W,0.03,253.18,230923,,,A*70
$GPGGA,185210.750,4307.7783,N,07726.8042,W,1,08,1.19,153.2,M,-34.3,M,,*5F
$GPRMC,185211.000,A,4307.7783,N,07726.8042,W,0.04,3.64,230923,,,A*7F
$GPGGA,185211.250,4307.7783,N,07726.8042,W,1,08,1.21,153.2,M,-34.3,M,,*50
$GPRMC,185211.500,A,4307.7783,N,07726.8042,W,0.02,35.42,230923,,,A*4D
$GPGGA,185211.750,4307.7783,N,07726.8042,W,1,08,1.19,153.2,M,-34.3,M,,*5E
$GPRMC,185212.000,A,4307.7783,N,07726.8042,W,0.04,314.73,230923,,,A*7F
$GPGGA,185212.250,4307.7783,N,07726.8042,W,1,08,1.19,153.2,M,-34.3,M,,*58
$GPRMC,185212.500,A,4307.7783,N,07726.8042,W,0.04,63.06,230923,,,A*4B
$GPGGA,185212.750,4307.7783,N,07726.8042,W,1,08,1.19,153.2,M,-34.3,M,,*5D
$GPRMC,185213.000,A,4307.7783,N,07726.8042,W,0.01,307.71,230923,,,A*7B
$GPGGA,185213.250,4307.7783,N,07726.8042,W,1,08,1.19,153.2,M,-34.3,M,,*59
$GPRMC,185213.500,A,4307.7783,N,07726.8043,W,0.03,11.92,230923,,,A*44
$GPGGA,185213.750,4307.7783,N,07726.8043,W,1,08,1.21,153.1,M,-34.3,M,,*55
$GPRMC,185214.000,A,4307.7783,N,07726.8043,W,0.02,200.11,230923,,,A*7E
$GPGGA,185214.250,4307.7783,N,07726.8043,W,1,08,1.19,153.1,M,-34.3,M,,*5C
$GPRMC,185214.500,A,4307.7783,N,07726.8043,W,0.02,143.80,230923,,,A*77
$GPGGA,185214.750,4307.7783,N,07726.8043,W,1,08,1.21,153.0,M,-34.3,M,,*53
$GPRMC,185215.000,A,4307.7783,N,07726.8043,W,0.01,176.35,230923,,,A*78
$GPGGA,185215.250,4307.7782,N,07726.8044,W,1,08,1.21,153.0,M,-34.3,M,,*51
$GPRMC,185215.500,A,4307.7782,N,07726.8044,W,0.01,184.33,230923,,,A*70
$GPGGA,185215.750,4307.7782,N,07726.8044,W,1,08,1.21,152.9,M,-34.3,M,,*5C
$GPRMC,185216.000,A,4307.7782,N,07726.8044,W,0.00,188.73,230923,,,A*7F
$GPGGA,185216.250,4307.7782,N,07726.8044,W,1,08,1.21,152.8,M,-34.3,M,,*5B
$GPRMC,185216.500,A,4307.7782,N,07726.8044,W,0.00,83.90,230923,,,A*4D
$GPGGA,185216.750,4307.7782,N,07726.8044,W,1,08,1.21,152.8,M,-34.3,M,,*5E
$GPRMC,185217.000,A,4307.7782,N,07726.8044,W,0.00,29.01,230923,,,A*41
$GPGGA,185217.250,4307.7782,N,07726.8044,W,1,08,1.21,152.8,M,-34.3,M,,*5A
$GPRMC,185217.500,A,4307.7782,N,07726.8044,W,0.00,349.89,230923,,,A*71
$GPGGA,185217.750,4307.7782,N,07726.8044,W,1,08,1.21,152.8,M,-34.3,M,,*5F
$GPRMC,185218.000,A,4307.7782,N,07726.8044,W,0.01,217.55,230923,,,A*71
$GPGGA,185218.250,4307.7782,N,07726.8044,W,1,08,1.21,152.8,M,-34.3,M,,*55
$GPRMC,185218.500,A,4307.7782,N,07726.8044,W,0.02,80.33,230923,,,A*4B
$GPGGA,185218.750,4307.7782,N,07726.8044,W,1,08,1.21,152.8,M,-34.3,M,,*50
$GPRMC,185219.000,A,4307.7782,N,07726.8044,W,0.01,245.61,230923,,,A*70
$GPGGA,185219.250,4307.7782,N,07726.8044,W,1,08,1.21,152.8,M,-34.3,M,,*54
$GPRMC,185219.500,A,4307.7782,N,07726.8044,W,0.00,336.91,230923,,,A*7E
$GPGGA,185219.750,4307.7782,N,07726.8044,W,1,08,1.21,152.8,M,-34.3,M,,*51
$GPRMC,185220.000,A,4307.7782,N,07726.8044,W,0.00,217.47,230923,,,A*78
$GPGGA,185220.250,4307.7782,N,07726.8044,W,1,08,1.21,152.8,M,-34.3,M,,*5E
$GPRMC,185220.500,A,4307.7782,N,07726.8044,W,0.01,273.50,230923,,,A*78
$GPGGA,185220.750,4307.7782,N,07726.8044,W,1,08,1.21,152.8,M,-34.3,M,,*5B
$GPRMC,185221.000,A,4307.7782,N,07726.8044,W,0.01,89.57,230923,,,A*4C
$GPGGA,185221.250,4307.7782,N,07726.8044,W,1,08,1.21,152.8,M,-34.3,M,,*5F
$GPRMC,185221.500,A,4307.7782,N,07726.8044,W,0.01,339.60,230923,,,A*75
$GPGGA,185221.750,4307.7782,N,07726.8044,W,1,08,1.21,152.8,M,-34.3,M,,*5A
$GPRMC,185222.000,A,4307.7782,N,07726.8044,W,0.01,334.22,230923,,,A*78
$GPGGA,185222.250,4307.7782,N,07726.8044,W,1,08,1.21,152.8,M,-34.3,M,,*5C
$GPRMC,185222.500,A,4307.7782,N,07726.8044,W,0.00,140.76,230923,,,A*7C
$GPGGA,185222.750,4307.7782,N,07726.8044,W,1,08,1.21,152.8,M,-34.3,M,,*59
$GPRMC,185223.000,A,4307.7782,N,07726.8044,W,0.01,133.65,230923,,,A*7F
$GPGGA,185223.250,4307.7782,N,07726.8044,W,1,08,1.21,152.8,M,-34.3,M,,*5D
$GPRMC,185223.500,A,4307.7782,N,07726.8044,W,0.00,125.86,230923,,,A*71
$GPGGA,185223.750,4307.7782,N,07726.8044,W,1,08,1.21,152.8,M,-34.3,M,,*58
$GPRMC,185224.000,A,4307.7782,N,07726.8044,W,0.01,100.03,230923,,,A*78
$GPGGA,185224.250,4307.7782,N,07726.8044,W,1,08,1.21,152.8,M,-34.3,M,,*5A
$GPRMC,185224.500,A,4307.7782,N,07726.8044,W,0.00,200.34,230923,,,A*7B
$GPGGA,185224.750,4307.7782,N,07726.8044,W,1,08,1.21,152.8,M,-34.3,M,,*5F
$GPRMC,185225.000,A,4307.7782,N,07726.8044,W,0.01,319.38,230923,,,A*7B
$GPGGA,185225.250,4307.7782,N,07726.8044,W,1,08,1.21,152.8,M,-34.3,M,,*5B
$GPRMC,185225.500,A,4307.7782,N,07726.8044,W,0.01,82.64,230923,,,A*46
$GPGGA,185225.750,4307.7782,N,07726.8044,W,1,08,1.21,152.8,M,-34.3,M,,*5E
$GPRMC,185226.000,A,4307.7782,N,07726.8044,W,0.01,195.72,230923,,,A*70
$GPGGA,185226.250,4307.7782,N,07726.8044,W,1,08,1.21,152.8,M,-34.3,M,,*58
$GPRMC,185226.500,A,4307.7782,N,07726.8044,W,0.00,297.23,230923,,,A*71
$GPGGA,185226.750,4307.7782,N,07726.8044,W,1,08,1.21,152.8,M,-34.3,M,,*5D
$GPRMC,185227.000,A,4307.7782,N,07726.8044,W,0.01,40.75,230923,,,A*4F
$GPGGA,185227.250,4307.7782,N,07726.8044,W,1,08,1.21,152.8,M,-34.3,M,,*59
$GPRMC,185227.500,A,4307.7782,N,07726.8044,W,0.00,260.74,230923,,,A*7A
$GPGGA,185227.750,4307.7782,N,07726.8044,W,1,08,1.21,152.8,M,-34.3,M,,*5C
$GPRMC,185228.000,A,4307.7782,N,07726.8044,W,0.01,347.71,230923,,,A*70
$GPGGA,185228.250,4307.7782,N,07726.8044,W,1,08,1.21,152.8,M,-34.3,M,,*56
$GPRMC,185228.500,A,4307.7782,N,07726.8044,W,0.01,236.04,230923,,,A*70
$GPGGA,185228.750,4307.7782,N,07726.8044,W,1,08,1.21,152.8,M,-34.3,M,,*53
$GPRMC,185229.000,A,4307.7782,N,07726.8044,W,0.01,110.90,230923,,,A*7E
$GPGGA,185229.250,4307.7782,N,07726.8044,W,1,08,1.21,152.8,M,-34.3,M,,*57
$GPRMC,185229.500,A,4307.7782,N,07726.8044,W,0.00,156.41,230923,,,A*74
$GPGGA,185229.750,4307.7782,N,07726.8044,W,1,08,1.21,152.8,M,-34.3,M,,*52
$GPRMC,185230.000,A,4307.7782,N,07726.8044,W,0.00,311.02,230923,,,A*7F
$GPGGA,185230.250,4307.7782,N,07726.8044,W,1,08,1.21,152.8,M,-34.3,M,,*5F
$GPRMC,185230.500,A,4307.7782,N,07726.8044,W,0.01,172.83,230923,,,A*75
$GPGGA,185230.750,4307.7782,N,07726.8044,W,1,08,1.21,152.8,M,-34.3,M,,*5A
$GPRMC,185231.000,A,4307.7782,N,07726.8045,W,0.01,115.59,230923,,,A*76
$GPGGA,185231.250,4307.7782,N,07726.8045,W,1,08,1.21,152.8,M,-34.3,M,,*5F
$GPRMC,185231.500,A,4307.7782,N,07726.8045,W,0.01,206.78,230923,,,A*71
$GPGGA,185231.750,4307.7782,N,07726.8045,W,1,08,1.21,152.8,M,-34.3,M,,*5A
$GPRMC,185232.000,A,4307.7782,N,07726.8045,W,0.00,184.23,230923,,,A*71
$GPGGA,185232.250,4307.7782,N,07726.8045,W,1,08,1.21,152.8,M,-34.3,M,,*5C
$GPRMC,185232.500,A,4307.7782,N,07726.8045,W,0.00,252.07,230923,,,A*7A
$GPGGA,185232.750,4307.7782,N,07726.8045,W,1,08,1.21,152.8,M,-34.3,M,,*59
$GPRMC,185233.000,A,4307.7782,N,07726.8045,W,0.00,19.18,230923,,,A*4D
$GPGGA,185233.250,4307.7782,N,07726.8045,W,1,08,1.21,152.8,M,-34.3,M,,*5D
$GPRMC,185233.500,A,4307.7782,N,07726.8045,W,0.00,182.12,230923,,,A*71
$GPGGA,185233.750,4307.7782,N,07726.8045,W,1,08,1.21,152.8,M,-34.3,M,,*58
$GPRMC,185234.000,A,4307.7782,N,07726.8045,W,0.00,319.37,230923,,,A*74
$GPGGA,185234.250,4307.7782,N,07726.8045,W,1,08,1.21,152.8,M,-34.3,M,,*5A
$GPRMC,185234.500,A,4307.7782,N,07726.8045,W,0.01,147.02,230923,,,A*7F
$GPGGA,185234.750,4307.7782,N,07726.8045,W,1,08,1.21,152.8,M,-34.3,M,,*5F
$GPRMC,185235.000,A,4307.7782,N,07726.8045,W,0.00,291.43,230923,,,A*77
$GPGGA,185235.250,4307.7782,N,07726.8045,W,1,08,1.21,152.8,M,-34.3,M,,*5B
$GPRMC,185235.500,A,4307.7782,N,07726.8045,W,0.00,24.11,230923,,,A*49
$GPGGA,185235.750,4307.7782,N,07726.8045,W,1,08,1.21,152.8,M,-34.3,M,,*5E
$GPRMC,185236.000,A,4307.7782,N,07726.8045,W,0.01,206.66,230923,,,A*7C
$GPGGA,185236.250,4307.7782,N,07726.8045,W,1,08,1.21,152.8,M,-34.3,M,,*58
$GPRMC,185236.500,A,4307.7782,N,07726.8045,W,0.01,230.35,230923,,,A*7A
$GPGGA,185236.750,4307.7782,N,07726.8045,W,1,08,1.21,152.8,M,-34.3,M,,*5D
$GPRMC,185237.000,A,4307.7782,N,07726.8045,W,0.01,348.27,230923,,,A*73
$GPGGA,185237.250,4307.7782,N,07726.8045,W,1,08,1.21,152.8,M,-34.3,M,,*59
$GPRMC,185237.500,A,4307.7782,N,07726.8045,W,0.01,169.36,230923,,,A*77
$GPGGA,185237.750,4307.7782,N,07726.8045,W,1,08,1.21,152.8,M,-34.3,M,,*5C
$GPRMC,185238.000,A,4307.7782,N,07726.8045,W,0.00,332.93,230923,,,A*7F
$GPGGA,185238.250,4307.7782,N,07726.8045,W,1,08,1.21,152.8,M,-34.3,M,,*56
$GPRMC,185238.500,A,4307.7782,N,07726.8045,W,0.01,271.78,230923,,,A*78
$GPGGA,185238.750,4307.7782,N,07726.8045,W,1,08,1.21,152.8,M,-34.3,M,,*53
$GPRMC,185239.000,A,4307.7782,N,07726.8045,W,0.01,349.63,230923,,,A*7C
$GPGGA,185239.250,4307.7782,N,07726.8045,W,1,08,1.21,152.8,M,-34.3,M,,*57
$GPRMC,185239.500,A,4307.7782,N,07726.8045,W,0.00,205.83,230923,,,A*7F
$GPGGA,185239.750,4307.7782,N,07726.8045,W,1,08,1.21,152.8,M,-34.3,M,,*52
$GPRMC,185240.000,A,4307.7782,N,07726.8045,W,0.01,24.48,230923,,,A*43
$GPGGA,185240.250,4307.7782,N,07726.8045,W,1,08,1.21,152.8,M,-34.3,M,,*59
$GPRMC,185240.500,A,4307.7782,N,07726.8045,W,0.00,42.91,230923,,,A*43
$GPGGA,185240.750,4307.7782,N,07726.8045,W,1,08,1.21,152.8,M,-34.3,M,,*5C
$GPRMC,185241.000,A,4307.7782,N,07726.8045,W,0.00,297.70,230923,,,A*72
$GPGGA,185241.250,4307.7782,N,07726.8045,W,1,08,1.21,152.8,M,-34.3,M,,*58
$GPRMC,185241.500,A,4307.7782,N,07726.8045,W,0.01,138.90,230923,,,A*7E
$GPGGA,185241.750,4307.7782,N,07726.8045,W,1,08,1.21,152.8,M,-34.3,M,,*5D
$GPRMC,185242.000,A,4307.7782,N,07726.8045,W,0.00,303.50,230923,,,A*7F
$GPGGA,185242.250,4307.7782,N,07726.8045,W,1,08,1.21,152.8,M,-34.3,M,,*5B
$GPRMC,185242.500,A,4307.7782,N,07726.8045,W,0.00,46.41,230923,,,A*48
$GPGGA,185242.750,4307.7782,N,07726.8045,W,1,08,1.21,152.7,M,-34.3,M,,*51
$GPRMC,185243.000,A,4307.7782,N,07726.8045,W,0.00,320.11,230923,,,A*7A
$GPGGA,185243.250,4307.7782,N,07726.8045,W,1,08,1.21,152.7,M,-34.3,M,,*55
$GPRMC,185243.500,A,4307.7782,N,07726.8045,W,0.00,326.22,230923,,,A*79
$GPGGA,185243.750,4307.7782,N,07726.8045,W,1,08,1.21,152.7,M,-34.3,M,,*50
$GPRMC,185244.000,A,4307.7782,N,07726.8045,W,0.01,88.76,230923,,,A*4C
$GPGGA,185244.250,4307.7782,N,07726.8045,W,1,08,1.21,152.7,M,-34.3,M,,*52
$GPRMC,185244.500,A,4307.7782,N,07726.8045,W,0.01,294.67,230923,,,A*76
$GPGGA,185244.750,4307.7782,N,07726.8045,W,1,08,1.21,152.7,M,-34.3,M,,*57
$GPRMC,185245.000,A,4307.7782,N,07726.8045,W,0.00,292.95,230923,,,A*78
$GPGGA,185245.250,4307.7782,N,07726.8045,W,1,08,1.21,152.7,M,-34.3,M,,*53
$GPRMC,185245.500,A,4307.7782,N,07726.8045,W,0.01,234.74,230923,,,A*7F
$GPGGA,185245.750,4307.7782,N,07726.8045,W,1,08,1.21,152.7,M,-34.3,M,,*56
$GPRMC,185246.000,A,4307.7782,N,07726.8045,W,0.01,83.40,230923,,,A*40
$GPGGA,185246.250,4307.7782,N,07726.8045,W,1,08,1.21,152.7,M,-34.3,M,,*50
$GPRMC,185246.500,A,4307.7782,N,07726.8045,W,0.00,26.39,230923,,,A*45
$GPGGA,185246.750,4307.7782,N,07726.8045,W,1,08,1.21,152.7,M,-34.3,M,,*55
$GPRMC,185247.000,A,4307.7782,N,07726.8045,W,0.01,118.81,230923,,,A*7F
$GPGGA,185247.250,4307.7782,N,07726.8045,W,1,08,1.21,152.7,M,-34.3,M,,*51
$GPRMC,185247.500,A,4307.7782,N,07726.8045,W,0.01,235.82,230923,,,A*75
$GPGGA,185247.750,4307.7782,N,07726.8045,W,1,08,1.21,152.7,M,-34.3,M,,*54
$GPRMC,185248.000,A,4307.7782,N,07726.8045,W,0.00,310.75,230923,,,A*70
$GPGGA,185248.250,4307.7782,N,07726.8045,W,1,08,1.21,152.7,M,-34.3,M,,*5E
$GPRMC,185248.500,A,4307.7782,N,07726.8045,W,0.00,145.31,230923,,,A*77
$GPGGA,185248.750,4307.7782,N,07726.8045,W,1,08,1.21,152.7,M,-34.3,M,,*5B
$GPRMC,185249.000,A,4307.7782,N,07726.8045,W,0.01,235.39,230923,,,A*7E
$GPGGA,185249.250,4307.7782,N,07726.8045,W,1,08,1.21,152.7,M,-34.3,M,,*5F
$GPRMC,185249.500,A,4307.7782,N,07726.8045,W,0.01,88.45,230923,,,A*44
$GPGGA,185249.750,4307.7782,N,07726.8045,W,1,08,1.21,152.7,M,-34.3,M,,*5A
$GPRMC,185250.000,A,4307.7782,N,07726.8045,W,0.01,247.66,230923,,,A*79
$GPGGA,185250.250,4307.7782,N,07726.8045,W,1,08,1.21,152.7,M,-34.3,M,,*57
$GPRMC,185250.500,A,4307.7782,N,07726.8045,W,0.00,84.51,230923,,,A*44
$GPGGA,185250.750,4307.7782,N,07726.8045,W,1,08,1.21,152.7,M,-34.3,M,,*52
$GPRMC,185251.000,A,4307.7782,N,07726.8045,W,0.00,50.68,230923,,,A*43
$GPGGA,185251.250,4307.7782,N,07726.8045,W,1,08,1.21,152.7,M,-34.3,M,,*56
$GPRMC,185251.500,A,4307.7782,N,07726.8045,W,0.01,24.36,230923,,,A*4F
$GPGGA,185251.750,4307.7782,N,07726.8045,W,1,08,1.21,152.7,M,-34.3,M,,*53
$GPRMC,185252.000,A,4307.7782,N,07726.8045,W,0.00,215.68,230923,,,A*73
$GPGGA,185252.250,4307.7782,N,07726.8045,W,1,08,1.21,152.7,M,-34.3,M,,*55
$GPRMC,185252.500,A,4307.7782,N,07726.8045,W,0.01,330.21,230923,,,A*7C
$GPGGA,185252.750,4307.7782,N,07726.8045,W,1,08,1.21,152.7,M,-34.3,M,,*50
$GPRMC,185253.000,A,4307.7782,N,07726.8045,W,0.01,238.52,230923,,,A*75
$GPGGA,185253.250,4307.7782,N,07726.8045,W,1,08,1.21,152.7,M,-34.3,M,,*54
$GPRMC,185253.500,A,4307.7782,N,07726.8045,W,0.00,253.68,230923,,,A*75
$GPGGA,185253.750,4307.7782,N,07726.8045,W,1,08,1.21,152.7,M,-34.3,M,,*51
$GPRMC,185254.000,A,4307.7782,N,07726.8045,W,0.01,206.32,230923,,,A*79
$GPGGA,185254.250,4307.7782,N,07726.8045,W,1,08,1.21,152.7,M,-34.3,M,,*53
$GPRMC,185254.500,A,4307.7782,N,07726.8045,W,0.01,105.06,230923,,,A*7B
$GPGGA,185254.750,4307.7782,N,07726.8045,W,1,08,1.21,152.7,M,-34.3,M,,*56
$GPRMC,185255.000,A,4307.7782,N,07726.8045,W,0.01,83.77,230923,,,A*46
$GPGGA,185255.250,4307.7782,N,07726.8045,W,1,08,1.21,152.7,M,-34.3,M,,*52
$GPRMC,185255.500,A,4307.7782,N,07726.8045,W,0.00,0.00,230923,,,A*79
$GPGGA,185255.750,4307.7782,N,07726.8045,W,1,08,1.21,152.7,M,-34.3,M,,*57
$GPRMC,185256.000,A,4307.7782,N,07726.8045,W,0.01,355.80,230923,,,A*75
$GPGGA,185256.250,4307.7782,N,07726.8045,W,1,08,1.21,152.7,M,-34.3,M,,*51
$GPRMC,185256.500,A,4307.7782,N,07726.8045,W,0.01,168.16,230923,,,A*73
$GPGGA,185256.750,4307.7782,N,07726.8045,W,1,08,1.21,152.7,M,-34.3,M,,*54
$GPRMC,185257.000,A,4307.7782,N,07726.8045,W,0.01,290.41,230923,,,A*71
$GPGGA,185257.250,4307.7782,N,07726.8045,W,1,08,1.21,152.7,M,-34.3,M,,*50
$GPRMC,185257.500,A,4307.7782,N,07726.8045,W,0.01,319.09,230923,,,A*78
$GPGGA,185257.750,4307.7782,N,07726.8045,W,1,08,1.21,152.7,M,-34.3,M,,*55
$GPRMC,185258.000,A,4307.7782,N,07726.8045,W,0.01,183.82,230923,,,A*70
$GPGGA,185258.250,4307.7782,N,07726.8045,W,1,08,1.21,152.7,M,-34.3,M,,*5F
$GPRMC,185258.500,A,4307.7782,N,07726.8045,W,0.01,145.00,230923,,,A*75
$GPGGA,185258.750,4307.7782,N,07726.8045,W,1,08,1.21,152.7,M,-34.3,M,,*5A
$GPRMC,185259.000,A,4307.7782,N,07726.8045,W,0.00,171.64,230923,,,A*75
$GPGGA,185259.250,4307.7782,N,07726.8045,W,1,08,1.21,152.7,M,-34.3,M,,*5E
$GPRMC,185259.500,A,4307.7782,N,07726.8045,W,0.00,266.46,230923,,,A*75
$GPGGA,185259.750,4307.7782,N,07726.8045,W,1,08,1.21,152.7,M,-34.3,M,,*5B
$GPRMC,185300.000,A,4307.7782,N,07726.8045,W,0.00,311.56,230923,,,A*7D
$GPGGA,185300.250,4307.7782,N,07726.8045,W,1,08,1.21,152.7,M,-34.3,M,,*53
$GPRMC,185300.500,A,4307.7782,N,07726.8045,W,0.00,163.01,230923,,,A*7D
$GPGGA,185300.750,4307.7782,N,07726.8045,W,1,08,1.21,152.7,M,-34.3,M,,*56
$GPRMC,185301.000,A,4307.7782,N,07726.8045,W,0.01,223.38,230923,,,A*75
$GPGGA,185301.250,4307.7782,N,07726.8045,W,1,08,1.21,152.7,M,-34.3,M,,*52
$GPRMC,185301.500,A,4307.7782,N,07726.8045,W,0.01,341.76,230923,,,A*7F
$GPGGA,185301.750,4307.7782,N,07726.8045,W,1,08,1.21,152.7,M,-34.3,M,,*57
$GPRMC,185302.000,A,4307.7782,N,07726.8045,W,0.00,135.20,230923,,,A*7A
$GPGGA,185302.250,4307.7782,N,07726.8045,W,1,08,1.21,152.7,M,-34.3,M,,*51
$GPRMC,185302.500,A,4307.7782,N,07726.8045,W,0.00,110.01,230923,,,A*7B
$GPGGA,185302.750,4307.7782,N,07726.8045,W,1,08,1.21,152.7,M,-34.3,M,,*54
$GPRMC,185303.000,A,4307.7782,N,07726.8045,W,0.01,100.46,230923,,,A*7C
$GPGGA,185303.250,4307.7782,N,07726.8045,W,1,08,1.21,152.7,M,-34.3,M,,*50
$GPRMC,185303.500,A,4307.7782,N,07726.8045,W,0.01,285.09,230923,,,A*7C
$GPGGA,185303.750,4307.7782,N,07726.8045,W,1,08,1.21,152.7,M,-34.3,M,,*55
$GPRMC,185304.000,A,4307.7782,N,07726.8045,W,0.01,54.33,230923,,,A*49
$GPGGA,185304.250,4307.7782,N,07726.8045,W,1,08,1.21,152.7,M,-34.3,M,,*57
$GPRMC,185304.500,A,4307.7782,N,07726.8045,W,0.01,202.35,230923,,,A*7B
$GPGGA,185304.750,4307.7782,N,07726.8045,W,1,08,1.21,152.7,M,-34.3,M,,*52
$GPRMC,185305.000,A,4307.7782,N,07726.8045,W,0.00,0.00,230923,,,A*78
$GPGGA,185305.250,4307.7782,N,07726.8045,W,1,08,1.21,152.7,M,-34.3,M,,*56
$GPRMC,185305.500,A,4307.7782,N,07726.8045,W,0.01,189.06,230923,,,A*7A
$GPGGA,185305.750,4307.7782,N,07726.8045,W,1,08,1.21,152.7,M,-34.3,M,,*53
$GPRMC,185306.000,A,4307.7782,N,07726.8045,W,0.00,218.22,230923,,,A*70
$GPGGA,185306.250,4307.7782,N,07726.8045,W,1,08,1.21,152.7,M,-34.3,M,,*55
$GPRMC,185306.500,A,4307.7782,N,07726.8045,W,0.00,127.52,230923,,,A*7D
$GPGGA,185306.750,4307.7782,N,07726.8045,W,1,08,1.21,152.7,M,-34.3,M,,*50
$GPRMC,185307.000,A,4307.7782,N,07726.8045,W,0.01,20.58,230923,,,A*44
$GPGGA,185307.250,4307.7782,N,07726.8045,W,1,08,1.21,152.7,M,-34.3,M,,*54
$GPRMC,185307.500,A,4307.7782,N,07726.8045,W,0.00,5.81,230923,,,A*73
$GPGGA,185307.750,4307.7782,N,07726.8045,W,1,08,1.21,152.7,M,-34.3,M,,*51
$GPRMC,185308.000,A,4307.7782,N,07726.8045,W,0.00,265.69,230923,,,A*7B
$GPGGA,185308.250,4307.7782,N,07726.8045,W,1,08,1.21,152.7,M,-34.3,M,,*5B
$GPRMC,185308.500,A,4307.7782,N,07726.8045,W,0.01,138.94,230923,,,A*76
$GPGGA,185308.750,4307.7782,N,07726.8045,W,1,08,1.21,152.7,M,-34.3,M,,*5E
$GPRMC,185309.000,A,4307.7782,N,07726.8045,W,0.00,311.44,230923,,,A*77
$GPGGA,185309.250,4307.7782,N,07726.8045,W,1,08,1.21,152.7,M,-34.3,M,,*5A
$GPRMC,185309.500,A,4307.7782,N,07726.8045,W,0.01,62.78,230923,,,A*4B
$GPGGA,185309.750,4307.7782,N,07726.8045,W,1,08,1.21,152.7,M,-34.3,M,,*5F
$GPRMC,185310.000,A,4307.7782,N,07726.8045,W,0.00,93.41,230923,,,A*43
$GPGGA,185310.250,4307.7782,N,07726.8045,W,1,08,1.21,152.7,M,-34.3,M,,*52
$GPRMC,185310.500,A,4307.7782,N,07726.8045,W,0.00,154.73,230923,,,A*7D
$GPGGA,185310.750,4307.7782,N,07726.8045,W,1,08,1.21,152.7,M,-34.3,M,,*57
$GPRMC,185311.000,A,4307.7782,N,07726.8045,W,0.00,35.36,230923,,,A*4E
$GPGGA,185311.250,4307.7782,N,07726.8045,W,1,08,1.21,152.7,M,-34.3,M,,*53
$GPRMC,185311.500,A,4307.7782,N,07726.8045,W,0.00,329.73,230923,,,A*74
$GPGGA,185311.750,4307.7782,N,07726.8045,W,1,08,1.21,152.7,M,-34.3,M,,*56
$GPRMC,185312.000,A,4307.7782,N,07726.8045,W,0.01,15.25,230923,,,A*4C
$GPGGA,185312.250,4307.7782,N,07726.8045,W,1,08,1.21,152.7,M,-34.3,M,,*50
$GPRMC,185312.500,A,4307.7782,N,07726.8045,W,0.01,67.38,230923,,,A*40
$GPGGA,185312.750,4307.7782,N,07726.8045,W,1,08,1.21,152.7,M,-34.3,M,,*55
$GPRMC,185313.000,A,4307.7782,N,07726.8045,W,0.01,144.05,230923,,,A*7A
$GPGGA,185313.250,4307.7782,N,07726.8045,W,1,08,1.21,152.7,M,-34.3,M,,*51
$GPRMC,185313.500,A,4307.7782,N,07726.8045,W,0.01,24.17,230923,,,A*4B
$GPGGA,185313.750,4307.7782,N,07726.8045,W,1,08,1.21,152.7,M,-34.3,M,,*54
$GPRMC,185314.000,A,4307.7782,N,07726.8045,W,0.00,182.91,230923,,,A*7B
$GPGGA,185314.250,4307.7782,N,07726.8045,W,1,08,1.21,152.7,M,-34.3,M,,*56
$GPRMC,185314.500,A,4307.7782,N,07726.8045,W,0.01,41.60,230923,,,A*4F
$GPGGA,185314.750,4307.7782,N,07726.8045,W,1,08,1.21,152.7,M,-34.3,M,,*53
$GPRMC,185315.000,A,4307.7782,N,07726.8045,W,0.00,225.00,230923,,,A*7C
$GPGGA,185315.250,4307.7782,N,07726.8045,W,1,08,1.21,152.7,M,-34.3,M,,*57
$GPRMC,185315.500,A,4307.7782,N,07726.8045,W,0.00,60.74,230923,,,A*49
$GPGGA,185315.750,4307.7782,N,07726.8045,W,1,08,1.21,152.7,M,-34.3,M,,*52
$GPRMC,185316.000,A,4307.7782,N,07726.8045,W,0.00,214.10,230923,,,A*7C
$GPGGA,185316.250,4307.7782,N,07726.8045,W,1,08,1.21,152.7,M,-34.3,M,,*54
$GPRMC,185316.500,A,4307.7782,N,07726.8045,W,0.01,102.75,230923,,,A*7F
$GPGGA,185316.750,4307.7782,N,07726.8045,W,1,08,1.21,152.7,M,-34.3,M,,*51
$GPRMC,185317.000,A,4307.7782,N,07726.8045,W,0.01,24.71,230923,,,A*4A
$GPGGA,185317.250,4307.7782,N,07726.8045,W,1,08,1.21,152.7,M,-34.3,M,,*55
$GPRMC,185317.500,A,4307.7782,N,07726.8045,W,0.00,48.67,230923,,,A*43
$GPGGA,185317.750,4307.7782,N,07726.8045,W,1,08,1.21,152.7,M,-34.3,M,,*50
$GPRMC,185318.000,A,4307.7782,N,07726.8045,W,0.00,344.24,230923,,,A*71
$GPGGA,185318.250,4307.7782,N,07726.8045,W,1,08,1.21,152.7,M,-34.3,M,,*5A
$GPRMC,185318.500,A,4307.7782,N,07726.8045,W,0.00,217.74,230923,,,A*76
$GPGGA,185318.750,4307.7782,N,07726.8045,W,1,08,1.21,152.7,M,-34.3,M,,*5F
$GPRMC,185319.000,A,4307.7782,N,07726.8045,W,0.01,50.83,230923,,,A*4A
$GPGGA,185319.250,4307.7782,N,07726.8045,W,1,08,1.21,152.7,M,-34.3,M,,*5B
$GPRMC,185319.500,A,4307.7782,N,07726.8045,W,0.00,277.87,230923,,,A*7D
$GPGGA,185319.750,4307.7782,N,07726.8045,W,1,08,1.21,152.7,M,-34.3,M,,*5E
$GPRMC,185320.000,A,4307.7782,N,07726.8045,W,0.00,6.93,230923,,,A*73
$GPGGA,185320.250,4307.7782,N,07726.8045,W,1,08,1.21,152.7,M,-34.3,M,,*51
$GPRMC,185320.500,A,4307.7782,N,07726.8045,W,0.00,170.25,230923,,,A*7B
$GPGGA,185320.750,4307.7782,N,07726.8045,W,1,08,1.21,152.7,M,-34.3,M,,*54
$GPRMC,185321.000,A,4307.7782,N,07726.8045,W,0.00,250.15,230923,,,A*7D
$GPGGA,185321.250,4307.7782,N,07726.8045,W,1,08,1.21,152.7,M,-34.3,M,,*50
$GPRMC,185321.500,A,4307.7782,N,07726.8045,W,0.01,132.84,230923,,,A*76
$GPGGA,185321.750,4307.7782,N,07726.8045,W,1,08,1.21,152.7,M,-34.3,M,,*55
$GPRMC,185322.000,A,4307.7782,N,07726.8045,W,0.01,101.83,230923,,,A*77
$GPGGA,185322.250,4307.7782,N,07726.8045,W,1,08,1.21,152.7,M,-34.3,M,,*53
$GPRMC,185322.500,A,4307.7782,N,07726.8045,W,0.00,140.43,230923,,,A*7A
$GPGGA,185322.750,4307.7782,N,07726.8045,W,1,08,1.21,152.7,M,-34.3,M,,*56
$GPRMC,185323.000,A,4307.7782,N,07726.8045,W,0.01,222.84,230923,,,A*73
$GPGGA,185323.250,4307.7782,N,07726.8045,W,1,08,1.21,152.7,M,-34.3,M,,*52
$GPRMC,185323.500,A,4307.7782,N,07726.8045,W,0.01,174.42,230923,,,A*7C
$GPGGA,185323.750,4307.7782,N,07726.8045,W,1,08,1.21,152.7,M,-34.3,M,,*57
$GPRMC,185324.000,A,4307.7782,N,07726.8045,W,0.00,78.53,230923,,,A*42
$GPGGA,185324.250,4307.7782,N,07726.8045,W,1,08,1.21,152.7,M,-34.3,M,,*55
$GPRMC,185324.500,A,4307.7782,N,07726.8045,W,0.00,23.97,230923,,,A*41
$GPGGA,185324.750,4307.7782,N,07726.8045,W,1,08,1.21,152.7,M,-34.3,M,,*50
$GPRMC,185325.000,A,4307.7782,N,07726.8045,W,0.00,280.68,230923,,,A*7E
$GPGGA,185325.250,4307.7782,N,07726.8045,W,1,08,1.21,152.7,M,-34.3,M,,*54
$GPRMC,185325.500,A,4307.7782,N,07726.8045,W,0.00,103.76,230923,,,A*7C
$GPGGA,185325.750,4307.7782,N,07726.8045,W,1,08,1.21,152.7,M,-34.3,M,,*51
$GPRMC,185326.000,A,4307.7782,N,07726.8045,W,0.00,69.93,230923,,,A*4C
$GPGGA,185326.250,4307.7782,N,07726.8045,W,1,08,1.21,152.7,M,-34.3,M,,*57
$GPRMC,185326.500,A,4307.7782,N,07726.8045,W,0.01,0.65,230923,,,A*7E
$GPGGA,185326.750,4307.7782,N,07726.8045,W,1,08,1.21,152.7,M,-34.3,M,,*52
$GPRMC,185327.000,A,4307.7782,N,07726.8045,W,0.01,163.22,230923,,,A*7D
$GPGGA,185327.250,4307.7782,N,07726.8045,W,1,08,1.21,152.7,M,-34.3,M,,*56
$GPRMC,185327.500,A,4307.7782,N,07726.8045,W,0.00,203.09,230923,,,A*75
$GPGGA,185327.750,4307.7782,N,07726.8045,W,1,08,1.21,152.7,M,-34.3,M,,*53
$GPRMC,185328.000,A,4307.7782,N,07726.8045,W,0.01,342.96,230923,,,A*7C
$GPGGA,185328.250,4307.7782,N,07726.8045,W,1,08,1.21,152.7,M,-34.3,M,,*59
$GPRMC,185328.500,A,4307.7782,N,07726.8045,W,0.00,162.68,230923,,,A*79
$GPGGA,185328.750,4307.7782,N,07726.8045,W,1,08,1.21,152.7,M,-34.3,M,,*5C
$GPRMC,185329.000,A,4307.7782,N,07726.8045,W,0.01,352.47,230923,,,A*70
$GPGGA,185329.250,4307.7782,N,07726.8045,W,1,08,1.21,152.7,M,-34.3,M,,*58
$GPRMC,185329.500,A,4307.7782,N,07726.8045,W,0.00,51.62,230923,,,A*43
$GPGGA,185329.750,4307.7782,N,07726.8045,W,1,08,1.21,152.7,M,-34.3,M,,*5D
$GPRMC,185330.000,A,4307.7782,N,07726.8045,W,0.01,31.90,230923,,,A*44
$GPGGA,185330.250,4307.7782,N,07726.8045,W,1,08,1.21,152.7,M,-34.3,M,,*50
$GPRMC,185330.500,A,4307.7782,N,07726.8045,W,0.00,271.06,230923,,,A*79
$GPGGA,185330.750,4307.7782,N,07726.8045,W,1,08,1.21,152.7,M,-34.3,M,,*55
$GPRMC,185331.000,A,4307.7782,N,07726.8045,W,0.01,336.57,230923,,,A*7A
$GPGGA,185331.250,4307.7782,N,07726.8045,W,1,08,1.21,152.7,M,-34.3,M,,*51
$GPRMC,185331.500,A,4307.7782,N,07726.8045,W,0.01,336.07,230923,,,A*7A
$GPGGA,185331.750,4307.7782,N,07726.8045,W,1,08,1.21,152.7,M,-34.3,M,,*54
$GPRMC,185332.000,A,4307.7782,N,07726.8045,W,0.01,83.19,230923,,,A*4E
$GPGGA,185332.250,4307.7782,N,07726.8045,W,1,08,1.21,152.7,M,-34.3,M,,*52
$GPRMC,185332.500,A,4307.7782,N,07726.8045,W,0.01,275.45,230923,,,A*79
$GPGGA,185332.750,4307.7782,N,07726.8045,W,1,08,1.21,152.7,M,-34.3,M,,*57
$GPRMC,185333.000,A,4307.7782,N,07726.8045,W,0.00,312.93,230923,,,A*77
$GPGGA,185333.250,4307.7782,N,07726.8045,W,1,08,1.21,152.7,M,-34.3,M,,*53
$GPRMC,185333.500,A,4307.7782,N,07726.8045,W,0.00,229.12,230923,,,A*72
$GPGGA,185333.750,4307.7782,N,07726.8045,W,1,08,1.21,152.7,M,-34.3,M,,*56
$GPRMC,185334.000,A,4307.7782,N,07726.8045,W,0.01,345.87,230923,,,A*76
$GPGGA,185334.250,4307.7782,N,07726.8045,W,1,08,1.21,152.7,M,-34.3,M,,*54
$GPRMC,185334.500,A,4307.7782,N,07726.8045,W,0.01,186.49,230923,,,A*7C
$GPGGA,185334.750,4307.7782,N,07726.8045,W,1,08,1.21,152.7,M,-34.3,M,,*51
$GPRMC,185335.000,A,4307.7782,N,07726.8045,W,0.00,341.67,230923,,,A*7C
$GPGGA,185335.250,4307.7782,N,07726.8045,W,1,08,1.21,152.7,M,-34.3,M,,*55
$GPRMC,185335.500,A,4307.7782,N,07726.8045,W,0.00,151.37,230923,,,A*7F
$GPGGA,185335.750,4307.7782,N,07726.8045,W,1,08,1.21,152.7,M,-34.3,M,,*50
$GPRMC,185336.000,A,4307.7782,N,07726.8045,W,0.01,237.13,230923,,,A*7D
$GPGGA,185336.250,4307.7782,N,07726.8045,W,1,08,1.21,152.7,M,-34.3,M,,*56
$GPRMC,185336.500,A,4307.7782,N,07726.8045,W,0.00,115.40,230923,,,A*7C
$GPGGA,185336.750,4307.7782,N,07726.8045,W,1,08,1.21,152.7,M,-34.3,M,,*53
$GPRMC,185337.000,A,4307.7782,N,07726.8045,W,0.00,131.33,230923,,,A*7A
$GPGGA,185337.250,4307.7782,N,07726.8045,W,1,08,1.22,152.7,M,-34.3,M,,*54
$GPRMC,185337.500,A,4307.7782,N,07726.8045,W,0.00,15.84,230923,,,A*44
$GPGGA,185337.750,4307.7782,N,07726.8045,W,1,08,1.22,152.7,M,-34.3,M,,*51
$GPRMC,185338.000,A,4307.7782,N,07726.8045,W,0.00,137.53,230923,,,A*75
$GPGGA,185338.250,4307.7782,N,07726.8045,W,1,08,1.22,152.7,M,-34.3,M,,*5B
$GPRMC,185338.500,A,4307.7782,N,07726.8045,W,0.00,192.52,230923,,,A*7E
$GPGGA,185338.750,4307.7782,N,07726.8045,W,1,08,1.22,152.7,M,-34.3,M,,*5E
$GPRMC,185339.000,A,4307.7782,N,07726.8045,W,0.01,70.63,230923,,,A*44
$GPGGA,185339.250,4307.7782,N,07726.8045,W,1,08,1.22,152.7,M,-34.3,M,,*5A
$GPRMC,185339.500,A,4307.7782,N,07726.8045,W,0.01,302.22,230923,,,A*72
$GPGGA,185339.750,4307.7782,N,07726.8045,W,1,08,1.22,152.7,M,-34.3,M,,*5F
$GPRMC,185340.000,A,4307.7782,N,07726.8045,W,0.00,36.08,230923,,,A*44
$GPGGA,185340.250,4307.7782,N,07726.8045,W,1,08,1.22,152.7,M,-34.3,M,,*54
$GPRMC,185340.500,A,4307.7782,N,07726.8045,W,0.01,126.58,230923,,,A*75
$GPGGA,185340.750,4307.7782,N,07726.8045,W,1,08,1.22,152.7,M,-34.3,M,,*51
$GPRMC,185341.000,A,4307.7782,N,07726.8045,W,0.01,55.68,230923,,,A*47
$GPGGA,185341.250,4307.7782,N,07726.8045,W,1,08,1.22,152.7,M,-34.3,M,,*55
$GPRMC,185341.500,A,4307.7782,N,07726.8045,W,0.01,171.15,230923,,,A*7F
$GPGGA,185341.750,4307.7782,N,07726.8045,W,1,08,1.22,152.7,M,-34.3,M,,*50
$GPRMC,185342.000,A,4307.7782,N,07726.8045,W,0.01,221.98,230923,,,A*7A
$GPGGA,185342.250,4307.7782,N,07726.8045,W,1,08,1.22,152.7,M,-34.3,M,,*56
$GPRMC,185342.500,A,4307.7782,N,07726.8045,W,0.00,289.74,230923,,,A*7E
$GPGGA,185342.750,4307.7782,N,07726.8045,W,1,08,1.22,152.7,M,-34.3,M,,*53
$GPRMC,185343.000,A,4307.7782,N,07726.8045,W,0.00,155.90,230923,,,A*72
$GPGGA,185343.250,4307.7782,N,07726.8045,W,1,08,1.22,152.7,M,-34.3,M,,*57
$GPRMC,185343.500,A,4307.7782,N,07726.8045,W,0.00,46.90,230923,,,A*44
$GPGGA,185343.750,4307.7782,N,07726.8045,W,1,08,1.22,152.7,M,-34.3,M,,*52
$GPRMC,185344.000,A,4307.7782,N,07726.8045,W,0.01,233.49,230923,,,A*73
$GPGGA,185344.250,4307.7782,N,07726.8045,W,1,08,1.22,152.7,M,-34.3,M,,*50
$GPRMC,185344.500,A,4307.7782,N,07726.8045,W,0.00,281.20,230923,,,A*71
$GPGGA,185344.750,4307.7782,N,07726.8045,W,1,08,1.22,152.7,M,-34.3,M,,*55
$GPRMC,185345.000,A,4307.7782,N,07726.8045,W,0.02,206.93,230923,,,A*70
$GPGGA,185345.250,4307.7782,N,07726.8045,W,1,08,1.22,152.7,M,-34.3,M,,*51
$GPRMC,185345.500,A,4307.7782,N,07726.8045,W,0.00,132.88,230923,,,A*79
$GPGGA,185345.750,4307.7782,N,07726.8045,W,1,08,1.22,152.7,M,-34.3,M,,*54
$GPRMC,185346.000,A,4307.7782,N,07726.8045,W,0.01,130.09,230923,,,A*75
$GPGGA,185346.250,4307.7782,N,07726.8045,W,1,08,1.22,152.7,M,-34.3,M,,*52
$GPRMC,185346.500,A,4307.7782,N,07726.8045,W,0.00,235.64,230923,,,A*7C
$GPGGA,185346.750,4307.7782,N,07726.8045,W,1,08,1.22,152.7,M,-34.3,M,,*57
$GPRMC,185347.000,A,4307.7782,N,07726.8045,W,0.01,113.08,230923,,,A*74
$GPGGA,185347.250,4307.7782,N,07726.8045,W,1,08,1.22,152.7,M,-34.3,M,,*53
$GPRMC,185347.500,A,4307.7782,N,07726.8045,W,0.00,200.83,230923,,,A*72
$GPGGA,185347.750,4307.7782,N,07726.8045,W,1,08,1.22,152.7,M,-34.3,M,,*56
$GPRMC,185348.000,A,4307.7782,N,07726.8045,W,0.00,57.98,230923,,,A*42
$GPGGA,185348.250,4307.7782,N,07726.8045,W,1,08,1.22,152.6,M,-34.3,M,,*5D
$GPRMC,185348.500,A,4307.7782,N,07726.8045,W,0.01,225.62,230923,,,A*74
$GPGGA,185348.750,4307.7782,N,07726.8045,W,1,08,1.22,152.6,M,-34.3,M,,*58
$GPRMC,185349.000,A,4307.7782,N,07726.8045,W,0.00,38.80,230923,,,A*43
$GPGGA,185349.250,4307.7782,N,07726.8045,W,1,08,1.22,152.6,M,-34.3,M,,*5C
$GPRMC,185349.500,A,4307.7782,N,07726.8045,W,0.00,252.13,230923,,,A*72
$GPGGA,185349.750,4307.7782,N,07726.8045,W,1,08,1.22,152.6,M,-34.3,M,,*59
$GPRMC,185350.000,A,4307.7782,N,07726.8045,W,0.01,142.37,230923,,,A*7A
$GPGGA,185350.250,4307.7782,N,07726.8045,W,1,08,1.22,152.6,M,-34.3,M,,*54
$GPRMC,185350.500,A,4307.7782,N,07726.8045,W,0.00,123.75,230923,,,A*7F
$GPGGA,185350.750,4307.7782,N,07726.8045,W,1,08,1.22,152.6,M,-34.3,M,,*51
$GPRMC,185351.000,A,4307.7782,N,07726.8045,W,0.00,194.38,230923,,,A*7E
$GPGGA,185351.250,4307.7782,N,07726.8045,W,1,08,1.22,152.6,M,-34.3,M,,*55
$GPRMC,185351.500,A,4307.7782,N,07726.8045,W,0.01,258.06,230923,,,A*74
$GPGGA,185351.750,4307.7782,N,07726.8045,W,1,08,1.22,152.6,M,-34.3,M,,*50
$GPRMC,185352.000,A,4307.7782,N,07726.8045,W,0.01,82.29,230923,,,A*4A
$GPGGA,185352.250,4307.7782,N,07726.8045,W,1,08,1.22,152.6,M,-34.3,M,,*56
$GPRMC,185352.500,A,4307.7782,N,07726.8045,W,0.01,4.69,230923,,,A*75
$GPGGA,185352.750,4307.7782,N,07726.8045,W,1,08,1.22,152.6,M,-34.3,M,,*53
$GPRMC,185353.000,A,4307.7782,N,07726.8045,W,0.01,76.88,230923,,,A*4B
$GPGGA,185353.250,4307.7782,N,07726.8045,W,1,08,1.22,152.6,M,-34.3,M,,*57
$GPRMC,185353.500,A,4307.7782,N,07726.8045,W,0.01,333.47,230923,,,A*7F
$GPGGA,185353.750,4307.7782,N,07726.8045,W,1,08,1.22,152.6,M,-34.3,M,,*52
$GPRMC,185354.000,A,4307.7782,N,07726.8045,W,0.01,354.50,230923,,,A*7A
$GPGGA,185354.250,4307.7782,N,07726.8045,W,1,08,1.22,152.6,M,-34.3,M,,*50
$GPRMC,185354.500,A,4307.7782,N,07726.8045,W,0.01,353.22,230923,,,A*7D
$GPGGA,185354.750,4307.7782,N,07726.8045,W,1,08,1.22,152.6,M,-34.3,M,,*55
$GPRMC,185355.000,A,4307.7782,N,07726.8045,W,0.00,306.05,230923,,,A*7D
$GPGGA,185355.250,4307.7782,N,07726.8045,W,1,08,1.22,152.6,M,-34.3,M,,*51
$GPRMC,185355.500,A,4307.7782,N,07726.8045,W,0.00,274.20,230923,,,A*7B
$GPGGA,185355.750,4307.7782,N,07726.8045,W,1,08,1.22,152.6,M,-34.3,M,,*54
$GPRMC,185356.000,A,4307.7782,N,07726.8045,W,0.00,313.96,230923,,,A*70
$GPGGA,185356.250,4307.7782,N,07726.8045,W,1,08,1.22,152.6,M,-34.3,M,,*52
$GPRMC,185356.500,A,4307.7782,N,07726.8045,W,0.01,314.82,230923,,,A*76
$GPGGA,185356.750,4307.7782,N,07726.8045,W,1,08,1.22,152.6,M,-34.3,M,,*57
$GPRMC,185357.000,A,4307.7782,N,07726.8045,W,0.00,312.90,230923,,,A*76
$GPGGA,185357.250,4307.7782,N,07726.8045,W,1,08,1.22,152.6,M,-34.3,M,,*53
$GPRMC,185357.500,A,4307.7782,N,07726.8045,W,0.01,300.28,230923,,,A*72
$GPGGA,185357.750,4307.7782,N,07726.8045,W,1,08,1.22,152.6,M,-34.3,M,,*56
$GPRMC,185358.000,A,4307.7782,N,07726.8045,W,0.01,136.35,230923,,,A*73
$GPGGA,185358.250,4307.7782,N,07726.8045,W,1,08,1.22,152.6,M,-34.3,M,,*5C
$GPRMC,185358.500,A,4307.7782,N,07726.8045,W,0.01,13.91,230923,,,A*4E
$GPGGA,185358.750,4307.7782,N,07726.8045,W,1,08,1.22,152.6,M,-34.3,M,,*59
$GPRMC,185359.000,A,4307.7782,N,07726.8045,W,0.01,159.10,230923,,,A*7C
$GPGGA,185359.250,4307.7782,N,07726.8045,W,1,08,1.22,152.6,M,-34.3,M,,*5D
$GPRMC,185359.500,A,4307.7782,N,07726.8045,W,0.01,356.76,230923,,,A*74
$GPGGA,185359.750,4307.7782,N,07726.8045,W,1,08,1.22,152.6,M,-34.3,M,,*58
$GPRMC,185400.000,A,4307.7782,N,07726.8045,W,0.00,210.80,230923,,,A*71
$GPGGA,185400.250,4307.7782,N,07726.8045,W,1,08,1.22,152.6,M,-34.3,M,,*56
$GPRMC,185400.500,A,4307.7782,N,07726.8045,W,0.01,235.97,230923,,,A*74
$GPGGA,185400.750,4307.7782,N,07726.8045,W,1,08,1.22,152.6,M,-34.3,M,,*53
$GPRMC,185401.000,A,4307.7782,N,07726.8045,W,0.01,135.28,230923,,,A*77
$GPGGA,185401.250,4307.7782,N,07726.8045,W,1,08,1.22,152.6,M,-34.3,M,,*57
$GPRMC,185401.500,A,4307.7782,N,07726.8045,W,0.00,82.88,230923,,,A*44
$GPGGA,185401.750,4307.7782,N,07726.8045,W,1,08,1.22,152.6,M,-34.3,M,,*52
$GPRMC,185402.000,A,4307.7782,N,07726.8045,W,0.00,85.64,230923,,,A*47
$GPGGA,185402.250,4307.7782,N,07726.8045,W,1,08,1.22,152.6,M,-34.3,M,,*54
$GPRMC,185402.500,A,4307.7782,N,07726.8045,W,0.00,161.18,230923,,,A*72
$GPGGA,185402.750,4307.7782,N,07726.8045,W,1,08,1.22,152.6,M,-34.3,M,,*51
$GPRMC,185403.000,A,4307.7782,N,07726.8045,W,0.01,307.76,230923,,,A*7D
$GPGGA,185403.250,4307.7782,N,07726.8045,W,1,08,1.22,152.6,M,-34.3,M,,*55
$GPRMC,185403.500,A,4307.7782,N,07726.8045,W,0.01,16.13,230923,,,A*48
$GPGGA,185403.750,4307.7782,N,07726.8045,W,1,08,1.22,152.6,M,-34.3,M,,*50
$GPRMC,185404.000,A,4307.7782,N,07726.8045,W,0.00,281.88,230923,,,A*75
$GPGGA,185404.250,4307.7782,N,07726.8045,W,1,08,1.22,152.6,M,-34.3,M,,*52
$GPRMC,185404.500,A,4307.7782,N,07726.8045,W,0.01,262.89,230923,,,A*7D
$GPGGA,185404.750,4307.7782,N,07726.8045,W,1,08,1.22,152.6,M,-34.3,M,,*57
$GPRMC,185405.000,A,4307.7782,N,07726.8045,W,0.00,0.00,230923,,,A*7F
$GPGGA,185405.250,4307.7782,N,07726.8045,W,1,08,1.22,152.6,M,-34.3,M,,*53
$GPRMC,185405.500,A,4307.7782,N,07726.8045,W,0.01,102.64,230923,,,A*7A
$GPGGA,185405.750,4307.7782,N,07726.8045,W,1,08,1.22,152.6,M,-34.3,M,,*56
$GPRMC,185406.000,A,4307.7782,N,07726.8045,W,0.01,326.56,230923,,,A*79
$GPGGA,185406.250,4307.7782,N,07726.8045,W,1,08,1.22,152.6,M,-34.3,M,,*50
$GPRMC,185406.500,A,4307.7782,N,07726.8045,W,0.01,149.22,230923,,,A*74
$GPGGA,185406.750,4307.7782,N,07726.8045,W,1,08,1.22,152.6,M,-34.3,M,,*55
$GPRMC,185407.000,A,4307.7782,N,07726.8045,W,0.00,253.86,230923,,,A*77
$GPGGA,185407.250,4307.7782,N,07726.8045,W,1,08,1.22,152.6,M,-34.3,M,,*51
$GPRMC,185407.500,A,4307.7782,N,07726.8045,W,0.01,73.32,230923,,,A*4C
$GPGGA,185407.750,4307.7782,N,07726.8045,W,1,08,1.22,152.6,M,-34.3,M,,*54
$GPRMC,185408.000,A,4307.7782,N,07726.8045,W,0.00,260.11,230923,,,A*76
$GPGGA,185408.250,4307.7782,N,07726.8045,W,1,08,1.22,152.6,M,-34.3,M,,*5E
$GPRMC,185408.500,A,4307.7782,N,07726.8045,W,0.00,60.49,230923,,,A*4C
$GPGGA,185408.750,4307.7782,N,07726.8045,W,1,08,1.22,152.6,M,-34.3,M,,*5B
$GPRMC,185409.000,A,4307.7782,N,07726.8045,W,0.01,311.58,230923,,,A*7C
$GPGGA,185409.250,4307.7782,N,07726.8045,W,1,08,1.22,152.6,M,-34.3,M,,*5F
$GPRMC,185409.500,A,4307.7782,N,07726.8045,W,0.00,78.43,230923,,,A*4E
$GPGGA,185409.750,4307.7782,N,07726.8045,W,1,08,1.22,152.6,M,-34.3,M,,*5A
$GPRMC,185410.000,A,4307.7782,N,07726.8045,W,0.00,170.94,230923,,,A*70
$GPGGA,185410.250,4307.7782,N,07726.8045,W,1,08,1.22,152.6,M,-34.3,M,,*57
$GPRMC,185410.500,A,4307.7782,N,07726.8045,W,0.00,203.41,230923,,,A*7A
$GPGGA,185410.750,4307.7782,N,07726.8045,W,1,08,1.22,152.6,M,-34.3,M,,*52
$GPRMC,185411.000,A,4307.7782,N,07726.8045,W,0.01,178.49,230923,,,A*78
$GPGGA,185411.250,4307.7782,N,07726.8045,W,1,08,1.22,152.6,M,-34.3,M,,*56
$GPRMC,185411.500,A,4307.7782,N,07726.8045,W,0.01,72.31,230923,,,A*49
$GPGGA,185411.750,4307.7782,N,07726.8045,W,1,08,1.22,152.6,M,-34.3,M,,*53
$GPRMC,185412.000,A,4307.7782,N,07726.8045,W,0.01,240.04,230923,,,A*7A
$GPGGA,185412.250,4307.7782,N,07726.8045,W,1,08,1.22,152.6,M,-34.3,M,,*55
$GPRMC,185412.500,A,4307.7782,N,07726.8045,W,0.00,103.96,230923,,,A*71
$GPGGA,185412.750,4307.7782,N,07726.8045,W,1,08,1.22,152.6,M,-34.3,M,,*50
$GPRMC,185413.000,A,4307.7782,N,07726.8045,W,0.01,15.99,230923,,,A*4D
$GPGGA,185413.250,4307.7782,N,07726.8045,W,1,08,1.22,152.6,M,-34.3,M,,*54
$GPRMC,185413.500,A,4307.7782,N,07726.8045,W,0.01,155.25,230923,,,A*7A
$GPGGA,185413.750,4307.7782,N,07726.8046,W,1,08,1.22,152.6,M,-34.3,M,,*52
$GPRMC,185414.000,A,4307.7782,N,07726.8046,W,0.01,178.51,230923,,,A*77
$GPGGA,185414.250,4307.7782,N,07726.8046,W,1,08,1.22,152.6,M,-34.3,M,,*50
$GPRMC,185414.500,A,4307.7782,N,07726.8046,W,0.01,37.44,230923,,,A*4C
$GPGGA,185414.750,4307.7782,N,07726.8046,W,1,08,1.22,152.6,M,-34.3,M,,*55
$GPRMC,185415.000,A,4307.7782,N,07726.8046,W,0.00,349.98,230923,,,A*72
$GPGGA,185415.250,4307.7782,N,07726.8046,W,1,08,1.22,152.6,M,-34.3,M,,*51
$GPRMC,185415.500,A,4307.7782,N,07726.8046,W,0.01,98.62,230923,,,A*4C
$GPGGA,185415.750,4307.7782,N,07726.8046,W,1,08,1.22,152.6,M,-34.3,M,,*54
$GPRMC,185416.000,A,4307.7782,N,07726.8046,W,0.00,359.60,230923,,,A*77
$GPGGA,185416.250,4307.7782,N,07726.8046,W,1,08,1.22,152.6,M,-34.3,M,,*52
$GPRMC,185416.500,A,4307.7782,N,07726.8046,W,0.01,138.83,230923,,,A*7B
$GPGGA,185416.750,4307.7782,N,07726.8046,W,1,08,1.22,152.6,M,-34.3,M,,*57
$GPRMC,185417.000,A,4307.7782,N,07726.8046,W,0.00,166.64,230923,,,A*7C
$GPGGA,185417.250,4307.7782,N,07726.8046,W,1,08,1.22,152.6,M,-34.3,M,,*53
$GPRMC,185417.500,A,4307.7782,N,07726.8046,W,0.01,176.19,230923,,,A*73
$GPGGA,185417.750,4307.7782,N,07726.8046,W,1,08,1.22,152.6,M,-34.3,M,,*56
$GPRMC,185418.000,A,4307.7782,N,07726.8046,W,0.00,0.00,230923,,,A*70
$GPGGA,185418.250,4307.7782,N,07726.8046,W,1,08,1.22,152.6,M,-34.3,M,,*5C
$GPRMC,185418.500,A,4307.7782,N,07726.8046,W,0.00,70.05,230923,,,A*47
$GPGGA,185418.750,4307.7782,N,07726.8046,W,1,08,1.22,152.6,M,-34.3,M,,*59
$GPRMC,185419.000,A,4307.7782,N,07726.8046,W,0.01,123.85,230923,,,A*7D
$GPGGA,185419.250,4307.7782,N,07726.8046,W,1,08,1.22,152.6,M,-34.3,M,,*5D
$GPRMC,185419.500,A,4307.7782,N,07726.8046,W,0.01,309.20,230923,,,A*7D
$GPGGA,185419.750,4307.7782,N,07726.8046,W,1,08,1.22,152.6,M,-34.3,M,,*58
$GPRMC,185420.000,A,4307.7782,N,07726.8046,W,0.00,296.19,230923,,,A*7E
$GPGGA,185420.250,4307.7782,N,07726.8046,W,1,08,1.22,152.6,M,-34.3,M,,*57
$GPRMC,185420.500,A,4307.7782,N,07726.8046,W,0.01,188.48,230923,,,A*72
$GPGGA,185420.750,4307.7782,N,07726.8046,W,1,08,1.22,152.6,M,-34.3,M,,*52
$GPRMC,185421.000,A,4307.7782,N,07726.8046,W,0.01,330.78,230923,,,A*74
$GPGGA,185421.250,4307.7782,N,07726.8046,W,1,08,1.22,152.6,M,-34.3,M,,*56
$GPRMC,185421.500,A,4307.7782,N,07726.8046,W,0.00,346.62,230923,,,A*7A
$GPGGA,185421.750,4307.7782,N,07726.8046,W,1,08,1.22,152.6,M,-34.3,M,,*53
$GPRMC,185422.000,A,4307.7782,N,07726.8046,W,0.01,192.85,230923,,,A*7F
$GPGGA,185422.250,4307.7782,N,07726.8046,W,1,08,1.22,152.6,M,-34.3,M,,*55
$GPRMC,185422.500,A,4307.7782,N,07726.8046,W,0.00,0.86,230923,,,A*72
$GPGGA,185422.750,4307.7782,N,07726.8046,W,1,08,1.22,152.6,M,-34.3,M,,*50
$GPRMC,185423.000,A,4307.7782,N,07726.8046,W,0.00,254.21,230923,,,A*78
$GPGGA,185423.250,4307.7782,N,07726.8046,W,1,08,1.22,152.6,M,-34.3,M,,*54
$GPRMC,185423.500,A,4307.7782,N,07726.8046,W,0.01,283.09,230923,,,A*7C
$GPGGA,185423.750,4307.7782,N,07726.8046,W,1,08,1.22,152.6,M,-34.3,M,,*51
$GPRMC,185424.000,A,4307.7782,N,07726.8046,W,0.00,175.36,230923,,,A*79
$GPGGA,185424.250,4307.7782,N,07726.8046,W,1,08,1.22,152.6,M,-34.3,M,,*53
$GPRMC,185424.500,A,4307.7782,N,07726.8046,W,0.01,270.40,230923,,,A*7A
$GPGGA,185424.750,4307.7782,N,07726.8046,W,1,08,1.22,152.6,M,-34.3,M,,*56
$GPRMC,185425.000,A,4307.7782,N,07726.8046,W,0.01,69.90,230923,,,A*49
$GPGGA,185425.250,4307.7782,N,07726.8046,W,1,08,1.22,152.6,M,-34.3,M,,*52
$GPRMC,185425.500,A,4307.7782,N,07726.8046,W,0.00,155.09,230923,,,A*73
$GPGGA,185425.750,4307.7782,N,07726.8046,W,1,08,1.22,152.6,M,-34.3,M,,*57
$GPRMC,185426.000,A,4307.7782,N,07726.8046,W,0.01,42.46,230923,,,A*48
$GPGGA,185426.250,4307.7782,N,07726.8046,W,1,08,1.22,152.6,M,-34.3,M,,*51
$GPRMC,185426.500,A,4307.7782,N,07726.8046,W,0.00,139.59,230923,,,A*7F
$GPGGA,185426.750,4307.7782,N,07726.8046,W,1,08,1.22,152.6,M,-34.3,M,,*54
$GPRMC,185427.000,A,4307.7782,N,07726.8046,W,0.01,353.49,230923,,,A*75
$GPGGA,185427.250,4307.7782,N,07726.8046,W,1,08,1.22,152.6,M,-34.3,M,,*50
$GPRMC,185427.500,A,4307.7782,N,07726.8046,W,0.00,162.57,230923,,,A*7E
$GPGGA,185427.750,4307.7782,N,07726.8046,W,1,08,1.22,152.6,M,-34.3,M,,*55
$GPRMC,185428.000,A,4307.7782,N,07726.8046,W,0.00,246.32,230923,,,A*72
$GPGGA,185428.250,4307.7782,N,07726.8046,W,1,08,1.22,152.6,M,-34.3,M,,*5F
$GPRMC,185428.500,A,4307.7782,N,07726.8046,W,0.01,233.02,230923,,,A*77
$GPGGA,185428.750,4307.7782,N,07726.8046,W,1,08,1.22,152.6,M,-34.3,M,,*5A
$GPRMC,185429.000,A,4307.7782,N,07726.8046,W,0.00,81.34,230923,,,A*4C
$GPGGA,185429.250,4307.7782,N,07726.8046,W,1,08,1.22,152.6,M,-34.3,M,,*5E
$GPRMC,185429.500,A,4307.7782,N,07726.8046,W,0.00,154.56,230923,,,A*74
$GPGGA,185429.750,4307.7782,N,07726.8046,W,1,08,1.22,152.6,M,-34.3,M,,*5B
$GPRMC,185430.000,A,4307.7782,N,07726.8046,W,0.00,0.00,230923,,,A*7A
$GPGGA,185430.250,4307.7782,N,07726.8046,W,1,08,1.22,152.6,M,-34.3,M,,*56
$GPRMC,185430.500,A,4307.7782,N,07726.8046,W,0.01,333.66,230923,,,A*7D
$GPGGA,185430.750,4307.7782,N,07726.8046,W,1,08,1.22,152.6,M,-34.3,M,,*53
$GPRMC,185431.000,A,4307.7782,N,07726.8046,W,0.00,66.84,230923,,,A*47
$GPGGA,185431.250,4307.7782,N,07726.8046,W,1,08,1.22,152.6,M,-34.3,M,,*57
$GPRMC,185431.500,A,4307.7782,N,07726.8046,W,0.00,25.21,230923,,,A*4A
$GPGGA,185431.750,4307.7782,N,07726.8046,W,1,08,1.22,152.6,M,-34.3,M,,*52
$GPRMC,185432.000,A,4307.7782,N,07726.8046,W,0.01,147.42,230923,,,A*7D
$GPGGA,185432.250,4307.7782,N,07726.8046,W,1,08,1.22,152.6,M,-34.3,M,,*54
$GPRMC,185432.500,A,4307.7782,N,07726.8046,W,0.00,19.02,230923,,,A*47
$GPGGA,185432.750,4307.7782,N,07726.8046,W,1,08,1.22,152.6,M,-34.3,M,,*51
$GPRMC,185433.000,A,4307.7782,N,07726.8046,W,0.01,145.59,230923,,,A*74
$GPGGA,185433.250,4307.7782,N,07726.8046,W,1,08,1.22,152.6,M,-34.3,M,,*55
$GPRMC,185433.500,A,4307.7782,N,07726.8046,W,0.01,344.84,230923,,,A*72
$GPGGA,185433.750,4307.7782,N,07726.8046,W,1,08,1.22,152.6,M,-34.3,M,,*50
$GPRMC,185434.000,A,4307.7782,N,07726.8046,W,0.01,73.43,230923,,,A*4C
$GPGGA,185434.250,4307.7783,N,07726.8046,W,1,08,1.22,152.6,M,-34.3,M,,*53
$GPRMC,185434.500,A,4307.7783,N,07726.8046,W,0.01,132.75,230923,,,A*79
$GPGGA,185434.750,4307.7783,N,07726.8046,W,1,08,1.22,152.6,M,-34.3,M,,*56
$GPRMC,185435.000,A,4307.7783,N,07726.8046,W,0.00,97.16,230923,,,A*47
$GPGGA,185435.250,4307.7783,N,07726.8046,W,1,08,1.22,152.6,M,-34.3,M,,*52
$GPRMC,185435.500,A,4307.7783,N,07726.8046,W,0.01,192.90,230923,,,A*79
$GPGGA,185435.750,4307.7783,N,07726.8046,W,1,08,1.22,152.6,M,-34.3,M,,*57
$GPRMC,185436.000,A,4307.7783,N,07726.8046,W,0.00,143.95,230923,,,A*77
$GPGGA,185436.250,4307.7783,N,07726.8046,W,1,08,1.22,152.6,M,-34.3,M,,*51
$GPRMC,185436.500,A,4307.7783,N,07726.8046,W,0.00,76.21,230923,,,A*4A
$GPGGA,185436.750,4307.7783,N,07726.8046,W,1,08,1.22,152.6,M,-34.3,M,,*54
$GPRMC,185437.000,A,4307.7783,N,07726.8046,W,0.01,358.64,230923,,,A*71
$GPGGA,185437.250,4307.7783,N,07726.8046,W,1,08,1.22,152.6,M,-34.3,M,,*50
$GPRMC,185437.500,A,4307.7783,N,07726.8046,W,0.00,0.00,230923,,,A*79
$GPGGA,185437.750,4307.7783,N,07726.8046,W,1,08,1.22,152.6,M,-34.3,M,,*55
$GPRMC,185438.000,A,4307.7783,N,07726.8046,W,0.01,269.66,230923,,,A*7F
$GPGGA,185438.250,4307.7783,N,07726.8046,W,1,08,1.22,152.6,M,-34.3,M,,*5F
$GPRMC,185438.500,A,4307.7783,N,07726.8046,W,0.01,215.42,230923,,,A*77
$GPGGA,185438.750,4307.7783,N,07726.8046,W,1,08,1.22,152.6,M,-34.3,M,,*5A
$GPRMC,185439.000,A,4307.7783,N,07726.8046,W,0.01,137.39,230923,,,A*7C
$GPGGA,185439.250,4307.7783,N,07726.8046,W,1,08,1.22,152.6,M,-34.3,M,,*5E
$GPRMC,185439.500,A,4307.7783,N,07726.8046,W,0.00,112.14,230923,,,A*70
$GPGGA,185439.750,4307.7783,N,07726.8046,W,1,08,1.22,152.6,M,-34.3,M,,*5B
$GPRMC,185440.000,A,4307.7783,N,07726.8046,W,0.01,257.07,230923,,,A*7A
$GPGGA,185440.250,4307.7783,N,07726.8046,W,1,08,1.22,152.6,M,-34.3,M,,*50
$GPRMC,185440.500,A,4307.7783,N,07726.8046,W,0.00,113.65,230923,,,A*79
$GPGGA,185440.750,4307.7783,N,07726.8046,W,1,08,1.22,152.6,M,-34.3,M,,*55
$GPRMC,185441.000,A,4307.7783,N,07726.8046,W,0.01,186.42,230923,,,A*75
$GPGGA,185441.250,4307.7783,N,07726.8046,W,1,08,1.22,152.6,M,-34.3,M,,*51
$GPRMC,185441.500,A,4307.7783,N,07726.8046,W,0.01,245.56,230923,,,A*79
$GPGGA,185441.750,4307.7783,N,07726.8046,W,1,08,1.22,152.6,M,-34.3,M,,*54
$GPRMC,185442.000,A,4307.7783,N,07726.8046,W,0.00,157.43,230923,,,A*7A
$GPGGA,185442.250,4307.7783,N,07726.8046,W,1,08,1.22,152.6,M,-34.3,M,,*52
$GPRMC,185442.500,A,4307.7783,N,07726.8046,W,0.00,197.72,230923,,,A*71
$GPGGA,185442.750,4307.7783,N,07726.8046,W,1,08,1.22,152.6,M,-34.3,M,,*57
$GPRMC,185443.000,A,4307.7783,N,07726.8046,W,0.00,26.54,230923,,,A*4A
$GPGGA,185443.250,4307.7783,N,07726.8046,W,1,08,1.22,152.6,M,-34.3,M,,*53
$GPRMC,185443.500,A,4307.7783,N,07726.8046,W,0.01,151.18,230923,,,A*77
$GPGGA,185443.750,4307.7783,N,07726.8046,W,1,08,1.22,152.6,M,-34.3,M,,*56
$GPRMC,185444.000,A,4307.7783,N,07726.8046,W,0.00,99.83,230923,,,A*43
$GPGGA,185444.250,4307.7783,N,07726.8046,W,1,08,1.22,152.6,M,-34.3,M,,*54
$GPRMC,185444.500,A,4307.7783,N,07726.8046,W,0.00,6.36,230923,,,A*7E
$GPGGA,185444.750,4307.7783,N,07726.8046,W,1,08,1.22,152.6,M,-34.3,M,,*51
$GPRMC,185445.000,A,4307.7783,N,07726.8046,W,0.00,294.57,230923,,,A*74
$GPGGA,185445.250,4307.7783,N,07726.8046,W,1,08,1.22,152.6,M,-34.3,M,,*55
$GPRMC,185445.500,A,4307.7783,N,07726.8046,W,0.00,309.01,230923,,,A*77
$GPGGA,185445.750,4307.7783,N,07726.8046,W,1,08,1.22,152.6,M,-34.3,M,,*50
$GPRMC,185446.000,A,4307.7783,N,07726.8046,W,0.01,116.32,230923,,,A*7C
$GPGGA,185446.250,4307.7783,N,07726.8046,W,1,08,1.22,152.6,M,-34.3,M,,*56
$GPRMC,185446.500,A,4307.7783,N,07726.8046,W,0.00,0.00,230923,,,A*7F
$GPGGA,185446.750,4307.7783,N,07726.8046,W,1,08,1.22,152.6,M,-34.3,M,,*53
$GPRMC,185447.000,A,4307.7783,N,07726.8046,W,0.00,331.87,230923,,,A*75
$GPGGA,185447.250,4307.7783,N,07726.8046,W,1,08,1.22,152.6,M,-34.3,M,,*57
$GPRMC,185447.500,A,4307.7783,N,07726.8046,W,0.00,325.66,230923,,,A*7A
$GPGGA,185447.750,4307.7783,N,07726.8046,W,1,08,1.22,152.6,M,-34.3,M,,*52
$GPRMC,185448.000,A,4307.7783,N,07726.8046,W,0.00,290.08,230923,,,A*77
$GPGGA,185448.250,4307.7783,N,07726.8046,W,1,08,1.22,152.6,M,-34.3,M,,*58
$GPRMC,185448.500,A,4307.7783,N,07726.8046,W,0.00,15.81,230923,,,A*4C
$GPGGA,185448.750,4307.7783,N,07726.8046,W,1,08,1.22,152.6,M,-34.3,M,,*5D
$GPRMC,185449.000,A,4307.7783,N,07726.8046,W,0.01,112.12,230923,,,A*75
$GPGGA,185449.250,4307.7783,N,07726.8046,W,1,08,1.22,152.6,M,-34.3,M,,*59
$GPRMC,185449.500,A,4307.7783,N,07726.8046,W,0.00,166.85,230923,,,A*7C
$GPGGA,185449.750,4307.7783,N,07726.8046,W,1,08,1.22,152.6,M,-34.3,M,,*5C
$GPRMC,185450.000,A,4307.7783,N,07726.8046,W,0.00,136.31,230923,,,A*7B
$GPGGA,185450.250,4307.7783,N,07726.8046,W,1,08,1.22,152.6,M,-34.3,M,,*51
$GPRMC,185450.500,A,4307.7783,N,07726.8046,W,0.01,250.51,230923,,,A*7A
$GPGGA,185450.750,4307.7783,N,07726.8046,W,1,08,1.22,152.6,M,-34.3,M,,*54
$GPRMC,185451.000,A,4307.7783,N,07726.8046,W,0.01,48.91,230923,,,A*49
$GPGGA,185451.250,4307.7783,N,07726.8046,W,1,08,1.22,152.6,M,-34.3,M,,*50
$GPRMC,185451.500,A,4307.7783,N,07726.8046,W,0.01,149.28,230923,,,A*7E
$GPGGA,185451.750,4307.7783,N,07726.8046,W,1,08,1.22,152.6,M,-34.3,M,,*55
$GPRMC,185452.000,A,4307.7783,N,07726.8046,W,0.00,64.72,230923,,,A*48
$GPGGA,185452.250,4307.7783,N,07726.8046,W,1,08,1.22,152.6,M,-34.3,M,,*53
$GPRMC,185452.500,A,4307.7783,N,07726.8046,W,0.00,242.49,230923,,,A*73
$GPGGA,185452.750,4307.7783,N,07726.8046,W,1,08,1.22,152.6,M,-34.3,M,,*56
$GPRMC,185453.000,A,4307.7783,N,07726.8046,W,0.00,244.56,230923,,,A*7F
$GPGGA,185453.250,4307.7783,N,07726.8046,W,1,08,1.22,152.6,M,-34.3,M,,*52
$GPRMC,185453.500,A,4307.7783,N,07726.8046,W,0.01,137.19,230923,,,A*77
$GPGGA,185453.750,4307.7783,N,07726.8046,W,1,08,1.22,152.6,M,-34.3,M,,*57
$GPRMC,185454.000,A,4307.7783,N,07726.8046,W,0.00,216.06,230923,,,A*7A
$GPGGA,185454.250,4307.7783,N,07726.8046,W,1,08,1.22,152.6,M,-34.3,M,,*55
$GPRMC,185454.500,A,4307.7783,N,07726.8046,W,0.00,245.00,230923,,,A*7F
$GPGGA,185454.750,4307.7783,N,07726.8046,W,1,08,1.22,152.6,M,-34.3,M,,*50
$GPRMC,185455.000,A,4307.7783,N,07726.8046,W,0.00,115.40,230923,,,A*79
$GPGGA,185455.250,4307.7783,N,07726.8046,W,1,08,1.22,152.6,M,-34.3,M,,*54
$GPRMC,185455.500,A,4307.7783,N,07726.8046,W,0.01,93.97,230923,,,A*48
$GPGGA,185455.750,4307.7783,N,07726.8046,W,1,08,1.22,152.6,M,-34.3,M,,*51
$GPRMC,185456.000,A,4307.7783,N,07726.8046,W,0.00,147.05,230923,,,A*7C
$GPGGA,185456.250,4307.7783,N,07726.8046,W,1,08,1.22,152.6,M,-34.3,M,,*57
$GPRMC,185456.500,A,4307.7783,N,07726.8046,W,0.01,155.33,230923,,,A*7E
$GPGGA,185456.750,4307.7783,N,07726.8046,W,1,08,1.22,152.6,M,-34.3,M,,*52
$GPRMC,185457.000,A,4307.7783,N,07726.8046,W,0.01,69.19,230923,,,A*4C
$GPGGA,185457.250,4307.7783,N,07726.8046,W,1,08,1.22,152.6,M,-34.3,M,,*56
$GPRMC,185457.500,A,4307.7783,N,07726.8046,W,0.01,152.17,230923,,,A*7E
$GPGGA,185457.750,4307.7783,N,07726.8046,W,1,08,1.22,152.6,M,-34.3,M,,*53
$GPRMC,185458.000,A,4307.7783,N,07726.8046,W,0.00,305.07,230923,,,A*74
$GPGGA,185458.250,4307.7783,N,07726.8046,W,1,08,1.22,152.6,M,-34.3,M,,*59
$GPRMC,185458.500,A,4307.7783,N,07726.8046,W,0.01,59.64,230923,,,A*4F
$GPGGA,185458.750,4307.7783,N,07726.8046,W,1,08,1.22,152.6,M,-34.3,M,,*5C
$GPRMC,185459.000,A,4307.7783,N,07726.8046,W,0.01,135.92,230923,,,A*79
$GPGGA,185459.250,4307.7783,N,07726.8046,W,1,08,1.22,152.6,M,-34.3,M,,*58
$GPRMC,185459.500,A,4307.7783,N,07726.8046,W,0.00,114.43,230923,,,A*72
$GPGGA,185459.750,4307.7783,N,07726.8046,W,1,08,1.22,152.6,M,-34.3,M,,*5D
$GPRMC,185500.000,A,4307.7783,N,07726.8046,W,0.00,23.10,230923,,,A*49
$GPGGA,185500.250,4307.7783,N,07726.8046,W,1,08,1.22,152.6,M,-34.3,M,,*55
