Vers 81
USE_SERIAL_FEEDBACK=true
DEVELOPMENT_MODE=false
USE_RMC_ONLY=false

$GPRMC,223453.500,A,4308.3405,N,07726.1152,W,11.52,65.25,290823,,,A*77
$GPGGA,223453.750,4308.3417,N,07726.1147,W,1,04,11.40,151.1,M,-34.4,M,,*6E
$GPRMC,223454.000,A,4308.3426,N,07726.1140,W,11.43,57.32,290823,,,A*70
$GPGGA,223454.250,4308.3433,N,07726.1132,W,1,04,11.39,151.1,M,-34.4,M,,*66
$GPRMC,223454.500,A,4308.3442,N,07726.1125,W,11.42,53.91,290823,,,A*78
$GPGGA,223454.750,4308.3449,N,07726.1119,W,1,04,11.43,151.4,M,-34.4,M,,*6F
$GPRMC,223455.000,A,4308.3459,N,07726.1114,W,11.44,49.42,290823,,,A*77
$GPGGA,223455.250,4308.3468,N,07726.1111,W,1,04,11.42,152.5,M,-34.4,M,,*63
$GPRMC,223455.500,A,4308.3476,N,07726.1107,W,11.36,44.79,290823,,,A*7D
$GPGGA,223455.750,4308.3484,N,07726.1103,W,1,04,11.42,153.3,M,-34.4,M,,*60
$GPRMC,223456.000,A,4308.3493,N,07726.1099,W,11.17,42.14,290823,,,A*78
$GPGGA,223456.250,4308.3497,N,07726.1094,W,1,04,11.45,154.0,M,-34.4,M,,*68
$GPRMC,223456.500,A,4308.3500,N,07726.1090,W,11.01,40.28,290823,,,A*75
$GPGGA,223456.750,4308.3500,N,07726.1086,W,1,04,9.22,155.4,M,-34.4,M,,*5C
$GPRMC,223457.000,A,4308.3501,N,07726.1081,W,10.85,39.08,290823,,,A*71
$GPGGA,223457.250,4308.3502,N,07726.1077,W,1,04,11.42,156.6,M,-34.4,M,,*6A
$GPRMC,223457.500,A,4308.3503,N,07726.1073,W,10.74,37.65,290823,,,A*70
$GPGGA,223457.750,4308.3503,N,07726.1067,W,1,04,9.23,157.6,M,-34.4,M,,*50
$GPRMC,223458.000,A,4308.3508,N,07726.1062,W,10.66,37.18,290823,,,A*78
$GPGGA,223458.250,4308.3526,N,07726.1060,W,1,04,11.44,157.5,M,-34.4,M,,*61
$GPRMC,223458.500,A,4308.3612,N,07726.1076,W,10.20,30.85,290823,,,A*71
$GPGGA,223458.750,4308.3648,N,07726.1078,W,1,04,9.23,152.6,M,-34.4,M,,*58
$GPRMC,223459.000,A,4308.3666,N,07726.1078,W,9.99,28.25,290823,,,A*41
$GPGGA,223459.250,4308.3680,N,07726.1078,W,1,04,11.44,152.1,M,-34.4,M,,*67
$GPRMC,223459.500,A,4308.3696,N,07726.1077,W,9.90,26.37,290823,,,A*40
$GPGGA,223459.750,4308.3707,N,07726.1075,W,1,04,11.42,152.1,M,-34.4,M,,*67
$GPRMC,223500.000,A,4308.3720,N,07726.1074,W,9.91,25.28,290823,,,A*4B
$GPGGA,223500.250,4308.3734,N,07726.1075,W,1,04,11.42,152.8,M,-34.4,M,,*66
$GPRMC,223500.500,A,4308.3750,N,07726.1075,W,10.22,22.43,290823,,,A*72
$GPGGA,223500.750,4308.3760,N,07726.1073,W,1,04,9.25,153.5,M,-34.4,M,,*50
$GPRMC,223501.000,A,4308.3773,N,07726.1072,W,10.29,21.75,290823,,,A*7D
$GPGGA,223501.250,4308.3789,N,07726.1072,W,1,04,9.25,154.1,M,-34.4,M,,*51
$GPRMC,223501.500,A,4308.3804,N,07726.1071,W,10.40,20.87,290823,,,A*77
$GPGGA,223501.750,4308.3819,N,07726.1069,W,1,04,9.25,154.2,M,-34.4,M,,*5B
$GPRMC,223502.000,A,4308.3831,N,07726.1068,W,10.53,20.32,290823,,,A*73
$GPGGA,223502.250,4308.3842,N,07726.1066,W,1,04,9.25,155.0,M,-34.4,M,,*5F
$GPRMC,223502.500,A,4308.3855,N,07726.1065,W,10.67,19.72,290823,,,A*70
$GPGGA,223502.750,4308.3868,N,07726.1064,W,1,04,9.26,155.4,M,-34.4,M,,*57
$GPRMC,223503.000,A,4308.3893,N,07726.1065,W,10.77,18.97,290823,,,A*75
$GPGGA,223503.250,4308.3920,N,07726.1065,W,1,04,9.26,154.3,M,-34.4,M,,*59
$GPRMC,223503.500,A,4308.3936,N,07726.1064,W,10.79,18.32,290823,,,A*7E
$GPGGA,223503.750,4308.3949,N,07726.1063,W,1,04,9.26,154.0,M,-34.4,M,,*56
$GPRMC,223504.000,A,4308.3960,N,07726.1062,W,10.81,17.76,290823,,,A*71
$GPGGA,223504.250,4308.3967,N,07726.1061,W,1,04,9.26,154.3,M,-34.4,M,,*59
$GPRMC,223504.500,A,4308.3976,N,07726.1060,W,10.78,17.08,290823,,,A*7E
$GPGGA,223504.750,4308.3988,N,07726.1059,W,1,04,9.26,154.5,M,-34.4,M,,*50
$GPRMC,223505.000,A,4308.3999,N,07726.1059,W,10.78,16.47,290823,,,A*7B
$GPGGA,223505.250,4308.4022,N,07726.1060,W,1,04,9.28,153.8,M,-34.4,M,,*54
$GPRMC,223505.500,A,4308.4036,N,07726.1059,W,10.74,15.59,290823,,,A*75
$GPGGA,223505.750,4308.4055,N,07726.1059,W,1,04,9.27,153.0,M,-34.4,M,,*5C
$GPRMC,223506.000,A,4308.4074,N,07726.1062,W,10.69,14.23,290823,,,A*7D
$GPGGA,223506.250,4308.4091,N,07726.1063,W,1,04,11.41,152.0,M,-34.4,M,,*63
$GPRMC,223506.500,A,4308.4107,N,07726.1064,W,10.63,12.96,290823,,,A*79
$GPGGA,223506.750,4308.4122,N,07726.1064,W,1,04,11.43,151.3,M,-34.4,M,,*6A
$GPRMC,223507.000,A,4308.4132,N,07726.1063,W,10.59,12.53,290823,,,A*7C
$GPGGA,223507.250,4308.4141,N,07726.1062,W,1,04,11.43,151.1,M,-34.4,M,,*6F
$GPRMC,223507.500,A,4308.4149,N,07726.1062,W,10.41,11.98,290823,,,A*79
$GPGGA,223507.750,4308.4158,N,07726.1062,W,1,04,11.42,151.0,M,-34.4,M,,*62
$GPRMC,223508.000,A,4308.4165,N,07726.1062,W,10.24,11.35,290823,,,A*79
$GPGGA,223508.250,4308.4172,N,07726.1062,W,1,04,11.42,151.2,M,-34.4,M,,*62
$GPRMC,223508.500,A,4308.4177,N,07726.1061,W,10.04,10.60,290823,,,A*7F
$GPGGA,223508.750,4308.4184,N,07726.1061,W,1,04,11.42,151.3,M,-34.4,M,,*6C
$GPRMC,223509.000,A,4308.4193,N,07726.1061,W,9.97,10.08,290823,,,A*4D
$GPGGA,223509.250,4308.4201,N,07726.1060,W,1,04,11.41,151.2,M,-34.4,M,,*65
$GPRMC,223509.500,A,4308.4209,N,07726.1060,W,9.82,9.62,290823,,,A*79
$GPGGA,223509.750,4308.4216,N,07726.1060,W,1,04,11.42,151.3,M,-34.4,M,,*64
$GPRMC,223510.000,A,4308.4227,N,07726.1060,W,9.68,9.46,290823,,,A*7A
$GPGGA,223510.250,4308.4238,N,07726.1059,W,1,04,11.42,151.4,M,-34.4,M,,*68
$GPRMC,223510.500,A,4308.4248,N,07726.1057,W,9.84,10.37,290823,,,A*4E
$GPGGA,223510.750,4308.4257,N,07726.1056,W,1,04,11.42,152.3,M,-34.4,M,,*6F
$GPRMC,223511.000,A,4308.4266,N,07726.1054,W,9.96,11.37,290823,,,A*47
$GPGGA,223511.250,4308.4269,N,07726.1049,W,1,04,11.42,152.9,M,-34.4,M,,*62
$GPRMC,223511.500,A,4308.4273,N,07726.1042,W,9.75,15.42,290823,,,A*4A
$GPGGA,223511.750,4308.4285,N,07726.1037,W,1,04,9.31,152.8,M,-34.4,M,,*50
$GPRMC,223512.000,A,4308.4301,N,07726.1029,W,10.19,18.26,290823,,,A*78
$GPGGA,223512.250,4308.4310,N,07726.1015,W,1,04,9.32,152.3,M,-34.4,M,,*53
$GPRMC,223512.500,A,4308.4318,N,07726.1001,W,11.41,26.80,290823,,,A*72
$GPGGA,223512.750,4308.4324,N,07726.0990,W,1,04,9.33,152.0,M,-34.4,M,,*56
$GPRMC,223513.000,A,4308.4330,N,07726.0981,W,14.32,29.36,290823,,,A*7F
$GPGGA,223513.250,4308.4337,N,07726.0968,W,1,04,9.32,152.0,M,-34.4,M,,*56
$GPRMC,223513.500,A,4308.4348,N,07726.0957,W,17.10,31.52,290823,,,A*76
$GPGGA,223513.750,4308.4360,N,07726.0947,W,1,04,9.33,152.1,M,-34.4,M,,*5C
$GPRMC,223514.000,A,4308.4376,N,07726.0936,W,18.92,30.79,290823,,,A*73
$GPGGA,223514.250,,,,,0,04,,,M,,M,,*78
$GPRMC,223514.250,V,,,,,19.50,30.89,290823,,,N*44
$GPGGA,223514.500,,,,,0,04,,,M,,M,,*7A
$GPRMC,223514.500,V,,,,,19.78,32.44,290823,,,N*4F
$GPGGA,223514.750,,,,,0,04,,,M,,M,,*7D
$GPRMC,223514.750,V,,,,,20.00,32.82,290823,,,N*47
$GPGGA,223515.000,,,,,0,04,,,M,,M,,*7E
$GPRMC,223515.000,V,,,,,20.17,35.53,290823,,,N*49
$GPGGA,223515.250,,,,,0,04,,,M,,M,,*79
$GPRMC,223515.250,V,,,,,20.49,41.02,290823,,,N*42
$GPGGA,223515.500,,,,,0,04,,,M,,M,,*7B
$GPRMC,223515.500,V,,,,,20.99,43.59,290823,,,N*41
$GPGGA,223515.750,,,,,0,04,,,M,,M,,*7C
$GPRMC,223515.750,V,,,,,21.37,44.06,290823,,,N*4E
$GPGGA,223516.000,,,,,0,04,,,M,,M,,*7D
$GPRMC,223516.000,V,,,,,21.85,45.07,290823,,,N*46
$GPGGA,223516.250,,,,,0,04,,,M,,M,,*7A
$GPRMC,223516.250,V,,,,,22.17,46.03,290823,,,N*4E
$GPGGA,223516.500,,,,,0,04,,,M,,M,,*78
$GPRMC,223516.500,V,,,,,22.33,48.19,290823,,,N*4F
$GPGGA,223516.750,,,,,0,04,,,M,,M,,*7F
$GPRMC,223516.750,V,,,,,22.59,48.79,290823,,,N*42
$GPGGA,223517.000,,,,,0,04,,,M,,M,,*7C
$GPRMC,223517.000,V,,,,,22.84,49.68,290823,,,N*40
$GPGGA,223517.250,,,,,0,04,,,M,,M,,*7B
$GPRMC,223517.250,V,,,,,23.10,50.42,290823,,,N*4B
$GPGGA,223517.500,,,,,0,04,,,M,,M,,*79
$GPRMC,223517.500,V,,,,,23.32,51.15,290823,,,N*4A
$GPGGA,223517.750,,,,,0,04,,,M,,M,,*7E
$GPRMC,223517.750,V,,,,,23.54,51.41,290823,,,N*4C
$GPGGA,223518.000,,,,,0,04,,,M,,M,,*73
$GPRMC,223518.000,V,,,,,23.79,52.15,290823,,,N*4C
$GPGGA,223518.250,,,,,0,04,,,M,,M,,*74
$GPRMC,223518.250,V,,,,,24.09,52.81,290823,,,N*46
$GPGGA,223518.500,,,,,0,04,,,M,,M,,*76
$GPRMC,223518.500,V,,,,,24.33,53.44,290823,,,N*45
$GPGGA,223518.750,,,,,0,04,,,M,,M,,*71
$GPRMC,223518.750,V,,,,,24.52,53.66,290823,,,N*45
$GPGGA,223519.000,,,,,0,04,,,M,,M,,*72
$GPRMC,223519.000,V,,,,,24.79,53.84,290823,,,N*43
$GPGGA,223519.250,,,,,0,04,,,M,,M,,*75
$GPRMC,223519.250,V,,,,,25.04,54.13,290823,,,N*46
$GPGGA,223519.500,,,,,0,04,,,M,,M,,*77
$GPRMC,223519.500,V,,,,,25.29,54.38,290823,,,N*42
$GPGGA,223519.750,,,,,0,04,,,M,,M,,*70
$GPRMC,223519.750,V,,,,,25.54,54.62,290823,,,N*40
$GPGGA,223520.000,,,,,0,04,,,M,,M,,*78
$GPRMC,223520.000,V,,,,,25.79,54.90,290823,,,N*4A
$GPGGA,223520.250,,,,,0,04,,,M,,M,,*7F
$GPRMC,223520.250,V,,,,,25.99,55.30,290823,,,N*48
$GPGGA,223520.500,,,,,0,04,,,M,,M,,*7D
$GPRMC,223520.500,V,,,,,26.18,55.58,290823,,,N*4E
$GPGGA,223520.750,,,,,0,04,,,M,,M,,*7A
$GPRMC,223520.750,V,,,,,26.34,55.78,290823,,,N*45
$GPGGA,223521.000,,,,,0,04,,,M,,M,,*79
$GPRMC,223521.000,V,,,,,26.51,56.10,290823,,,N*48
$GPGGA,223521.250,,,,,0,04,,,M,,M,,*7E
$GPRMC,223521.250,V,,,,,26.73,56.37,290823,,,N*4A
$GPGGA,223521.500,,,,,0,04,,,M,,M,,*7C
$GPRMC,223521.500,V,,,,,26.93,56.57,290823,,,N*40
$GPGGA,223521.750,,,,,0,04,,,M,,M,,*7B
$GPRMC,223521.750,V,,,,,27.11,56.94,290823,,,N*43
$GPGGA,223522.000,,,,,0,04,,,M,,M,,*7A
$GPRMC,223522.000,V,,,,,27.18,57.11,290823,,,N*47
$GPGGA,223522.250,,,,,0,04,,,M,,M,,*7D
$GPRMC,223522.250,V,,,,,27.47,57.41,290823,,,N*4F
$GPGGA,223522.500,,,,,0,04,,,M,,M,,*7F
$GPRMC,223522.500,V,,,,,27.67,57.61,290823,,,N*4D
$GPGGA,223522.750,,,,,0,04,,,M,,M,,*78
$GPRMC,223522.750,V,,,,,27.91,57.89,290823,,,N*45
$GPGGA,223523.000,,,,,0,04,,,M,,M,,*7B
$GPRMC,223523.000,V,,,,,28.18,57.97,290823,,,N*47
$GPGGA,223523.250,,,,,0,04,,,M,,M,,*7C
$GPRMC,223523.250,V,,,,,28.47,58.30,290823,,,N*48
$GPGGA,223523.500,,,,,0,04,,,M,,M,,*7E
$GPRMC,223523.500,V,,,,,28.63,58.49,290823,,,N*42
$GPGGA,223523.750,,,,,0,04,,,M,,M,,*79
$GPRMC,223523.750,V,,,,,28.69,58.62,290823,,,N*46
$GPGGA,223524.000,,,,,0,04,,,M,,M,,*7C
$GPRMC,223524.000,V,,,,,28.75,58.64,290823,,,N*48
$GPGGA,223524.250,,,,,0,04,,,M,,M,,*7B
$GPRMC,223524.250,V,,,,,28.83,58.70,290823,,,N*43
$GPGGA,223524.500,,,,,0,04,,,M,,M,,*79
$GPRMC,223524.500,V,,,,,28.89,58.67,290823,,,N*4D
$GPGGA,223524.750,,,,,0,04,,,M,,M,,*7E
$GPRMC,223524.750,V,,,,,28.94,58.62,290823,,,N*43
$GPGGA,223525.000,,,,,0,04,,,M,,M,,*7D
$GPRMC,223525.000,V,,,,,29.00,58.56,290823,,,N*4B
$GPGGA,223525.250,,,,,0,04,,,M,,M,,*7A
$GPRMC,223525.250,V,,,,,29.06,58.40,290823,,,N*4D
$GPGGA,223525.500,,,,,0,04,,,M,,M,,*78
$GPRMC,223525.500,V,,,,,29.12,58.26,290823,,,N*4A
$GPGGA,223525.750,,,,,0,04,,,M,,M,,*7F
$GPRMC,223525.750,V,,,,,29.17,58.20,290823,,,N*4E
$GPGGA,223526.000,,,,,0,04,,,M,,M,,*7E
$GPRMC,223526.000,V,,,,,29.22,58.13,290823,,,N*49
$GPGGA,223526.250,4308.4715,N,07725.9799,W,1,05,3.93,158.3,M,-34.4,M,,*57
$GPRMC,223526.500,A,4308.4708,N,07725.9775,W,29.31,56.37,290823,,,A*78
$GPGGA,223526.750,4308.4711,N,07725.9751,W,1,05,3.37,160.8,M,-34.4,M,,*5C
$GPRMC,223527.000,A,4308.4718,N,07725.9727,W,30.41,54.91,290823,,,A*7B
$GPGGA,223527.250,4308.4728,N,07725.9704,W,1,05,3.37,162.1,M,-34.4,M,,*59
$GPRMC,223527.500,A,4308.4739,N,07725.9680,W,31.33,53.65,290823,,,A*79
$GPGGA,223527.750,4308.4753,N,07725.9656,W,1,05,3.37,162.7,M,-34.4,M,,*50
$GPRMC,223528.000,A,4308.4768,N,07725.9633,W,31.76,52.69,290823,,,A*73
$GPGGA,223528.250,4308.4784,N,07725.9610,W,1,05,3.37,163.2,M,-34.4,M,,*56
$GPRMC,223528.500,A,4308.4799,N,07725.9586,W,32.08,51.80,290823,,,A*7B
$GPGGA,223528.750,4308.4814,N,07725.9562,W,1,05,3.37,163.4,M,-34.4,M,,*55
$GPRMC,223529.000,A,4308.4829,N,07725.9537,W,32.51,51.17,290823,,,A*73
$GPGGA,223529.250,4308.4845,N,07725.9513,W,1,05,3.37,163.4,M,-34.4,M,,*53
$GPRMC,223529.500,A,4308.4861,N,07725.9489,W,32.85,50.38,290823,,,A*7B
$GPGGA,223529.750,4308.4879,N,07725.9464,W,1,05,3.37,163.5,M,-34.4,M,,*59
$GPRMC,223530.000,A,4308.4897,N,07725.9440,W,34.36,49.55,290823,,,A*77
$GPGGA,223530.250,4308.4915,N,07725.9416,W,1,05,3.37,163.5,M,-34.4,M,,*5A
$GPRMC,223530.500,A,4308.4935,N,07725.9393,W,34.86,48.16,290823,,,A*7F
$GPGGA,223530.750,4308.4954,N,07725.9369,W,1,05,3.38,163.7,M,-34.4,M,,*58
$GPRMC,223531.000,A,4308.4974,N,07725.9346,W,35.70,47.14,290823,,,A*73
$GPGGA,223531.250,4308.4995,N,07725.9322,W,1,05,3.38,164.1,M,-34.4,M,,*5F
$GPRMC,223531.500,A,4308.5015,N,07725.9298,W,36.08,46.17,290823,,,A*75
$GPGGA,223531.750,4308.5034,N,07725.9274,W,1,05,3.37,164.3,M,-34.4,M,,*56
$GPRMC,223532.000,A,4308.5053,N,07725.9249,W,36.57,45.71,290823,,,A*74
$GPGGA,223532.250,4308.5070,N,07725.9223,W,1,05,3.38,164.1,M,-34.4,M,,*5F
$GPRMC,223532.500,A,4308.5088,N,07725.9198,W,37.00,45.78,290823,,,A*72
$GPGGA,223532.750,4308.5105,N,07725.9172,W,1,05,3.38,164.1,M,-34.4,M,,*5E
$GPRMC,223533.000,A,4308.5123,N,07725.9147,W,37.23,45.78,290823,,,A*75
$GPGGA,223533.250,4308.5141,N,07725.9121,W,1,05,3.38,164.0,M,-34.4,M,,*5D
$GPRMC,223533.500,A,4308.5160,N,07725.9096,W,37.24,45.63,290823,,,A*77
$GPGGA,223533.750,4308.5179,N,07725.9070,W,1,05,3.38,164.1,M,-34.4,M,,*57
$GPRMC,223534.000,A,4308.5197,N,07725.9044,W,37.37,45.91,290823,,,A*7D
$GPGGA,223534.250,4308.5217,N,07725.9019,W,1,05,3.38,164.1,M,-34.4,M,,*51
$GPRMC,223534.500,A,4308.5236,N,07725.8994,W,37.62,45.48,290823,,,A*71
$GPGGA,223534.750,4308.5254,N,07725.8968,W,1,05,3.38,164.1,M,-34.4,M,,*5D
$GPRMC,223535.000,A,4308.5272,N,07725.8943,W,37.51,45.20,290823,,,A*71
$GPGGA,223535.250,4308.5289,N,07725.8917,W,1,05,3.38,164.0,M,-34.4,M,,*50
$GPRMC,223535.500,A,4308.5307,N,07725.8892,W,37.14,44.91,290823,,,A*70
$GPGGA,223535.750,4308.5324,N,07725.8867,W,1,05,3.38,163.9,M,-34.4,M,,*5B
$GPRMC,223536.000,A,4308.5341,N,07725.8841,W,36.49,45.10,290823,,,A*7B
$GPGGA,223536.250,4308.5358,N,07725.8816,W,1,05,3.38,163.9,M,-34.4,M,,*50
$GPRMC,223536.500,A,4308.5375,N,07725.8792,W,35.75,45.41,290823,,,A*70
$GPGGA,223536.750,4308.5392,N,07725.8767,W,1,05,3.38,164.0,M,-34.4,M,,*54
$GPRMC,223537.000,A,4308.5408,N,07725.8743,W,35.03,45.71,290823,,,A*77
$GPGGA,223537.250,4308.5422,N,07725.8717,W,1,05,3.39,164.0,M,-34.4,M,,*5A
$GPRMC,223537.500,A,4308.5436,N,07725.8692,W,34.25,46.35,290823,,,A*74
$GPGGA,223537.750,4308.5451,N,07725.8668,W,1,05,3.39,163.9,M,-34.4,M,,*5C
$GPRMC,223538.000,A,4308.5467,N,07725.8644,W,33.63,46.41,290823,,,A*77
$GPGGA,223538.250,4308.5481,N,07725.8620,W,1,05,3.39,163.8,M,-34.4,M,,*56
$GPRMC,223538.500,A,4308.5497,N,07725.8597,W,33.32,46.40,290823,,,A*75
$GPGGA,223538.750,4308.5512,N,07725.8574,W,1,05,3.39,163.8,M,-34.4,M,,*5A
$GPRMC,223539.000,A,4308.5528,N,07725.8550,W,33.24,46.26,290823,,,A*78
$GPGGA,223539.250,4308.5544,N,07725.8527,W,1,05,3.39,163.8,M,-34.4,M,,*5B
$GPRMC,223539.500,A,4308.5560,N,07725.8503,W,33.16,46.36,290823,,,A*77
$GPGGA,223539.750,4308.5576,N,07725.8480,W,1,05,3.39,163.9,M,-34.4,M,,*52
$GPRMC,223540.000,A,4308.5592,N,07725.8458,W,33.12,46.27,290823,,,A*7A
$GPGGA,223540.250,4308.5608,N,07725.8435,W,1,05,3.39,164.0,M,-34.4,M,,*53
$GPRMC,223540.500,A,4308.5624,N,07725.8412,W,33.05,46.15,290823,,,A*78
$GPGGA,223540.750,4308.5639,N,07725.8389,W,1,05,3.39,164.0,M,-34.4,M,,*54
$GPRMC,223541.000,A,4308.5653,N,07725.8366,W,32.77,46.21,290823,,,A*7B
$GPGGA,223541.250,4308.5667,N,07725.8343,W,1,05,3.39,163.9,M,-34.4,M,,*53
$GPRMC,223541.500,A,4308.5682,N,07725.8320,W,32.42,46.39,290823,,,A*7F
$GPGGA,223541.750,4308.5697,N,07725.8298,W,1,05,3.39,163.9,M,-34.4,M,,*5E
$GPRMC,223542.000,A,4308.5711,N,07725.8275,W,31.93,46.52,290823,,,A*71
$GPGGA,223542.250,4308.5725,N,07725.8253,W,1,05,3.40,164.0,M,-34.4,M,,*57
$GPRMC,223542.500,A,4308.5741,N,07725.8232,W,31.44,46.59,290823,,,A*73
$GPGGA,223542.750,4308.5756,N,07725.8210,W,1,05,3.40,164.0,M,-34.4,M,,*51
$GPRMC,223543.000,A,4308.5771,N,07725.8188,W,31.07,46.50,290823,,,A*78
$GPGGA,223543.250,4308.5786,N,07725.8167,W,1,05,3.40,164.0,M,-34.4,M,,*5B
$GPRMC,223543.500,A,4308.5801,N,07725.8146,W,30.99,46.23,290823,,,A*75
$GPGGA,223543.750,4308.5815,N,07725.8125,W,1,05,3.40,163.9,M,-34.4,M,,*53
$GPRMC,223544.000,A,4308.5829,N,07725.8104,W,30.72,46.08,290823,,,A*77
$GPGGA,223544.250,4308.5842,N,07725.8083,W,1,05,3.40,163.9,M,-34.4,M,,*5E
$GPRMC,223544.500,A,4308.5856,N,07725.8061,W,30.62,46.00,290823,,,A*71
$GPGGA,223544.750,4308.5870,N,07725.8040,W,1,05,3.40,163.8,M,-34.4,M,,*54
$GPRMC,223545.000,A,4308.5884,N,07725.8020,W,29.99,45.98,290823,,,A*71
$GPGGA,223545.250,4308.5899,N,07725.7999,W,1,05,3.40,164.0,M,-34.4,M,,*5A
$GPRMC,223545.500,A,4308.5914,N,07725.7979,W,29.76,46.10,290823,,,A*74
$GPGGA,223545.750,4308.5929,N,07725.7960,W,1,05,3.40,164.2,M,-34.4,M,,*51
$GPRMC,223546.000,A,4308.5944,N,07725.7939,W,29.55,46.33,290823,,,A*73
$GPGGA,223546.250,4308.5957,N,07725.7919,W,1,05,3.41,164.2,M,-34.4,M,,*51
$GPRMC,223546.500,A,4308.5970,N,07725.7898,W,29.48,47.22,290823,,,A*76
$GPGGA,223546.750,4308.5983,N,07725.7877,W,1,05,3.41,164.2,M,-34.4,M,,*54
$GPRMC,223547.000,A,4308.5998,N,07725.7857,W,29.51,47.70,290823,,,A*78
$GPGGA,223547.250,4308.6012,N,07725.7837,W,1,05,3.41,164.1,M,-34.4,M,,*55
$GPRMC,223547.500,A,4308.6026,N,07725.7817,W,29.51,48.66,290823,,,A*7E
$GPGGA,223547.750,4308.6039,N,07725.7796,W,1,05,3.41,164.0,M,-34.4,M,,*5C
$GPRMC,223548.000,A,4308.6051,N,07725.7773,W,29.55,49.83,290823,,,A*77
$GPGGA,223548.250,4308.6061,N,07725.7750,W,1,05,3.41,164.1,M,-34.4,M,,*50
$GPRMC,223548.500,A,4308.6072,N,07725.7727,W,30.17,51.39,290823,,,A*74
$GPGGA,223548.750,4308.6084,N,07725.7703,W,1,05,3.41,164.3,M,-34.4,M,,*5A
$GPRMC,223549.000,A,4308.6096,N,07725.7680,W,30.61,52.36,290823,,,A*7B
$GPGGA,223549.250,4308.6107,N,07725.7656,W,1,05,3.41,164.4,M,-34.4,M,,*52
$GPRMC,223549.500,A,4308.6116,N,07725.7630,W,30.91,53.25,290823,,,A*70
$GPGGA,223549.750,4308.6127,N,07725.7606,W,1,05,3.41,164.5,M,-34.4,M,,*51
$GPRMC,223550.000,A,4308.6139,N,07725.7581,W,31.12,53.76,290823,,,A*75
$GPGGA,223550.250,4308.6149,N,07725.7555,W,1,05,3.41,164.4,M,-34.4,M,,*50
$GPRMC,223550.500,A,4308.6159,N,07725.7529,W,30.91,55.24,290823,,,A*7F
$GPGGA,223550.750,4308.6169,N,07725.7504,W,1,05,3.42,164.4,M,-34.4,M,,*50
$GPRMC,223551.000,A,4308.6179,N,07725.7478,W,30.96,56.51,290823,,,A*7A
$GPGGA,223551.250,4308.6189,N,07725.7452,W,1,05,3.41,164.4,M,-34.4,M,,*5B
$GPRMC,223551.500,A,4308.6199,N,07725.7425,W,30.94,58.01,290823,,,A*70
$GPGGA,223551.750,4308.6207,N,07725.7398,W,1,05,3.41,164.4,M,-34.4,M,,*5A
$GPRMC,223552.000,A,4308.6215,N,07725.7371,W,30.91,59.98,290823,,,A*73
$GPGGA,223552.250,4308.6219,N,07725.7341,W,1,05,3.42,164.4,M,-34.4,M,,*54
$GPRMC,223552.500,A,4308.6215,N,07725.7306,W,31.04,66.49,290823,,,A*7B
$GPGGA,223552.750,4308.6209,N,07725.7271,W,1,05,3.42,164.6,M,-34.4,M,,*50
$GPRMC,223553.000,A,4308.6197,N,07725.7233,W,31.01,77.33,290823,,,A*79
$GPGGA,223553.250,4308.6193,N,07725.7200,W,1,05,3.42,164.7,M,-34.4,M,,*53
$GPRMC,223553.500,A,4308.6186,N,07725.7165,W,31.27,84.76,290823,,,A*75
$GPGGA,223553.750,4308.6184,N,07725.7133,W,1,05,3.42,164.8,M,-34.4,M,,*5C
$GPRMC,223554.000,A,4308.6182,N,07725.7101,W,31.45,87.64,290823,,,A*75
$GPGGA,223554.250,4308.6180,N,07725.7069,W,1,05,3.42,165.0,M,-34.4,M,,*5D
$GPRMC,223554.500,A,4308.6179,N,07725.7038,W,31.64,90.24,290823,,,A*7E
$GPGGA,223554.750,4308.6179,N,07725.7008,W,1,05,3.42,165.2,M,-34.4,M,,*5B
$GPRMC,223555.000,A,4308.6179,N,07725.6978,W,31.93,90.55,290823,,,A*78
$GPGGA,223555.250,4308.6179,N,07725.6948,W,1,05,3.42,165.4,M,-34.4,M,,*55
$GPRMC,223555.500,A,4308.6179,N,07725.6918,W,31.52,90.51,290823,,,A*72
$GPGGA,223555.750,4308.6178,N,07725.6888,W,1,05,3.42,165.5,M,-34.4,M,,*5D
$GPRMC,223556.000,A,4308.6178,N,07725.6858,W,31.49,91.20,290823,,,A*7D
$GPGGA,223556.250,4308.6178,N,07725.6828,W,1,05,3.42,165.5,M,-34.4,M,,*51
$GPRMC,223556.500,A,4308.6178,N,07725.6799,W,30.40,90.79,290823,,,A*7F
$GPGGA,223556.750,4308.6178,N,07725.6770,W,1,05,3.42,165.6,M,-34.4,M,,*55
$GPRMC,223557.000,A,4308.6178,N,07725.6742,W,30.17,90.48,290823,,,A*7D
$GPGGA,223557.250,4308.6178,N,07725.6713,W,1,05,3.43,165.7,M,-34.4,M,,*54
$GPRMC,223557.500,A,4308.6179,N,07725.6684,W,29.98,90.33,290823,,,A*71
$GPGGA,223557.750,4308.6179,N,07725.6656,W,1,05,3.43,165.9,M,-34.4,M,,*5E
$GPRMC,223558.000,A,4308.6179,N,07725.6627,W,29.79,90.57,290823,,,A*7F
$GPGGA,223558.250,4308.6180,N,07725.6599,W,1,05,3.43,166.0,M,-34.4,M,,*58
$GPRMC,223558.500,A,4308.6180,N,07725.6572,W,29.66,89.60,290823,,,A*7D
$GPGGA,223558.750,4308.6181,N,07725.6544,W,1,05,3.43,166.2,M,-34.4,M,,*5E
$GPRMC,223559.000,A,4308.6181,N,07725.6516,W,29.07,90.04,290823,,,A*77
$GPGGA,223559.250,4308.6181,N,07725.6489,W,1,05,3.44,166.2,M,-34.4,M,,*5D
$GPRMC,223559.500,A,4308.6181,N,07725.6462,W,28.96,90.31,290823,,,A*7F
$GPGGA,223559.750,4308.6182,N,07725.6434,W,1,05,3.43,166.3,M,-34.4,M,,*5B
$GPRMC,223600.000,A,4308.6182,N,07725.6407,W,28.73,90.41,290823,,,A*79
$GPGGA,223600.250,4308.6182,N,07725.6380,W,1,05,3.43,166.4,M,-34.4,M,,*5E
$GPRMC,223600.500,A,4308.6183,N,07725.6354,W,28.02,90.56,290823,,,A*7C
$GPGGA,223600.750,4308.6184,N,07725.6327,W,1,05,3.43,166.5,M,-34.4,M,,*51
$GPRMC,223601.000,A,4308.6184,N,07725.6300,W,28.00,90.98,290823,,,A*7E
$GPGGA,223601.250,4308.6184,N,07725.6274,W,1,05,3.44,166.6,M,-34.4,M,,*56
$GPRMC,223601.500,A,4308.6183,N,07725.6247,W,27.80,91.66,290823,,,A*79
$GPGGA,223601.750,4308.6183,N,07725.6221,W,1,05,3.44,166.7,M,-34.4,M,,*55
$GPRMC,223602.000,A,4308.6183,N,07725.6195,W,27.28,92.28,290823,,,A*78
$GPGGA,223602.250,4308.6182,N,07725.6169,W,1,05,3.44,166.8,M,-34.4,M,,*52
$GPRMC,223602.500,A,4308.6181,N,07725.6142,W,26.96,92.56,290823,,,A*78
$GPGGA,223602.750,4308.6181,N,07725.6117,W,1,05,3.44,166.8,M,-34.4,M,,*5D
$GPRMC,223603.000,A,4308.6180,N,07725.6091,W,26.68,92.75,290823,,,A*72
$GPGGA,223603.250,4308.6180,N,07725.6066,W,1,05,3.44,166.7,M,-34.4,M,,*50
$GPRMC,223603.500,A,4308.6179,N,07725.6042,W,24.59,94.54,290823,,,A*7A
$GPGGA,223603.750,4308.6179,N,07725.6020,W,1,05,3.44,166.8,M,-34.4,M,,*5E
$GPRMC,223604.000,A,4308.6180,N,07725.5999,W,23.32,94.64,290823,,,A*7B
$GPGGA,223604.250,4308.6179,N,07725.5978,W,1,05,3.44,167.0,M,-34.4,M,,*52
$GPRMC,223604.500,A,4308.6179,N,07725.5959,W,21.78,96.37,290823,,,A*7C
$GPGGA,223604.750,4308.6180,N,07725.5941,W,1,05,3.44,167.1,M,-34.4,M,,*5A
$GPRMC,223605.000,A,4308.6178,N,07725.5924,W,19.73,97.84,290823,,,A*7A
$GPGGA,223605.250,4308.6176,N,07725.5909,W,1,05,3.44,167.2,M,-34.4,M,,*58
$GPRMC,223605.500,A,4308.6174,N,07725.5895,W,17.43,100.77,290823,,,A*46
$GPGGA,223605.750,4308.6171,N,07725.5882,W,1,05,3.44,167.1,M,-34.4,M,,*5B
$GPRMC,223606.000,A,4308.6171,N,07725.5871,W,14.26,103.74,290823,,,A*4F
$GPGGA,223606.250,4308.6169,N,07725.5861,W,1,05,3.44,167.1,M,-34.4,M,,*59
$GPRMC,223606.500,A,4308.6168,N,07725.5853,W,11.61,106.66,290823,,,A*42
$GPGGA,223606.750,4308.6167,N,07725.5844,W,1,05,3.45,167.2,M,-34.4,M,,*57
$GPRMC,223607.000,A,4308.6166,N,07725.5836,W,10.22,107.94,290823,,,A*41
$GPGGA,223607.250,4308.6166,N,07725.5829,W,1,05,3.45,167.3,M,-34.4,M,,*58
$GPRMC,223607.500,A,4308.6169,N,07725.5825,W,7.58,97.31,290823,,,A*45
$GPGGA,223607.750,4308.6168,N,07725.5820,W,1,05,3.45,167.4,M,-34.4,M,,*5D
$GPRMC,223608.000,A,4308.6168,N,07725.5817,W,6.02,97.76,290823,,,A*42
$GPGGA,223608.250,4308.6168,N,07725.5813,W,1,05,3.45,167.4,M,-34.4,M,,*57
$GPRMC,223608.500,A,4308.6166,N,07725.5809,W,5.66,99.86,290823,,,A*46
$GPGGA,223608.750,4308.6164,N,07725.5804,W,1,05,3.45,167.4,M,-34.4,M,,*58
$GPRMC,223609.000,A,4308.6163,N,07725.5799,W,5.57,101.60,290823,,,A*7B
$GPGGA,223609.250,4308.6161,N,07725.5795,W,1,05,3.45,167.4,M,-34.4,M,,*5E
$GPRMC,223609.500,A,4308.6160,N,07725.5790,W,5.27,104.19,290823,,,A*78
$GPGGA,223609.750,4308.6157,N,07725.5787,W,1,05,3.45,167.5,M,-34.4,M,,*5C
$GPRMC,223610.000,A,4308.6155,N,07725.5784,W,4.68,112.42,290823,,,A*75
$GPGGA,223610.250,4308.6150,N,07725.5782,W,1,05,3.45,167.5,M,-34.4,M,,*53
$GPRMC,223610.500,A,4308.6145,N,07725.5780,W,4.42,129.78,290823,,,A*7C
$GPGGA,223610.750,4308.6140,N,07725.5779,W,1,05,3.45,167.4,M,-34.4,M,,*52
$GPRMC,223611.000,A,4308.6132,N,07725.5778,W,4.78,152.71,290823,,,A*73
$GPGGA,223611.250,4308.6126,N,07725.5777,W,1,05,3.45,167.5,M,-34.4,M,,*59
$GPRMC,223611.500,A,4308.6119,N,07725.5776,W,5.53,164.77,290823,,,A*7A
$GPGGA,223611.750,4308.6113,N,07725.5776,W,1,05,3.46,167.5,M,-34.4,M,,*58
$GPRMC,223612.000,A,4308.6108,N,07725.5776,W,6.04,171.48,290823,,,A*75
$GPGGA,223612.250,4308.6102,N,07725.5776,W,1,05,3.46,167.6,M,-34.4,M,,*5D
$GPRMC,223612.500,A,4308.6096,N,07725.5777,W,6.51,176.19,290823,,,A*74
$GPGGA,223612.750,4308.6089,N,07725.5777,W,1,05,3.46,167.7,M,-34.4,M,,*5A
$GPRMC,223613.000,A,4308.6082,N,07725.5777,W,7.03,180.23,290823,,,A*73
$GPGGA,223613.250,4308.6074,N,07725.5778,W,1,05,3.46,167.6,M,-34.4,M,,*52
$GPRMC,223613.500,A,4308.6067,N,07725.5779,W,7.61,183.36,290823,,,A*70
$GPGGA,223613.750,4308.6058,N,07725.5781,W,1,05,3.46,167.7,M,-34.4,M,,*5E
$GPRMC,223614.000,A,4308.6047,N,07725.5782,W,8.65,186.84,290823,,,A*73
$GPGGA,223614.250,4308.6022,N,07725.5785,W,1,05,3.46,167.6,M,-34.4,M,,*54
$GPRMC,223614.500,A,4308.6004,N,07725.5785,W,11.85,190.08,290823,,,A*43
$GPGGA,223614.750,4308.5991,N,07725.5787,W,1,05,3.46,167.5,M,-34.4,M,,*52
$GPRMC,223615.000,A,4308.5979,N,07725.5789,W,12.55,190.07,290823,,,A*4A
$GPGGA,223615.250,4308.5966,N,07725.5790,W,1,05,3.46,167.4,M,-34.4,M,,*59
$GPRMC,223615.500,A,4308.5952,N,07725.5791,W,13.31,188.91,290823,,,A*4A
$GPGGA,223615.750,4308.5938,N,07725.5793,W,1,05,3.47,167.4,M,-34.4,M,,*55
$GPRMC,223616.000,A,4308.5924,N,07725.5794,W,14.12,188.68,290823,,,A*48
$GPGGA,223616.250,4308.5908,N,07725.5795,W,1,05,3.47,167.5,M,-34.4,M,,*57
$GPRMC,223616.500,A,4308.5891,N,07725.5796,W,15.17,188.05,290823,,,A*4F
$GPGGA,223616.750,4308.5870,N,07725.5796,W,1,05,3.47,167.6,M,-34.4,M,,*5C
$GPRMC,223617.000,A,4308.5850,N,07725.5797,W,17.01,187.67,290823,,,A*49
$GPGGA,223617.250,4308.5829,N,07725.5797,W,1,05,3.47,167.6,M,-34.4,M,,*55
$GPRMC,223617.500,A,4308.5810,N,07725.5798,W,18.27,187.05,290823,,,A*48
$GPGGA,223617.750,4308.5794,N,07725.5800,W,1,05,3.47,167.7,M,-34.4,M,,*59
$GPRMC,223618.000,A,4308.5773,N,07725.5801,W,19.41,187.49,290823,,,A*4E
$GPGGA,223618.250,4308.5745,N,07725.5802,W,1,05,3.47,167.7,M,-34.4,M,,*5D
$GPRMC,223618.500,A,4308.5718,N,07725.5802,W,21.48,186.92,290823,,,A*40
$GPGGA,223618.750,4308.5692,N,07725.5802,W,1,05,3.47,167.8,M,-34.4,M,,*5C
$GPRMC,223619.000,A,4308.5667,N,07725.5803,W,22.94,186.12,290823,,,A*46
$GPGGA,223619.250,4308.5637,N,07725.5803,W,1,05,3.47,167.9,M,-34.4,M,,*57
$GPRMC,223619.500,A,4308.5610,N,07725.5804,W,24.69,185.54,290823,,,A*41
$GPGGA,223619.750,4308.5582,N,07725.5804,W,1,05,3.47,167.9,M,-34.4,M,,*58
$GPRMC,223620.000,A,4308.5556,N,07725.5806,W,26.13,184.51,290823,,,A*46
$GPGGA,223620.250,4308.5526,N,07725.5806,W,1,05,3.47,167.9,M,-34.4,M,,*5B
$GPRMC,223620.500,A,4308.5500,N,07725.5807,W,27.68,183.73,290823,,,A*4B
$GPGGA,223620.750,4308.5477,N,07725.5809,W,1,05,3.48,168.0,M,-34.4,M,,*5D
$GPRMC,223621.000,A,4308.5450,N,07725.5809,W,28.58,182.85,290823,,,A*41
$GPGGA,223621.250,4308.5425,N,07725.5809,W,1,05,3.48,168.1,M,-34.4,M,,*5F
$GPRMC,223621.500,A,4308.5400,N,07725.5809,W,29.33,181.99,290823,,,A*43
$GPGGA,223621.750,4308.5377,N,07725.5809,W,1,05,3.47,168.2,M,-34.4,M,,*56
$GPRMC,223622.000,A,4308.5351,N,07725.5809,W,29.71,182.04,290823,,,A*47
$GPGGA,223622.250,4308.5326,N,07725.5809,W,1,05,3.48,168.3,M,-34.4,M,,*5A
$GPRMC,223622.500,A,4308.5300,N,07725.5810,W,30.04,182.11,290823,,,A*40
$GPGGA,223622.750,4308.5275,N,07725.5810,W,1,05,3.48,168.4,M,-34.4,M,,*57
$GPRMC,223623.000,A,4308.5250,N,07725.5811,W,30.91,181.87,290823,,,A*41
$GPGGA,223623.250,4308.5226,N,07725.5812,W,1,05,4.12,168.4,M,-34.4,M,,*5F
$GPRMC,223623.500,A,4308.5201,N,07725.5813,W,31.17,181.69,290823,,,A*4D
$GPGGA,223623.750,4308.5178,N,07725.5813,W,1,05,3.48,168.4,M,-34.4,M,,*5B
$GPRMC,223624.000,A,4308.5154,N,07725.5815,W,31.39,181.85,290823,,,A*44
$GPGGA,223624.250,4308.5129,N,07725.5816,W,1,05,3.48,168.4,M,-34.4,M,,*58
$GPRMC,223624.500,A,4308.5105,N,07725.5817,W,31.89,181.91,290823,,,A*49
$GPGGA,223624.750,4308.5083,N,07725.5819,W,1,05,3.48,168.5,M,-34.4,M,,*52
$GPRMC,223625.000,A,4308.5058,N,07725.5821,W,32.21,182.97,290823,,,A*45
$GPGGA,223625.250,4308.5034,N,07725.5823,W,1,05,3.48,168.5,M,-34.4,M,,*53
$GPRMC,223625.500,A,4308.5012,N,07725.5826,W,32.20,183.99,290823,,,A*47
$GPGGA,223625.750,4308.4989,N,07725.5828,W,1,05,3.49,168.6,M,-34.4,M,,*51
$GPRMC,223626.000,A,4308.4966,N,07725.5831,W,32.10,184.36,290823,,,A*4D
$GPGGA,223626.250,4308.4942,N,07725.5834,W,1,05,4.13,168.7,M,-34.4,M,,*54
$GPRMC,223626.500,A,4308.4919,N,07725.5836,W,32.15,184.05,290823,,,A*42
$GPGGA,223626.750,4308.4897,N,07725.5839,W,1,05,3.49,168.8,M,-34.4,M,,*52
$GPRMC,223627.000,A,4308.4874,N,07725.5841,W,32.37,183.96,290823,,,A*41
$GPGGA,223627.250,4308.4850,N,07725.5844,W,1,05,3.49,168.9,M,-34.4,M,,*56
$GPRMC,223627.500,A,4308.4826,N,07725.5846,W,32.60,183.87,290823,,,A*46
$GPGGA,223627.750,4308.4803,N,07725.5849,W,1,05,3.49,168.9,M,-34.4,M,,*58
$GPRMC,223628.000,A,4308.4779,N,07725.5853,W,32.87,184.34,290823,,,A*4B
$GPGGA,223628.250,4308.4755,N,07725.5855,W,1,05,3.49,169.0,M,-34.4,M,,*5B
$GPRMC,223628.500,A,4308.4731,N,07725.5858,W,32.95,184.25,290823,,,A*4A
$GPGGA,223628.750,4308.4707,N,07725.5862,W,1,05,3.49,169.0,M,-34.4,M,,*5D
$GPRMC,223629.000,A,4308.4680,N,07725.5863,W,33.08,183.52,290823,,,A*4F
$GPGGA,223629.250,4308.4654,N,07725.5866,W,1,05,3.49,169.1,M,-34.4,M,,*5B
$GPRMC,223629.500,A,4308.4629,N,07725.5869,W,33.80,183.57,290823,,,A*46
$GPGGA,223629.750,4308.4603,N,07725.5872,W,1,05,3.50,169.1,M,-34.4,M,,*51
$GPRMC,223630.000,A,4308.4577,N,07725.5875,W,34.33,183.66,290823,,,A*43
$GPGGA,223630.250,4308.4551,N,07725.5877,W,1,05,3.49,169.1,M,-34.4,M,,*55
$GPRMC,223630.500,A,4308.4524,N,07725.5879,W,34.99,183.41,290823,,,A*49
$GPGGA,223630.750,4308.4496,N,07725.5881,W,1,05,3.50,169.1,M,-34.4,M,,*5B
$GPRMC,223631.000,A,4308.4469,N,07725.5883,W,35.36,183.52,290823,,,A*46
$GPGGA,223631.250,4308.4442,N,07725.5885,W,1,05,3.50,169.1,M,-34.4,M,,*52
$GPRMC,223631.500,A,4308.4416,N,07725.5885,W,35.97,182.67,290823,,,A*41
$GPGGA,223631.750,4308.4390,N,07725.5887,W,1,05,3.50,169.1,M,-34.4,M,,*5D
$GPRMC,223632.000,A,4308.4364,N,07725.5888,W,36.07,183.06,290823,,,A*44
$GPGGA,223632.250,4308.4338,N,07725.5889,W,1,05,4.15,169.2,M,-34.4,M,,*52
$GPRMC,223632.500,A,4308.4308,N,07725.5889,W,36.62,183.17,290823,,,A*49
$GPGGA,223632.750,4308.4280,N,07725.5890,W,1,05,4.15,169.2,M,-34.4,M,,*5D
$GPRMC,223633.000,A,4308.4250,N,07725.5891,W,37.23,183.46,290823,,,A*48
$GPGGA,223633.250,4308.4222,N,07725.5892,W,1,05,3.50,169.2,M,-34.4,M,,*55
$GPRMC,223633.500,A,4308.4193,N,07725.5893,W,37.43,183.64,290823,,,A*45
$GPGGA,223633.750,4308.4166,N,07725.5895,W,1,05,3.50,169.1,M,-34.4,M,,*57
$GPRMC,223634.000,A,4308.4139,N,07725.5897,W,37.62,183.21,290823,,,A*41
$GPGGA,223634.250,4308.4110,N,07725.5898,W,1,05,4.16,169.1,M,-34.4,M,,*5C
$GPRMC,223634.500,A,4308.4079,N,07725.5899,W,37.83,182.57,290823,,,A*40
$GPGGA,223634.750,4308.4049,N,07725.5901,W,1,05,3.50,169.1,M,-34.4,M,,*50
$GPRMC,223635.000,A,4308.4019,N,07725.5902,W,38.76,182.68,290823,,,A*48
$GPGGA,223635.250,4308.3985,N,07725.5901,W,1,05,3.50,169.0,M,-34.4,M,,*5B
$GPRMC,223635.500,A,4308.3950,N,07725.5901,W,38.74,181.52,290823,,,A*45
$GPGGA,223635.750,4308.3917,N,07725.5902,W,1,05,3.51,168.9,M,-34.4,M,,*5F
$GPRMC,223636.000,A,4308.3886,N,07725.5903,W,41.09,181.85,290823,,,A*45
$GPGGA,223636.250,4308.3855,N,07725.5903,W,1,05,4.17,168.8,M,-34.4,M,,*5B
$GPRMC,223636.500,A,4308.3825,N,07725.5903,W,41.18,182.09,290823,,,A*4E
$GPGGA,223636.750,4308.3794,N,07725.5904,W,1,05,3.51,168.7,M,-34.4,M,,*51
$GPRMC,223637.000,A,4308.3764,N,07725.5905,W,41.56,181.87,290823,,,A*49
$GPGGA,223637.250,4308.3733,N,07725.5904,W,1,05,3.51,168.6,M,-34.4,M,,*59
$GPRMC,223637.500,A,4308.3704,N,07725.5905,W,41.81,182.09,290823,,,A*45
$GPGGA,223637.750,4308.3676,N,07725.5906,W,1,05,3.51,168.7,M,-34.4,M,,*5F
$GPRMC,223638.000,A,4308.3646,N,07725.5905,W,41.67,181.86,290823,,,A*44
$GPGGA,223638.250,4308.3616,N,07725.5905,W,1,05,3.51,168.6,M,-34.4,M,,*51
$GPRMC,223638.500,A,4308.3585,N,07725.5905,W,42.06,181.87,290823,,,A*48
$GPGGA,223638.750,4308.3555,N,07725.5906,W,1,05,3.51,168.6,M,-34.3,M,,*54
$GPRMC,223639.000,A,4308.3526,N,07725.5907,W,41.88,181.81,290823,,,A*44
$GPGGA,223639.250,4308.3496,N,07725.5908,W,1,05,4.18,168.7,M,-34.3,M,,*5B
$GPRMC,223639.500,A,4308.3466,N,07725.5910,W,41.60,182.11,290823,,,A*4E
$GPGGA,223639.750,4308.3437,N,07725.5911,W,1,05,3.52,168.7,M,-34.3,M,,*54
$GPRMC,223640.000,A,4308.3406,N,07725.5912,W,41.73,181.61,290823,,,A*47
$GPGGA,223640.250,4308.3372,N,07725.5912,W,1,05,3.51,168.8,M,-34.3,M,,*56
$GPRMC,223640.500,A,4308.3340,N,07725.5912,W,42.21,180.95,290823,,,A*49
$GPGGA,223640.750,4308.3309,N,07725.5912,W,1,05,3.52,168.8,M,-34.3,M,,*5C
$GPRMC,223641.000,A,4308.3279,N,07725.5913,W,42.31,181.17,290823,,,A*4D
$GPGGA,223641.250,4308.3247,N,07725.5914,W,1,05,3.52,168.8,M,-34.3,M,,*55
$GPRMC,223641.500,A,4308.3216,N,07725.5914,W,42.55,181.25,290823,,,A*45
$GPGGA,223641.750,4308.3185,N,07725.5915,W,1,05,3.52,168.8,M,-34.3,M,,*5C
$GPRMC,223642.000,A,4308.3155,N,07725.5916,W,42.57,181.47,290823,,,A*43
$GPGGA,223642.250,4308.3125,N,07725.5917,W,1,05,3.52,168.9,M,-34.3,M,,*53
$GPRMC,223642.500,A,4308.3096,N,07725.5918,W,42.45,181.95,290823,,,A*4A
$GPGGA,223642.750,4308.3067,N,07725.5920,W,1,05,3.52,169.1,M,-34.3,M,,*5C
$GPRMC,223643.000,A,4308.3038,N,07725.5921,W,42.39,182.08,290823,,,A*4C
$GPGGA,223643.250,4308.3009,N,07725.5922,W,1,05,3.52,169.2,M,-34.3,M,,*51
$GPRMC,223643.500,A,4308.2979,N,07725.5923,W,42.29,181.64,290823,,,A*4E
$GPGGA,223643.750,4308.2950,N,07725.5924,W,1,05,3.52,169.4,M,-34.3,M,,*50
$GPRMC,223644.000,A,4308.2922,N,07725.5924,W,42.21,181.49,290823,,,A*42
$GPGGA,223644.250,4308.2895,N,07725.5925,W,1,05,3.53,169.5,M,-34.3,M,,*5B
$GPRMC,223644.500,A,4308.2868,N,07725.5927,W,41.43,181.79,290823,,,A*4F
$GPGGA,223644.750,4308.2838,N,07725.5928,W,1,05,3.52,169.7,M,-34.3,M,,*57
$GPRMC,223645.000,A,4308.2808,N,07725.5928,W,41.49,181.82,290823,,,A*4C
$GPGGA,223645.250,4308.2782,N,07725.5930,W,1,05,3.53,169.8,M,-34.3,M,,*5A
$GPRMC,223645.500,A,4308.2753,N,07725.5931,W,40.75,182.23,290823,,,A*46
$GPGGA,223645.750,4308.2725,N,07725.5933,W,1,05,3.53,169.9,M,-34.3,M,,*50
$GPRMC,223646.000,A,4308.2696,N,07725.5934,W,40.75,182.35,290823,,,A*4A
$GPGGA,223646.250,4308.2668,N,07725.5936,W,1,05,3.53,170.0,M,-34.3,M,,*5A
$GPRMC,223646.500,A,4308.2639,N,07725.5938,W,40.80,182.28,290823,,,A*40
$GPGGA,223646.750,4308.2609,N,07725.5940,W,1,05,3.53,170.2,M,-34.3,M,,*5B
$GPRMC,223647.000,A,4308.2581,N,07725.5942,W,41.07,182.64,290823,,,A*4F
$GPGGA,223647.250,4308.2551,N,07725.5944,W,1,05,3.53,170.3,M,-34.3,M,,*54
$GPRMC,223647.500,A,4308.2522,N,07725.5946,W,41.37,182.13,290823,,,A*44
$GPGGA,223647.750,4308.2493,N,07725.5947,W,1,05,3.53,170.5,M,-34.3,M,,*5B
$GPRMC,223648.000,A,4308.2464,N,07725.5948,W,41.40,182.25,290823,,,A*46
$GPGGA,223648.250,4308.2435,N,07725.5950,W,1,05,3.53,170.7,M,-34.3,M,,*59
$GPRMC,223648.500,A,4308.2404,N,07725.5951,W,41.91,181.78,290823,,,A*4A
$GPGGA,223648.750,4308.2373,N,07725.5951,W,1,05,3.54,171.0,M,-34.3,M,,*59
$GPRMC,223649.000,A,4308.2343,N,07725.5952,W,42.51,181.07,290823,,,A*4E
$GPGGA,223649.250,4308.2314,N,07725.5953,W,1,05,3.54,171.3,M,-34.3,M,,*5D
$GPRMC,223649.500,A,4308.2285,N,07725.5953,W,42.48,181.29,290823,,,A*45
$GPGGA,223649.750,4308.2258,N,07725.5955,W,1,05,3.54,171.5,M,-34.3,M,,*51
$GPRMC,223650.000,A,4308.2230,N,07725.5956,W,41.81,181.72,290823,,,A*4B
$GPGGA,223650.250,4308.2201,N,07725.5957,W,1,05,3.54,171.7,M,-34.3,M,,*50
$GPRMC,223650.500,A,4308.2175,N,07725.5958,W,41.28,181.72,290823,,,A*41
$GPGGA,223650.750,4308.2148,N,07725.5961,W,1,05,3.54,171.9,M,-34.3,M,,*50
$GPRMC,223651.000,A,4308.2122,N,07725.5963,W,40.25,182.13,290823,,,A*47
$GPGGA,223651.250,4308.2096,N,07725.5965,W,1,05,3.54,172.1,M,-34.3,M,,*59
$GPRMC,223651.500,A,4308.2069,N,07725.5966,W,39.76,181.94,290823,,,A*4D
$GPGGA,223651.750,4308.2042,N,07725.5968,W,1,05,3.54,172.2,M,-34.3,M,,*5B
$GPRMC,223652.000,A,4308.2015,N,07725.5969,W,39.29,181.67,290823,,,A*49
$GPGGA,223652.250,4308.1989,N,07725.5971,W,1,05,4.23,172.4,M,-34.3,M,,*59
$GPRMC,223652.500,A,4308.1962,N,07725.5972,W,39.11,181.79,290823,,,A*48
$GPGGA,223652.750,4308.1934,N,07725.5974,W,1,05,3.54,172.5,M,-34.3,M,,*59
$GPRMC,223653.000,A,4308.1907,N,07725.5975,W,39.27,182.10,290823,,,A*41
$GPGGA,223653.250,4308.1880,N,07725.5977,W,1,05,3.55,172.6,M,-34.3,M,,*52
$GPRMC,223653.500,A,4308.1852,N,07725.5977,W,39.19,181.71,290823,,,A*4E
$GPGGA,223653.750,4308.1826,N,07725.5978,W,1,05,3.54,172.7,M,-34.3,M,,*54
$GPRMC,223654.000,A,4308.1801,N,07725.5980,W,38.77,181.67,290823,,,A*4C
$GPGGA,223654.250,4308.1777,N,07725.5981,W,1,05,3.55,172.7,M,-34.3,M,,*5A
$GPRMC,223654.500,A,4308.1751,N,07725.5982,W,38.53,181.72,290823,,,A*43
$GPGGA,223654.750,4308.1725,N,07725.5982,W,1,05,3.55,172.8,M,-34.3,M,,*54
$GPRMC,223655.000,A,4308.1699,N,07725.5984,W,38.47,181.30,290823,,,A*47
$GPGGA,223655.250,4308.1674,N,07725.5986,W,1,05,4.23,173.0,M,-34.3,M,,*5E
$GPRMC,223655.500,A,4308.1649,N,07725.5987,W,38.76,181.50,290823,,,A*48
$GPGGA,223655.750,4308.1623,N,07725.5988,W,1,05,3.55,173.1,M,-34.3,M,,*50
$GPRMC,223656.000,A,4308.1597,N,07725.5990,W,38.55,181.69,290823,,,A*43
$GPGGA,223656.250,4308.1571,N,07725.5992,W,1,05,4.24,173.2,M,-34.3,M,,*5B
$GPRMC,223656.500,A,4308.1544,N,07725.5993,W,38.47,181.64,290823,,,A*45
$GPGGA,223656.750,4308.1518,N,07725.5995,W,1,05,3.55,173.2,M,-34.3,M,,*57
$GPRMC,223657.000,A,4308.1492,N,07725.5996,W,38.36,182.33,290823,,,A*49
$GPGGA,223657.250,4308.1467,N,07725.5998,W,1,05,3.55,173.2,M,-34.3,M,,*57
$GPRMC,223657.500,A,4308.1440,N,07725.6000,W,38.25,183.07,290823,,,A*42
$GPGGA,223657.750,4308.1413,N,07725.6003,W,1,05,3.55,173.1,M,-34.3,M,,*5A
$GPRMC,223658.000,A,4308.1386,N,07725.6004,W,37.70,183.09,290823,,,A*40
$GPGGA,223658.250,4308.1358,N,07725.6005,W,1,05,3.56,172.9,M,-34.3,M,,*54
$GPRMC,223658.500,A,4308.1331,N,07725.6007,W,37.87,183.00,290823,,,A*4B
$GPGGA,223658.750,4308.1305,N,07725.6009,W,1,05,3.55,172.9,M,-34.3,M,,*56
$GPRMC,223659.000,A,4308.1278,N,07725.6010,W,37.86,182.76,290823,,,A*44
$GPGGA,223659.250,4308.1251,N,07725.6012,W,1,05,4.25,172.8,M,-34.3,M,,*59
$GPRMC,223659.500,A,4308.1224,N,07725.6013,W,37.82,182.27,290823,,,A*4B
$GPGGA,223659.750,4308.1197,N,07725.6014,W,1,05,3.56,172.9,M,-34.3,M,,*51
$GPRMC,223700.000,A,4308.1170,N,07725.6015,W,37.87,182.13,290823,,,A*45
$GPGGA,223700.250,4308.1144,N,07725.6017,W,1,05,3.56,172.9,M,-34.3,M,,*54
$GPRMC,223700.500,A,4308.1116,N,07725.6018,W,38.13,182.02,290823,,,A*4F
$GPGGA,223700.750,4308.1090,N,07725.6019,W,1,05,3.56,173.0,M,-34.3,M,,*5F
$GPRMC,223701.000,A,4308.1062,N,07725.6021,W,38.15,182.15,290823,,,A*43
$GPGGA,223701.250,4308.1034,N,07725.6021,W,1,05,3.56,173.0,M,-34.3,M,,*5E
$GPRMC,223701.500,A,4308.1006,N,07725.6022,W,39.13,182.08,290823,,,A*4C
$GPGGA,223701.750,4308.0980,N,07725.6024,W,1,05,3.56,173.0,M,-34.3,M,,*59
$GPRMC,223702.000,A,4308.0953,N,07725.6025,W,39.07,182.30,290823,,,A*4B
$GPGGA,223702.250,4308.0926,N,07725.6027,W,1,05,3.56,173.1,M,-34.3,M,,*51
$GPRMC,223702.500,A,4308.0898,N,07725.6028,W,39.33,182.29,290823,,,A*4A
$GPGGA,223702.750,4308.0869,N,07725.6029,W,1,05,3.57,173.1,M,-34.3,M,,*51
$GPRMC,223703.000,A,4308.0840,N,07725.6030,W,39.31,182.27,290823,,,A*4E
$GPGGA,223703.250,4308.0812,N,07725.6032,W,1,05,3.56,173.0,M,-34.3,M,,*53
$GPRMC,223703.500,A,4308.0784,N,07725.6033,W,39.73,182.19,290823,,,A*44
$GPGGA,223703.750,4308.0757,N,07725.6035,W,1,05,3.57,172.9,M,-34.3,M,,*56
$GPRMC,223704.000,A,4308.0729,N,07725.6037,W,39.43,182.27,290823,,,A*4B
$GPGGA,223704.250,4308.0702,N,07725.6037,W,1,05,4.27,172.7,M,-34.3,M,,*58
$GPRMC,223704.500,A,4308.0674,N,07725.6039,W,39.48,182.39,290823,,,A*4D
$GPGGA,223704.750,4308.0647,N,07725.6040,W,1,05,3.57,172.6,M,-34.3,M,,*5C
$GPRMC,223705.000,A,4308.0619,N,07725.6041,W,39.32,182.53,290823,,,A*4C
$GPGGA,223705.250,4308.0592,N,07725.6043,W,1,05,4.28,172.5,M,-34.3,M,,*5C
$GPRMC,223705.500,A,4308.0564,N,07725.6043,W,38.85,182.17,290823,,,A*4F
$GPGGA,223705.750,4308.0536,N,07725.6043,W,1,05,3.57,172.3,M,-34.3,M,,*5E
$GPRMC,223706.000,A,4308.0510,N,07725.6044,W,38.93,181.52,290823,,,A*48
$GPGGA,223706.250,4308.0484,N,07725.6045,W,1,05,4.28,172.1,M,-34.3,M,,*5B
$GPRMC,223706.500,A,4308.0457,N,07725.6045,W,38.74,181.78,290823,,,A*4F
$GPGGA,223706.750,4308.0430,N,07725.6046,W,1,05,3.57,172.0,M,-34.3,M,,*5C
$GPRMC,223707.000,A,4308.0403,N,07725.6047,W,38.84,181.29,290823,,,A*43
$GPGGA,223707.250,4308.0375,N,07725.6047,W,1,05,3.57,172.0,M,-34.3,M,,*5F
$GPRMC,223707.500,A,4308.0349,N,07725.6048,W,39.07,181.30,290823,,,A*42
$GPGGA,223707.750,4308.0323,N,07725.6049,W,1,05,3.57,172.0,M,-34.3,M,,*57
$GPRMC,223708.000,A,4308.0298,N,07725.6050,W,38.56,181.91,290823,,,A*42
$GPGGA,223708.250,4308.0272,N,07725.6050,W,1,05,4.29,172.1,M,-34.3,M,,*5F
$GPRMC,223708.500,A,4308.0246,N,07725.6051,W,38.21,182.21,290823,,,A*4D
$GPGGA,223708.750,4308.0220,N,07725.6053,W,1,05,3.58,172.1,M,-34.3,M,,*5F
$GPRMC,223709.000,A,4308.0195,N,07725.6055,W,37.79,183.25,290823,,,A*47
$GPGGA,223709.250,4308.0168,N,07725.6057,W,1,05,3.58,172.1,M,-34.3,M,,*50
$GPRMC,223709.500,A,4308.0142,N,07725.6058,W,37.72,183.38,290823,,,A*42
$GPGGA,223709.750,4308.0115,N,07725.6060,W,1,05,3.58,172.0,M,-34.3,M,,*5A
$GPRMC,223710.000,A,4308.0089,N,07725.6061,W,37.34,182.97,290823,,,A*45
$GPGGA,223710.250,4308.0061,N,07725.6062,W,1,05,4.29,172.0,M,-34.3,M,,*56
$GPRMC,223710.500,A,4308.0034,N,07725.6063,W,37.57,182.91,290823,,,A*47
$GPGGA,223710.750,4308.0007,N,07725.6065,W,1,05,3.58,172.1,M,-34.3,M,,*54
$GPRMC,223711.000,A,4307.9979,N,07725.6066,W,37.99,182.19,290823,,,A*42
$GPGGA,223711.250,4307.9953,N,07725.6067,W,1,05,3.58,172.2,M,-34.3,M,,*5F
$GPRMC,223711.500,A,4307.9925,N,07725.6067,W,37.97,181.30,290823,,,A*49
$GPGGA,223711.750,4307.9898,N,07725.6067,W,1,05,3.59,172.2,M,-34.3,M,,*5D
$GPRMC,223712.000,A,4307.9870,N,07725.6066,W,38.06,180.63,290823,,,A*4F
$GPGGA,223712.250,4307.9844,N,07725.6066,W,1,05,3.58,172.2,M,-34.3,M,,*5A
$GPRMC,223712.500,A,4307.9817,N,07725.6066,W,38.05,180.35,290823,,,A*4B
$GPGGA,223712.750,4307.9791,N,07725.6066,W,1,05,3.59,172.3,M,-34.3,M,,*58
$GPRMC,223713.000,A,4307.9764,N,07725.6065,W,38.01,180.68,290823,,,A*4B
$GPGGA,223713.250,4307.9739,N,07725.6066,W,1,05,3.59,172.4,M,-34.3,M,,*59
$GPRMC,223713.500,A,4307.9713,N,07725.6067,W,37.66,181.03,290823,,,A*4E
$GPGGA,223713.750,4307.9689,N,07725.6069,W,1,05,3.59,172.5,M,-34.3,M,,*58
$GPRMC,223714.000,A,4307.9664,N,07725.6070,W,37.21,181.16,290823,,,A*4C
$GPGGA,223714.250,4307.9638,N,07725.6071,W,1,05,4.31,172.7,M,-34.3,M,,*52
$GPRMC,223714.500,A,4307.9612,N,07725.6071,W,37.44,181.48,290823,,,A*41
$GPGGA,223714.750,4307.9586,N,07725.6072,W,1,05,3.59,172.9,M,-34.3,M,,*55
$GPRMC,223715.000,A,4307.9561,N,07725.6074,W,37.46,182.40,290823,,,A*4E
$GPGGA,223715.250,4307.9536,N,07725.6075,W,1,05,3.59,173.0,M,-34.3,M,,*55
$GPRMC,223715.500,A,4307.9510,N,07725.6076,W,37.39,182.14,290823,,,A*46
$GPGGA,223715.750,4307.9485,N,07725.6078,W,1,05,3.59,173.1,M,-34.3,M,,*55
$GPRMC,223716.000,A,4307.9460,N,07725.6079,W,37.16,181.94,290823,,,A*4F
$GPGGA,223716.250,4307.9432,N,07725.6079,W,1,05,3.59,173.1,M,-34.3,M,,*5E
$GPRMC,223716.500,A,4307.9404,N,07725.6079,W,38.01,181.35,290823,,,A*4A
$GPGGA,223716.750,4307.9377,N,07725.6079,W,1,05,3.59,173.0,M,-34.3,M,,*5C
$GPRMC,223717.000,A,4307.9350,N,07725.6079,W,38.17,181.59,290823,,,A*45
$GPGGA,223717.250,4307.9323,N,07725.6079,W,1,05,4.32,172.9,M,-34.3,M,,*5B
$GPRMC,223717.500,A,4307.9296,N,07725.6080,W,38.16,181.62,290823,,,A*44
$GPGGA,223717.750,4307.9268,N,07725.6080,W,1,05,3.60,172.9,M,-34.3,M,,*56
$GPRMC,223718.000,A,4307.9243,N,07725.6081,W,37.98,181.71,290823,,,A*4C
$GPGGA,223718.250,4307.9218,N,07725.6083,W,1,05,3.60,173.0,M,-34.3,M,,*50
$GPRMC,223718.500,A,4307.9192,N,07725.6084,W,37.49,181.50,290823,,,A*4C
$GPGGA,223718.750,4307.9166,N,07725.6085,W,1,05,3.60,173.0,M,-34.3,M,,*59
$GPRMC,223719.000,A,4307.9140,N,07725.6087,W,37.24,181.41,290823,,,A*4F
$GPGGA,223719.250,4307.9115,N,07725.6088,W,1,05,3.60,173.1,M,-34.3,M,,*55
$GPRMC,223719.500,A,4307.9089,N,07725.6088,W,36.97,181.36,290823,,,A*48
$GPGGA,223719.750,4307.9062,N,07725.6089,W,1,05,3.60,173.2,M,-34.3,M,,*53
$GPRMC,223720.000,A,4307.9037,N,07725.6090,W,36.98,181.62,290823,,,A*45
$GPGGA,223720.250,4307.9011,N,07725.6091,W,1,05,3.60,173.2,M,-34.3,M,,*51
$GPRMC,223720.500,A,4307.8985,N,07725.6092,W,36.99,181.18,290823,,,A*4F
$GPGGA,223720.750,4307.8959,N,07725.6092,W,1,05,3.60,173.4,M,-34.3,M,,*55
$GPRMC,223721.000,A,4307.8934,N,07725.6093,W,37.03,181.18,290823,,,A*42
$GPGGA,223721.250,4307.8908,N,07725.6093,W,1,05,3.60,173.5,M,-34.3,M,,*55
$GPRMC,223721.500,A,4307.8882,N,07725.6093,W,37.09,180.97,290823,,,A*47
$GPGGA,223721.750,4307.8856,N,07725.6093,W,1,05,3.61,173.6,M,-34.3,M,,*58
$GPRMC,223722.000,A,4307.8831,N,07725.6093,W,36.94,180.48,290823,,,A*4E
$GPGGA,223722.250,4307.8804,N,07725.6092,W,1,05,3.61,173.6,M,-34.3,M,,*58
$GPRMC,223722.500,A,4307.8779,N,07725.6091,W,36.89,179.64,290823,,,A*4E
$GPGGA,223722.750,4307.8754,N,07725.6091,W,1,05,3.61,173.5,M,-34.3,M,,*57
$GPRMC,223723.000,A,4307.8734,N,07725.6093,W,35.54,180.19,290823,,,A*4E
$GPGGA,223723.250,4307.8714,N,07725.6095,W,1,05,3.61,173.5,M,-34.3,M,,*53
$GPRMC,223723.500,A,4307.8693,N,07725.6096,W,33.86,180.80,290823,,,A*4B
$GPGGA,223723.750,4307.8673,N,07725.6097,W,1,05,3.61,173.4,M,-34.3,M,,*55
$GPRMC,223724.000,A,4307.8654,N,07725.6099,W,31.83,180.64,290823,,,A*40
$GPGGA,223724.250,4307.8635,N,07725.6099,W,1,05,4.35,173.2,M,-34.3,M,,*5B
$GPRMC,223724.500,A,4307.8617,N,07725.6100,W,29.87,180.85,290823,,,A*41
$GPGGA,223724.750,4307.8600,N,07725.6101,W,1,05,3.61,173.0,M,-34.3,M,,*5C
$GPRMC,223725.000,A,4307.8582,N,07725.6101,W,27.68,180.42,290823,,,A*4F
$GPGGA,223725.250,4307.8566,N,07725.6101,W,1,05,4.35,172.9,M,-34.3,M,,*55
$GPRMC,223725.500,A,4307.8550,N,07725.6100,W,25.28,179.19,290823,,,A*4A
$GPGGA,223725.750,4307.8537,N,07725.6101,W,1,05,3.61,172.8,M,-34.3,M,,*53
$GPRMC,223726.000,A,4307.8524,N,07725.6102,W,22.26,180.57,290823,,,A*48
$GPGGA,223726.250,4307.8513,N,07725.6102,W,1,05,4.35,172.8,M,-34.3,M,,*56
$GPRMC,223726.500,A,4307.8503,N,07725.6104,W,20.11,182.21,290823,,,A*4B
$GPGGA,223726.750,4307.8492,N,07725.6105,W,1,05,3.62,172.9,M,-34.3,M,,*58
$GPRMC,223727.000,A,4307.8484,N,07725.6107,W,18.28,182.55,290823,,,A*40
$GPGGA,223727.250,4307.8477,N,07725.6108,W,1,05,4.36,173.1,M,-34.3,M,,*55
$GPRMC,223727.500,A,4307.8469,N,07725.6110,W,16.10,182.76,290823,,,A*44
$GPGGA,223727.750,4307.8462,N,07725.6111,W,1,05,3.62,173.3,M,-34.3,M,,*58
$GPRMC,223728.000,A,4307.8455,N,07725.6112,W,14.73,182.36,290823,,,A*40
$GPGGA,223728.250,4307.8449,N,07725.6113,W,1,05,4.36,173.4,M,-34.3,M,,*58
$GPRMC,223728.500,A,4307.8441,N,07725.6113,W,13.46,181.88,290823,,,A*46
$GPGGA,223728.750,4307.8434,N,07725.6112,W,1,05,3.62,173.4,M,-34.3,M,,*50
$GPRMC,223729.000,A,4307.8426,N,07725.6112,W,12.69,180.73,290823,,,A*4B
$GPGGA,223729.250,4307.8418,N,07725.6112,W,1,05,4.37,173.4,M,-34.3,M,,*5D
$GPRMC,223729.500,A,4307.8410,N,07725.6112,W,11.99,182.01,290823,,,A*40
$GPGGA,223729.750,4307.8403,N,07725.6111,W,1,05,3.62,173.4,M,-34.3,M,,*56
$GPRMC,223730.000,A,4307.8396,N,07725.6111,W,11.33,182.49,290823,,,A*4B
$GPGGA,223730.250,4307.8388,N,07725.6111,W,1,05,4.37,173.4,M,-34.3,M,,*58
$GPRMC,223730.500,A,4307.8381,N,07725.6110,W,10.89,181.21,290823,,,A*44
$GPGGA,223730.750,4307.8374,N,07725.6109,W,1,05,3.63,173.4,M,-34.3,M,,*51
$GPRMC,223731.000,A,4307.8370,N,07725.6109,W,10.06,178.83,290823,,,A*4F
$GPGGA,223731.250,4307.8366,N,07725.6108,W,1,05,4.37,173.4,M,-34.3,M,,*51
$GPRMC,223731.500,A,4307.8363,N,07725.6108,W,8.77,181.20,290823,,,A*79
$GPGGA,223731.750,4307.8364,N,07725.6108,W,1,05,3.63,173.4,M,-34.3,M,,*50
$GPRMC,223732.000,A,4307.8364,N,07725.6108,W,6.66,179.62,290823,,,A*77
$GPGGA,223732.250,4307.8362,N,07725.6109,W,1,05,4.38,173.5,M,-34.3,M,,*59
$GPRMC,223732.500,A,4307.8361,N,07725.6111,W,5.97,193.38,290823,,,A*79
$GPGGA,223732.750,4307.8357,N,07725.6113,W,1,05,3.63,173.6,M,-34.3,M,,*5B
$GPRMC,223733.000,A,4307.8353,N,07725.6115,W,7.23,211.46,290823,,,A*75
$GPGGA,223733.250,4307.8347,N,07725.6117,W,1,05,3.63,173.4,M,-34.3,M,,*58
$GPRMC,223733.500,A,4307.8341,N,07725.6122,W,9.45,220.20,290823,,,A*7B
$GPGGA,223733.750,4307.8336,N,07725.6128,W,1,05,4.39,173.5,M,-34.3,M,,*5E
$GPRMC,223734.000,A,4307.8330,N,07725.6136,W,11.85,227.18,290823,,,A*43
$GPGGA,223734.250,4307.8324,N,07725.6146,W,1,05,4.39,173.6,M,-34.3,M,,*54
$GPRMC,223734.500,A,4307.8318,N,07725.6157,W,15.07,233.79,290823,,,A*47
$GPGGA,223734.750,4307.8312,N,07725.6169,W,1,05,3.63,173.7,M,-34.3,M,,*50
$GPRMC,223735.000,A,4307.8307,N,07725.6183,W,17.32,237.18,290823,,,A*43
$GPGGA,223735.250,4307.8302,N,07725.6199,W,1,05,3.63,173.8,M,-34.3,M,,*55
$GPRMC,223735.500,A,4307.8297,N,07725.6216,W,19.70,241.37,290823,,,A*45
$GPGGA,223735.750,4307.8293,N,07725.6234,W,1,05,3.64,173.9,M,-34.3,M,,*5B
$GPRMC,223736.000,A,4307.8288,N,07725.6253,W,21.29,244.16,290823,,,A*4D
$GPGGA,223736.250,4307.8285,N,07725.6274,W,1,05,3.64,173.8,M,-34.3,M,,*5F
$GPRMC,223736.500,A,4307.8282,N,07725.6296,W,23.42,247.96,290823,,,A*4F
$GPGGA,223736.750,4307.8277,N,07725.6317,W,1,05,3.64,173.6,M,-34.3,M,,*5D
$GPRMC,223737.000,A,4307.8275,N,07725.6341,W,25.06,250.81,290823,,,A*4E
$GPGGA,223737.250,4307.8273,N,07725.6365,W,1,05,3.64,173.6,M,-34.3,M,,*58
$GPRMC,223737.500,A,4307.8271,N,07725.6391,W,27.16,253.26,290823,,,A*4F
$GPGGA,223737.750,4307.8269,N,07725.6417,W,1,05,3.64,173.5,M,-34.3,M,,*57
$GPRMC,223738.000,A,4307.8267,N,07725.6444,W,28.60,255.30,290823,,,A*42
$GPGGA,223738.250,4307.8267,N,07725.6472,W,1,05,3.64,173.4,M,-34.3,M,,*51
$GPRMC,223738.500,A,4307.8266,N,07725.6501,W,30.40,257.12,290823,,,A*4F
$GPGGA,223738.750,4307.8265,N,07725.6530,W,1,05,3.64,173.3,M,-34.3,M,,*56
$GPRMC,223739.000,A,4307.8263,N,07725.6560,W,31.48,258.21,290823,,,A*4F
$GPGGA,223739.250,4307.8264,N,07725.6591,W,1,05,3.65,173.3,M,-34.3,M,,*59
$GPRMC,223739.500,A,4307.8263,N,07725.6622,W,33.04,259.49,290823,,,A*4A
$GPGGA,223739.750,4307.8262,N,07725.6653,W,1,05,3.64,173.2,M,-34.3,M,,*57
$GPRMC,223740.000,A,4307.8263,N,07725.6686,W,34.08,260.68,290823,,,A*4D
$GPGGA,223740.250,4307.8265,N,07725.6719,W,1,05,3.65,173.1,M,-34.3,M,,*56
$GPRMC,223740.500,A,4307.8268,N,07725.6753,W,35.26,262.64,290823,,,A*49
$GPGGA,223740.750,4307.8270,N,07725.6788,W,1,05,3.65,173.2,M,-34.3,M,,*5C
$GPRMC,223741.000,A,4307.8275,N,07725.6823,W,36.17,264.33,290823,,,A*4C
$GPGGA,223741.250,4307.8280,N,07725.6860,W,1,05,3.65,173.3,M,-34.3,M,,*5F
$GPRMC,223741.500,A,4307.8285,N,07725.6897,W,37.22,266.28,290823,,,A*46
$GPGGA,223741.750,4307.8288,N,07725.6934,W,1,05,3.65,173.4,M,-34.3,M,,*55
$GPRMC,223742.000,A,4307.8292,N,07725.6971,W,37.85,267.20,290823,,,A*4B
$GPGGA,223742.250,4307.8295,N,07725.7008,W,1,05,3.65,173.5,M,-34.3,M,,*59
$GPRMC,223742.500,A,4307.8299,N,07725.7045,W,38.43,268.00,290823,,,A*42
$GPGGA,223742.750,4307.8302,N,07725.7083,W,1,05,3.65,173.7,M,-34.3,M,,*52
$GPRMC,223743.000,A,4307.8303,N,07725.7120,W,38.66,268.40,290823,,,A*45
$GPGGA,223743.250,4307.8304,N,07725.7156,W,1,05,3.66,173.7,M,-34.3,M,,*5A
$GPRMC,223743.500,A,4307.8306,N,07725.7194,W,38.92,268.74,290823,,,A*46
$GPGGA,223743.750,4307.8308,N,07725.7231,W,1,05,3.66,173.5,M,-34.3,M,,*53
$GPRMC,223744.000,A,4307.8310,N,07725.7269,W,39.32,269.25,290823,,,A*4C
$GPGGA,223744.250,4307.8312,N,07725.7307,W,1,05,3.65,173.3,M,-34.3,M,,*5B
$GPRMC,223744.500,A,4307.8314,N,07725.7345,W,39.44,269.89,290823,,,A*45
$GPGGA,223744.750,4307.8315,N,07725.7382,W,1,05,3.65,173.1,M,-34.3,M,,*56
$GPRMC,223745.000,A,4307.8314,N,07725.7419,W,39.48,269.99,290823,,,A*42
$GPGGA,223745.250,4307.8312,N,07725.7455,W,1,05,3.66,172.8,M,-34.3,M,,*53
$GPRMC,223745.500,A,4307.8311,N,07725.7492,W,39.50,269.96,290823,,,A*47
$GPGGA,223745.750,4307.8310,N,07725.7528,W,1,05,3.66,172.6,M,-34.3,M,,*51
$GPRMC,223746.000,A,4307.8310,N,07725.7565,W,38.36,270.25,290823,,,A*48
$GPGGA,223746.250,4307.8310,N,07725.7600,W,1,05,3.66,172.3,M,-34.3,M,,*5B
$GPRMC,223746.500,A,4307.8309,N,07725.7636,W,37.88,270.38,290823,,,A*46
$GPGGA,223746.750,4307.8309,N,07725.7671,W,1,05,3.66,172.1,M,-34.3,M,,*52
$GPRMC,223747.000,A,4307.8311,N,07725.7708,W,38.19,270.73,290823,,,A*4F
$GPGGA,223747.250,4307.8312,N,07725.7744,W,1,05,3.66,171.8,M,-34.3,M,,*51
$GPRMC,223747.500,A,4307.8314,N,07725.7781,W,38.59,271.13,290823,,,A*4D
$GPGGA,223747.750,4307.8315,N,07725.7818,W,1,05,3.66,171.5,M,-34.3,M,,*58
$GPRMC,223748.000,A,4307.8316,N,07725.7854,W,38.70,271.26,290823,,,A*4F
$GPGGA,223748.250,4307.8316,N,07725.7891,W,1,05,3.66,171.2,M,-34.3,M,,*57
$GPRMC,223748.500,A,4307.8317,N,07725.7927,W,38.94,271.11,290823,,,A*40
$GPGGA,223748.750,4307.8318,N,07725.7964,W,1,05,3.67,170.9,M,-34.3,M,,*5C
$GPRMC,223749.000,A,4307.8319,N,07725.8001,W,39.27,271.04,290823,,,A*45
$GPGGA,223749.250,4307.8319,N,07725.8038,W,1,05,3.67,170.6,M,-34.3,M,,*59
$GPRMC,223749.500,A,4307.8320,N,07725.8075,W,39.61,270.70,290823,,,A*49
$GPGGA,223749.750,4307.8320,N,07725.8112,W,1,05,3.67,170.3,M,-34.3,M,,*5A
$GPRMC,223750.000,A,4307.8319,N,07725.8149,W,39.69,270.58,290823,,,A*42
$GPGGA,223750.250,4307.8320,N,07725.8186,W,1,05,3.67,170.2,M,-34.3,M,,*5B
$GPRMC,223750.500,A,4307.8320,N,07725.8223,W,39.60,270.25,290823,,,A*41
$GPGGA,223750.750,4307.8319,N,07725.8260,W,1,05,3.67,170.0,M,-34.3,M,,*5D
$GPRMC,223751.000,A,4307.8320,N,07725.8297,W,39.40,270.03,290823,,,A*4C
$GPGGA,223751.250,4307.8322,N,07725.8335,W,1,05,3.67,170.0,M,-34.3,M,,*50
$GPRMC,223751.500,A,4307.8323,N,07725.8372,W,38.98,269.81,290823,,,A*46
$GPGGA,223751.750,4307.8325,N,07725.8410,W,1,05,3.67,170.0,M,-34.3,M,,*52
$GPRMC,223752.000,A,4307.8328,N,07725.8447,W,38.70,269.99,290823,,,A*45
$GPGGA,223752.250,4307.8332,N,07725.8484,W,1,05,3.67,169.9,M,-34.3,M,,*5E
$GPRMC,223752.500,A,4307.8335,N,07725.8522,W,38.34,270.62,290823,,,A*42
$GPGGA,223752.750,4307.8339,N,07725.8559,W,1,05,3.67,169.9,M,-34.3,M,,*51
$GPRMC,223753.000,A,4307.8343,N,07725.8596,W,38.06,270.87,290823,,,A*42
$GPGGA,223753.250,4307.8345,N,07725.8633,W,1,05,4.46,170.0,M,-34.3,M,,*54
$GPRMC,223753.500,A,4307.8349,N,07725.8669,W,37.76,270.68,290823,,,A*47
$GPGGA,223753.750,4307.8353,N,07725.8707,W,1,05,3.68,170.1,M,-34.3,M,,*5A
$GPRMC,223754.000,A,4307.8356,N,07725.8743,W,37.45,270.82,290823,,,A*46
$GPGGA,223754.250,4307.8359,N,07725.8780,W,1,04,10.32,170.3,M,-34.3,M,,*63
$GPRMC,223754.500,A,4307.8363,N,07725.8817,W,37.35,271.16,290823,,,A*40
$GPGGA,223754.750,4307.8366,N,07725.8853,W,1,04,10.32,170.5,M,-34.3,M,,*6D
$GPRMC,223755.000,A,4307.8369,N,07725.8890,W,36.95,271.33,290823,,,A*4D
$GPGGA,223755.250,4307.8373,N,07725.8926,W,1,05,3.68,170.6,M,-34.3,M,,*51
$GPRMC,223755.500,A,4307.8376,N,07725.8961,W,36.05,271.81,290823,,,A*49
$GPGGA,223755.750,4307.8378,N,07725.8995,W,1,05,3.68,170.7,M,-34.3,M,,*56
$GPRMC,223756.000,A,4307.8381,N,07725.9029,W,34.50,272.27,290823,,,A*4E
$GPGGA,223756.250,4307.8382,N,07725.9061,W,1,05,3.68,170.7,M,-34.3,M,,*56
$GPRMC,223756.500,A,4307.8382,N,07725.9092,W,31.91,272.81,290823,,,A*4C
$GPGGA,223756.750,4307.8382,N,07725.9121,W,1,05,3.68,170.6,M,-34.3,M,,*57
$GPRMC,223757.000,A,4307.8381,N,07725.9149,W,29.47,272.94,290823,,,A*4A
$GPGGA,223757.250,4307.8378,N,07725.9175,W,1,05,3.68,170.4,M,-34.3,M,,*55
$GPRMC,223757.500,A,4307.8378,N,07725.9200,W,26.47,273.77,290823,,,A*44
$GPGGA,223757.750,4307.8375,N,07725.9224,W,1,05,3.69,170.2,M,-34.3,M,,*5D
$GPRMC,223758.000,A,4307.8372,N,07725.9246,W,24.25,274.36,290823,,,A*42
$GPGGA,223758.250,4307.8368,N,07725.9267,W,1,05,3.69,169.9,M,-34.3,M,,*5F
$GPRMC,223758.500,A,4307.8365,N,07725.9287,W,21.42,275.96,290823,,,A*43
$GPGGA,223758.750,4307.8362,N,07725.9306,W,1,05,3.69,169.6,M,-34.3,M,,*59
$GPRMC,223759.000,A,4307.8359,N,07725.9322,W,18.80,277.02,290823,,,A*4D
$GPGGA,223759.250,4307.8356,N,07725.9337,W,1,05,3.69,169.2,M,-34.3,M,,*5C
$GPRMC,223759.500,A,4307.8353,N,07725.9351,W,15.05,279.03,290823,,,A*49
$GPGGA,223759.750,4307.8351,N,07725.9362,W,1,05,3.69,169.0,M,-34.3,M,,*5C
$GPRMC,223800.000,A,4307.8349,N,07725.9372,W,11.58,277.58,290823,,,A*49
$GPGGA,223800.250,4307.8345,N,07725.9379,W,1,05,3.69,168.7,M,-34.3,M,,*53
$GPRMC,223800.500,A,4307.8343,N,07725.9386,W,7.80,272.44,290823,,,A*77
$GPGGA,223800.750,4307.8339,N,07725.9391,W,1,05,3.70,168.5,M,-34.3,M,,*51
$GPRMC,223801.000,A,4307.8339,N,07725.9395,W,5.01,268.60,290823,,,A*7A
$GPGGA,223801.250,4307.8332,N,07725.9395,W,1,05,4.50,168.3,M,-34.3,M,,*59
$GPRMC,223801.500,A,4307.8330,N,07725.9396,W,2.29,249.91,290823,,,A*75
$GPGGA,223801.750,4307.8332,N,07725.9397,W,1,05,3.70,168.1,M,-34.3,M,,*59
$GPRMC,223802.000,A,4307.8332,N,07725.9396,W,1.27,249.91,290823,,,A*7C
$GPGGA,223802.250,4307.8333,N,07725.9393,W,1,05,3.69,167.9,M,-34.3,M,,*55
$GPRMC,223802.500,A,4307.8335,N,07725.9392,W,1.60,249.91,290823,,,A*79
$GPGGA,223802.750,4307.8339,N,07725.9390,W,1,05,3.70,167.8,M,-34.3,M,,*50
$GPRMC,223803.000,A,4307.8344,N,07725.9389,W,1.17,249.91,290823,,,A*71
$GPGGA,223803.250,4307.8351,N,07725.9389,W,1,05,3.70,167.8,M,-34.3,M,,*52
$GPRMC,223803.500,A,4307.8355,N,07725.9389,W,0.45,249.91,290823,,,A*72
$GPGGA,223803.750,4307.8356,N,07725.9389,W,1,05,3.70,167.8,M,-34.3,M,,*50
$GPRMC,223804.000,A,4307.8361,N,07725.9390,W,0.36,249.91,290823,,,A*7B
$GPGGA,223804.250,4307.8367,N,07725.9391,W,1,05,3.70,167.7,M,-34.3,M,,*56
$GPRMC,223804.500,A,4307.8371,N,07725.9392,W,0.92,249.91,290823,,,A*73
$GPGGA,223804.750,4307.8374,N,07725.9394,W,1,05,3.70,167.6,M,-34.3,M,,*55
$GPRMC,223805.000,A,4307.8377,N,07725.9395,W,1.34,249.91,290823,,,A*7B
$GPGGA,223805.250,4307.8377,N,07725.9397,W,1,05,3.70,167.6,M,-34.3,M,,*51
$GPRMC,223805.500,A,4307.8377,N,07725.9398,W,0.00,249.91,290823,,,A*75
$GPGGA,223805.750,4307.8377,N,07725.9398,W,1,05,4.52,167.6,M,-34.3,M,,*5C
$GPRMC,223806.000,A,4307.8378,N,07725.9400,W,0.24,249.91,290823,,,A*7C
$GPGGA,223806.250,4307.8380,N,07725.9404,W,1,05,3.71,167.5,M,-34.3,M,,*55
$GPRMC,223806.500,A,4307.8379,N,07725.9408,W,3.97,270.99,290823,,,A*79
$GPGGA,223806.750,4307.8379,N,07725.9412,W,1,05,3.71,167.4,M,-34.3,M,,*50
$GPRMC,223807.000,A,4307.8379,N,07725.9419,W,6.10,262.70,290823,,,A*73
$GPGGA,223807.250,4307.8378,N,07725.9426,W,1,05,3.71,167.4,M,-34.3,M,,*52
$GPRMC,223807.500,A,4307.8376,N,07725.9432,W,7.33,256.14,290823,,,A*75
$GPGGA,223807.750,4307.8371,N,07725.9438,W,1,05,3.71,167.3,M,-34.3,M,,*56
$GPRMC,223808.000,A,4307.8366,N,07725.9444,W,7.53,244.27,290823,,,A*7A
$GPGGA,223808.250,4307.8358,N,07725.9448,W,1,05,3.71,167.2,M,-34.3,M,,*51
$GPRMC,223808.500,A,4307.8351,N,07725.9454,W,8.09,231.54,290823,,,A*7C
$GPGGA,223808.750,4307.8346,N,07725.9459,W,1,05,3.71,167.1,M,-34.3,M,,*58
$GPRMC,223809.000,A,4307.8341,N,07725.9465,W,8.22,226.45,290823,,,A*74
$GPGGA,223809.250,4307.8335,N,07725.9469,W,1,05,3.71,167.1,M,-34.3,M,,*5B
$GPRMC,223809.500,A,4307.8328,N,07725.9473,W,7.99,217.39,290823,,,A*7F
$GPGGA,223809.750,4307.8322,N,07725.9477,W,1,05,3.71,167.0,M,-34.3,M,,*56
$GPRMC,223810.000,A,4307.8314,N,07725.9479,W,7.93,207.64,290823,,,A*74
$GPGGA,223810.250,4307.8305,N,07725.9481,W,1,05,3.72,167.0,M,-34.3,M,,*54
$GPRMC,223810.500,A,4307.8295,N,07725.9482,W,8.60,194.73,290823,,,A*71
$GPGGA,223810.750,4307.8286,N,07725.9483,W,1,05,3.72,167.0,M,-34.3,M,,*59
$GPRMC,223811.000,A,4307.8275,N,07725.9483,W,9.51,185.59,290823,,,A*71
$GPGGA,223811.250,4307.8263,N,07725.9482,W,1,05,3.72,167.0,M,-34.3,M,,*57
$GPRMC,223811.500,A,4307.8251,N,07725.9482,W,11.18,180.08,290823,,,A*46
$GPGGA,223811.750,4307.8239,N,07725.9481,W,1,05,3.72,167.0,M,-34.3,M,,*5E
$GPRMC,223812.000,A,4307.8227,N,07725.9479,W,12.57,176.15,290823,,,A*48
$GPGGA,223812.250,4307.8215,N,07725.9478,W,1,05,3.72,167.0,M,-34.3,M,,*50
$GPRMC,223812.500,A,4307.8203,N,07725.9477,W,13.62,176.41,290823,,,A*43
$GPGGA,223812.750,4307.8191,N,07725.9477,W,1,05,3.72,166.9,M,-34.3,M,,*5D
$GPRMC,223813.000,A,4307.8179,N,07725.9476,W,14.45,178.83,290823,,,A*4A
$GPGGA,223813.250,4307.8166,N,07725.9476,W,1,05,3.72,166.8,M,-34.3,M,,*51
$GPRMC,223813.500,A,4307.8152,N,07725.9475,W,15.39,179.33,290823,,,A*45
$GPGGA,223813.750,4307.8139,N,07725.9474,W,1,05,3.72,166.7,M,-34.3,M,,*53
$GPRMC,223814.000,A,4307.8124,N,07725.9474,W,16.23,179.43,290823,,,A*48
$GPGGA,223814.250,4307.8110,N,07725.9474,W,1,05,4.55,166.6,M,-34.3,M,,*59
$GPRMC,223814.500,A,4307.8097,N,07725.9473,W,16.54,179.89,290823,,,A*45
$GPGGA,223814.750,4307.8085,N,07725.9473,W,1,05,3.72,166.5,M,-34.3,M,,*57
$GPRMC,223815.000,A,4307.8073,N,07725.9473,W,16.60,179.56,290823,,,A*4E
$GPGGA,223815.250,4307.8058,N,07725.9472,W,1,05,3.73,166.4,M,-34.3,M,,*52
$GPRMC,223815.500,A,4307.8044,N,07725.9472,W,17.08,178.41,290823,,,A*46
$GPGGA,223815.750,4307.8030,N,07725.9471,W,1,05,3.73,166.3,M,-34.3,M,,*5D
$GPRMC,223816.000,A,4307.8016,N,07725.9471,W,17.36,177.94,290823,,,A*4E
$GPGGA,223816.250,4307.8000,N,07725.9469,W,1,05,3.73,166.1,M,-34.3,M,,*53
