Vers 81
USE_SERIAL_FEEDBACK=true
DEVELOPMENT_MODE=false
USE_RMC_ONLY=false

$GPRMC,192428.500,A,4305.1692,N,07740.8711,W,0.07,44.67,191023,,,A*46
$GPGGA,192428.750,4305.1692,N,07740.8711,W,1,07,1.45,181.8,M,-34.4,M,,*54
$GPRMC,192429.000,A,4305.1692,N,07740.8711,W,0.07,35.59,191023,,,A*49
$GPGGA,192429.250,4305.1692,N,07740.8712,W,1,07,1.45,181.9,M,-34.4,M,,*52
$GPRMC,192429.500,A,4305.1691,N,07740.8712,W,0.03,70.76,191023,,,A*44
$GPGGA,192429.750,4305.1692,N,07740.8710,W,1,07,1.45,182.2,M,-34.4,M,,*5D
$GPRMC,192430.000,A,4305.1692,N,07740.8709,W,0.01,15.11,191023,,,A*40
$GPGGA,192430.250,4305.1693,N,07740.8709,W,1,07,1.45,182.4,M,-34.4,M,,*5F
$GPRMC,192430.500,A,4305.1693,N,07740.8709,W,0.03,106.24,191023,,,A*73
$GPGGA,192430.750,4305.1694,N,07740.8709,W,1,07,1.45,182.5,M,-34.4,M,,*5C
$GPRMC,192431.000,A,4305.1694,N,07740.8710,W,0.02,145.15,191023,,,A*7C
$GPGGA,192431.250,4305.1694,N,07740.8710,W,1,07,1.45,182.6,M,-34.4,M,,*53
$GPRMC,192431.500,A,4305.1695,N,07740.8711,W,0.02,347.25,191023,,,A*7A
$GPGGA,192431.750,4305.1695,N,07740.8711,W,1,07,1.65,182.6,M,-34.4,M,,*54
$GPRMC,192432.000,A,4305.1695,N,07740.8712,W,0.01,318.69,191023,,,A*7E
$GPGGA,192432.250,4305.1686,N,07740.8727,W,1,10,0.82,183.4,M,-34.4,M,,*58
$GPRMC,192432.500,A,4305.1683,N,07740.8734,W,0.04,197.69,191023,,,A*78
$GPGGA,192432.750,4305.1682,N,07740.8737,W,1,10,0.82,183.7,M,-34.4,M,,*5B
$GPRMC,192433.000,A,4305.1681,N,07740.8738,W,0.06,170.38,191023,,,A*7D
$GPGGA,192433.250,4305.1680,N,07740.8740,W,1,10,0.82,183.8,M,-34.4,M,,*52
$GPRMC,192433.500,A,4305.1680,N,07740.8740,W,0.09,174.34,191023,,,A*71
$GPGGA,192433.750,4305.1680,N,07740.8740,W,1,10,0.82,183.5,M,-34.4,M,,*5A
$GPRMC,192434.000,A,4305.1680,N,07740.8741,W,0.05,195.89,191023,,,A*77
$GPGGA,192434.250,4305.1681,N,07740.8741,W,1,10,0.82,183.5,M,-34.4,M,,*58
$GPRMC,192434.500,A,4305.1680,N,07740.8741,W,0.24,178.87,191023,,,A*7C
$GPGGA,192434.750,4305.1680,N,07740.8741,W,1,10,0.82,183.5,M,-34.4,M,,*5C
$GPRMC,192435.000,A,4305.1680,N,07740.8741,W,0.64,183.06,191023,,,A*71
$GPGGA,192435.250,4305.1679,N,07740.8741,W,1,10,0.82,183.4,M,-34.4,M,,*5F
$GPRMC,192435.500,A,4305.1679,N,07740.8740,W,1.59,182.22,191023,,,A*7B
$GPGGA,192435.750,4305.1678,N,07740.8740,W,1,10,0.82,183.3,M,-34.4,M,,*5D
$GPRMC,192436.000,A,4305.1677,N,07740.8740,W,2.00,181.88,191023,,,A*7F
$GPGGA,192436.250,4305.1676,N,07740.8740,W,1,10,0.82,183.2,M,-34.4,M,,*54
$GPRMC,192436.500,A,4305.1675,N,07740.8739,W,2.32,179.61,191023,,,A*77
$GPGGA,192436.750,4305.1674,N,07740.8739,W,1,10,0.82,183.0,M,-34.4,M,,*5F
$GPRMC,192437.000,A,4305.1672,N,07740.8739,W,2.18,178.96,191023,,,A*75
$GPGGA,192437.250,4305.1671,N,07740.8738,W,1,10,0.82,183.0,M,-34.4,M,,*5F
$GPRMC,192437.500,A,4305.1670,N,07740.8738,W,1.67,178.48,191023,,,A*7B
$GPGGA,192437.750,4305.1670,N,07740.8738,W,1,10,0.82,182.8,M,-34.4,M,,*52
$GPRMC,192438.000,A,4305.1669,N,07740.8737,W,0.95,179.94,191023,,,A*7A
$GPGGA,192438.250,4305.1669,N,07740.8737,W,1,10,0.82,182.7,M,-34.4,M,,*50
$GPRMC,192438.500,A,4305.1668,N,07740.8737,W,0.81,180.07,191023,,,A*77
$GPGGA,192438.750,4305.1668,N,07740.8737,W,1,10,0.82,182.6,M,-34.4,M,,*55
$GPRMC,192439.000,A,4305.1667,N,07740.8737,W,0.92,180.21,191023,,,A*7A
$GPGGA,192439.250,4305.1667,N,07740.8737,W,1,10,0.82,182.6,M,-34.4,M,,*5E
$GPRMC,192439.500,A,4305.1666,N,07740.8736,W,1.03,170.55,191023,,,A*7A
$GPGGA,192439.750,4305.1666,N,07740.8736,W,1,10,0.82,182.6,M,-34.4,M,,*5B
$GPRMC,192440.000,A,4305.1665,N,07740.8735,W,0.99,169.47,191023,,,A*78
$GPGGA,192440.250,4305.1664,N,07740.8735,W,1,10,0.82,182.6,M,-34.4,M,,*51
$GPRMC,192440.500,A,4305.1664,N,07740.8735,W,1.22,169.55,191023,,,A*7E
$GPGGA,192440.750,4305.1663,N,07740.8735,W,1,10,0.82,182.6,M,-34.4,M,,*53
$GPRMC,192441.000,A,4305.1661,N,07740.8734,W,1.33,166.97,191023,,,A*7F
$GPGGA,192441.250,4305.1660,N,07740.8734,W,1,08,1.00,182.7,M,-34.4,M,,*56
$GPRMC,192441.500,A,4305.1659,N,07740.8734,W,1.45,154.70,191023,,,A*78
$GPGGA,192441.750,4305.1657,N,07740.8733,W,1,10,0.82,182.8,M,-34.4,M,,*5D
$GPRMC,192442.000,A,4305.1656,N,07740.8733,W,1.48,150.76,191023,,,A*79
$GPGGA,192442.250,4305.1655,N,07740.8732,W,1,10,0.82,182.8,M,-34.4,M,,*58
$GPRMC,192442.500,A,4305.1654,N,07740.8731,W,1.39,148.33,191023,,,A*72
$GPGGA,192442.750,4305.1653,N,07740.8730,W,1,10,0.82,182.7,M,-34.4,M,,*56
$GPRMC,192443.000,A,4305.1652,N,07740.8730,W,1.35,143.25,191023,,,A*71
$GPGGA,192443.250,4305.1652,N,07740.8729,W,1,10,0.82,182.8,M,-34.4,M,,*54
$GPRMC,192443.500,A,4305.1651,N,07740.8728,W,0.73,133.27,191023,,,A*78
$GPGGA,192443.750,4305.1651,N,07740.8727,W,1,10,0.82,182.7,M,-34.4,M,,*53
$GPRMC,192444.000,A,4305.1651,N,07740.8727,W,0.07,316.32,191023,,,A*77
$GPGGA,192444.250,4305.1651,N,07740.8727,W,1,10,0.82,182.6,M,-34.4,M,,*50
$GPRMC,192444.500,A,4305.1652,N,07740.8727,W,0.56,321.45,191023,,,A*71
$GPGGA,192444.750,4305.1652,N,07740.8728,W,1,10,0.82,182.6,M,-34.4,M,,*59
$GPRMC,192445.000,A,4305.1653,N,07740.8729,W,1.53,324.48,191023,,,A*76
$GPGGA,192445.250,4305.1654,N,07740.8730,W,1,10,0.82,182.6,M,-34.4,M,,*52
$GPRMC,192445.500,A,4305.1655,N,07740.8731,W,2.45,319.76,191023,,,A*7B
$GPGGA,192445.750,4305.1657,N,07740.8733,W,1,10,0.82,182.5,M,-34.4,M,,*54
$GPRMC,192446.000,A,4305.1658,N,07740.8735,W,3.07,311.61,191023,,,A*7D
$GPGGA,192446.250,4305.1660,N,07740.8738,W,1,10,0.82,182.5,M,-34.4,M,,*5D
$GPRMC,192446.500,A,4305.1661,N,07740.8740,W,3.71,298.82,191023,,,A*7C
$GPGGA,192446.750,4305.1662,N,07740.8743,W,1,10,0.82,182.3,M,-34.4,M,,*50
$GPRMC,192447.000,A,4305.1663,N,07740.8747,W,4.30,286.31,191023,,,A*78
$GPGGA,192447.250,4305.1663,N,07740.8751,W,1,10,0.84,182.3,M,-34.4,M,,*50
$GPRMC,192447.500,A,4305.1664,N,07740.8755,W,4.85,274.06,191023,,,A*7E
$GPGGA,192447.750,4305.1663,N,07740.8760,W,1,10,0.84,182.3,M,-34.4,M,,*57
$GPRMC,192448.000,A,4305.1663,N,07740.8765,W,5.37,262.48,191023,,,A*75
$GPGGA,192448.250,4305.1663,N,07740.8770,W,1,10,0.84,182.3,M,-34.4,M,,*5C
$GPRMC,192448.500,A,4305.1662,N,07740.8775,W,5.53,258.40,191023,,,A*73
$GPGGA,192448.750,4305.1661,N,07740.8780,W,1,10,0.84,182.4,M,-34.4,M,,*53
$GPRMC,192449.000,A,4305.1660,N,07740.8785,W,5.42,261.12,191023,,,A*77
$GPGGA,192449.250,4305.1660,N,07740.8790,W,1,10,0.84,182.5,M,-34.4,M,,*56
$GPRMC,192449.500,A,4305.1659,N,07740.8796,W,5.64,267.02,191023,,,A*79
$GPGGA,192449.750,4305.1659,N,07740.8801,W,1,10,0.84,182.6,M,-34.4,M,,*5D
$GPRMC,192450.000,A,4305.1659,N,07740.8807,W,6.11,273.54,191023,,,A*74
$GPGGA,192450.250,4305.1660,N,07740.8813,W,1,10,0.84,182.5,M,-34.4,M,,*5A
$GPRMC,192450.500,A,4305.1660,N,07740.8819,W,6.92,283.05,191023,,,A*74
$GPGGA,192450.750,4305.1662,N,07740.8826,W,1,10,0.84,182.5,M,-34.4,M,,*5B
$GPRMC,192451.000,A,4305.1664,N,07740.8832,W,7.31,295.40,191023,,,A*73
$GPGGA,192451.250,4305.1666,N,07740.8839,W,1,10,0.84,182.4,M,-34.4,M,,*54
$GPRMC,192451.500,A,4305.1670,N,07740.8845,W,7.84,307.14,191023,,,A*76
$GPGGA,192451.750,4305.1673,N,07740.8851,W,1,10,0.84,182.3,M,-34.4,M,,*5C
$GPRMC,192452.000,A,4305.1678,N,07740.8857,W,8.70,317.68,191023,,,A*75
$GPGGA,192452.250,4305.1683,N,07740.8862,W,1,10,0.84,182.2,M,-34.4,M,,*54
$GPRMC,192452.500,A,4305.1688,N,07740.8867,W,9.37,332.77,191023,,,A*77
$GPGGA,192452.750,4305.1695,N,07740.8871,W,1,09,0.88,182.0,M,-34.4,M,,*52
$GPRMC,192453.000,A,4305.1701,N,07740.8874,W,10.17,346.68,191023,,,A*46
$GPGGA,192453.250,4305.1710,N,07740.8876,W,1,10,0.84,181.9,M,-34.4,M,,*53
$GPRMC,192453.500,A,4305.1719,N,07740.8877,W,11.16,358.00,191023,,,A*48
$GPGGA,192453.750,4305.1728,N,07740.8877,W,1,10,0.84,181.5,M,-34.4,M,,*50
$GPRMC,192454.000,A,4305.1736,N,07740.8877,W,12.14,3.07,191023,,,A*4C
$GPGGA,192454.250,4305.1746,N,07740.8876,W,1,10,0.84,181.3,M,-34.4,M,,*5D
$GPRMC,192454.500,A,4305.1756,N,07740.8875,W,13.56,4.14,191023,,,A*4F
$GPGGA,192454.750,4305.1767,N,07740.8874,W,1,10,0.84,181.1,M,-34.4,M,,*5B
$GPRMC,192455.000,A,4305.1778,N,07740.8873,W,14.74,3.84,191023,,,A*48
$GPGGA,192455.250,4305.1789,N,07740.8872,W,1,10,0.84,180.9,M,-34.4,M,,*50
$GPRMC,192455.500,A,4305.1801,N,07740.8872,W,15.76,2.88,191023,,,A*43
$GPGGA,192455.750,4305.1812,N,07740.8872,W,1,10,0.84,180.7,M,-34.4,M,,*56
$GPRMC,192456.000,A,4305.1825,N,07740.8871,W,16.83,2.13,191023,,,A*4B
$GPGGA,192456.250,4305.1837,N,07740.8871,W,1,10,0.84,180.6,M,-34.4,M,,*55
$GPRMC,192456.500,A,4305.1850,N,07740.8871,W,17.58,1.19,191023,,,A*42
$GPGGA,192456.750,4305.1862,N,07740.8871,W,1,10,0.84,180.4,M,-34.4,M,,*52
$GPRMC,192457.000,A,4305.1876,N,07740.8871,W,18.48,0.47,191023,,,A*46
$GPGGA,192457.250,4305.1889,N,07740.8871,W,1,10,0.84,180.2,M,-34.4,M,,*55
$GPRMC,192457.500,A,4305.1903,N,07740.8871,W,19.18,359.99,191023,,,A*48
$GPGGA,192457.750,4305.1917,N,07740.8871,W,1,10,0.84,179.8,M,-34.4,M,,*5A
$GPRMC,192458.000,A,4305.1931,N,07740.8871,W,19.98,359.45,191023,,,A*4A
$GPGGA,192458.250,4305.1945,N,07740.8872,W,1,10,0.84,179.5,M,-34.4,M,,*59
$GPRMC,192458.500,A,4305.1960,N,07740.8872,W,20.69,359.25,191023,,,A*4A
$GPGGA,192458.750,4305.1975,N,07740.8872,W,1,10,0.84,179.2,M,-34.4,M,,*58
$GPRMC,192459.000,A,4305.1989,N,07740.8872,W,20.70,358.77,191023,,,A*47
$GPGGA,192459.250,4305.2004,N,07740.8873,W,1,10,0.84,179.0,M,-34.4,M,,*53
$GPRMC,192459.500,A,4305.2018,N,07740.8873,W,20.78,358.50,191023,,,A*4C
$GPGGA,192459.750,4305.2033,N,07740.8874,W,1,10,0.84,178.8,M,-34.4,M,,*5C
$GPRMC,192500.000,A,4305.2047,N,07740.8874,W,20.71,358.16,191023,,,A*42
$GPGGA,192500.250,4305.2062,N,07740.8875,W,1,10,0.84,178.7,M,-34.4,M,,*5E
$GPRMC,192500.500,A,4305.2076,N,07740.8875,W,20.65,357.79,191023,,,A*47
$GPGGA,192500.750,4305.2091,N,07740.8876,W,1,10,0.84,178.5,M,-34.4,M,,*56
$GPRMC,192501.000,A,4305.2105,N,07740.8877,W,20.41,357.17,191023,,,A*4A
$GPGGA,192501.250,4305.2119,N,07740.8878,W,1,10,0.84,178.4,M,-34.4,M,,*5C
$GPRMC,192501.500,A,4305.2133,N,07740.8879,W,20.39,356.02,191023,,,A*4E
$GPGGA,192501.750,4305.2148,N,07740.8880,W,1,10,0.84,178.3,M,-34.4,M,,*5D
$GPRMC,192502.000,A,4305.2162,N,07740.8882,W,20.18,355.21,191023,,,A*49
$GPGGA,192502.250,4305.2175,N,07740.8883,W,1,09,0.88,178.1,M,-34.4,M,,*50
$GPRMC,192502.500,A,4305.2189,N,07740.8885,W,20.25,354.78,191023,,,A*4D
$GPGGA,192502.750,4305.2203,N,07740.8887,W,1,10,0.84,178.0,M,-34.4,M,,*56
$GPRMC,192503.000,A,4305.2217,N,07740.8888,W,20.22,354.25,191023,,,A*4F
$GPGGA,192503.250,4305.2231,N,07740.8890,W,1,10,0.84,177.8,M,-34.4,M,,*52
$GPRMC,192503.500,A,4305.2245,N,07740.8892,W,20.28,352.98,191023,,,A*4C
$GPGGA,192503.750,4305.2259,N,07740.8895,W,1,09,0.88,177.7,M,-34.4,M,,*57
$GPRMC,192504.000,A,4305.2272,N,07740.8897,W,20.24,352.27,191023,,,A*47
$GPGGA,192504.250,4305.2285,N,07740.8900,W,1,10,0.84,177.7,M,-34.4,M,,*5D
$GPRMC,192504.500,A,4305.2298,N,07740.8903,W,19.10,351.39,191023,,,A*4B
$GPGGA,192504.750,4305.2311,N,07740.8905,W,1,10,0.84,177.6,M,-34.4,M,,*50
$GPRMC,192505.000,A,4305.2324,N,07740.8908,W,17.85,350.66,191023,,,A*4B
$GPGGA,192505.250,4305.2336,N,07740.8911,W,1,10,0.84,177.4,M,-34.4,M,,*56
$GPRMC,192505.500,A,4305.2347,N,07740.8913,W,16.09,350.31,191023,,,A*46
$GPGGA,192505.750,4305.2358,N,07740.8916,W,1,10,0.84,177.3,M,-34.4,M,,*5B
$GPRMC,192506.000,A,4305.2368,N,07740.8918,W,13.29,351.15,191023,,,A*46
$GPGGA,192506.250,4305.2375,N,07740.8919,W,1,10,0.84,177.2,M,-34.4,M,,*5C
$GPRMC,192506.500,A,4305.2382,N,07740.8920,W,10.40,354.58,191023,,,A*4C
$GPGGA,192506.750,4305.2388,N,07740.8921,W,1,10,0.84,177.1,M,-34.4,M,,*53
$GPRMC,192507.000,A,4305.2394,N,07740.8921,W,8.77,359.75,191023,,,A*71
$GPGGA,192507.250,4305.2401,N,07740.8921,W,1,10,0.84,177.1,M,-34.4,M,,*51
$GPRMC,192507.500,A,4305.2406,N,07740.8920,W,7.93,6.52,191023,,,A*70
$GPGGA,192507.750,4305.2412,N,07740.8918,W,1,10,0.84,177.1,M,-34.4,M,,*5C
$GPRMC,192508.000,A,4305.2417,N,07740.8915,W,8.19,14.47,191023,,,A*46
$GPGGA,192508.250,4305.2422,N,07740.8912,W,1,10,0.84,177.1,M,-34.4,M,,*5F
$GPRMC,192508.500,A,4305.2428,N,07740.8908,W,9.45,23.41,191023,,,A*49
$GPGGA,192508.750,4305.2433,N,07740.8903,W,1,10,0.84,177.2,M,-34.4,M,,*59
$GPRMC,192509.000,A,4305.2440,N,07740.8897,W,10.88,33.65,191023,,,A*7A
$GPGGA,192509.250,4305.2445,N,07740.8890,W,1,10,0.84,177.2,M,-34.4,M,,*57
$GPRMC,192509.500,A,4305.2450,N,07740.8882,W,12.20,45.25,191023,,,A*7F
$GPGGA,192509.750,4305.2456,N,07740.8873,W,1,10,0.84,177.2,M,-34.4,M,,*5D
$GPRMC,192510.000,A,4305.2461,N,07740.8863,W,13.20,52.75,191023,,,A*7D
$GPGGA,192510.250,4305.2465,N,07740.8851,W,1,10,0.84,177.5,M,-34.4,M,,*57
$GPRMC,192510.500,A,4305.2470,N,07740.8839,W,14.61,62.36,191023,,,A*71
$GPGGA,192510.750,4305.2474,N,07740.8825,W,1,10,0.84,177.5,M,-34.4,M,,*51
$GPRMC,192511.000,A,4305.2477,N,07740.8811,W,15.89,68.29,191023,,,A*7B
$GPGGA,192511.250,4305.2481,N,07740.8797,W,1,10,0.84,177.6,M,-34.4,M,,*5A
$GPRMC,192511.500,A,4305.2484,N,07740.8781,W,17.13,72.77,191023,,,A*75
$GPGGA,192511.750,4305.2487,N,07740.8765,W,1,10,0.84,177.7,M,-34.4,M,,*55
$GPRMC,192512.000,A,4305.2489,N,07740.8748,W,18.46,76.31,191023,,,A*72
$GPGGA,192512.250,4305.2492,N,07740.8731,W,1,10,0.84,177.8,M,-34.4,M,,*59
$GPRMC,192512.500,A,4305.2495,N,07740.8713,W,20.01,75.57,191023,,,A*7F
$GPGGA,192512.750,4305.2498,N,07740.8694,W,1,10,0.84,177.9,M,-34.4,M,,*59
$GPRMC,192513.000,A,4305.2502,N,07740.8675,W,21.00,75.18,191023,,,A*7E
$GPGGA,192513.250,4305.2505,N,07740.8655,W,1,10,0.84,177.7,M,-34.4,M,,*5B
$GPRMC,192513.500,A,4305.2509,N,07740.8635,W,21.90,75.46,191023,,,A*76
$GPGGA,192513.750,4305.2512,N,07740.8615,W,1,10,0.84,177.7,M,-34.4,M,,*5C
$GPRMC,192514.000,A,4305.2515,N,07740.8594,W,22.71,76.68,191023,,,A*72
$GPGGA,192514.250,4305.2519,N,07740.8573,W,1,10,0.84,177.7,M,-34.4,M,,*56
$GPRMC,192514.500,A,4305.2522,N,07740.8551,W,23.37,77.72,191023,,,A*73
$GPGGA,192514.750,4305.2525,N,07740.8530,W,1,10,0.84,177.8,M,-34.4,M,,*54
$GPRMC,192515.000,A,4305.2528,N,07740.8508,W,23.98,78.38,191023,,,A*75
$GPGGA,192515.250,4305.2531,N,07740.8486,W,1,10,0.84,177.9,M,-34.4,M,,*58
$GPRMC,192515.500,A,4305.2534,N,07740.8463,W,24.41,78.98,191023,,,A*78
$GPGGA,192515.750,4305.2537,N,07740.8441,W,1,10,0.84,178.0,M,-34.4,M,,*56
$GPRMC,192516.000,A,4305.2540,N,07740.8418,W,25.05,79.71,191023,,,A*76
$GPGGA,192516.250,4305.2543,N,07740.8395,W,1,10,0.84,178.0,M,-34.4,M,,*5D
$GPRMC,192516.500,A,4305.2546,N,07740.8371,W,25.48,80.74,191023,,,A*77
$GPGGA,192516.750,4305.2549,N,07740.8348,W,1,10,0.84,178.1,M,-34.4,M,,*53
$GPRMC,192517.000,A,4305.2551,N,07740.8324,W,25.72,81.86,191023,,,A*70
$GPGGA,192517.250,4305.2554,N,07740.8299,W,1,10,0.84,178.1,M,-34.4,M,,*56
$GPRMC,192517.500,A,4305.2556,N,07740.8275,W,25.98,82.71,191023,,,A*78
$GPGGA,192517.750,4305.2558,N,07740.8250,W,1,10,0.84,178.1,M,-34.4,M,,*5A
$GPRMC,192518.000,A,4305.2561,N,07740.8226,W,25.81,83.60,191023,,,A*79
$GPGGA,192518.250,4305.2563,N,07740.8202,W,1,09,1.05,178.2,M,-34.4,M,,*5C
$GPRMC,192518.500,A,4305.2564,N,07740.8177,W,25.53,84.37,191023,,,A*74
$GPGGA,192518.750,4305.2566,N,07740.8153,W,1,10,0.84,178.2,M,-34.4,M,,*5B
$GPRMC,192519.000,A,4305.2568,N,07740.8129,W,25.18,84.64,191023,,,A*7E
$GPGGA,192519.250,4305.2569,N,07740.8105,W,1,10,0.84,178.2,M,-34.4,M,,*53
$GPRMC,192519.500,A,4305.2571,N,07740.8081,W,24.92,85.11,191023,,,A*70
$GPGGA,192519.750,4305.2572,N,07740.8058,W,1,10,0.84,178.2,M,-34.4,M,,*55
$GPRMC,192520.000,A,4305.2573,N,07740.8035,W,24.47,84.68,191023,,,A*75
$GPGGA,192520.250,4305.2575,N,07740.8012,W,1,10,0.84,178.2,M,-34.4,M,,*53
$GPRMC,192520.500,A,4305.2577,N,07740.7989,W,23.52,84.35,191023,,,A*7E
$GPGGA,192520.750,4305.2578,N,07740.7968,W,1,10,0.84,178.2,M,-34.4,M,,*50
$GPRMC,192521.000,A,4305.2580,N,07740.7946,W,22.45,84.27,191023,,,A*75
$GPGGA,192521.250,4305.2581,N,07740.7925,W,1,10,0.84,178.3,M,-34.4,M,,*5A
$GPRMC,192521.500,A,4305.2583,N,07740.7906,W,20.74,84.74,191023,,,A*71
$GPGGA,192521.750,4305.2584,N,07740.7887,W,1,10,0.84,178.3,M,-34.4,M,,*53
$GPRMC,192522.000,A,4305.2585,N,07740.7869,W,19.26,85.88,191023,,,A*76
$GPGGA,192522.250,4305.2586,N,07740.7851,W,1,10,0.84,178.3,M,-34.4,M,,*5C
$GPRMC,192522.500,A,4305.2587,N,07740.7833,W,18.53,86.44,191023,,,A*7E
$GPGGA,192522.750,4305.2587,N,07740.7816,W,1,10,0.84,178.3,M,-34.4,M,,*5B
$GPRMC,192523.000,A,4305.2587,N,07740.7799,W,17.62,87.57,191023,,,A*7B
$GPGGA,192523.250,4305.2588,N,07740.7782,W,1,10,0.84,178.3,M,-34.4,M,,*52
$GPRMC,192523.500,A,4305.2588,N,07740.7767,W,16.52,88.10,191023,,,A*7E
$GPGGA,192523.750,4305.2588,N,07740.7751,W,1,10,0.84,178.3,M,-34.4,M,,*59
$GPRMC,192524.000,A,4305.2587,N,07740.7738,W,14.96,88.71,191023,,,A*74
$GPGGA,192524.250,4305.2586,N,07740.7724,W,1,10,0.84,178.3,M,-34.4,M,,*57
$GPRMC,192524.500,A,4305.2586,N,07740.7712,W,13.08,88.89,191023,,,A*7F
$GPGGA,192524.750,4305.2586,N,07740.7699,W,1,10,0.84,178.3,M,-34.4,M,,*55
$GPRMC,192525.000,A,4305.2586,N,07740.7689,W,10.70,89.10,191023,,,A*75
$GPGGA,192525.250,4305.2585,N,07740.7680,W,1,10,0.84,178.3,M,-34.4,M,,*5A
$GPRMC,192525.500,A,4305.2585,N,07740.7671,W,8.38,89.12,191023,,,A*43
$GPGGA,192525.750,4305.2586,N,07740.7664,W,1,10,0.84,178.3,M,-34.4,M,,*56
$GPRMC,192526.000,A,4305.2586,N,07740.7658,W,5.92,90.30,191023,,,A*48
$GPGGA,192526.250,4305.2586,N,07740.7653,W,1,09,0.88,178.3,M,-34.4,M,,*50
$GPRMC,192526.500,A,4305.2586,N,07740.7649,W,3.72,88.79,191023,,,A*41
$GPGGA,192526.750,4305.2586,N,07740.7646,W,1,10,0.82,178.3,M,-34.4,M,,*53
$GPRMC,192527.000,A,4305.2587,N,07740.7645,W,1.60,88.79,191023,,,A*49
$GPGGA,192527.250,4305.2586,N,07740.7644,W,1,09,0.87,178.2,M,-34.4,M,,*59
$GPRMC,192527.500,A,4305.2587,N,07740.7643,W,0.44,88.79,191023,,,A*4D
$GPGGA,192527.750,4305.2587,N,07740.7644,W,1,09,0.87,178.2,M,-34.4,M,,*5D
$GPRMC,192528.000,A,4305.2586,N,07740.7644,W,0.25,88.79,191023,,,A*46
$GPGGA,192528.250,4305.2587,N,07740.7644,W,1,09,0.87,178.1,M,-34.4,M,,*54
$GPRMC,192528.500,A,4305.2587,N,07740.7643,W,1.88,88.79,191023,,,A*43
$GPGGA,192528.750,4305.2587,N,07740.7641,W,1,10,0.82,178.2,M,-34.4,M,,*5A
$GPRMC,192529.000,A,4305.2587,N,07740.7637,W,4.02,89.89,191023,,,A*4D
$GPGGA,192529.250,4305.2588,N,07740.7632,W,1,09,0.88,178.2,M,-34.4,M,,*57
$GPRMC,192529.500,A,4305.2588,N,07740.7626,W,6.12,88.18,191023,,,A*4D
$GPGGA,192529.750,4305.2588,N,07740.7619,W,1,10,0.84,178.2,M,-34.4,M,,*5F
$GPRMC,192530.000,A,4305.2589,N,07740.7612,W,8.12,84.04,191023,,,A*49
$GPGGA,192530.250,4305.2590,N,07740.7604,W,1,10,0.84,178.2,M,-34.4,M,,*57
$GPRMC,192530.500,A,4305.2591,N,07740.7595,W,9.98,76.89,191023,,,A*42
$GPGGA,192530.750,4305.2593,N,07740.7585,W,1,10,0.84,178.2,M,-34.4,M,,*5B
$GPRMC,192531.000,A,4305.2595,N,07740.7575,W,11.72,70.05,191023,,,A*73
$GPGGA,192531.250,4305.2598,N,07740.7564,W,1,10,0.84,178.2,M,-34.4,M,,*5B
$GPRMC,192531.500,A,4305.2603,N,07740.7551,W,13.37,60.14,191023,,,A*7E
$GPGGA,192531.750,4305.2608,N,07740.7540,W,1,10,0.84,178.2,M,-34.4,M,,*52
$GPRMC,192532.000,A,4305.2614,N,07740.7529,W,14.86,49.60,191023,,,A*74
$GPGGA,192532.250,4305.2620,N,07740.7519,W,1,10,0.84,178.2,M,-34.4,M,,*52
$GPRMC,192532.500,A,4305.2627,N,07740.7510,W,15.97,39.46,191023,,,A*79
$GPGGA,192532.750,4305.2636,N,07740.7501,W,1,10,0.84,178.2,M,-34.4,M,,*59
$GPRMC,192533.000,A,4305.2646,N,07740.7494,W,17.19,28.91,191023,,,A*79
$GPGGA,192533.250,4305.2658,N,07740.7488,W,1,10,0.84,178.3,M,-34.4,M,,*54
$GPRMC,192533.500,A,4305.2670,N,07740.7483,W,17.98,16.14,191023,,,A*76
$GPGGA,192533.750,4305.2683,N,07740.7479,W,1,10,0.84,178.4,M,-34.4,M,,*5E
$GPRMC,192534.000,A,4305.2697,N,07740.7477,W,18.28,6.88,191023,,,A*46
$GPGGA,192534.250,4305.2711,N,07740.7476,W,1,10,0.84,178.4,M,-34.4,M,,*59
$GPRMC,192534.500,A,4305.2725,N,07740.7476,W,19.89,0.67,191023,,,A*47
$GPGGA,192534.750,4305.2739,N,07740.7477,W,1,10,0.84,178.5,M,-34.4,M,,*56
$GPRMC,192535.000,A,4305.2754,N,07740.7478,W,20.73,358.40,191023,,,A*4F
$GPGGA,192535.250,4305.2769,N,07740.7480,W,1,10,0.84,178.5,M,-34.4,M,,*5F
$GPRMC,192535.500,A,4305.2785,N,07740.7481,W,21.94,357.76,191023,,,A*42
$GPGGA,192535.750,4305.2801,N,07740.7481,W,1,10,0.84,178.5,M,-34.4,M,,*5A
$GPRMC,192536.000,A,4305.2818,N,07740.7483,W,22.31,358.01,191023,,,A*4E
$GPGGA,192536.250,4305.2834,N,07740.7484,W,1,10,0.84,178.5,M,-34.4,M,,*5F
$GPRMC,192536.500,A,4305.2851,N,07740.7485,W,23.13,357.76,191023,,,A*4E
$GPGGA,192536.750,4305.2867,N,07740.7486,W,1,10,0.84,178.5,M,-34.4,M,,*5E
$GPRMC,192537.000,A,4305.2884,N,07740.7487,W,23.52,357.68,191023,,,A*4A
$GPGGA,192537.250,4305.2901,N,07740.7488,W,1,10,0.84,178.4,M,-34.4,M,,*54
$GPRMC,192537.500,A,4305.2918,N,07740.7489,W,23.79,357.91,191023,,,A*4A
$GPGGA,192537.750,4305.2935,N,07740.7489,W,1,10,0.84,178.4,M,-34.4,M,,*57
$GPRMC,192538.000,A,4305.2951,N,07740.7490,W,23.51,358.74,191023,,,A*4B
$GPGGA,192538.250,4305.2968,N,07740.7491,W,1,10,0.84,178.3,M,-34.4,M,,*5B
$GPRMC,192538.500,A,4305.2985,N,07740.7491,W,23.23,358.97,191023,,,A*4E
$GPGGA,192538.750,4305.3001,N,07740.7492,W,1,10,0.84,178.3,M,-34.4,M,,*5A
$GPRMC,192539.000,A,4305.3017,N,07740.7492,W,22.86,359.01,191023,,,A*4A
$GPGGA,192539.250,4305.3033,N,07740.7493,W,1,10,0.84,178.2,M,-34.4,M,,*5F
$GPRMC,192539.500,A,4305.3049,N,07740.7493,W,22.40,359.13,191023,,,A*4C
$GPGGA,192539.750,4305.3065,N,07740.7494,W,1,10,0.84,178.1,M,-34.4,M,,*5D
$GPRMC,192540.000,A,4305.3081,N,07740.7494,W,22.40,358.94,191023,,,A*4A
$GPGGA,192540.250,4305.3096,N,07740.7494,W,1,10,0.84,178.0,M,-34.4,M,,*5B
$GPRMC,192540.500,A,4305.3112,N,07740.7495,W,21.92,358.93,191023,,,A*4E
$GPGGA,192540.750,4305.3127,N,07740.7495,W,1,10,0.84,177.9,M,-34.4,M,,*52
$GPRMC,192541.000,A,4305.3143,N,07740.7496,W,21.49,358.86,191023,,,A*4F
$GPGGA,192541.250,4305.3158,N,07740.7496,W,1,10,0.84,177.9,M,-34.4,M,,*5D
$GPRMC,192541.500,A,4305.3173,N,07740.7497,W,21.17,358.62,191023,,,A*49
$GPGGA,192541.750,4305.3187,N,07740.7497,W,1,10,0.84,177.8,M,-34.4,M,,*5A
$GPRMC,192542.000,A,4305.3202,N,07740.7498,W,20.44,358.41,191023,,,A*43
$GPGGA,192542.250,4305.3216,N,07740.7498,W,1,10,0.84,177.8,M,-34.4,M,,*58
$GPRMC,192542.500,A,4305.3229,N,07740.7499,W,19.41,358.17,191023,,,A*42
$GPGGA,192542.750,4305.3243,N,07740.7500,W,1,10,0.84,177.7,M,-34.4,M,,*52
$GPRMC,192543.000,A,4305.3255,N,07740.7500,W,18.02,358.34,191023,,,A*4B
$GPGGA,192543.250,4305.3267,N,07740.7501,W,1,10,0.84,177.6,M,-34.4,M,,*50
$GPRMC,192543.500,A,4305.3279,N,07740.7501,W,16.71,358.79,191023,,,A*42
$GPGGA,192543.750,4305.3291,N,07740.7502,W,1,10,0.84,177.6,M,-34.4,M,,*5F
$GPRMC,192544.000,A,4305.3302,N,07740.7503,W,15.28,358.41,191023,,,A*4B
$GPGGA,192544.250,4305.3311,N,07740.7504,W,1,10,0.84,177.5,M,-34.4,M,,*51
$GPRMC,192544.500,A,4305.3320,N,07740.7506,W,13.76,359.39,191023,,,A*48
$GPGGA,192544.750,4305.3329,N,07740.7507,W,1,10,0.84,177.7,M,-34.4,M,,*5E
$GPRMC,192545.000,A,4305.3338,N,07740.7507,W,12.40,0.11,191023,,,A*45
$GPGGA,192545.250,4305.3346,N,07740.7507,W,1,10,0.84,177.6,M,-34.4,M,,*52
$GPRMC,192545.500,A,4305.3353,N,07740.7508,W,10.70,0.87,191023,,,A*4C
$GPGGA,192545.750,4305.3360,N,07740.7508,W,1,10,0.84,177.6,M,-34.4,M,,*5C
$GPRMC,192546.000,A,4305.3366,N,07740.7507,W,8.82,0.30,191023,,,A*7B
$GPGGA,192546.250,4305.3372,N,07740.7507,W,1,10,0.84,177.7,M,-34.4,M,,*57
$GPRMC,192546.500,A,4305.3377,N,07740.7507,W,7.31,359.53,191023,,,A*73
$GPGGA,192546.750,4305.3383,N,07740.7507,W,1,10,0.84,177.6,M,-34.4,M,,*5D
$GPRMC,192547.000,A,4305.3387,N,07740.7507,W,7.39,355.45,191023,,,A*7B
$GPGGA,192547.250,4305.3393,N,07740.7508,W,1,10,0.84,177.6,M,-34.4,M,,*57
$GPRMC,192547.500,A,4305.3399,N,07740.7509,W,8.32,347.96,191023,,,A*76
$GPGGA,192547.750,4305.3405,N,07740.7512,W,1,08,1.07,177.7,M,-34.4,M,,*53
$GPRMC,192548.000,A,4305.3411,N,07740.7515,W,9.55,337.84,191023,,,A*72
$GPGGA,192548.250,4305.3418,N,07740.7520,W,1,10,0.84,177.8,M,-34.4,M,,*58
$GPRMC,192548.500,A,4305.3424,N,07740.7525,W,10.74,324.71,191023,,,A*41
$GPGGA,192548.750,4305.3430,N,07740.7532,W,1,10,0.84,178.0,M,-34.4,M,,*53
$GPRMC,192549.000,A,4305.3435,N,07740.7541,W,12.09,310.31,191023,,,A*4C
$GPGGA,192549.250,4305.3440,N,07740.7550,W,1,09,0.87,178.2,M,-34.4,M,,*5D
$GPRMC,192549.500,A,4305.3445,N,07740.7561,W,13.64,297.92,191023,,,A*41
$GPGGA,192549.750,4305.3449,N,07740.7573,W,1,08,1.07,178.1,M,-34.4,M,,*5B
$GPRMC,192550.000,A,4305.3452,N,07740.7587,W,15.20,287.30,191023,,,A*4D
$GPGGA,192550.250,4305.3454,N,07740.7600,W,1,10,0.84,178.2,M,-34.4,M,,*5D
$GPRMC,192550.500,A,4305.3455,N,07740.7615,W,15.92,281.02,191023,,,A*49
$GPGGA,192550.750,4305.3456,N,07740.7631,W,1,10,0.84,178.4,M,-34.4,M,,*5E
$GPRMC,192551.000,A,4305.3457,N,07740.7647,W,17.18,273.77,191023,,,A*47
$GPGGA,192551.250,4305.3457,N,07740.7664,W,1,10,0.84,178.5,M,-34.4,M,,*5A
$GPRMC,192551.500,A,4305.3456,N,07740.7682,W,19.08,269.69,191023,,,A*41
$GPGGA,192551.750,4305.3455,N,07740.7700,W,1,10,0.84,178.5,M,-34.4,M,,*5E
$GPRMC,192552.000,A,4305.3455,N,07740.7719,W,20.22,268.43,191023,,,A*4C
$GPGGA,192552.250,4305.3454,N,07740.7739,W,1,10,0.84,178.6,M,-34.4,M,,*50
$GPRMC,192552.500,A,4305.3453,N,07740.7759,W,21.42,268.23,191023,,,A*4A
$GPGGA,192552.750,4305.3453,N,07740.7780,W,1,10,0.84,178.7,M,-34.4,M,,*51
$GPRMC,192553.000,A,4305.3452,N,07740.7800,W,21.82,268.95,191023,,,A*4D
$GPGGA,192553.250,4305.3452,N,07740.7822,W,1,10,0.84,178.7,M,-34.4,M,,*53
$GPRMC,192553.500,A,4305.3451,N,07740.7844,W,22.57,269.16,191023,,,A*4A
$GPGGA,192553.750,4305.3450,N,07740.7866,W,1,10,0.84,178.7,M,-34.4,M,,*54
$GPRMC,192554.000,A,4305.3449,N,07740.7888,W,23.54,268.75,191023,,,A*47
$GPGGA,192554.250,4305.3449,N,07740.7911,W,1,10,0.84,178.7,M,-34.4,M,,*5F
$GPRMC,192554.500,A,4305.3448,N,07740.7934,W,24.27,269.00,191023,,,A*45
$GPGGA,192554.750,4305.3448,N,07740.7957,W,1,10,0.84,178.7,M,-34.4,M,,*59
$GPRMC,192555.000,A,4305.3447,N,07740.7981,W,24.21,268.40,191023,,,A*43
$GPGGA,192555.250,4305.3446,N,07740.8004,W,1,10,0.84,178.7,M,-34.4,M,,*53
$GPRMC,192555.500,A,4305.3445,N,07740.8027,W,24.11,268.33,191023,,,A*49
$GPGGA,192555.750,4305.3444,N,07740.8050,W,1,10,0.84,178.8,M,-34.4,M,,*5A
$GPRMC,192556.000,A,4305.3443,N,07740.8073,W,23.94,267.75,191023,,,A*4F
$GPGGA,192556.250,4305.3443,N,07740.8096,W,1,10,0.84,178.8,M,-34.4,M,,*51
$GPRMC,192556.500,A,4305.3442,N,07740.8118,W,23.30,268.74,191023,,,A*47
$GPGGA,192556.750,4305.3441,N,07740.8140,W,1,10,0.84,178.9,M,-34.4,M,,*5D
$GPRMC,192557.000,A,4305.3440,N,07740.8162,W,22.95,268.44,191023,,,A*41
$GPGGA,192557.250,4305.3439,N,07740.8185,W,1,10,0.84,178.9,M,-34.4,M,,*5F
$GPRMC,192557.500,A,4305.3438,N,07740.8207,W,22.92,267.75,191023,,,A*41
$GPGGA,192557.750,4305.3438,N,07740.8228,W,1,10,0.84,178.9,M,-34.4,M,,*5F
$GPRMC,192558.000,A,4305.3437,N,07740.8250,W,22.66,267.68,191023,,,A*41
$GPGGA,192558.250,4305.3437,N,07740.8271,W,1,10,0.84,178.9,M,-34.4,M,,*56
$GPRMC,192558.500,A,4305.3436,N,07740.8293,W,22.30,268.32,191023,,,A*49
$GPGGA,192558.750,4305.3435,N,07740.8314,W,1,09,0.87,178.9,M,-34.4,M,,*58
$GPRMC,192559.000,A,4305.3435,N,07740.8335,W,21.81,267.44,191023,,,A*44
$GPGGA,192559.250,4305.3434,N,07740.8356,W,1,10,0.84,178.8,M,-34.4,M,,*51
$GPRMC,192559.500,A,4305.3433,N,07740.8376,W,21.63,268.02,191023,,,A*41
$GPGGA,192559.750,4305.3432,N,07740.8397,W,1,10,0.84,178.9,M,-34.4,M,,*5E
$GPRMC,192600.000,A,4305.3431,N,07740.8417,W,21.26,268.04,191023,,,A*4E
$GPGGA,192600.250,4305.3431,N,07740.8438,W,1,10,0.84,178.9,M,-34.4,M,,*55
$GPRMC,192600.500,A,4305.3430,N,07740.8458,W,21.44,267.74,191023,,,A*4D
$GPGGA,192600.750,4305.3429,N,07740.8478,W,1,10,0.84,178.8,M,-34.4,M,,*5C
$GPRMC,192601.000,A,4305.3429,N,07740.8499,W,21.51,268.91,191023,,,A*4C
$GPGGA,192601.250,4305.3429,N,07740.8519,W,1,10,0.84,178.8,M,-34.4,M,,*5E
$GPRMC,192601.500,A,4305.3429,N,07740.8539,W,21.32,269.43,191023,,,A*49
$GPGGA,192601.750,4305.3429,N,07740.8559,W,1,10,0.84,178.7,M,-34.4,M,,*50
$GPRMC,192602.000,A,4305.3429,N,07740.8579,W,21.08,270.33,191023,,,A*4D
$GPGGA,192602.250,4305.3429,N,07740.8599,W,1,10,0.84,178.7,M,-34.4,M,,*5A
$GPRMC,192602.500,A,4305.3429,N,07740.8618,W,20.71,271.39,191023,,,A*48
$GPGGA,192602.750,4305.3429,N,07740.8637,W,1,10,0.84,178.7,M,-34.4,M,,*58
$GPRMC,192603.000,A,4305.3430,N,07740.8657,W,20.43,272.35,191023,,,A*41
$GPGGA,192603.250,4305.3431,N,07740.8676,W,1,10,0.84,178.7,M,-34.4,M,,*50
$GPRMC,192603.500,A,4305.3432,N,07740.8694,W,19.89,273.96,191023,,,A*4D
$GPGGA,192603.750,4305.3433,N,07740.8713,W,1,10,0.84,178.6,M,-34.4,M,,*54
$GPRMC,192604.000,A,4305.3435,N,07740.8731,W,19.53,276.17,191023,,,A*4D
$GPGGA,192604.250,4305.3437,N,07740.8749,W,1,10,0.84,178.6,M,-34.4,M,,*5D
$GPRMC,192604.500,A,4305.3439,N,07740.8766,W,18.47,280.64,191023,,,A*4F
$GPGGA,192604.750,4305.3442,N,07740.8783,W,1,10,0.84,178.7,M,-34.4,M,,*5D
$GPRMC,192605.000,A,4305.3445,N,07740.8799,W,17.88,284.45,191023,,,A*4B
$GPGGA,192605.250,4305.3448,N,07740.8815,W,1,10,0.84,178.8,M,-34.4,M,,*5C
$GPRMC,192605.500,A,4305.3453,N,07740.8830,W,17.05,289.02,191023,,,A*4E
$GPGGA,192605.750,4305.3458,N,07740.8843,W,1,10,0.84,178.5,M,-34.4,M,,*56
$GPRMC,192606.000,A,4305.3463,N,07740.8857,W,16.14,292.61,191023,,,A*44
$GPGGA,192606.250,4305.3468,N,07740.8870,W,1,10,0.84,178.3,M,-34.4,M,,*55
$GPRMC,192606.500,A,4305.3473,N,07740.8883,W,15.69,295.24,191023,,,A*46
$GPGGA,192606.750,4305.3479,N,07740.8896,W,1,10,0.84,178.2,M,-34.4,M,,*59
$GPRMC,192607.000,A,4305.3485,N,07740.8910,W,15.68,300.05,191023,,,A*4F
$GPGGA,192607.250,4305.3492,N,07740.8923,W,1,10,0.84,178.1,M,-34.4,M,,*54
$GPRMC,192607.500,A,4305.3498,N,07740.8936,W,15.37,302.51,191023,,,A*4B
$GPGGA,192607.750,4305.3504,N,07740.8948,W,1,10,0.84,178.2,M,-34.4,M,,*51
$GPRMC,192608.000,A,4305.3510,N,07740.8960,W,13.81,305.63,191023,,,A*4E
$GPGGA,192608.250,4305.3515,N,07740.8970,W,1,10,0.84,178.1,M,-34.4,M,,*53
$GPRMC,192608.500,A,4305.3521,N,07740.8979,W,11.29,310.33,191023,,,A*40
$GPGGA,192608.750,4305.3525,N,07740.8987,W,1,10,0.84,178.1,M,-34.4,M,,*5D
$GPRMC,192609.000,A,4305.3530,N,07740.8993,W,8.58,314.98,191023,,,A*7B
$GPGGA,192609.250,4305.3534,N,07740.8999,W,1,10,0.84,178.0,M,-34.4,M,,*57
$GPRMC,192609.500,A,4305.3537,N,07740.9003,W,5.97,319.22,191023,,,A*7A
$GPGGA,192609.750,4305.3539,N,07740.9006,W,1,10,0.84,177.9,M,-34.4,M,,*57
$GPRMC,192610.000,A,4305.3540,N,07740.9009,W,3.35,320.44,191023,,,A*79
$GPGGA,192610.250,4305.3542,N,07740.9010,W,1,10,0.82,177.7,M,-34.4,M,,*59
$GPRMC,192610.500,A,4305.3543,N,07740.9011,W,0.13,320.44,191023,,,A*71
$GPGGA,192610.750,4305.3544,N,07740.9011,W,1,09,0.87,177.4,M,-34.4,M,,*55
$GPRMC,192611.000,A,4305.3544,N,07740.9011,W,0.02,320.44,191023,,,A*72
$GPGGA,192611.250,4305.3545,N,07740.9011,W,1,10,0.82,177.3,M,-34.4,M,,*5A
$GPRMC,192611.500,A,4305.3545,N,07740.9011,W,0.01,320.44,191023,,,A*75
$GPGGA,192611.750,4305.3545,N,07740.9011,W,1,10,0.84,177.2,M,-34.4,M,,*58
$GPRMC,192612.000,A,4305.3546,N,07740.9011,W,0.01,320.44,191023,,,A*70
$GPGGA,192612.250,4305.3546,N,07740.9011,W,1,10,0.82,177.1,M,-34.4,M,,*58
$GPRMC,192612.500,A,4305.3546,N,07740.9010,W,0.00,320.44,191023,,,A*75
$GPGGA,192612.750,4305.3546,N,07740.9010,W,1,10,0.82,177.0,M,-34.4,M,,*5D
$GPRMC,192613.000,A,4305.3547,N,07740.9010,W,0.00,320.44,191023,,,A*70
$GPGGA,192613.250,4305.3547,N,07740.9010,W,1,10,0.82,176.9,M,-34.4,M,,*50
$GPRMC,192613.500,A,4305.3547,N,07740.9010,W,0.00,320.44,191023,,,A*75
$GPGGA,192613.750,4305.3547,N,07740.9009,W,1,10,0.82,176.9,M,-34.4,M,,*5D
$GPRMC,192614.000,A,4305.3548,N,07740.9009,W,0.00,320.44,191023,,,A*70
$GPGGA,192614.250,4305.3548,N,07740.9009,W,1,10,0.82,176.9,M,-34.4,M,,*50
$GPRMC,192614.500,A,4305.3548,N,07740.9009,W,0.00,320.44,191023,,,A*75
$GPGGA,192614.750,4305.3548,N,07740.9009,W,1,10,0.82,176.9,M,-34.4,M,,*55
$GPRMC,192615.000,A,4305.3548,N,07740.9009,W,0.00,320.44,191023,,,A*71
$GPGGA,192615.250,4305.3547,N,07740.9009,W,1,10,0.82,176.9,M,-34.4,M,,*5E
$GPRMC,192615.500,A,4305.3547,N,07740.9009,W,0.00,320.44,191023,,,A*7B
$GPGGA,192615.750,4305.3547,N,07740.9009,W,1,10,0.82,176.9,M,-34.4,M,,*5B
$GPRMC,192616.000,A,4305.3548,N,07740.9009,W,0.00,320.44,191023,,,A*72
$GPGGA,192616.250,4305.3547,N,07740.9009,W,1,10,0.82,176.9,M,-34.4,M,,*5D
$GPRMC,192616.500,A,4305.3547,N,07740.9009,W,0.00,320.44,191023,,,A*78
$GPGGA,192616.750,4305.3547,N,07740.9009,W,1,09,0.87,176.9,M,-34.4,M,,*55
$GPRMC,192617.000,A,4305.3548,N,07740.9009,W,0.01,320.44,191023,,,A*72
$GPGGA,192617.250,4305.3548,N,07740.9009,W,1,10,0.82,176.9,M,-34.4,M,,*53
$GPRMC,192617.500,A,4305.3548,N,07740.9010,W,0.02,320.44,191023,,,A*7C
$GPGGA,192617.750,4305.3548,N,07740.9010,W,1,10,0.82,176.9,M,-34.4,M,,*5E
$GPRMC,192618.000,A,4305.3548,N,07740.9010,W,0.03,320.44,191023,,,A*77
$GPGGA,192618.250,4305.3548,N,07740.9010,W,1,10,0.82,176.9,M,-34.4,M,,*54
$GPRMC,192618.500,A,4305.3548,N,07740.9010,W,0.09,320.44,191023,,,A*78
$GPGGA,192618.750,4305.3549,N,07740.9011,W,1,10,0.82,176.9,M,-34.4,M,,*51
$GPRMC,192619.000,A,4305.3549,N,07740.9011,W,0.08,320.44,191023,,,A*7D
$GPGGA,192619.250,4305.3550,N,07740.9012,W,1,10,0.82,176.9,M,-34.4,M,,*5E
$GPRMC,192619.500,A,4305.3550,N,07740.9012,W,0.05,320.44,191023,,,A*7E
$GPGGA,192619.750,4305.3550,N,07740.9013,W,1,10,0.82,176.9,M,-34.4,M,,*5A
$GPRMC,192620.000,A,4305.3550,N,07740.9013,W,0.01,320.44,191023,,,A*74
$GPGGA,192620.250,4305.3551,N,07740.9013,W,1,10,0.82,176.9,M,-34.4,M,,*54
$GPRMC,192620.500,A,4305.3551,N,07740.9013,W,0.00,320.44,191023,,,A*71
$GPGGA,192620.750,4305.3551,N,07740.9013,W,1,10,0.82,176.9,M,-34.4,M,,*51
$GPRMC,192621.000,A,4305.3551,N,07740.9013,W,0.00,320.44,191023,,,A*75
$GPGGA,192621.250,4305.3551,N,07740.9013,W,1,10,0.82,176.9,M,-34.4,M,,*55
$GPRMC,192621.500,A,4305.3550,N,07740.9013,W,0.01,320.44,191023,,,A*70
$GPGGA,192621.750,4305.3550,N,07740.9013,W,1,10,0.82,176.9,M,-34.4,M,,*51
$GPRMC,192622.000,A,4305.3550,N,07740.9013,W,0.00,320.44,191023,,,A*77
$GPGGA,192622.250,4305.3550,N,07740.9013,W,1,10,0.82,176.9,M,-34.4,M,,*57
$GPRMC,192622.500,A,4305.3550,N,07740.9013,W,0.00,320.44,191023,,,A*72
$GPGGA,192622.750,4305.3550,N,07740.9013,W,1,09,0.86,176.9,M,-34.4,M,,*5E
$GPRMC,192623.000,A,4305.3550,N,07740.9013,W,0.00,320.44,191023,,,A*76
$GPGGA,192623.250,4305.3550,N,07740.9013,W,1,09,0.86,176.9,M,-34.4,M,,*5A
$GPRMC,192623.500,A,4305.3550,N,07740.9013,W,0.01,320.44,191023,,,A*72
$GPGGA,192623.750,4305.3550,N,07740.9013,W,1,09,0.86,176.9,M,-34.4,M,,*5F
$GPRMC,192624.000,A,4305.3550,N,07740.9013,W,0.00,320.44,191023,,,A*71
$GPGGA,192624.250,4305.3550,N,07740.9013,W,1,09,0.86,176.9,M,-34.4,M,,*5D
$GPRMC,192624.500,A,4305.3550,N,07740.9013,W,0.01,320.44,191023,,,A*75
$GPGGA,192624.750,4305.3550,N,07740.9013,W,1,09,0.86,177.0,M,-34.4,M,,*50
$GPRMC,192625.000,A,4305.3550,N,07740.9013,W,0.00,320.44,191023,,,A*70
$GPGGA,192625.250,4305.3550,N,07740.9013,W,1,09,0.86,177.0,M,-34.4,M,,*54
$GPRMC,192625.500,A,4305.3550,N,07740.9013,W,0.00,320.44,191023,,,A*75
$GPGGA,192625.750,4305.3550,N,07740.9013,W,1,09,0.86,177.0,M,-34.4,M,,*51
$GPRMC,192626.000,A,4305.3550,N,07740.9013,W,0.00,320.44,191023,,,A*73
$GPGGA,192626.250,4305.3550,N,07740.9013,W,1,09,0.86,177.0,M,-34.4,M,,*57
$GPRMC,192626.500,A,4305.3550,N,07740.9013,W,0.01,320.44,191023,,,A*77
$GPGGA,192626.750,4305.3550,N,07740.9012,W,1,10,0.82,177.0,M,-34.4,M,,*5F
$GPRMC,192627.000,A,4305.3550,N,07740.9012,W,0.01,320.44,191023,,,A*72
$GPGGA,192627.250,4305.3550,N,07740.9012,W,1,09,0.86,177.0,M,-34.4,M,,*57
$GPRMC,192627.500,A,4305.3550,N,07740.9012,W,0.01,320.44,191023,,,A*77
$GPGGA,192627.750,4305.3550,N,07740.9012,W,1,09,0.86,177.0,M,-34.4,M,,*52
$GPRMC,192628.000,A,4305.3550,N,07740.9012,W,0.01,320.44,191023,,,A*7D
$GPGGA,192628.250,4305.3550,N,07740.9012,W,1,09,0.86,177.1,M,-34.4,M,,*59
$GPRMC,192628.500,A,4305.3550,N,07740.9012,W,0.00,320.44,191023,,,A*79
$GPGGA,192628.750,4305.3550,N,07740.9012,W,1,10,0.82,177.1,M,-34.4,M,,*50
$GPRMC,192629.000,A,4305.3550,N,07740.9012,W,0.02,320.44,191023,,,A*7F
$GPGGA,192629.250,4305.3550,N,07740.9012,W,1,10,0.82,177.1,M,-34.4,M,,*54
$GPRMC,192629.500,A,4305.3550,N,07740.9013,W,0.07,320.44,191023,,,A*7E
$GPGGA,192629.750,4305.3550,N,07740.9013,W,1,10,0.82,177.1,M,-34.4,M,,*50
$GPRMC,192630.000,A,4305.3551,N,07740.9014,W,2.03,320.44,191023,,,A*73
$GPGGA,192630.250,4305.3553,N,07740.9015,W,1,10,0.82,177.2,M,-34.4,M,,*5B
$GPRMC,192630.500,A,4305.3555,N,07740.9017,W,3.46,324.77,191023,,,A*75
$GPGGA,192630.750,4305.3558,N,07740.9019,W,1,10,0.82,177.2,M,-34.4,M,,*59
$GPRMC,192631.000,A,4305.3562,N,07740.9022,W,6.08,331.71,191023,,,A*7E
$GPGGA,192631.250,4305.3566,N,07740.9025,W,1,10,0.84,177.3,M,-34.4,M,,*58
$GPRMC,192631.500,A,4305.3572,N,07740.9028,W,8.75,340.07,191023,,,A*73
$GPGGA,192631.750,4305.3578,N,07740.9030,W,1,10,0.84,177.4,M,-34.4,M,,*51
$GPRMC,192632.000,A,4305.3586,N,07740.9032,W,11.57,353.79,191023,,,A*46
$GPGGA,192632.250,4305.3595,N,07740.9031,W,1,10,0.84,177.5,M,-34.4,M,,*54
$GPRMC,192632.500,A,4305.3604,N,07740.9028,W,13.73,8.64,191023,,,A*44
$GPGGA,192632.750,4305.3614,N,07740.9024,W,1,10,0.84,177.8,M,-34.4,M,,*52
$GPRMC,192633.000,A,4305.3624,N,07740.9020,W,15.22,16.45,191023,,,A*74
$GPGGA,192633.250,4305.3634,N,07740.9014,W,1,10,0.84,177.9,M,-34.4,M,,*56
$GPRMC,192633.500,A,4305.3645,N,07740.9006,W,17.88,25.85,191023,,,A*7C
$GPGGA,192633.750,4305.3657,N,07740.8996,W,1,10,0.84,178.0,M,-34.4,M,,*52
$GPRMC,192634.000,A,4305.3669,N,07740.8985,W,20.14,32.98,191023,,,A*78
$GPGGA,192634.250,4305.3681,N,07740.8972,W,1,10,0.84,178.1,M,-34.4,M,,*50
$GPRMC,192634.500,A,4305.3693,N,07740.8958,W,22.29,38.13,191023,,,A*7D
$GPGGA,192634.750,4305.3706,N,07740.8943,W,1,10,0.84,178.2,M,-34.4,M,,*5A
$GPRMC,192635.000,A,4305.3718,N,07740.8927,W,24.10,41.17,191023,,,A*75
$GPGGA,192635.250,4305.3731,N,07740.8911,W,1,10,0.84,178.3,M,-34.4,M,,*5C
$GPRMC,192635.500,A,4305.3745,N,07740.8895,W,25.40,40.96,191023,,,A*7C
$GPGGA,192635.750,4305.3758,N,07740.8878,W,1,10,0.84,178.2,M,-34.4,M,,*59
$GPRMC,192636.000,A,4305.3773,N,07740.8861,W,26.59,39.64,191023,,,A*7C
$GPGGA,192636.250,4305.3787,N,07740.8845,W,1,10,0.84,178.2,M,-34.4,M,,*53
$GPRMC,192636.500,A,4305.3802,N,07740.8828,W,27.49,39.16,191023,,,A*78
$GPGGA,192636.750,4305.3817,N,07740.8811,W,1,10,0.84,178.1,M,-34.4,M,,*52
$GPRMC,192637.000,A,4305.3832,N,07740.8794,W,27.90,38.79,191023,,,A*7B
$GPGGA,192637.250,4305.3848,N,07740.8777,W,1,10,0.84,178.0,M,-34.4,M,,*52
$GPRMC,192637.500,A,4305.3863,N,07740.8760,W,28.30,38.96,191023,,,A*75
$GPGGA,192637.750,4305.3878,N,07740.8743,W,1,10,0.84,178.0,M,-34.4,M,,*53
$GPRMC,192638.000,A,4305.3894,N,07740.8726,W,28.38,38.95,191023,,,A*7E
$GPGGA,192638.250,4305.3909,N,07740.8709,W,1,10,0.84,178.0,M,-34.4,M,,*50
$GPRMC,192638.500,A,4305.3925,N,07740.8692,W,28.62,38.44,191023,,,A*7D
$GPGGA,192638.750,4305.3941,N,07740.8676,W,1,10,0.84,177.9,M,-34.4,M,,*56
$GPRMC,192639.000,A,4305.3957,N,07740.8659,W,28.92,37.59,191023,,,A*77
$GPGGA,192639.250,4305.3972,N,07740.8643,W,1,10,0.84,177.8,M,-34.4,M,,*55
$GPRMC,192639.500,A,4305.3988,N,07740.8626,W,28.65,37.77,191023,,,A*7C
$GPGGA,192639.750,4305.4004,N,07740.8609,W,1,10,0.84,177.6,M,-34.4,M,,*5F
$GPRMC,192640.000,A,4305.4020,N,07740.8592,W,29.12,37.98,191023,,,A*77
$GPGGA,192640.250,4305.4036,N,07740.8576,W,1,10,0.84,177.5,M,-34.4,M,,*5D
$GPRMC,192640.500,A,4305.4053,N,07740.8559,W,29.70,37.53,191023,,,A*72
$GPGGA,192640.750,4305.4069,N,07740.8541,W,1,10,0.84,177.5,M,-34.4,M,,*56
$GPRMC,192641.000,A,4305.4085,N,07740.8524,W,29.73,38.00,191023,,,A*7D
$GPGGA,192641.250,4305.4101,N,07740.8507,W,1,10,0.84,177.5,M,-34.4,M,,*5F
$GPRMC,192641.500,A,4305.4118,N,07740.8490,W,29.61,38.31,191023,,,A*72
$GPGGA,192641.750,4305.4134,N,07740.8473,W,1,10,0.84,177.5,M,-34.4,M,,*5E
$GPRMC,192642.000,A,4305.4150,N,07740.8455,W,29.38,38.05,191023,,,A*7A
$GPGGA,192642.250,4305.4166,N,07740.8438,W,1,10,0.84,177.4,M,-34.4,M,,*51
$GPRMC,192642.500,A,4305.4182,N,07740.8420,W,29.56,38.40,191023,,,A*7B
$GPGGA,192642.750,4305.4198,N,07740.8402,W,1,10,0.84,177.3,M,-34.4,M,,*5B
$GPRMC,192643.000,A,4305.4214,N,07740.8384,W,29.52,38.75,191023,,,A*78
$GPGGA,192643.250,4305.4230,N,07740.8367,W,1,10,0.84,177.3,M,-34.4,M,,*5A
$GPRMC,192643.500,A,4305.4246,N,07740.8349,W,29.54,38.37,191023,,,A*7B
$GPGGA,192643.750,4305.4262,N,07740.8332,W,1,10,0.84,177.3,M,-34.4,M,,*58
$GPRMC,192644.000,A,4305.4278,N,07740.8314,W,29.74,38.31,191023,,,A*78
$GPGGA,192644.250,4305.4295,N,07740.8297,W,1,10,0.84,177.2,M,-34.4,M,,*5D
$GPRMC,192644.500,A,4305.4311,N,07740.8279,W,29.51,37.76,191023,,,A*72
$GPGGA,192644.750,4305.4327,N,07740.8262,W,1,10,0.84,177.1,M,-34.4,M,,*59
$GPRMC,192645.000,A,4305.4343,N,07740.8245,W,29.48,37.56,191023,,,A*74
$GPGGA,192645.250,4305.4359,N,07740.8228,W,1,10,0.84,177.0,M,-34.4,M,,*5B
$GPRMC,192645.500,A,4305.4375,N,07740.8210,W,29.45,37.53,191023,,,A*7C
$GPGGA,192645.750,4305.4391,N,07740.8193,W,1,10,0.84,176.8,M,-34.4,M,,*50
$GPRMC,192646.000,A,4305.4407,N,07740.8176,W,29.36,37.34,191023,,,A*7E
$GPGGA,192646.250,4305.4423,N,07740.8159,W,1,10,0.84,176.7,M,-34.4,M,,*51
$GPRMC,192646.500,A,4305.4438,N,07740.8142,W,29.31,37.03,191023,,,A*73
$GPGGA,192646.750,4305.4454,N,07740.8125,W,1,10,0.84,176.8,M,-34.4,M,,*50
$GPRMC,192647.000,A,4305.4470,N,07740.8109,W,28.58,37.41,191023,,,A*7C
$GPGGA,192647.250,4305.4485,N,07740.8093,W,1,10,0.84,176.8,M,-34.4,M,,*54
$GPRMC,192647.500,A,4305.4501,N,07740.8076,W,28.27,37.33,191023,,,A*7A
$GPGGA,192647.750,4305.4516,N,07740.8060,W,1,10,0.84,176.8,M,-34.4,M,,*56
$GPRMC,192648.000,A,4305.4532,N,07740.8044,W,28.07,37.40,191023,,,A*77
$GPGGA,192648.250,4305.4547,N,07740.8028,W,1,10,0.84,177.0,M,-34.4,M,,*5D
$GPRMC,192648.500,A,4305.4563,N,07740.8012,W,28.11,37.15,191023,,,A*72
$GPGGA,192648.750,4305.4578,N,07740.7996,W,1,10,0.84,177.2,M,-34.4,M,,*55
$GPRMC,192649.000,A,4305.4594,N,07740.7980,W,27.72,36.81,191023,,,A*75
$GPGGA,192649.250,4305.4609,N,07740.7965,W,1,10,0.84,177.3,M,-34.4,M,,*59
$GPRMC,192649.500,A,4305.4625,N,07740.7950,W,27.28,36.18,191023,,,A*7B
$GPGGA,192649.750,4305.4640,N,07740.7935,W,1,10,0.84,177.4,M,-34.4,M,,*53
$GPRMC,192650.000,A,4305.4655,N,07740.7920,W,26.71,35.31,191023,,,A*73
$GPGGA,192650.250,4305.4670,N,07740.7906,W,1,10,0.84,177.5,M,-34.4,M,,*5C
$GPRMC,192650.500,A,4305.4685,N,07740.7892,W,26.10,34.31,191023,,,A*75
$GPGGA,192650.750,4305.4700,N,07740.7878,W,1,10,0.84,177.6,M,-34.4,M,,*54
$GPRMC,192651.000,A,4305.4715,N,07740.7864,W,25.81,32.89,191023,,,A*7E
$GPGGA,192651.250,4305.4730,N,07740.7851,W,1,10,0.84,177.6,M,-34.4,M,,*58
$GPRMC,192651.500,A,4305.4745,N,07740.7838,W,25.70,31.47,191023,,,A*78
$GPGGA,192651.750,4305.4760,N,07740.7826,W,1,10,0.84,177.6,M,-34.4,M,,*58
$GPRMC,192652.000,A,4305.4775,N,07740.7814,W,25.02,30.10,191023,,,A*75
$GPGGA,192652.250,4305.4790,N,07740.7802,W,1,10,0.84,177.6,M,-34.4,M,,*57
$GPRMC,192652.500,A,4305.4805,N,07740.7790,W,24.63,29.46,191023,,,A*76
$GPGGA,192652.750,4305.4819,N,07740.7778,W,1,10,0.84,177.5,M,-34.4,M,,*5D
$GPRMC,192653.000,A,4305.4834,N,07740.7767,W,24.33,28.67,191023,,,A*7F
$GPGGA,192653.250,4305.4849,N,07740.7756,W,1,10,0.84,177.5,M,-34.4,M,,*50
$GPRMC,192653.500,A,4305.4864,N,07740.7745,W,23.74,27.67,191023,,,A*74
$GPGGA,192653.750,4305.4878,N,07740.7734,W,1,10,0.84,177.4,M,-34.4,M,,*52
$GPRMC,192654.000,A,4305.4893,N,07740.7724,W,23.01,27.18,191023,,,A*73
$GPGGA,192654.250,4305.4907,N,07740.7713,W,1,10,0.84,177.1,M,-34.4,M,,*59
$GPRMC,192654.500,A,4305.4922,N,07740.7703,W,22.70,26.71,191023,,,A*71
$GPGGA,192654.750,4305.4936,N,07740.7694,W,1,10,0.84,177.0,M,-34.4,M,,*51
$GPRMC,192655.000,A,4305.4950,N,07740.7684,W,22.30,25.73,191023,,,A*7B
$GPGGA,192655.250,4305.4964,N,07740.7675,W,1,10,0.84,176.8,M,-34.4,M,,*54
$GPRMC,192655.500,A,4305.4978,N,07740.7667,W,21.93,24.62,191023,,,A*72
$GPGGA,192655.750,4305.4992,N,07740.7658,W,1,10,0.84,177.0,M,-34.4,M,,*5E
$GPRMC,192656.000,A,4305.5005,N,07740.7650,W,21.62,23.79,191023,,,A*71
$GPGGA,192656.250,4305.5019,N,07740.7642,W,1,10,0.84,177.0,M,-34.4,M,,*58
$GPRMC,192656.500,A,4305.5033,N,07740.7634,W,21.19,23.29,191023,,,A*7A
$GPGGA,192656.750,4305.5046,N,07740.7626,W,1,10,0.84,177.1,M,-34.4,M,,*54
$GPRMC,192657.000,A,4305.5060,N,07740.7618,W,20.75,23.20,191023,,,A*74
$GPGGA,192657.250,4305.5073,N,07740.7610,W,1,10,0.84,177.0,M,-34.4,M,,*52
$GPRMC,192657.500,A,4305.5086,N,07740.7602,W,20.51,22.84,191023,,,A*7B
$GPGGA,192657.750,4305.5099,N,07740.7595,W,1,10,0.84,177.0,M,-34.4,M,,*5D
$GPRMC,192658.000,A,4305.5112,N,07740.7588,W,20.04,22.60,191023,,,A*76
$GPGGA,192658.250,4305.5125,N,07740.7580,W,1,10,0.84,176.9,M,-34.4,M,,*5D
$GPRMC,192658.500,A,4305.5139,N,07740.7573,W,19.99,21.79,191023,,,A*7B
$GPGGA,192658.750,4305.5151,N,07740.7566,W,1,10,0.84,177.0,M,-34.4,M,,*5B
$GPRMC,192659.000,A,4305.5164,N,07740.7560,W,19.37,21.04,191023,,,A*7B
$GPGGA,192659.250,4305.5176,N,07740.7553,W,1,10,0.84,176.7,M,-34.4,M,,*5A
$GPRMC,192659.500,A,4305.5188,N,07740.7547,W,18.38,20.38,191023,,,A*79
$GPGGA,192659.750,4305.5199,N,07740.7540,W,1,10,0.84,176.5,M,-34.4,M,,*5E
$GPRMC,192700.000,A,4305.5210,N,07740.7534,W,16.58,21.60,191023,,,A*73
$GPGGA,192700.250,4305.5220,N,07740.7528,W,1,10,0.84,176.4,M,-34.4,M,,*58
$GPRMC,192700.500,A,4305.5231,N,07740.7523,W,15.17,21.30,191023,,,A*7E
$GPGGA,192700.750,4305.5242,N,07740.7518,W,1,10,0.84,176.4,M,-34.4,M,,*5A
$GPRMC,192701.000,A,4305.5251,N,07740.7514,W,13.21,21.76,191023,,,A*79
$GPGGA,192701.250,4305.5259,N,07740.7510,W,1,10,0.84,176.5,M,-34.4,M,,*5D
$GPRMC,192701.500,A,4305.5267,N,07740.7506,W,11.37,21.67,191023,,,A*7F
$GPGGA,192701.750,4305.5274,N,07740.7502,W,1,10,0.84,176.4,M,-34.4,M,,*55
$GPRMC,192702.000,A,4305.5280,N,07740.7499,W,9.57,21.65,191023,,,A*4A
$GPGGA,192702.250,4305.5287,N,07740.7497,W,1,10,0.84,176.5,M,-34.4,M,,*53
$GPRMC,192702.500,A,4305.5292,N,07740.7494,W,8.07,21.68,191023,,,A*48
$GPGGA,192702.750,4305.5297,N,07740.7492,W,1,10,0.84,176.5,M,-34.4,M,,*52
$GPRMC,192703.000,A,4305.5301,N,07740.7489,W,6.83,21.84,191023,,,A*4B
$GPGGA,192703.250,4305.5304,N,07740.7488,W,1,10,0.84,176.5,M,-34.4,M,,*56
$GPRMC,192703.500,A,4305.5308,N,07740.7486,W,5.42,20.55,191023,,,A*4B
$GPGGA,192703.750,4305.5311,N,07740.7485,W,1,10,0.84,176.6,M,-34.4,M,,*59
$GPRMC,192704.000,A,4305.5314,N,07740.7484,W,3.59,20.13,191023,,,A*48
$GPGGA,192704.250,4305.5315,N,07740.7483,W,1,10,0.82,176.7,M,-34.4,M,,*5E
$GPRMC,192704.500,A,4305.5317,N,07740.7483,W,2.15,20.13,191023,,,A*40
$GPGGA,192704.750,4305.5318,N,07740.7482,W,1,10,0.82,176.7,M,-34.4,M,,*57
$GPRMC,192705.000,A,4305.5318,N,07740.7482,W,0.88,20.13,191023,,,A*4C
$GPGGA,192705.250,4305.5319,N,07740.7481,W,1,10,0.82,176.7,M,-34.4,M,,*51
$GPRMC,192705.500,A,4305.5318,N,07740.7481,W,0.04,20.13,191023,,,A*4E
$GPGGA,192705.750,4305.5318,N,07740.7480,W,1,10,0.82,176.7,M,-34.4,M,,*54
$GPRMC,192706.000,A,4305.5318,N,07740.7480,W,0.02,20.13,191023,,,A*4F
$GPGGA,192706.250,4305.5318,N,07740.7480,W,1,10,0.82,176.7,M,-34.4,M,,*52
$GPRMC,192706.500,A,4305.5318,N,07740.7479,W,0.03,20.13,191023,,,A*4D
$GPGGA,192706.750,4305.5318,N,07740.7479,W,1,10,0.82,176.7,M,-34.4,M,,*51
$GPRMC,192707.000,A,4305.5318,N,07740.7479,W,0.02,20.13,191023,,,A*48
$GPGGA,192707.250,4305.5317,N,07740.7479,W,1,10,0.82,176.6,M,-34.4,M,,*5B
$GPRMC,192707.500,A,4305.5317,N,07740.7478,W,0.02,20.13,191023,,,A*43
$GPGGA,192707.750,4305.5317,N,07740.7478,W,1,10,0.82,176.7,M,-34.4,M,,*5E
$GPRMC,192708.000,A,4305.5317,N,07740.7478,W,0.02,20.13,191023,,,A*49
$GPGGA,192708.250,4305.5317,N,07740.7478,W,1,10,0.82,176.7,M,-34.4,M,,*54
$GPRMC,192708.500,A,4305.5317,N,07740.7478,W,0.01,20.13,191023,,,A*4F
$GPGGA,192708.750,4305.5317,N,07740.7478,W,1,10,0.82,176.7,M,-34.4,M,,*51
$GPRMC,192709.000,A,4305.5317,N,07740.7478,W,0.04,20.13,191023,,,A*4E
$GPGGA,192709.250,4305.5317,N,07740.7478,W,1,10,0.82,176.7,M,-34.4,M,,*55
$GPRMC,192709.500,A,4305.5317,N,07740.7478,W,0.01,20.13,191023,,,A*4E
$GPGGA,192709.750,4305.5317,N,07740.7478,W,1,10,0.82,176.7,M,-34.4,M,,*50
$GPRMC,192710.000,A,4305.5317,N,07740.7478,W,0.01,20.13,191023,,,A*43
$GPGGA,192710.250,4305.5317,N,07740.7478,W,1,10,0.82,176.7,M,-34.4,M,,*5D
$GPRMC,192710.500,A,4305.5317,N,07740.7478,W,0.02,20.13,191023,,,A*45
$GPGGA,192710.750,4305.5317,N,07740.7478,W,1,10,0.82,176.7,M,-34.4,M,,*58
$GPRMC,192711.000,A,4305.5317,N,07740.7478,W,0.03,20.13,191023,,,A*40
$GPGGA,192711.250,4305.5317,N,07740.7478,W,1,10,0.82,176.7,M,-34.4,M,,*5C
$GPRMC,192711.500,A,4305.5317,N,07740.7478,W,0.01,20.13,191023,,,A*47
$GPGGA,192711.750,4305.5317,N,07740.7478,W,1,10,0.82,176.7,M,-34.4,M,,*59
$GPRMC,192712.000,A,4305.5317,N,07740.7478,W,0.05,20.13,191023,,,A*45
$GPGGA,192712.250,4305.5317,N,07740.7478,W,1,10,0.82,176.7,M,-34.4,M,,*5F
$GPRMC,192712.500,A,4305.5317,N,07740.7478,W,0.01,20.13,191023,,,A*44
$GPGGA,192712.750,4305.5317,N,07740.7478,W,1,10,0.84,176.7,M,-34.4,M,,*5C
$GPRMC,192713.000,A,4305.5317,N,07740.7478,W,0.01,20.13,191023,,,A*40
$GPGGA,192713.250,4305.5317,N,07740.7478,W,1,10,0.82,176.7,M,-34.4,M,,*5E
$GPRMC,192713.500,A,4305.5317,N,07740.7478,W,0.04,20.13,191023,,,A*40
$GPGGA,192713.750,4305.5317,N,07740.7478,W,1,10,0.82,176.7,M,-34.4,M,,*5B
$GPRMC,192714.000,A,4305.5317,N,07740.7478,W,0.04,20.13,191023,,,A*42
$GPGGA,192714.250,4305.5317,N,07740.7478,W,1,10,0.82,176.7,M,-34.4,M,,*59
$GPRMC,192714.500,A,4305.5317,N,07740.7478,W,0.02,20.13,191023,,,A*41
$GPGGA,192714.750,4305.5317,N,07740.7478,W,1,10,0.82,176.7,M,-34.4,M,,*5C
$GPRMC,192715.000,A,4305.5317,N,07740.7478,W,0.03,20.13,191023,,,A*44
$GPGGA,192715.250,4305.5317,N,07740.7478,W,1,10,0.82,176.7,M,-34.4,M,,*58
$GPRMC,192715.500,A,4305.5317,N,07740.7478,W,0.05,20.13,191023,,,A*47
$GPGGA,192715.750,4305.5317,N,07740.7478,W,1,10,0.82,176.7,M,-34.4,M,,*5D
$GPRMC,192716.000,A,4305.5317,N,07740.7478,W,0.04,20.13,191023,,,A*40
$GPGGA,192716.250,4305.5316,N,07740.7478,W,1,10,0.82,176.7,M,-34.4,M,,*5A
$GPRMC,192716.500,A,4305.5316,N,07740.7478,W,0.01,20.13,191023,,,A*41
$GPGGA,192716.750,4305.5316,N,07740.7478,W,1,10,0.82,176.7,M,-34.4,M,,*5F
$GPRMC,192717.000,A,4305.5316,N,07740.7478,W,0.03,20.13,191023,,,A*47
$GPGGA,192717.250,4305.5316,N,07740.7478,W,1,10,0.82,176.6,M,-34.4,M,,*5A
$GPRMC,192717.500,A,4305.5316,N,07740.7478,W,0.02,20.13,191023,,,A*43
$GPGGA,192717.750,4305.5316,N,07740.7478,W,1,10,0.84,176.6,M,-34.4,M,,*59
$GPRMC,192718.000,A,4305.5316,N,07740.7478,W,0.01,20.13,191023,,,A*4A
$GPGGA,192718.250,4305.5316,N,07740.7478,W,1,10,0.84,176.6,M,-34.4,M,,*53
$GPRMC,192718.500,A,4305.5316,N,07740.7478,W,0.01,20.13,191023,,,A*4F
$GPGGA,192718.750,4305.5316,N,07740.7478,W,1,10,0.84,176.6,M,-34.4,M,,*56
$GPRMC,192719.000,A,4305.5316,N,07740.7478,W,0.00,20.13,191023,,,A*4A
$GPGGA,192719.250,4305.5316,N,07740.7478,W,1,10,0.84,176.6,M,-34.4,M,,*52
$GPRMC,192719.500,A,4305.5316,N,07740.7478,W,0.01,20.13,191023,,,A*4E
$GPGGA,192719.750,4305.5316,N,07740.7478,W,1,10,0.84,176.6,M,-34.4,M,,*57
$GPRMC,192720.000,A,4305.5316,N,07740.7478,W,0.00,20.13,191023,,,A*40
$GPGGA,192720.250,4305.5316,N,07740.7478,W,1,10,0.84,176.6,M,-34.4,M,,*58
$GPRMC,192720.500,A,4305.5316,N,07740.7478,W,0.00,20.13,191023,,,A*45
$GPGGA,192720.750,4305.5316,N,07740.7478,W,1,10,0.84,176.6,M,-34.4,M,,*5D
$GPRMC,192721.000,A,4305.5316,N,07740.7478,W,0.00,20.13,191023,,,A*41
$GPGGA,192721.250,4305.5316,N,07740.7478,W,1,10,0.84,176.7,M,-34.4,M,,*58
$GPRMC,192721.500,A,4305.5316,N,07740.7478,W,0.01,20.13,191023,,,A*45
$GPGGA,192721.750,4305.5316,N,07740.7478,W,1,10,0.84,176.7,M,-34.4,M,,*5D
$GPRMC,192722.000,A,4305.5316,N,07740.7478,W,0.00,20.13,191023,,,A*42
$GPGGA,192722.250,4305.5316,N,07740.7478,W,1,10,0.84,176.7,M,-34.4,M,,*5B
$GPRMC,192722.500,A,4305.5316,N,07740.7478,W,0.00,20.13,191023,,,A*47
$GPGGA,192722.750,4305.5316,N,07740.7478,W,1,10,0.84,176.7,M,-34.4,M,,*5E
$GPRMC,192723.000,A,4305.5316,N,07740.7478,W,0.00,20.13,191023,,,A*43
$GPGGA,192723.250,4305.5316,N,07740.7478,W,1,10,0.84,176.7,M,-34.4,M,,*5A
$GPRMC,192723.500,A,4305.5316,N,07740.7478,W,0.00,20.13,191023,,,A*46
$GPGGA,192723.750,4305.5316,N,07740.7478,W,1,10,0.84,176.7,M,-34.4,M,,*5F
$GPRMC,192724.000,A,4305.5316,N,07740.7478,W,0.00,20.13,191023,,,A*44
$GPGGA,192724.250,4305.5316,N,07740.7478,W,1,10,0.84,176.7,M,-34.4,M,,*5D
$GPRMC,192724.500,A,4305.5316,N,07740.7478,W,0.01,20.13,191023,,,A*40
$GPGGA,192724.750,4305.5316,N,07740.7478,W,1,10,0.84,176.7,M,-34.4,M,,*58
$GPRMC,192725.000,A,4305.5316,N,07740.7478,W,0.01,20.13,191023,,,A*44
$GPGGA,192725.250,4305.5316,N,07740.7478,W,1,10,0.84,176.7,M,-34.4,M,,*5C
$GPRMC,192725.500,A,4305.5316,N,07740.7478,W,0.00,20.13,191023,,,A*40
$GPGGA,192725.750,4305.5316,N,07740.7478,W,1,10,0.84,176.7,M,-34.4,M,,*59
$GPRMC,192726.000,A,4305.5316,N,07740.7478,W,0.01,20.13,191023,,,A*47
$GPGGA,192726.250,4305.5316,N,07740.7478,W,1,10,0.84,176.7,M,-34.4,M,,*5F
$GPRMC,192726.500,A,4305.5316,N,07740.7478,W,0.12,20.13,191023,,,A*40
$GPGGA,192726.750,4305.5316,N,07740.7478,W,1,10,0.84,176.7,M,-34.4,M,,*5A
$GPRMC,192727.000,A,4305.5317,N,07740.7478,W,2.66,26.34,191023,,,A*47
$GPGGA,192727.250,4305.5319,N,07740.7476,W,1,10,0.82,176.6,M,-34.4,M,,*58
$GPRMC,192727.500,A,4305.5322,N,07740.7475,W,5.21,20.62,191023,,,A*48
$GPGGA,192727.750,4305.5326,N,07740.7473,W,1,10,0.84,176.7,M,-34.4,M,,*53
$GPRMC,192728.000,A,4305.5330,N,07740.7470,W,7.64,20.76,191023,,,A*42
$GPGGA,192728.250,4305.5336,N,07740.7468,W,1,10,0.84,176.7,M,-34.4,M,,*52
$GPRMC,192728.500,A,4305.5342,N,07740.7464,W,10.10,21.35,191023,,,A*74
$GPGGA,192728.750,4305.5349,N,07740.7461,W,1,10,0.84,176.7,M,-34.4,M,,*56
$GPRMC,192729.000,A,4305.5357,N,07740.7457,W,12.31,21.51,191023,,,A*77
$GPGGA,192729.250,4305.5365,N,07740.7452,W,1,10,0.84,176.7,M,-34.4,M,,*5C
$GPRMC,192729.500,A,4305.5374,N,07740.7447,W,14.22,21.57,191023,,,A*70
$GPGGA,192729.750,4305.5383,N,07740.7442,W,1,10,0.84,176.7,M,-34.4,M,,*50
$GPRMC,192730.000,A,4305.5394,N,07740.7437,W,16.18,21.43,191023,,,A*7A
$GPGGA,192730.250,4305.5405,N,07740.7431,W,1,10,0.84,176.7,M,-34.4,M,,*50
$GPRMC,192730.500,A,4305.5416,N,07740.7425,W,17.89,21.21,191023,,,A*7C
$GPGGA,192730.750,4305.5428,N,07740.7419,W,1,10,0.84,176.8,M,-34.4,M,,*5F
$GPRMC,192731.000,A,4305.5440,N,07740.7412,W,19.57,21.23,191023,,,A*70
$GPGGA,192731.250,4305.5453,N,07740.7405,W,1,10,0.84,176.7,M,-34.4,M,,*55
$GPRMC,192731.500,A,4305.5467,N,07740.7398,W,21.25,20.50,191023,,,A*7E
$GPGGA,192731.750,4305.5481,N,07740.7391,W,1,10,0.84,176.6,M,-34.4,M,,*54
$GPRMC,192732.000,A,4305.5496,N,07740.7384,W,22.90,19.06,191023,,,A*7F
$GPGGA,192732.250,4305.5511,N,07740.7377,W,1,10,0.84,176.5,M,-34.4,M,,*51
$GPRMC,192732.500,A,4305.5527,N,07740.7370,W,24.21,17.71,191023,,,A*78
$GPGGA,192732.750,4305.5544,N,07740.7363,W,1,10,0.84,176.4,M,-34.4,M,,*50
$GPRMC,192733.000,A,4305.5561,N,07740.7356,W,25.60,16.69,191023,,,A*76
$GPGGA,192733.250,4305.5578,N,07740.7349,W,1,10,0.84,176.3,M,-34.4,M,,*54
$GPRMC,192733.500,A,4305.5597,N,07740.7342,W,27.32,16.20,191023,,,A*77
$GPGGA,192733.750,4305.5615,N,07740.7334,W,1,10,0.84,176.1,M,-34.4,M,,*51
$GPRMC,192734.000,A,4305.5635,N,07740.7326,W,28.90,16.18,191023,,,A*70
$GPGGA,192734.250,4305.5654,N,07740.7319,W,1,10,0.84,175.9,M,-34.4,M,,*52
$GPRMC,192734.500,A,4305.5674,N,07740.7311,W,30.05,16.16,191023,,,A*7F
$GPGGA,192734.750,4305.5695,N,07740.7303,W,1,10,0.84,175.8,M,-34.4,M,,*50
$GPRMC,192735.000,A,4305.5716,N,07740.7295,W,31.18,16.44,191023,,,A*79
$GPGGA,192735.250,4305.5737,N,07740.7286,W,1,10,0.84,175.7,M,-34.4,M,,*5E
$GPRMC,192735.500,A,4305.5759,N,07740.7278,W,32.68,16.08,191023,,,A*78
$GPGGA,192735.750,4305.5781,N,07740.7269,W,1,10,0.84,175.6,M,-34.4,M,,*56
$GPRMC,192736.000,A,4305.5804,N,07740.7260,W,33.79,16.47,191023,,,A*7A
$GPGGA,192736.250,4305.5826,N,07740.7251,W,1,10,0.84,175.6,M,-34.4,M,,*59
$GPRMC,192736.500,A,4305.5850,N,07740.7241,W,34.83,16.63,191023,,,A*79
$GPGGA,192736.750,4305.5873,N,07740.7232,W,1,10,0.84,175.5,M,-34.4,M,,*5A
$GPRMC,192737.000,A,4305.5897,N,07740.7222,W,35.76,16.70,191023,,,A*7A
$GPGGA,192737.250,4305.5921,N,07740.7212,W,1,10,0.84,175.5,M,-34.4,M,,*5A
$GPRMC,192737.500,A,4305.5945,N,07740.7202,W,36.16,17.08,191023,,,A*78
$GPGGA,192737.750,4305.5969,N,07740.7191,W,1,10,0.84,175.5,M,-34.4,M,,*5B
$GPRMC,192738.000,A,4305.5994,N,07740.7181,W,36.79,16.71,191023,,,A*70
$GPGGA,192738.250,4305.6019,N,07740.7171,W,1,10,0.84,175.5,M,-34.4,M,,*52
$GPRMC,192738.500,A,4305.6043,N,07740.7161,W,37.12,16.09,191023,,,A*78
$GPGGA,192738.750,4305.6069,N,07740.7151,W,1,10,0.84,175.5,M,-34.4,M,,*52
$GPRMC,192739.000,A,4305.6094,N,07740.7141,W,37.41,16.12,191023,,,A*78
$GPGGA,192739.250,4305.6119,N,07740.7131,W,1,10,0.84,175.4,M,-34.4,M,,*57
$GPRMC,192739.500,A,4305.6145,N,07740.7122,W,38.21,15.75,191023,,,A*7E
$GPGGA,192739.750,4305.6171,N,07740.7112,W,1,10,0.84,175.4,M,-34.4,M,,*5D
$GPRMC,192740.000,A,4305.6197,N,07740.7103,W,38.40,15.05,191023,,,A*79
$GPGGA,192740.250,4305.6223,N,07740.7093,W,1,10,0.84,175.4,M,-34.4,M,,*5A
$GPRMC,192740.500,A,4305.6249,N,07740.7084,W,39.07,14.57,191023,,,A*76
$GPGGA,192740.750,4305.6276,N,07740.7075,W,1,10,0.84,175.3,M,-34.4,M,,*50
$GPRMC,192741.000,A,4305.6303,N,07740.7066,W,39.46,14.28,191023,,,A*7C
$GPGGA,192741.250,4305.6330,N,07740.7057,W,1,10,0.84,175.2,M,-34.4,M,,*56
$GPRMC,192741.500,A,4305.6356,N,07740.7048,W,39.80,14.00,191023,,,A*75
$GPGGA,192741.750,4305.6383,N,07740.7038,W,1,10,0.84,175.2,M,-34.4,M,,*52
$GPRMC,192742.000,A,4305.6410,N,07740.7029,W,39.93,14.05,191023,,,A*76
$GPGGA,192742.250,4305.6438,N,07740.7020,W,1,10,0.84,175.2,M,-34.4,M,,*5A
$GPRMC,192742.500,A,4305.6465,N,07740.7011,W,40.34,13.75,191023,,,A*79
$GPGGA,192742.750,4305.6493,N,07740.7002,W,1,10,0.84,175.1,M,-34.4,M,,*5D
$GPRMC,192743.000,A,4305.6520,N,07740.6994,W,40.43,13.29,191023,,,A*71
$GPGGA,192743.250,4305.6548,N,07740.6985,W,1,10,0.84,175.1,M,-34.4,M,,*59
$GPRMC,192743.500,A,4305.6575,N,07740.6977,W,40.64,12.75,191023,,,A*74
$GPGGA,192743.750,4305.6603,N,07740.6969,W,1,10,0.84,175.2,M,-34.4,M,,*51
$GPRMC,192744.000,A,4305.6631,N,07740.6961,W,40.99,12.41,191023,,,A*77
$GPGGA,192744.250,4305.6660,N,07740.6952,W,1,10,0.84,175.2,M,-34.4,M,,*5E
$GPRMC,192744.500,A,4305.6688,N,07740.6944,W,41.27,12.27,191023,,,A*73
$GPGGA,192744.750,4305.6716,N,07740.6936,W,1,10,0.84,175.3,M,-34.4,M,,*58
$GPRMC,192745.000,A,4305.6744,N,07740.6927,W,41.31,12.26,191023,,,A*75
$GPGGA,192745.250,4305.6773,N,07740.6919,W,1,10,0.84,175.4,M,-34.4,M,,*55
$GPRMC,192745.500,A,4305.6801,N,07740.6910,W,41.39,12.16,191023,,,A*71
$GPGGA,192745.750,4305.6830,N,07740.6902,W,1,10,0.84,175.5,M,-34.4,M,,*53
$GPRMC,192746.000,A,4305.6858,N,07740.6894,W,41.42,11.99,191023,,,A*7E
$GPGGA,192746.250,4305.6887,N,07740.6886,W,1,10,0.84,175.6,M,-34.4,M,,*57
$GPRMC,192746.500,A,4305.6915,N,07740.6878,W,41.44,11.81,191023,,,A*7E
$GPGGA,192746.750,4305.6943,N,07740.6870,W,1,10,0.84,175.6,M,-34.4,M,,*52
$GPRMC,192747.000,A,4305.6972,N,07740.6862,W,41.65,11.52,191023,,,A*7D
$GPGGA,192747.250,4305.7001,N,07740.6855,W,1,10,0.84,175.7,M,-34.4,M,,*5E
$GPRMC,192747.500,A,4305.7030,N,07740.6847,W,42.04,11.11,191023,,,A*72
$GPGGA,192747.750,4305.7059,N,07740.6839,W,1,10,0.84,175.8,M,-34.4,M,,*53
$GPRMC,192748.000,A,4305.7088,N,07740.6831,W,42.32,11.02,191023,,,A*7D
$GPGGA,192748.250,4305.7117,N,07740.6824,W,1,10,0.84,175.9,M,-34.4,M,,*5F
$GPRMC,192748.500,A,4305.7146,N,07740.6816,W,42.55,11.11,191023,,,A*7D
$GPGGA,192748.750,4305.7175,N,07740.6808,W,1,10,0.84,176.0,M,-34.4,M,,*5A
$GPRMC,192749.000,A,4305.7205,N,07740.6800,W,42.97,11.20,191023,,,A*76
$GPGGA,192749.250,4305.7234,N,07740.6792,W,1,10,0.84,176.0,M,-34.4,M,,*54
$GPRMC,192749.500,A,4305.7264,N,07740.6784,W,43.37,11.51,191023,,,A*7A
$GPGGA,192749.750,4305.7293,N,07740.6775,W,1,10,0.84,176.0,M,-34.4,M,,*55
$GPRMC,192750.000,A,4305.7323,N,07740.6766,W,43.69,11.89,191023,,,A*77
$GPGGA,192750.250,4305.7353,N,07740.6757,W,1,10,0.84,176.0,M,-34.4,M,,*55
$GPRMC,192750.500,A,4305.7383,N,07740.6748,W,43.94,12.56,191023,,,A*77
$GPGGA,192750.750,4305.7413,N,07740.6739,W,1,10,0.84,176.0,M,-34.4,M,,*5B
$GPRMC,192751.000,A,4305.7443,N,07740.6729,W,44.26,13.37,191023,,,A*77
$GPGGA,192751.250,4305.7473,N,07740.6719,W,1,10,0.84,175.9,M,-34.4,M,,*51
$GPRMC,192751.500,A,4305.7503,N,07740.6709,W,44.18,13.87,191023,,,A*73
$GPGGA,192751.750,4305.7533,N,07740.6699,W,1,10,0.84,175.9,M,-34.4,M,,*58
$GPRMC,192752.000,A,4305.7563,N,07740.6689,W,44.52,14.62,191023,,,A*78
$GPGGA,192752.250,4305.7593,N,07740.6678,W,1,10,0.84,175.9,M,-34.4,M,,*5B
$GPRMC,192752.500,A,4305.7623,N,07740.6666,W,44.16,15.39,191023,,,A*74
$GPGGA,192752.750,4305.7653,N,07740.6655,W,1,10,0.84,175.9,M,-34.4,M,,*5E
$GPRMC,192753.000,A,4305.7683,N,07740.6644,W,44.43,16.42,191023,,,A*75
$GPGGA,192753.250,4305.7713,N,07740.6631,W,1,10,0.84,175.9,M,-34.4,M,,*5D
$GPRMC,192753.500,A,4305.7743,N,07740.6619,W,44.55,17.69,191023,,,A*7A
$GPGGA,192753.750,4305.7773,N,07740.6607,W,1,10,0.84,175.9,M,-34.4,M,,*5B
$GPRMC,192754.000,A,4305.7803,N,07740.6595,W,44.56,18.37,191023,,,A*73
$GPGGA,192754.250,4305.7833,N,07740.6582,W,1,10,0.84,176.8,M,-34.4,M,,*5E
$GPRMC,192754.500,A,4305.7862,N,07740.6568,W,44.14,19.23,191023,,,A*71
$GPGGA,192754.750,4305.7891,N,07740.6555,W,1,10,0.84,177.1,M,-34.4,M,,*51
