Vers 81
USE_SERIAL_FEEDBACK=true
DEVELOPMENT_MODE=false
USE_RMC_ONLY=false

$GPRMC,165453.500,A,4308.3059,N,07726.2704,W,0.37,168.63,190923,,,A*72
$GPGGA,165453.750,4308.3059,N,07726.2702,W,1,04,1.86,183.6,M,-34.4,M,,*56
$GPRMC,165454.000,A,4308.3059,N,07726.2701,W,0.41,169.93,190923,,,A*7A
$GPGGA,165454.250,4308.3058,N,07726.2701,W,1,04,1.86,183.8,M,-34.4,M,,*58
$GPRMC,165454.500,A,4308.3056,N,07726.2700,W,0.43,160.56,190923,,,A*73
$GPGGA,165454.750,4308.3054,N,07726.2699,W,1,04,1.86,184.1,M,-34.4,M,,*5F
$GPRMC,165455.000,A,4308.3053,N,07726.2699,W,0.38,163.20,190923,,,A*7D
$GPGGA,165455.250,4308.3052,N,07726.2698,W,1,04,1.86,184.3,M,-34.4,M,,*5E
$GPRMC,165455.500,A,4308.3052,N,07726.2698,W,0.35,171.73,190923,,,A*70
$GPGGA,165455.750,4308.3052,N,07726.2697,W,1,04,1.86,184.5,M,-34.4,M,,*52
$GPRMC,165456.000,A,4308.3053,N,07726.2696,W,0.32,165.32,190923,,,A*7E
$GPGGA,165456.250,4308.3058,N,07726.2689,W,1,06,1.32,183.1,M,-34.4,M,,*5F
$GPRMC,165456.500,A,4308.3062,N,07726.2684,W,0.33,184.98,190923,,,A*74
$GPGGA,165456.750,4308.3065,N,07726.2680,W,1,06,1.32,181.2,M,-34.4,M,,*5C
$GPRMC,165457.000,A,4308.3067,N,07726.2677,W,0.49,195.13,190923,,,A*77
$GPGGA,165457.250,4308.3070,N,07726.2673,W,1,06,1.32,179.6,M,-34.4,M,,*53
$GPRMC,165457.500,A,4308.3073,N,07726.2671,W,0.33,221.53,190923,,,A*74
$GPGGA,165457.750,4308.3075,N,07726.2671,W,1,06,1.32,178.8,M,-34.4,M,,*5E
$GPRMC,165458.000,A,4308.3075,N,07726.2670,W,0.34,215.81,190923,,,A*76
$GPGGA,165458.250,4308.3076,N,07726.2669,W,1,06,1.32,178.1,M,-34.4,M,,*57
$GPRMC,165458.500,A,4308.3076,N,07726.2669,W,0.24,209.65,190923,,,A*7E
$GPGGA,165458.750,4308.3075,N,07726.2669,W,1,06,1.32,177.5,M,-34.4,M,,*5A
$GPRMC,165459.000,A,4308.3074,N,07726.2670,W,0.23,209.21,190923,,,A*77
$GPGGA,165459.250,4308.3074,N,07726.2670,W,1,06,1.32,177.0,M,-34.4,M,,*52
$GPRMC,165459.500,A,4308.3074,N,07726.2670,W,0.19,212.74,190923,,,A*71
$GPGGA,165459.750,4308.3073,N,07726.2670,W,1,06,1.32,176.4,M,-34.4,M,,*55
$GPRMC,165500.000,A,4308.3073,N,07726.2669,W,0.12,217.82,190923,,,A*71
$GPGGA,165500.250,4308.3073,N,07726.2669,W,1,06,1.32,175.8,M,-34.4,M,,*5A
$GPRMC,165500.500,A,4308.3072,N,07726.2669,W,0.13,223.56,190923,,,A*7A
$GPGGA,165500.750,4308.3072,N,07726.2669,W,1,06,1.32,175.3,M,-34.4,M,,*55
$GPRMC,165501.000,A,4308.3072,N,07726.2668,W,0.22,139.10,190923,,,A*77
$GPGGA,165501.250,4308.3072,N,07726.2668,W,1,06,1.32,175.0,M,-34.4,M,,*53
$GPRMC,165501.500,A,4308.3070,N,07726.2667,W,0.70,149.70,190923,,,A*79
$GPGGA,165501.750,4308.3070,N,07726.2666,W,1,06,1.32,174.5,M,-34.4,M,,*5E
$GPRMC,165502.000,A,4308.3069,N,07726.2666,W,0.54,157.26,190923,,,A*7C
$GPGGA,165502.250,4308.3069,N,07726.2665,W,1,06,1.32,173.8,M,-34.4,M,,*59
$GPRMC,165502.500,A,4308.3068,N,07726.2664,W,0.55,168.36,190923,,,A*76
$GPGGA,165502.750,4308.3067,N,07726.2664,W,1,06,1.32,173.2,M,-34.4,M,,*59
$GPRMC,165503.000,A,4308.3066,N,07726.2663,W,0.51,172.48,190923,,,A*7D
$GPGGA,165503.250,4308.3066,N,07726.2663,W,1,06,1.32,172.6,M,-34.4,M,,*5E
$GPRMC,165503.500,A,4308.3065,N,07726.2662,W,0.43,173.47,190923,,,A*77
$GPGGA,165503.750,4308.3065,N,07726.2662,W,1,06,1.32,172.2,M,-34.4,M,,*5D
$GPRMC,165504.000,A,4308.3064,N,07726.2661,W,0.41,177.41,190923,,,A*77
$GPGGA,165504.250,4308.3063,N,07726.2660,W,1,06,1.32,171.9,M,-34.4,M,,*53
$GPRMC,165504.500,A,4308.3063,N,07726.2660,W,0.33,176.13,190923,,,A*77
$GPGGA,165504.750,4308.3063,N,07726.2659,W,1,06,1.32,171.8,M,-34.4,M,,*5D
$GPRMC,165505.000,A,4308.3063,N,07726.2659,W,0.21,161.74,190923,,,A*7D
$GPGGA,165505.250,4308.3063,N,07726.2659,W,1,06,1.32,171.7,M,-34.4,M,,*56
$GPRMC,165505.500,A,4308.3062,N,07726.2659,W,0.19,185.86,190923,,,A*75
$GPGGA,165505.750,4308.3062,N,07726.2659,W,1,06,1.32,171.6,M,-34.4,M,,*53
$GPRMC,165506.000,A,4308.3062,N,07726.2659,W,0.17,186.41,190923,,,A*75
$GPGGA,165506.250,4308.3062,N,07726.2659,W,1,06,1.32,171.5,M,-34.4,M,,*56
$GPRMC,165506.500,A,4308.3062,N,07726.2659,W,0.03,121.43,190923,,,A*7A
$GPGGA,165506.750,4308.3062,N,07726.2659,W,1,06,1.32,171.4,M,-34.4,M,,*52
$GPRMC,165507.000,A,4308.3061,N,07726.2659,W,0.07,87.41,190923,,,A*46
$GPGGA,165507.250,4308.3061,N,07726.2658,W,1,06,1.32,171.3,M,-34.4,M,,*53
$GPRMC,165507.500,A,4308.3061,N,07726.2658,W,0.14,92.06,190923,,,A*47
$GPGGA,165507.750,4308.3060,N,07726.2658,W,1,06,1.32,171.2,M,-34.4,M,,*56
$GPRMC,165508.000,A,4308.3060,N,07726.2658,W,0.12,127.83,190923,,,A*78
$GPGGA,165508.250,4308.3060,N,07726.2658,W,1,06,1.32,171.1,M,-34.4,M,,*5F
$GPRMC,165508.500,A,4308.3059,N,07726.2659,W,0.07,155.94,190923,,,A*71
$GPGGA,165508.750,4308.3059,N,07726.2659,W,1,06,1.32,171.0,M,-34.4,M,,*50
$GPRMC,165509.000,A,4308.3059,N,07726.2659,W,0.02,98.17,190923,,,A*4B
$GPGGA,165509.250,4308.3060,N,07726.2659,W,1,06,1.32,170.9,M,-34.4,M,,*56
$GPRMC,165509.500,A,4308.3060,N,07726.2659,W,0.10,26.20,190923,,,A*46
$GPGGA,165509.750,4308.3060,N,07726.2659,W,1,06,1.32,170.9,M,-34.4,M,,*53
$GPRMC,165510.000,A,4308.3061,N,07726.2659,W,0.14,11.28,190923,,,A*42
$GPGGA,165510.250,4308.3061,N,07726.2660,W,1,06,1.77,170.8,M,-34.4,M,,*55
$GPRMC,165510.500,A,4308.3061,N,07726.2660,W,0.11,337.33,190923,,,A*75
$GPGGA,165510.750,4308.3061,N,07726.2660,W,1,06,1.32,170.8,M,-34.4,M,,*51
$GPRMC,165511.000,A,4308.3061,N,07726.2660,W,0.08,346.75,190923,,,A*7D
$GPGGA,165511.250,4308.3061,N,07726.2660,W,1,06,1.77,170.7,M,-34.4,M,,*5B
$GPRMC,165511.500,A,4308.3061,N,07726.2660,W,0.11,40.35,190923,,,A*41
$GPGGA,165511.750,4308.3061,N,07726.2660,W,1,06,1.32,170.7,M,-34.4,M,,*5F
$GPRMC,165512.000,A,4308.3060,N,07726.2661,W,0.01,260.00,190923,,,A*70
$GPGGA,165512.250,4308.3060,N,07726.2661,W,1,06,1.32,170.7,M,-34.4,M,,*59
$GPRMC,165512.500,A,4308.3060,N,07726.2661,W,0.07,145.90,190923,,,A*7E
$GPGGA,165512.750,4308.3059,N,07726.2661,W,1,06,1.32,170.6,M,-34.4,M,,*57
$GPRMC,165513.000,A,4308.3060,N,07726.2661,W,0.07,157.65,190923,,,A*73
$GPGGA,165513.250,4308.3059,N,07726.2661,W,1,06,1.32,170.5,M,-34.4,M,,*50
$GPRMC,165513.500,A,4308.3059,N,07726.2662,W,0.11,178.77,190923,,,A*76
$GPGGA,165513.750,4308.3060,N,07726.2662,W,1,06,1.32,170.5,M,-34.4,M,,*5C
$GPRMC,165514.000,A,4308.3059,N,07726.2663,W,0.08,218.60,190923,,,A*7E
$GPGGA,165514.250,4308.3059,N,07726.2663,W,1,06,1.32,170.4,M,-34.4,M,,*54
$GPRMC,165514.500,A,4308.3059,N,07726.2663,W,0.08,218.47,190923,,,A*7E
$GPGGA,165514.750,4308.3059,N,07726.2664,W,1,06,1.32,170.4,M,-34.4,M,,*56
$GPRMC,165515.000,A,4308.3059,N,07726.2664,W,0.07,237.15,190923,,,A*78
$GPGGA,165515.250,4308.3059,N,07726.2664,W,1,06,1.32,170.4,M,-34.4,M,,*52
$GPRMC,165515.500,A,4308.3059,N,07726.2665,W,0.08,272.49,190923,,,A*7B
$GPGGA,165515.750,4308.3059,N,07726.2665,W,1,06,1.32,170.4,M,-34.4,M,,*56
$GPRMC,165516.000,A,4308.3059,N,07726.2666,W,0.14,234.58,190923,,,A*71
$GPGGA,165516.250,4308.3059,N,07726.2666,W,1,06,1.32,170.4,M,-34.4,M,,*53
$GPRMC,165516.500,A,4308.3059,N,07726.2667,W,0.19,244.11,190923,,,A*72
$GPGGA,165516.750,4308.3059,N,07726.2668,W,1,06,1.32,170.4,M,-34.4,M,,*58
$GPRMC,165517.000,A,4308.3060,N,07726.2668,W,0.15,265.81,190923,,,A*75
$GPGGA,165517.250,4308.3060,N,07726.2668,W,1,06,1.32,170.4,M,-34.4,M,,*56
$GPRMC,165517.500,A,4308.3061,N,07726.2669,W,0.18,308.82,190923,,,A*74
$GPGGA,165517.750,4308.3061,N,07726.2670,W,1,06,1.32,170.5,M,-34.4,M,,*5A
$GPRMC,165518.000,A,4308.3061,N,07726.2670,W,0.16,291.69,190923,,,A*7C
$GPGGA,165518.250,4308.3061,N,07726.2670,W,1,06,1.32,170.6,M,-34.4,M,,*53
$GPRMC,165518.500,A,4308.3061,N,07726.2671,W,0.12,266.16,190923,,,A*7C
$GPGGA,165518.750,4308.3061,N,07726.2671,W,1,06,1.32,170.6,M,-34.4,M,,*57
$GPRMC,165519.000,A,4308.3061,N,07726.2672,W,0.21,233.33,190923,,,A*7C
$GPGGA,165519.250,4308.3061,N,07726.2672,W,1,06,1.32,170.7,M,-34.4,M,,*51
$GPRMC,165519.500,A,4308.3062,N,07726.2672,W,0.11,224.15,190923,,,A*7B
$GPGGA,165519.750,4308.3062,N,07726.2672,W,1,06,1.32,170.8,M,-34.4,M,,*58
$GPRMC,165520.000,A,4308.3062,N,07726.2673,W,0.16,249.60,190923,,,A*7B
$GPGGA,165520.250,4308.3062,N,07726.2673,W,1,07,1.29,170.7,M,-34.4,M,,*52
$GPRMC,165520.500,A,4308.3063,N,07726.2674,W,0.18,254.95,190923,,,A*70
$GPGGA,165520.750,4308.3063,N,07726.2673,W,1,07,1.29,170.7,M,-34.4,M,,*56
$GPRMC,165521.000,A,4308.3063,N,07726.2673,W,0.10,238.30,190923,,,A*7E
$GPGGA,165521.250,4308.3063,N,07726.2673,W,1,07,1.29,170.7,M,-34.4,M,,*52
$GPRMC,165521.500,A,4308.3063,N,07726.2674,W,0.11,255.82,190923,,,A*7F
$GPGGA,165521.750,4308.3063,N,07726.2675,W,1,07,1.29,170.6,M,-34.4,M,,*50
$GPRMC,165522.000,A,4308.3064,N,07726.2675,W,0.11,274.70,190923,,,A*71
$GPGGA,165522.250,4308.3064,N,07726.2675,W,1,07,1.29,170.5,M,-34.4,M,,*52
$GPRMC,165522.500,A,4308.3064,N,07726.2675,W,0.14,280.08,190923,,,A*75
$GPGGA,165522.750,4308.3063,N,07726.2674,W,1,07,1.29,170.3,M,-34.4,M,,*57
$GPRMC,165523.000,A,4308.3063,N,07726.2675,W,0.11,247.16,190923,,,A*77
$GPGGA,165523.250,4308.3063,N,07726.2675,W,1,07,1.29,170.3,M,-34.4,M,,*52
$GPRMC,165523.500,A,4308.3063,N,07726.2676,W,0.13,233.86,190923,,,A*79
$GPGGA,165523.750,4308.3063,N,07726.2676,W,1,07,1.29,170.3,M,-34.4,M,,*54
$GPRMC,165524.000,A,4308.3063,N,07726.2677,W,0.20,227.54,190923,,,A*70
$GPGGA,165524.250,4308.3062,N,07726.2676,W,1,07,1.29,170.3,M,-34.4,M,,*57
$GPRMC,165524.500,A,4308.3061,N,07726.2676,W,0.24,209.55,190923,,,A*7F
$GPGGA,165524.750,4308.3061,N,07726.2676,W,1,07,1.29,170.1,M,-34.4,M,,*53
$GPRMC,165525.000,A,4308.3061,N,07726.2676,W,0.19,212.16,190923,,,A*78
$GPGGA,165525.250,4308.3062,N,07726.2677,W,1,07,1.29,170.1,M,-34.4,M,,*55
$GPRMC,165525.500,A,4308.3062,N,07726.2678,W,0.21,233.90,190923,,,A*76
$GPGGA,165525.750,4308.3062,N,07726.2678,W,1,07,1.29,170.1,M,-34.4,M,,*5F
$GPRMC,165526.000,A,4308.3062,N,07726.2678,W,0.19,232.27,190923,,,A*76
$GPGGA,165526.250,4308.3062,N,07726.2679,W,1,07,1.29,170.0,M,-34.4,M,,*59
$GPRMC,165526.500,A,4308.3063,N,07726.2680,W,0.18,245.92,190923,,,A*7A
$GPGGA,165526.750,4308.3062,N,07726.2680,W,1,07,1.29,170.0,M,-34.4,M,,*5A
$GPRMC,165527.000,A,4308.3062,N,07726.2680,W,0.15,217.32,190923,,,A*7F
$GPGGA,165527.250,4308.3062,N,07726.2679,W,1,07,1.29,169.9,M,-34.4,M,,*59
$GPRMC,165527.500,A,4308.3062,N,07726.2679,W,0.08,209.39,190923,,,A*74
$GPGGA,165527.750,4308.3061,N,07726.2679,W,1,07,1.29,169.7,M,-34.4,M,,*51
$GPRMC,165528.000,A,4308.3061,N,07726.2680,W,0.18,197.46,190923,,,A*76
$GPGGA,165528.250,4308.3061,N,07726.2680,W,1,07,1.29,169.6,M,-34.4,M,,*5C
$GPRMC,165528.500,A,4308.3062,N,07726.2680,W,0.09,209.20,190923,,,A*74
$GPGGA,165528.750,4308.3061,N,07726.2681,W,1,07,1.29,169.6,M,-34.4,M,,*58
$GPRMC,165529.000,A,4308.3061,N,07726.2681,W,0.10,200.90,190923,,,A*78
$GPGGA,165529.250,4308.3060,N,07726.2680,W,1,07,1.29,169.5,M,-34.4,M,,*5F
$GPRMC,165529.500,A,4308.3060,N,07726.2679,W,0.17,189.05,190923,,,A*72
$GPGGA,165529.750,4308.3059,N,07726.2679,W,1,07,1.29,169.3,M,-34.4,M,,*50
$GPRMC,165530.000,A,4308.3059,N,07726.2679,W,0.19,183.48,190923,,,A*78
$GPGGA,165530.250,4308.3059,N,07726.2679,W,1,07,1.29,169.2,M,-34.4,M,,*5C
$GPRMC,165530.500,A,4308.3058,N,07726.2679,W,0.20,174.40,190923,,,A*76
$GPGGA,165530.750,4308.3058,N,07726.2678,W,1,07,1.29,169.1,M,-34.4,M,,*5A
$GPRMC,165531.000,A,4308.3058,N,07726.2678,W,0.13,168.86,190923,,,A*74
$GPGGA,165531.250,4308.3057,N,07726.2677,W,1,07,1.29,169.0,M,-34.4,M,,*5F
$GPRMC,165531.500,A,4308.3057,N,07726.2676,W,0.14,149.70,190923,,,A*7D
$GPGGA,165531.750,4308.3056,N,07726.2676,W,1,07,1.29,168.8,M,-34.4,M,,*53
$GPRMC,165532.000,A,4308.3056,N,07726.2675,W,0.05,155.03,190923,,,A*70
$GPGGA,165532.250,4308.3056,N,07726.2675,W,1,07,1.29,168.7,M,-34.4,M,,*59
$GPRMC,165532.500,A,4308.3056,N,07726.2674,W,0.10,111.75,190923,,,A*71
$GPGGA,165532.750,4308.3056,N,07726.2674,W,1,07,1.29,168.6,M,-34.4,M,,*5C
$GPRMC,165533.000,A,4308.3056,N,07726.2674,W,0.12,82.05,190923,,,A*4B
$GPGGA,165533.250,4308.3056,N,07726.2674,W,1,07,1.29,168.5,M,-34.4,M,,*5B
$GPRMC,165533.500,A,4308.3057,N,07726.2675,W,0.05,336.13,190923,,,A*73
$GPGGA,165533.750,4308.3057,N,07726.2676,W,1,07,1.29,168.5,M,-34.4,M,,*5D
$GPRMC,165534.000,A,4308.3057,N,07726.2676,W,0.17,320.50,190923,,,A*71
$GPGGA,165534.250,4308.3058,N,07726.2676,W,1,07,1.29,168.4,M,-34.4,M,,*51
$GPRMC,165534.500,A,4308.3058,N,07726.2676,W,0.20,312.57,190923,,,A*79
$GPGGA,165534.750,4308.3058,N,07726.2676,W,1,07,1.29,168.3,M,-34.4,M,,*53
$GPRMC,165535.000,A,4308.3058,N,07726.2676,W,0.20,323.26,190923,,,A*79
$GPGGA,165535.250,4308.3058,N,07726.2676,W,1,07,1.29,168.3,M,-34.4,M,,*57
$GPRMC,165535.500,A,4308.3058,N,07726.2676,W,0.24,307.12,190923,,,A*79
$GPGGA,165535.750,4308.3058,N,07726.2676,W,1,07,1.29,168.3,M,-34.4,M,,*52
$GPRMC,165536.000,A,4308.3058,N,07726.2677,W,0.27,319.72,190923,,,A*74
$GPGGA,165536.250,4308.3058,N,07726.2677,W,1,07,1.29,168.3,M,-34.4,M,,*55
$GPRMC,165536.500,A,4308.3058,N,07726.2677,W,0.25,308.02,190923,,,A*74
$GPGGA,165536.750,4308.3058,N,07726.2677,W,1,07,1.29,168.2,M,-34.4,M,,*51
$GPRMC,165537.000,A,4308.3058,N,07726.2677,W,0.22,303.46,190923,,,A*7C
$GPGGA,165537.250,4308.3059,N,07726.2677,W,1,07,1.29,168.2,M,-34.4,M,,*54
$GPRMC,165537.500,A,4308.3059,N,07726.2676,W,0.20,330.02,190923,,,A*7B
$GPGGA,165537.750,4308.3059,N,07726.2675,W,1,07,1.29,168.0,M,-34.4,M,,*51
$GPRMC,165538.000,A,4308.3060,N,07726.2674,W,0.20,0.45,190923,,,A*7A
$GPGGA,165538.250,4308.3060,N,07726.2674,W,1,07,1.50,168.0,M,-34.4,M,,*5E
$GPRMC,165538.500,A,4308.3060,N,07726.2674,W,0.06,352.43,190923,,,A*79
$GPGGA,165538.750,4308.3060,N,07726.2674,W,1,07,1.50,168.1,M,-34.4,M,,*5A
$GPRMC,165539.000,A,4308.3060,N,07726.2674,W,0.05,271.77,190923,,,A*79
$GPGGA,165539.250,4308.3060,N,07726.2673,W,1,07,1.30,168.2,M,-34.4,M,,*5C
$GPRMC,165539.500,A,4308.3061,N,07726.2673,W,0.12,35.94,190923,,,A*43
$GPGGA,165539.750,4308.3061,N,07726.2672,W,1,07,1.29,168.3,M,-34.4,M,,*50
$GPRMC,165540.000,A,4308.3061,N,07726.2672,W,0.16,75.92,190923,,,A*4F
$GPGGA,165540.250,4308.3062,N,07726.2672,W,1,07,1.29,168.4,M,-34.4,M,,*5F
$GPRMC,165540.500,A,4308.3062,N,07726.2671,W,0.17,64.77,190923,,,A*40
$GPGGA,165540.750,4308.3063,N,07726.2671,W,1,07,1.29,168.5,M,-34.4,M,,*59
$GPRMC,165541.000,A,4308.3063,N,07726.2671,W,0.24,48.38,190923,,,A*40
$GPGGA,165541.250,4308.3063,N,07726.2671,W,1,07,1.29,168.5,M,-34.4,M,,*5D
$GPRMC,165541.500,A,4308.3064,N,07726.2671,W,0.02,139.60,190923,,,A*7C
$GPGGA,165541.750,4308.3064,N,07726.2671,W,1,07,1.50,168.5,M,-34.4,M,,*51
$GPRMC,165542.000,A,4308.3064,N,07726.2671,W,0.12,4.09,190923,,,A*7B
$GPGGA,165542.250,4308.3064,N,07726.2671,W,1,07,1.50,168.5,M,-34.4,M,,*57
$GPRMC,165542.500,A,4308.3064,N,07726.2671,W,0.43,351.58,190923,,,A*7D
$GPGGA,165542.750,4308.3064,N,07726.2671,W,1,07,1.50,168.5,M,-34.4,M,,*52
$GPRMC,165543.000,A,4308.3064,N,07726.2671,W,0.76,356.71,190923,,,A*73
$GPGGA,165543.250,4308.3069,N,07726.2671,W,1,07,1.50,168.5,M,-34.4,M,,*5B
$GPRMC,165543.500,A,4308.3070,N,07726.2670,W,2.52,349.57,190923,,,A*7C
$GPGGA,165543.750,4308.3073,N,07726.2668,W,1,07,1.50,168.1,M,-34.4,M,,*59
$GPRMC,165544.000,A,4308.3075,N,07726.2666,W,4.82,348.99,190923,,,A*74
$GPGGA,165544.250,4308.3078,N,07726.2664,W,1,07,1.50,167.4,M,-34.4,M,,*56
$GPRMC,165544.500,A,4308.3081,N,07726.2662,W,6.20,352.92,190923,,,A*74
$GPGGA,165544.750,4308.3084,N,07726.2660,W,1,07,1.50,166.9,M,-34.4,M,,*58
$GPRMC,165545.000,A,4308.3088,N,07726.2658,W,6.35,354.90,190923,,,A*70
$GPGGA,165545.250,4308.3091,N,07726.2657,W,1,07,1.50,166.4,M,-34.4,M,,*51
$GPRMC,165545.500,A,4308.3095,N,07726.2657,W,6.19,355.89,190923,,,A*71
$GPGGA,165545.750,4308.3099,N,07726.2656,W,1,07,1.50,166.2,M,-34.4,M,,*5B
$GPRMC,165546.000,A,4308.3103,N,07726.2655,W,6.20,0.90,190923,,,A*7A
$GPGGA,165546.250,4308.3107,N,07726.2655,W,1,07,1.50,166.2,M,-34.4,M,,*58
$GPRMC,165546.500,A,4308.3110,N,07726.2654,W,5.29,1.08,190923,,,A*76
$GPGGA,165546.750,4308.3114,N,07726.2653,W,1,07,1.50,166.3,M,-34.4,M,,*58
$GPRMC,165547.000,A,4308.3118,N,07726.2652,W,4.92,3.21,190923,,,A*74
$GPGGA,165547.250,4308.3121,N,07726.2651,W,1,07,1.50,166.3,M,-34.4,M,,*58
$GPRMC,165547.500,A,4308.3125,N,07726.2649,W,4.69,8.82,190923,,,A*73
$GPGGA,165547.750,4308.3128,N,07726.2648,W,1,07,1.50,166.4,M,-34.4,M,,*5B
$GPRMC,165548.000,A,4308.3131,N,07726.2646,W,4.33,9.84,190923,,,A*7B
$GPGGA,165548.250,4308.3134,N,07726.2644,W,1,07,1.50,166.4,M,-34.4,M,,*50
$GPRMC,165548.500,A,4308.3136,N,07726.2643,W,3.50,16.13,190923,,,A*4E
$GPGGA,165548.750,4308.3138,N,07726.2641,W,1,07,1.29,166.4,M,-34.4,M,,*52
$GPRMC,165549.000,A,4308.3139,N,07726.2639,W,2.92,20.88,190923,,,A*40
$GPGGA,165549.250,4308.3141,N,07726.2638,W,1,07,1.29,166.4,M,-34.4,M,,*56
$GPRMC,165549.500,A,4308.3143,N,07726.2636,W,2.66,23.47,190923,,,A*4C
$GPGGA,165549.750,4308.3145,N,07726.2635,W,1,07,1.29,166.3,M,-34.4,M,,*5D
$GPRMC,165550.000,A,4308.3146,N,07726.2633,W,2.69,21.44,190923,,,A*4F
$GPGGA,165550.250,4308.3148,N,07726.2632,W,1,07,1.29,166.3,M,-34.4,M,,*5A
$GPRMC,165550.500,A,4308.3149,N,07726.2630,W,2.44,34.81,190923,,,A*44
$GPGGA,165550.750,4308.3149,N,07726.2628,W,1,07,1.29,166.2,M,-34.4,M,,*54
$GPRMC,165551.000,A,4308.3151,N,07726.2626,W,2.52,37.64,190923,,,A*41
$GPGGA,165551.250,4308.3152,N,07726.2623,W,1,07,1.29,166.1,M,-34.4,M,,*52
$GPRMC,165551.500,A,4308.3153,N,07726.2621,W,2.60,54.92,190923,,,A*4C
$GPGGA,165551.750,4308.3154,N,07726.2618,W,1,07,1.29,166.0,M,-34.4,M,,*58
$GPRMC,165552.000,A,4308.3156,N,07726.2615,W,2.87,55.70,190923,,,A*4C
$GPGGA,165552.250,4308.3156,N,07726.2613,W,1,07,1.29,165.9,M,-34.4,M,,*5D
$GPRMC,165552.500,A,4308.3156,N,07726.2610,W,2.73,73.06,190923,,,A*42
$GPGGA,165552.750,4308.3156,N,07726.2608,W,1,07,1.29,165.9,M,-34.4,M,,*52
$GPRMC,165553.000,A,4308.3157,N,07726.2606,W,2.48,76.75,190923,,,A*49
$GPGGA,165553.250,4308.3157,N,07726.2604,W,1,07,1.29,165.8,M,-34.4,M,,*5A
$GPRMC,165553.500,A,4308.3157,N,07726.2604,W,1.43,67.40,190923,,,A*40
$GPGGA,165553.750,4308.3158,N,07726.2603,W,1,07,1.29,165.8,M,-34.4,M,,*57
$GPRMC,165554.000,A,4308.3158,N,07726.2604,W,0.82,53.74,190923,,,A*41
$GPGGA,165554.250,4308.3157,N,07726.2605,W,1,07,1.29,165.7,M,-34.4,M,,*53
$GPRMC,165554.500,A,4308.3158,N,07726.2607,W,0.40,325.91,190923,,,A*70
$GPGGA,165554.750,4308.3157,N,07726.2611,W,1,07,1.29,165.7,M,-34.4,M,,*53
$GPRMC,165555.000,A,4308.3157,N,07726.2614,W,1.29,274.26,190923,,,A*7E
$GPGGA,165555.250,4308.3157,N,07726.2619,W,1,07,1.29,165.7,M,-34.4,M,,*5F
$GPRMC,165555.500,A,4308.3157,N,07726.2626,W,3.77,271.42,190923,,,A*74
$GPGGA,165555.750,4308.3156,N,07726.2633,W,1,07,1.29,165.7,M,-34.4,M,,*53
$GPRMC,165556.000,A,4308.3156,N,07726.2640,W,6.75,270.03,190923,,,A*70
$GPGGA,165556.250,4308.3156,N,07726.2648,W,1,07,1.50,165.7,M,-34.4,M,,*57
$GPRMC,165556.500,A,4308.3157,N,07726.2657,W,8.72,274.17,190923,,,A*7A
$GPGGA,165556.750,4308.3159,N,07726.2666,W,1,07,1.50,165.7,M,-34.4,M,,*51
$GPRMC,165557.000,A,4308.3161,N,07726.2676,W,10.06,282.07,190923,,,A*4A
$GPGGA,165557.250,4308.3163,N,07726.2687,W,1,07,1.50,165.7,M,-34.4,M,,*53
$GPRMC,165557.500,A,4308.3165,N,07726.2698,W,11.50,281.62,190923,,,A*49
$GPGGA,165557.750,4308.3168,N,07726.2710,W,1,07,1.50,165.7,M,-34.4,M,,*52
$GPRMC,165558.000,A,4308.3170,N,07726.2722,W,12.64,282.70,190923,,,A*43
$GPGGA,165558.250,4308.3174,N,07726.2735,W,1,06,1.37,165.6,M,-34.4,M,,*53
$GPRMC,165558.500,A,4308.3177,N,07726.2749,W,14.03,284.23,190923,,,A*4B
$GPGGA,165558.750,4308.3180,N,07726.2762,W,1,07,1.50,165.6,M,-34.4,M,,*5F
$GPRMC,165559.000,A,4308.3183,N,07726.2776,W,14.68,283.50,190923,,,A*46
$GPGGA,165559.250,4308.3186,N,07726.2791,W,1,07,1.50,165.6,M,-34.4,M,,*51
$GPRMC,165559.500,A,4308.3190,N,07726.2806,W,15.70,284.64,190923,,,A*41
$GPGGA,165559.750,4308.3194,N,07726.2822,W,1,07,1.50,165.7,M,-34.4,M,,*51
$GPRMC,165600.000,A,4308.3198,N,07726.2838,W,16.97,285.99,190923,,,A*47
$GPGGA,165600.250,4308.3203,N,07726.2856,W,1,07,1.50,165.7,M,-34.4,M,,*55
$GPRMC,165600.500,A,4308.3207,N,07726.2874,W,18.79,287.61,190923,,,A*44
$GPGGA,165600.750,4308.3212,N,07726.2892,W,1,07,1.50,165.8,M,-34.4,M,,*57
$GPRMC,165601.000,A,4308.3218,N,07726.2910,W,20.13,289.63,190923,,,A*46
$GPGGA,165601.250,4308.3224,N,07726.2928,W,1,07,1.50,165.9,M,-34.4,M,,*57
$GPRMC,165601.500,A,4308.3231,N,07726.2946,W,21.02,293.13,190923,,,A*46
$GPGGA,165601.750,4308.3238,N,07726.2964,W,1,07,1.50,166.0,M,-34.4,M,,*5D
$GPRMC,165602.000,A,4308.3245,N,07726.2983,W,21.96,295.14,190923,,,A*46
$GPGGA,165602.250,4308.3253,N,07726.3003,W,1,08,1.27,166.1,M,-34.4,M,,*51
$GPRMC,165602.500,A,4308.3261,N,07726.3023,W,22.90,296.28,190923,,,A*4E
$GPGGA,165602.750,4308.3270,N,07726.3043,W,1,08,1.27,166.3,M,-34.4,M,,*53
$GPRMC,165603.000,A,4308.3278,N,07726.3063,W,23.49,297.43,190923,,,A*4F
$GPGGA,165603.250,4308.3287,N,07726.3083,W,1,08,1.27,166.4,M,-34.4,M,,*54
$GPRMC,165603.500,A,4308.3296,N,07726.3103,W,24.05,299.06,190923,,,A*4D
$GPGGA,165603.750,4308.3306,N,07726.3123,W,1,08,1.27,166.4,M,-34.4,M,,*52
$GPRMC,165604.000,A,4308.3316,N,07726.3143,W,24.47,300.95,190923,,,A*4F
$GPGGA,165604.250,4308.3326,N,07726.3164,W,1,08,1.27,166.5,M,-34.4,M,,*50
$GPRMC,165604.500,A,4308.3337,N,07726.3185,W,25.10,301.85,190923,,,A*40
$GPGGA,165604.750,4308.3348,N,07726.3206,W,1,08,1.27,166.5,M,-34.4,M,,*5A
$GPRMC,165605.000,A,4308.3358,N,07726.3227,W,25.82,302.41,190923,,,A*46
$GPGGA,165605.250,4308.3369,N,07726.3248,W,1,08,1.27,166.6,M,-34.4,M,,*54
$GPRMC,165605.500,A,4308.3380,N,07726.3270,W,26.43,302.91,190923,,,A*47
$GPGGA,165605.750,4308.3392,N,07726.3291,W,1,08,1.27,166.7,M,-34.4,M,,*50
$GPRMC,165606.000,A,4308.3402,N,07726.3312,W,26.69,303.27,190923,,,A*4D
$GPGGA,165606.250,4308.3413,N,07726.3334,W,1,08,1.27,166.8,M,-34.4,M,,*59
$GPRMC,165606.500,A,4308.3424,N,07726.3356,W,27.02,302.87,190923,,,A*4B
$GPGGA,165606.750,4308.3436,N,07726.3377,W,1,08,1.27,167.0,M,-34.4,M,,*55
$GPRMC,165607.000,A,4308.3447,N,07726.3399,W,27.10,303.69,190923,,,A*4B
$GPGGA,165607.250,4308.3459,N,07726.3421,W,1,08,1.27,167.1,M,-34.4,M,,*5D
$GPRMC,165607.500,A,4308.3470,N,07726.3442,W,27.17,304.31,190923,,,A*46
$GPGGA,165607.750,4308.3481,N,07726.3464,W,1,08,1.27,167.3,M,-34.4,M,,*5E
$GPRMC,165608.000,A,4308.3492,N,07726.3485,W,26.87,304.38,190923,,,A*4A
$GPGGA,165606.250,4308.3502,N,07726.3507,W,1,08,1.27,167.4,M,-34.4,M,,*53
$GPRMC,165606.500,A,4308.3512,N,07726.3528,W,26.42,304.43,190923,,,A*4B
$GPGGA,165606.750,4308.3522,N,07726.3550,W,1,08,1.27,167.4,M,-34.4,M,,*56
$GPRMC,165607.000,A,4308.3533,N,07726.3571,W,25.88,305.57,190923,,,A*41
$GPGGA,165607.250,4308.3545,N,07726.3592,W,1,08,1.27,167.5,M,-34.4,M,,*5C
$GPRMC,165607.500,A,4308.3558,N,07726.3611,W,25.56,307.79,190923,,,A*41
$GPGGA,165607.750,4308.3571,N,07726.3629,W,1,08,1.27,167.8,M,-34.4,M,,*50
$GPRMC,165608.000,A,4308.3583,N,07726.3647,W,25.33,310.40,190923,,,A*41
$GPGGA,165608.250,4308.3597,N,07726.3665,W,1,08,1.27,168.0,M,-34.4,M,,*5D
$GPRMC,165608.500,A,4308.3610,N,07726.3682,W,24.83,313.93,190923,,,A*43
$GPGGA,165608.750,4308.3626,N,07726.3696,W,1,08,1.27,168.1,M,-34.4,M,,*5C
$GPRMC,165609.000,A,4308.3641,N,07726.3711,W,24.72,319.61,190923,,,A*41
$GPGGA,165609.250,4308.3658,N,07726.3724,W,1,08,1.21,168.5,M,-34.4,M,,*5B
$GPRMC,165609.500,A,4308.3673,N,07726.3736,W,24.03,326.50,190923,,,A*48
$GPGGA,165609.750,4308.3689,N,07726.3747,W,1,08,1.27,168.8,M,-34.4,M,,*5C
$GPRMC,165610.000,A,4308.3706,N,07726.3757,W,24.56,330.66,190923,,,A*43
$GPGGA,165610.250,4308.3724,N,07726.3766,W,1,08,1.27,169.0,M,-34.4,M,,*5D
$GPRMC,165610.500,A,4308.3739,N,07726.3776,W,24.98,334.53,190923,,,A*49
$GPGGA,165610.750,4308.3758,N,07726.3783,W,1,08,1.27,169.2,M,-34.4,M,,*5A
$GPRMC,165611.000,A,4308.3775,N,07726.3789,W,25.15,340.56,190923,,,A*47
$GPGGA,165611.250,4308.3791,N,07726.3795,W,1,08,1.27,169.3,M,-34.4,M,,*5D
$GPRMC,165611.500,A,4308.3807,N,07726.3800,W,23.82,343.93,190923,,,A*44
$GPGGA,165611.750,4308.3823,N,07726.3805,W,1,08,1.27,169.7,M,-34.4,M,,*5C
$GPRMC,165612.000,A,4308.3838,N,07726.3810,W,23.10,346.64,190923,,,A*49
$GPGGA,165612.250,4308.3854,N,07726.3813,W,1,08,1.27,170.2,M,-34.4,M,,*50
$GPRMC,165612.500,A,4308.3871,N,07726.3815,W,22.89,351.31,190923,,,A*43
$GPGGA,165612.750,4308.3888,N,07726.3817,W,1,08,1.27,170.6,M,-34.4,M,,*54
$GPRMC,165613.000,A,4308.3904,N,07726.3818,W,22.84,354.22,190923,,,A*43
$GPGGA,165613.250,4308.3920,N,07726.3818,W,1,08,1.27,171.1,M,-34.4,M,,*5A
$GPRMC,165613.500,A,4308.3937,N,07726.3818,W,22.81,357.95,190923,,,A*4C
$GPGGA,165613.750,4308.3954,N,07726.3818,W,1,08,1.27,171.0,M,-34.4,M,,*5D
$GPRMC,165614.000,A,4308.3971,N,07726.3817,W,23.18,0.54,190923,,,A*4E
$GPGGA,165614.250,4308.3989,N,07726.3815,W,1,08,1.27,171.0,M,-34.4,M,,*52
$GPRMC,165614.500,A,4308.4006,N,07726.3812,W,23.71,2.78,190923,,,A*43
$GPGGA,165614.750,4308.4025,N,07726.3808,W,1,08,1.27,171.0,M,-34.4,M,,*53
$GPRMC,165615.000,A,4308.4044,N,07726.3804,W,24.67,5.34,190923,,,A*49
$GPGGA,165615.250,4308.4063,N,07726.3799,W,1,08,1.27,170.8,M,-34.4,M,,*5B
$GPRMC,165615.500,A,4308.4084,N,07726.3793,W,25.86,7.83,190923,,,A*41
$GPGGA,165615.750,4308.4104,N,07726.3787,W,1,08,1.27,170.4,M,-34.4,M,,*5D
$GPRMC,165616.000,A,4308.4124,N,07726.3781,W,26.99,9.16,190923,,,A*40
$GPGGA,165616.250,4308.4144,N,07726.3775,W,1,08,1.21,170.3,M,-34.4,M,,*53
$GPRMC,165616.500,A,4308.4164,N,07726.3770,W,27.88,9.44,190923,,,A*49
$GPGGA,165616.750,4308.4185,N,07726.3764,W,1,08,1.27,170.0,M,-34.4,M,,*5E
$GPRMC,165617.000,A,4308.4204,N,07726.3759,W,28.02,9.44,190923,,,A*4E
$GPGGA,165617.250,4308.4224,N,07726.3754,W,1,08,1.27,169.8,M,-34.4,M,,*51
$GPRMC,165617.500,A,4308.4244,N,07726.3749,W,27.55,9.75,190923,,,A*41
$GPGGA,165617.750,4308.4263,N,07726.3743,W,1,08,1.27,169.8,M,-34.4,M,,*51
$GPRMC,165618.000,A,4308.4282,N,07726.3738,W,27.26,9.90,190923,,,A*48
$GPGGA,165618.250,4308.4301,N,07726.3733,W,1,08,1.21,169.7,M,-34.4,M,,*50
$GPRMC,165618.500,A,4308.4319,N,07726.3728,W,27.04,10.36,190923,,,A*7B
$GPGGA,165618.750,4308.4338,N,07726.3723,W,1,08,1.27,169.7,M,-34.4,M,,*58
$GPRMC,165619.000,A,4308.4357,N,07726.3717,W,26.67,10.68,190923,,,A*76
$GPGGA,165619.250,4308.4376,N,07726.3712,W,1,08,1.21,169.6,M,-34.4,M,,*53
$GPRMC,165619.500,A,4308.4395,N,07726.3707,W,26.16,10.48,190923,,,A*78
$GPGGA,165619.750,4308.4412,N,07726.3703,W,1,08,1.27,169.5,M,-34.4,M,,*56
$GPRMC,165620.000,A,4308.4429,N,07726.3699,W,24.86,9.96,190923,,,A*41
$GPGGA,165620.250,4308.4446,N,07726.3695,W,1,08,1.27,169.3,M,-34.4,M,,*50
$GPRMC,165620.500,A,4308.4462,N,07726.3690,W,23.26,10.28,190923,,,A*72
$GPGGA,165620.750,4308.4477,N,07726.3686,W,1,08,1.27,169.2,M,-34.4,M,,*54
$GPRMC,165621.000,A,4308.4491,N,07726.3682,W,21.78,10.47,190923,,,A*79
$GPGGA,165621.250,4308.4504,N,07726.3678,W,1,08,1.27,169.1,M,-34.4,M,,*57
$GPRMC,165621.500,A,4308.4516,N,07726.3674,W,19.24,11.41,190923,,,A*7E
$GPGGA,165621.750,4308.4526,N,07726.3672,W,1,08,1.27,169.0,M,-34.4,M,,*59
$GPRMC,165622.000,A,4308.4537,N,07726.3669,W,15.95,11.23,190923,,,A*75
$GPGGA,165622.250,4308.4552,N,07726.3663,W,1,08,1.27,168.7,M,-34.4,M,,*5A
$GPRMC,165622.500,A,4308.4563,N,07726.3658,W,12.34,12.93,190923,,,A*77
$GPGGA,165622.750,4308.4572,N,07726.3653,W,1,08,1.27,168.2,M,-34.4,M,,*5B
$GPRMC,165623.000,A,4308.4580,N,07726.3648,W,9.52,13.42,190923,,,A*48
$GPGGA,165623.250,4308.4587,N,07726.3643,W,1,08,1.27,167.7,M,-34.4,M,,*5E
$GPRMC,165623.500,A,4308.4592,N,07726.3639,W,6.81,17.98,190923,,,A*4A
$GPGGA,165623.750,4308.4596,N,07726.3635,W,1,08,1.27,167.2,M,-34.4,M,,*5F
$GPRMC,165624.000,A,4308.4599,N,07726.3632,W,4.49,17.33,190923,,,A*4F
$GPGGA,165624.250,4308.4601,N,07726.3629,W,1,08,1.27,166.8,M,-34.4,M,,*56
$GPRMC,165624.500,A,4308.4602,N,07726.3626,W,3.19,15.02,190923,,,A*4C
$GPGGA,165624.750,4308.4602,N,07726.3624,W,1,08,1.21,166.5,M,-34.4,M,,*56
$GPRMC,165625.000,A,4308.4603,N,07726.3623,W,3.15,8.26,190923,,,A*7A
$GPGGA,165625.250,4308.4604,N,07726.3621,W,1,08,1.27,166.1,M,-34.4,M,,*53
$GPRMC,165625.500,A,4308.4606,N,07726.3620,W,3.80,358.56,190923,,,A*74
$GPGGA,165625.750,4308.4611,N,07726.3617,W,1,08,1.27,165.5,M,-34.4,M,,*50
$GPRMC,165626.000,A,4308.4615,N,07726.3617,W,5.16,349.04,190923,,,A*7A
$GPGGA,165626.250,4308.4620,N,07726.3618,W,1,08,1.27,165.3,M,-34.4,M,,*5D
$GPRMC,165626.500,A,4308.4624,N,07726.3620,W,6.48,338.88,190923,,,A*73
$GPGGA,165626.750,4308.4630,N,07726.3622,W,1,08,1.27,165.1,M,-34.4,M,,*52
$GPRMC,165627.000,A,4308.4636,N,07726.3626,W,8.55,332.20,190923,,,A*78
$GPGGA,165627.250,4308.4641,N,07726.3631,W,1,08,1.27,164.7,M,-34.4,M,,*55
$GPRMC,165627.500,A,4308.4645,N,07726.3638,W,10.77,318.06,190923,,,A*43
$GPGGA,165627.750,4308.4648,N,07726.3646,W,1,08,1.27,164.0,M,-34.4,M,,*5E
$GPRMC,165628.000,A,4308.4652,N,07726.3656,W,12.10,303.32,190923,,,A*49
$GPGGA,165628.250,4308.4654,N,07726.3667,W,1,08,1.27,163.7,M,-34.4,M,,*5A
$GPRMC,165628.500,A,4308.4658,N,07726.3679,W,13.70,291.68,190923,,,A*49
$GPGGA,165628.750,4308.4661,N,07726.3692,W,1,08,1.27,163.4,M,-34.4,M,,*50
$GPRMC,165629.000,A,4308.4663,N,07726.3707,W,15.80,284.90,190923,,,A*47
$GPGGA,165629.250,4308.4664,N,07726.3724,W,1,08,1.27,163.1,M,-34.4,M,,*58
$GPRMC,165629.500,A,4308.4665,N,07726.3740,W,18.08,277.70,190923,,,A*48
$GPGGA,165629.750,4308.4666,N,07726.3758,W,1,08,1.27,162.9,M,-34.4,M,,*5D
$GPRMC,165630.000,A,4308.4667,N,07726.3777,W,19.83,274.39,190923,,,A*4F
$GPGGA,165630.250,4308.4667,N,07726.3796,W,1,08,1.27,162.5,M,-34.4,M,,*5F
$GPRMC,165630.500,A,4308.4667,N,07726.3816,W,21.30,272.98,190923,,,A*4C
$GPGGA,165630.750,4308.4668,N,07726.3836,W,1,08,1.27,162.2,M,-34.4,M,,*57
$GPRMC,165631.000,A,4308.4668,N,07726.3856,W,21.65,272.49,190923,,,A*4F
$GPGGA,165631.250,4308.4669,N,07726.3876,W,1,08,1.27,161.9,M,-34.4,M,,*5E
$GPRMC,165631.500,A,4308.4669,N,07726.3897,W,21.63,273.21,190923,,,A*4F
$GPGGA,165631.750,4308.4670,N,07726.3917,W,1,08,1.27,161.6,M,-34.4,M,,*5A
$GPRMC,165632.000,A,4308.4670,N,07726.3937,W,21.32,273.76,190923,,,A*4C
$GPGGA,165632.250,4308.4670,N,07726.3957,W,1,08,1.27,161.4,M,-34.4,M,,*5A
$GPRMC,165632.500,A,4308.4671,N,07726.3977,W,20.87,273.88,190923,,,A*42
$GPGGA,165632.750,4308.4671,N,07726.3997,W,1,08,1.27,161.1,M,-34.4,M,,*57
$GPRMC,165633.000,A,4308.4672,N,07726.4017,W,20.62,274.58,190923,,,A*4C
$GPGGA,165633.250,4308.4672,N,07726.4037,W,1,08,1.27,160.8,M,-34.4,M,,*5C
$GPRMC,165633.500,A,4308.4673,N,07726.4057,W,20.20,275.78,190923,,,A*49
$GPGGA,165633.750,4308.4674,N,07726.4076,W,1,08,1.27,160.5,M,-34.4,M,,*57
$GPRMC,165634.000,A,4308.4676,N,07726.4095,W,20.06,276.61,190923,,,A*4F
$GPGGA,165634.250,4308.4677,N,07726.4114,W,1,08,1.27,160.3,M,-34.4,M,,*55
$GPRMC,165634.500,A,4308.4679,N,07726.4133,W,19.84,277.80,190923,,,A*46
$GPGGA,165634.750,4308.4680,N,07726.4152,W,1,08,1.27,160.1,M,-34.4,M,,*58
$GPRMC,165635.000,A,4308.4683,N,07726.4171,W,19.82,278.79,190923,,,A*4E
$GPGGA,165635.250,4308.4685,N,07726.4190,W,1,08,1.27,159.9,M,-34.4,M,,*55
$GPRMC,165635.500,A,4308.4688,N,07726.4209,W,19.44,280.44,190923,,,A*4F
$GPGGA,165635.750,4308.4691,N,07726.4227,W,1,08,1.27,159.8,M,-34.4,M,,*5B
$GPRMC,165636.000,A,4308.4693,N,07726.4244,W,18.22,281.77,190923,,,A*4A
$GPGGA,165636.250,4308.4696,N,07726.4260,W,1,08,1.27,159.6,M,-34.4,M,,*57
$GPRMC,165636.500,A,4308.4699,N,07726.4275,W,16.50,282.91,190923,,,A*47
$GPGGA,165636.750,4308.4703,N,07726.4288,W,1,08,1.27,159.5,M,-34.4,M,,*5A
$GPRMC,165637.000,A,4308.4706,N,07726.4300,W,13.95,281.59,190923,,,A*4C
$GPGGA,165637.250,4308.4708,N,07726.4311,W,1,08,1.27,159.3,M,-34.4,M,,*52
$GPRMC,165637.500,A,4308.4710,N,07726.4322,W,12.10,280.40,190923,,,A*4B
$GPGGA,165637.750,4308.4713,N,07726.4332,W,1,08,1.27,159.0,M,-34.4,M,,*5F
$GPRMC,165638.000,A,4308.4715,N,07726.4341,W,10.13,280.55,190923,,,A*44
$GPGGA,165638.250,4308.4717,N,07726.4349,W,1,08,1.27,158.7,M,-34.4,M,,*5B
$GPRMC,165638.500,A,4308.4718,N,07726.4355,W,7.89,280.11,190923,,,A*7C
$GPGGA,165638.750,4308.4721,N,07726.4359,W,1,08,1.27,158.5,M,-34.4,M,,*58
$GPRMC,165639.000,A,4308.4717,N,07726.4365,W,4.44,281.93,190923,,,A*7D
$GPGGA,165639.250,4308.4717,N,07726.4368,W,1,08,1.21,158.3,M,-34.4,M,,*5B
$GPRMC,165639.500,A,4308.4718,N,07726.4371,W,2.39,276.55,190923,,,A*7C
$GPGGA,165639.750,4308.4719,N,07726.4371,W,1,08,1.21,158.0,M,-34.4,M,,*5B
$GPRMC,165640.000,A,4308.4721,N,07726.4372,W,0.72,276.55,190923,,,A*73
$GPGGA,165640.250,4308.4721,N,07726.4372,W,1,08,1.21,157.8,M,-34.4,M,,*5F
$GPRMC,165640.500,A,4308.4723,N,07726.4372,W,0.36,276.55,190923,,,A*74
$GPGGA,165640.750,4308.4724,N,07726.4372,W,1,08,1.21,157.6,M,-34.4,M,,*51
$GPRMC,165641.000,A,4308.4725,N,07726.4372,W,0.32,276.55,190923,,,A*72
$GPGGA,165641.250,4308.4726,N,07726.4372,W,1,08,1.21,157.4,M,-34.4,M,,*55
$GPRMC,165641.500,A,4308.4727,N,07726.4373,W,0.26,300.68,190923,,,A*7F
$GPGGA,165641.750,4308.4727,N,07726.4373,W,1,08,1.21,157.3,M,-34.4,M,,*57
$GPRMC,165642.000,A,4308.4728,N,07726.4373,W,0.21,301.31,190923,,,A*7C
$GPGGA,165642.250,4308.4729,N,07726.4373,W,1,08,1.21,157.3,M,-34.4,M,,*5F
$GPRMC,165642.500,A,4308.4729,N,07726.4373,W,0.13,301.31,190923,,,A*79
$GPGGA,165642.750,4308.4728,N,07726.4373,W,1,08,1.21,157.3,M,-34.4,M,,*5B
$GPRMC,165643.000,A,4308.4729,N,07726.4373,W,0.05,301.31,190923,,,A*7A
$GPGGA,165643.250,4308.4729,N,07726.4373,W,1,08,1.27,157.3,M,-34.4,M,,*58
$GPRMC,165643.500,A,4308.4729,N,07726.4373,W,0.02,301.31,190923,,,A*78
$GPGGA,165643.750,4308.4729,N,07726.4373,W,1,08,1.21,157.3,M,-34.4,M,,*5B
$GPRMC,165644.000,A,4308.4729,N,07726.4373,W,0.03,301.31,190923,,,A*7B
$GPGGA,165644.250,4308.4729,N,07726.4373,W,1,08,1.21,157.3,M,-34.4,M,,*59
$GPRMC,165644.500,A,4308.4729,N,07726.4373,W,0.07,301.31,190923,,,A*7A
$GPGGA,165644.750,4308.4729,N,07726.4373,W,1,08,1.21,157.3,M,-34.4,M,,*5C
$GPRMC,165645.000,A,4308.4729,N,07726.4372,W,0.08,301.31,190923,,,A*70
$GPGGA,165645.250,4308.4729,N,07726.4372,W,1,08,1.21,157.2,M,-34.4,M,,*58
$GPRMC,165645.500,A,4308.4729,N,07726.4372,W,0.14,301.31,190923,,,A*78
$GPGGA,165645.750,4308.4729,N,07726.4372,W,1,08,1.21,157.2,M,-34.4,M,,*5D
$GPRMC,165646.000,A,4308.4729,N,07726.4372,W,0.18,301.31,190923,,,A*72
$GPGGA,165646.250,4308.4729,N,07726.4372,W,1,08,1.21,157.2,M,-34.4,M,,*5B
$GPRMC,165646.500,A,4308.4729,N,07726.4372,W,0.19,301.31,190923,,,A*76
$GPGGA,165646.750,4308.4729,N,07726.4372,W,1,08,1.21,157.2,M,-34.4,M,,*5E
$GPRMC,165647.000,A,4308.4730,N,07726.4372,W,0.18,301.31,190923,,,A*7B
$GPGGA,165647.250,4308.4730,N,07726.4372,W,1,08,1.21,157.2,M,-34.4,M,,*52
$GPRMC,165647.500,A,4308.4730,N,07726.4372,W,0.16,301.31,190923,,,A*70
$GPGGA,165647.750,4308.4730,N,07726.4372,W,1,08,1.21,157.2,M,-34.4,M,,*57
$GPRMC,165648.000,A,4308.4730,N,07726.4372,W,0.20,301.31,190923,,,A*7F
$GPGGA,165648.250,4308.4730,N,07726.4372,W,1,08,1.21,157.2,M,-34.4,M,,*5D
$GPRMC,165648.500,A,4308.4730,N,07726.4371,W,0.24,301.31,190923,,,A*7D
$GPGGA,165648.750,4308.4730,N,07726.4371,W,1,08,1.21,157.2,M,-34.4,M,,*5B
$GPRMC,165649.000,A,4308.4731,N,07726.4371,W,0.27,301.31,190923,,,A*7B
$GPGGA,165649.250,4308.4731,N,07726.4371,W,1,08,1.21,157.2,M,-34.4,M,,*5E
$GPRMC,165649.500,A,4308.4731,N,07726.4371,W,0.28,301.31,190923,,,A*71
$GPGGA,165649.750,4308.4731,N,07726.4371,W,1,08,1.21,157.2,M,-34.4,M,,*5B
$GPRMC,165650.000,A,4308.4731,N,07726.4371,W,0.25,301.31,190923,,,A*71
$GPGGA,165650.250,4308.4731,N,07726.4371,W,1,08,1.21,157.2,M,-34.4,M,,*56
$GPRMC,165650.500,A,4308.4732,N,07726.4370,W,0.26,24.59,190923,,,A*4F
$GPGGA,165650.750,4308.4732,N,07726.4370,W,1,08,1.21,157.2,M,-34.4,M,,*51
$GPRMC,165651.000,A,4308.4732,N,07726.4370,W,0.25,23.69,190923,,,A*4C
$GPGGA,165651.250,4308.4732,N,07726.4370,W,1,08,1.21,157.2,M,-34.4,M,,*55
$GPRMC,165651.500,A,4308.4732,N,07726.4370,W,0.25,22.93,190923,,,A*4D
$GPGGA,165651.750,4308.4732,N,07726.4370,W,1,08,1.21,157.2,M,-34.4,M,,*50
$GPRMC,165652.000,A,4308.4733,N,07726.4370,W,0.25,22.44,190923,,,A*40
$GPGGA,165652.250,4308.4733,N,07726.4370,W,1,08,1.21,157.2,M,-34.4,M,,*57
$GPRMC,165652.500,A,4308.4733,N,07726.4370,W,0.26,21.40,190923,,,A*41
$GPGGA,165652.750,4308.4733,N,07726.4370,W,1,08,1.27,157.2,M,-34.4,M,,*54
$GPRMC,165653.000,A,4308.4733,N,07726.4370,W,0.27,18.81,190923,,,A*43
$GPGGA,165653.250,4308.4733,N,07726.4370,W,1,08,1.27,157.2,M,-34.4,M,,*50
$GPRMC,165653.500,A,4308.4734,N,07726.4370,W,0.27,15.52,190923,,,A*42
$GPGGA,165653.750,4308.4734,N,07726.4370,W,1,08,1.27,157.2,M,-34.4,M,,*52
$GPRMC,165654.000,A,4308.4734,N,07726.4370,W,0.24,12.40,190923,,,A*47
$GPGGA,165654.250,4308.4734,N,07726.4370,W,1,08,1.27,157.2,M,-34.4,M,,*50
$GPRMC,165654.500,A,4308.4734,N,07726.4370,W,0.19,9.53,190923,,,A*74
$GPGGA,165654.750,4308.4734,N,07726.4370,W,1,08,1.21,157.2,M,-34.4,M,,*53
$GPRMC,165655.000,A,4308.4734,N,07726.4370,W,0.16,6.64,190923,,,A*74
$GPGGA,165655.250,4308.4735,N,07726.4370,W,1,08,1.21,157.2,M,-34.4,M,,*56
$GPRMC,165655.500,A,4308.4735,N,07726.4370,W,0.18,2.82,190923,,,A*72
$GPGGA,165655.750,4308.4735,N,07726.4370,W,1,08,1.21,157.3,M,-34.4,M,,*52
$GPRMC,165656.000,A,4308.4735,N,07726.4370,W,0.20,359.35,190923,,,A*7E
$GPGGA,165656.250,4308.4735,N,07726.4371,W,1,08,1.21,157.3,M,-34.4,M,,*55
$GPRMC,165656.500,A,4308.4735,N,07726.4371,W,0.21,356.69,190923,,,A*7D
$GPGGA,165656.750,4308.4735,N,07726.4371,W,1,08,1.21,157.3,M,-34.4,M,,*50
$GPRMC,165657.000,A,4308.4735,N,07726.4371,W,0.28,352.78,190923,,,A*74
$GPGGA,165657.250,4308.4736,N,07726.4371,W,1,08,1.21,157.3,M,-34.4,M,,*57
$GPRMC,165657.500,A,4308.4736,N,07726.4371,W,0.69,336.45,190923,,,A*7B
$GPGGA,165657.750,4308.4736,N,07726.4372,W,1,08,1.21,157.3,M,-34.4,M,,*51
$GPRMC,165658.000,A,4308.4736,N,07726.4373,W,1.59,310.87,190923,,,A*7B
$GPGGA,165658.250,4308.4736,N,07726.4375,W,1,08,1.21,157.3,M,-34.4,M,,*5C
$GPRMC,165658.500,A,4308.4735,N,07726.4380,W,4.93,276.64,190923,,,A*7E
$GPGGA,165658.750,4308.4736,N,07726.4390,W,1,08,1.27,157.3,M,-34.4,M,,*54
$GPRMC,165659.000,A,4308.4735,N,07726.4399,W,7.33,275.77,190923,,,A*7A
$GPGGA,165659.250,4308.4733,N,07726.4411,W,1,08,1.27,157.3,M,-34.4,M,,*5B
$GPRMC,165659.500,A,4308.4731,N,07726.4423,W,10.18,267.90,190923,,,A*48
$GPGGA,165659.750,4308.4730,N,07726.4435,W,1,08,1.27,157.5,M,-34.4,M,,*5D
$GPRMC,165700.000,A,4308.4729,N,07726.4447,W,11.75,265.35,190923,,,A*4C
$GPGGA,165700.250,4308.4726,N,07726.4460,W,1,08,1.27,157.6,M,-34.4,M,,*51
$GPRMC,165700.500,A,4308.4724,N,07726.4473,W,13.32,260.65,190923,,,A*42
$GPGGA,165700.750,4308.4721,N,07726.4486,W,1,08,1.27,157.7,M,-34.4,M,,*5A
$GPRMC,165701.000,A,4308.4718,N,07726.4498,W,13.33,255.97,190923,,,A*46
$GPGGA,165701.250,4308.4715,N,07726.4510,W,1,08,1.27,157.8,M,-34.4,M,,*58
$GPRMC,165701.500,A,4308.4711,N,07726.4523,W,13.26,249.55,190923,,,A*4C
$GPGGA,165701.750,4308.4707,N,07726.4536,W,1,08,1.27,157.9,M,-34.4,M,,*5B
$GPRMC,165702.000,A,4308.4702,N,07726.4548,W,13.28,241.23,190923,,,A*42
$GPGGA,165702.250,4308.4693,N,07726.4562,W,1,08,1.27,157.9,M,-34.4,M,,*50
$GPRMC,165702.500,A,4308.4684,N,07726.4573,W,14.63,229.32,190923,,,A*46
$GPGGA,165702.750,4308.4674,N,07726.4585,W,1,08,1.27,158.0,M,-34.4,M,,*53
$GPRMC,165703.000,A,4308.4663,N,07726.4596,W,15.86,218.81,190923,,,A*40
$GPGGA,165703.250,4308.4651,N,07726.4607,W,1,08,1.21,158.1,M,-34.4,M,,*5E
$GPRMC,165703.500,A,4308.4639,N,07726.4617,W,17.37,213.95,190923,,,A*46
$GPGGA,165703.750,4308.4625,N,07726.4626,W,1,08,1.27,158.2,M,-34.4,M,,*5E
$GPRMC,165704.000,A,4308.4611,N,07726.4635,W,18.90,206.76,190923,,,A*45
$GPGGA,165704.250,4308.4596,N,07726.4644,W,1,08,1.21,158.2,M,-34.4,M,,*55
$GPRMC,165704.500,A,4308.4580,N,07726.4653,W,21.30,203.58,190923,,,A*42
$GPGGA,165704.750,4308.4564,N,07726.4661,W,1,08,1.21,158.3,M,-34.4,M,,*5B
$GPRMC,165705.000,A,4308.4548,N,07726.4669,W,22.91,200.88,190923,,,A*4D
$GPGGA,165705.250,4308.4530,N,07726.4677,W,1,08,1.21,158.3,M,-34.4,M,,*59
$GPRMC,165705.500,A,4308.4512,N,07726.4686,W,25.18,199.79,190923,,,A*4D
$GPGGA,165705.750,4308.4493,N,07726.4694,W,1,08,1.27,158.4,M,-34.4,M,,*58
$GPRMC,165706.000,A,4308.4474,N,07726.4703,W,26.79,199.28,190923,,,A*46
$GPGGA,165706.250,4308.4455,N,07726.4712,W,1,08,1.21,158.4,M,-34.4,M,,*5D
$GPRMC,165706.500,A,4308.4434,N,07726.4721,W,28.54,198.98,190923,,,A*4C
$GPGGA,165706.750,4308.4414,N,07726.4730,W,1,08,1.21,158.5,M,-34.4,M,,*5C
$GPRMC,165707.000,A,4308.4392,N,07726.4739,W,30.07,198.62,190923,,,A*40
$GPGGA,165707.250,4308.4371,N,07726.4749,W,1,08,1.21,158.5,M,-34.4,M,,*52
$GPRMC,165707.500,A,4308.4349,N,07726.4758,W,31.44,198.44,190923,,,A*46
$GPGGA,165707.750,4308.4327,N,07726.4768,W,1,08,1.21,158.6,M,-34.4,M,,*54
$GPRMC,165708.000,A,4308.4305,N,07726.4778,W,32.43,198.57,190923,,,A*40
$GPGGA,165708.250,4308.4283,N,07726.4789,W,1,08,1.21,158.6,M,-34.4,M,,*5E
$GPRMC,165708.500,A,4308.4261,N,07726.4799,W,33.00,198.82,190923,,,A*47
$GPGGA,165708.750,4308.4238,N,07726.4810,W,1,08,1.21,158.7,M,-34.4,M,,*55
$GPRMC,165709.000,A,4308.4215,N,07726.4821,W,33.69,199.09,190923,,,A*41
$GPGGA,165709.250,4308.4192,N,07726.4832,W,1,08,1.21,158.7,M,-34.4,M,,*52
$GPRMC,165709.500,A,4308.4168,N,07726.4842,W,35.05,198.92,190923,,,A*47
$GPGGA,165709.750,4308.4144,N,07726.4853,W,1,08,1.27,158.7,M,-34.4,M,,*5D
$GPRMC,165710.000,A,4308.4120,N,07726.4865,W,35.97,198.83,190923,,,A*48
$GPGGA,165710.250,4308.4095,N,07726.4876,W,1,08,1.21,158.8,M,-34.4,M,,*53
$GPRMC,165710.500,A,4308.4069,N,07726.4888,W,37.03,198.64,190923,,,A*44
$GPGGA,165710.750,4308.4043,N,07726.4899,W,1,08,1.21,158.8,M,-34.4,M,,*5C
$GPRMC,165711.000,A,4308.4018,N,07726.4910,W,37.99,197.94,190923,,,A*45
$GPGGA,165711.250,4308.3991,N,07726.4921,W,1,08,1.21,158.8,M,-34.4,M,,*5B
$GPRMC,165711.500,A,4308.3965,N,07726.4932,W,39.06,197.13,190923,,,A*43
$GPGGA,165711.750,4308.3937,N,07726.4943,W,1,08,1.21,158.9,M,-34.4,M,,*57
$GPRMC,165712.000,A,4308.3910,N,07726.4953,W,40.04,196.14,190923,,,A*4A
$GPGGA,165712.250,4308.3882,N,07726.4964,W,1,08,1.21,158.9,M,-34.4,M,,*5B
$GPRMC,165712.500,A,4308.3854,N,07726.4973,W,40.77,194.65,190923,,,A*4C
$GPGGA,165712.750,4308.3826,N,07726.4982,W,1,08,1.21,159.0,M,-34.4,M,,*50
$GPRMC,165713.000,A,4308.3798,N,07726.4991,W,41.06,193.23,190923,,,A*49
$GPGGA,165713.250,4308.3769,N,07726.4999,W,1,08,1.21,159.1,M,-34.4,M,,*5B
$GPRMC,165713.500,A,4308.3741,N,07726.5007,W,41.32,192.09,190923,,,A*41
$GPGGA,165713.750,4308.3712,N,07726.5015,W,1,08,1.21,159.1,M,-34.4,M,,*5E
$GPRMC,165714.000,A,4308.3683,N,07726.5023,W,41.50,191.41,190923,,,A*41
$GPGGA,165714.250,4308.3653,N,07726.5030,W,1,08,1.21,159.2,M,-34.4,M,,*5C
$GPRMC,165714.500,A,4308.3624,N,07726.5037,W,41.69,190.35,190923,,,A*44
$GPGGA,165714.750,4308.3594,N,07726.5043,W,1,08,1.21,159.2,M,-34.4,M,,*55
$GPRMC,165715.000,A,4308.3565,N,07726.5049,W,41.85,189.07,190923,,,A*44
$GPGGA,165715.250,4308.3536,N,07726.5054,W,1,08,1.27,159.2,M,-34.4,M,,*59
$GPRMC,165715.500,A,4308.3507,N,07726.5060,W,41.85,188.62,190923,,,A*4C
$GPGGA,165715.750,4308.3478,N,07726.5065,W,1,08,1.27,159.1,M,-34.4,M,,*56
$GPRMC,165716.000,A,4308.3449,N,07726.5070,W,41.82,187.55,190923,,,A*4C
$GPGGA,165716.250,4308.3420,N,07726.5075,W,1,08,1.27,159.2,M,-34.4,M,,*5F
$GPRMC,165716.500,A,4308.3392,N,07726.5079,W,41.60,186.33,190923,,,A*4C
$GPGGA,165716.750,4308.3363,N,07726.5082,W,1,08,1.27,159.3,M,-34.4,M,,*53
$GPRMC,165717.000,A,4308.3334,N,07726.5085,W,41.61,185.48,190923,,,A*49
$GPGGA,165717.250,4308.3304,N,07726.5088,W,1,08,1.21,159.4,M,-34.4,M,,*5D
$GPRMC,165717.500,A,4308.3275,N,07726.5091,W,41.66,185.22,190923,,,A*46
$GPGGA,165717.750,4308.3246,N,07726.5094,W,1,08,1.27,159.6,M,-34.4,M,,*56
$GPRMC,165718.000,A,4308.3217,N,07726.5096,W,41.60,184.42,190923,,,A*4E
$GPGGA,165718.250,4308.3189,N,07726.5098,W,1,08,1.21,159.8,M,-34.4,M,,*58
$GPRMC,165718.500,A,4308.3160,N,07726.5099,W,41.00,183.38,190923,,,A*4B
$GPGGA,165718.750,4308.3132,N,07726.5101,W,1,08,1.27,160.0,M,-34.4,M,,*58
$GPRMC,165719.000,A,4308.3103,N,07726.5102,W,40.67,182.88,190923,,,A*43
$GPGGA,165719.250,4308.3075,N,07726.5103,W,1,08,1.27,160.2,M,-34.4,M,,*5E
$GPRMC,165719.500,A,4308.3048,N,07726.5105,W,40.40,183.14,190923,,,A*4E
$GPGGA,165719.750,4308.3020,N,07726.5106,W,1,08,1.21,160.4,M,-34.4,M,,*5E
$GPRMC,165720.000,A,4308.2993,N,07726.5107,W,39.21,182.83,190923,,,A*4B
$GPGGA,165720.250,4308.2966,N,07726.5108,W,1,08,1.21,160.6,M,-34.4,M,,*57
$GPRMC,165720.500,A,4308.2939,N,07726.5109,W,38.94,182.06,190923,,,A*42
$GPGGA,165720.750,4308.2913,N,07726.5109,W,1,08,1.21,160.9,M,-34.4,M,,*5E
$GPRMC,165721.000,A,4308.2886,N,07726.5110,W,37.92,181.82,190923,,,A*4D
$GPGGA,165721.250,4308.2860,N,07726.5110,W,1,08,1.21,161.1,M,-34.4,M,,*5E
$GPRMC,165721.500,A,4308.2834,N,07726.5110,W,37.66,181.39,190923,,,A*4A
$GPGGA,165721.750,4308.2807,N,07726.5110,W,1,08,1.21,161.3,M,-34.4,M,,*58
$GPRMC,165722.000,A,4308.2781,N,07726.5109,W,37.61,180.41,190923,,,A*4C
$GPGGA,165722.250,4308.2754,N,07726.5109,W,1,08,1.21,161.4,M,-34.4,M,,*58
$GPRMC,165722.500,A,4308.2728,N,07726.5110,W,37.37,181.23,190923,,,A*44
$GPGGA,165722.750,4308.2701,N,07726.5110,W,1,08,1.27,161.6,M,-34.4,M,,*51
$GPRMC,165723.000,A,4308.2674,N,07726.5110,W,37.77,181.32,190923,,,A*4C
$GPGGA,165723.250,4308.2647,N,07726.5110,W,1,08,1.27,161.6,M,-34.4,M,,*56
$GPRMC,165723.500,A,4308.2620,N,07726.5110,W,38.20,180.80,190923,,,A*4D
$GPGGA,165723.750,4308.2593,N,07726.5109,W,1,08,1.26,161.7,M,-34.4,M,,*51
$GPRMC,165724.000,A,4308.2566,N,07726.5110,W,38.26,180.79,190923,,,A*4E
$GPGGA,165724.250,4308.2539,N,07726.5110,W,1,08,1.21,161.9,M,-34.4,M,,*52
$GPRMC,165724.500,A,4308.2512,N,07726.5110,W,38.19,181.02,190923,,,A*49
$GPGGA,165724.750,4308.2486,N,07726.5109,W,1,08,1.21,161.9,M,-34.4,M,,*5A
$GPRMC,165725.000,A,4308.2460,N,07726.5109,W,37.94,180.77,190923,,,A*48
$GPGGA,165725.250,4308.2434,N,07726.5109,W,1,08,1.21,162.1,M,-34.4,M,,*5C
$GPRMC,165725.500,A,4308.2408,N,07726.5109,W,37.53,180.88,190923,,,A*48
$GPGGA,165725.750,4308.2382,N,07726.5108,W,1,08,1.27,162.2,M,-34.4,M,,*57
$GPRMC,165726.000,A,4308.2356,N,07726.5107,W,37.38,180.55,190923,,,A*41
$GPGGA,165726.250,4308.2329,N,07726.5107,W,1,08,1.21,162.3,M,-34.4,M,,*58
$GPRMC,165726.500,A,4308.2303,N,07726.5106,W,37.26,180.84,190923,,,A*46
$GPGGA,165726.750,4308.2277,N,07726.5107,W,1,08,1.26,162.2,M,-34.4,M,,*51
$GPRMC,165727.000,A,4308.2251,N,07726.5107,W,36.98,181.24,190923,,,A*4A
$GPGGA,165727.250,4308.2226,N,07726.5106,W,1,08,1.26,162.3,M,-34.4,M,,*51
$GPRMC,165727.500,A,4308.2200,N,07726.5105,W,37.02,181.12,190923,,,A*4E
$GPGGA,165727.750,4308.2174,N,07726.5105,W,1,08,1.21,162.2,M,-34.4,M,,*55
$GPRMC,165728.000,A,4308.2148,N,07726.5105,W,36.99,181.69,190923,,,A*44
$GPGGA,165728.250,4308.2122,N,07726.5106,W,1,08,1.21,162.1,M,-34.4,M,,*5C
$GPRMC,165728.500,A,4308.2096,N,07726.5106,W,36.78,181.58,190923,,,A*4D
$GPGGA,165728.750,4308.2070,N,07726.5107,W,1,08,1.26,162.0,M,-34.4,M,,*58
$GPRMC,165729.000,A,4308.2045,N,07726.5107,W,36.68,181.16,190923,,,A*4D
$GPGGA,165729.250,4308.2020,N,07726.5106,W,1,08,1.21,161.9,M,-34.4,M,,*55
$GPRMC,165729.500,A,4308.1994,N,07726.5106,W,36.45,180.58,190923,,,A*4B
$GPGGA,165729.750,4308.1969,N,07726.5105,W,1,08,1.27,161.8,M,-34.4,M,,*53
$GPRMC,165730.000,A,4308.1943,N,07726.5105,W,36.50,180.36,190923,,,A*43
$GPGGA,165730.250,4308.1917,N,07726.5105,W,1,08,1.27,161.7,M,-34.4,M,,*58
$GPRMC,165730.500,A,4308.1892,N,07726.5105,W,36.29,180.64,190923,,,A*42
$GPGGA,165730.750,4308.1866,N,07726.5105,W,1,08,1.27,161.6,M,-34.4,M,,*5B
$GPRMC,165731.000,A,4308.1841,N,07726.5105,W,36.08,180.46,190923,,,A*4B
$GPGGA,165731.250,4308.1815,N,07726.5105,W,1,08,1.26,161.5,M,-34.4,M,,*59
$GPRMC,165731.500,A,4308.1790,N,07726.5106,W,35.65,180.45,190923,,,A*45
$GPGGA,165731.750,4308.1765,N,07726.5106,W,1,08,1.27,161.4,M,-34.4,M,,*57
$GPRMC,165732.000,A,4308.1740,N,07726.5107,W,35.27,181.01,190923,,,A*48
$GPGGA,165732.250,4308.1715,N,07726.5107,W,1,08,1.26,161.3,M,-34.4,M,,*51
$GPRMC,165732.500,A,4308.1691,N,07726.5108,W,35.05,181.01,190923,,,A*4F
$GPGGA,165732.750,4308.1667,N,07726.5108,W,1,08,1.26,161.0,M,-34.4,M,,*5C
$GPRMC,165733.000,A,4308.1642,N,07726.5109,W,34.97,181.11,190923,,,A*4F
$GPGGA,165733.250,4308.1617,N,07726.5110,W,1,08,1.26,160.9,M,-34.4,M,,*5E
$GPRMC,165733.500,A,4308.1593,N,07726.5111,W,34.70,181.95,190923,,,A*49
$GPGGA,165733.750,4308.1569,N,07726.5112,W,1,08,1.26,160.7,M,-34.4,M,,*5D
$GPRMC,165734.000,A,4308.1545,N,07726.5113,W,34.63,181.68,190923,,,A*42
$GPGGA,165734.250,4308.1521,N,07726.5114,W,1,08,1.26,160.5,M,-34.4,M,,*57
$GPRMC,165734.500,A,4308.1497,N,07726.5115,W,34.22,181.26,190923,,,A*40
$GPGGA,165734.750,4308.1473,N,07726.5116,W,1,08,1.26,160.4,M,-34.4,M,,*57
$GPRMC,165735.000,A,4308.1449,N,07726.5117,W,34.22,181.22,190923,,,A*41
$GPGGA,165735.250,4308.1425,N,07726.5118,W,1,08,1.21,160.3,M,-34.4,M,,*5E
$GPRMC,165735.500,A,4308.1401,N,07726.5118,W,34.44,180.85,190923,,,A*4B
$GPGGA,165735.750,4308.1377,N,07726.5119,W,1,08,1.26,160.2,M,-34.4,M,,*5C
$GPRMC,165736.000,A,4308.1353,N,07726.5119,W,34.56,180.19,190923,,,A*4A
$GPGGA,165736.250,4308.1328,N,07726.5120,W,1,08,1.26,160.1,M,-34.4,M,,*59
$GPRMC,165736.500,A,4308.1303,N,07726.5120,W,34.68,180.70,190923,,,A*42
$GPGGA,165736.750,4308.1278,N,07726.5121,W,1,08,1.26,160.1,M,-34.4,M,,*59
$GPRMC,165737.000,A,4308.1253,N,07726.5122,W,35.69,181.21,190923,,,A*45
$GPGGA,165737.250,4308.1228,N,07726.5123,W,1,08,1.26,160.0,M,-34.4,M,,*5B
$GPRMC,165737.500,A,4308.1203,N,07726.5125,W,36.09,182.06,190923,,,A*41
$GPGGA,165737.750,4308.1177,N,07726.5127,W,1,08,1.26,159.9,M,-34.4,M,,*50
$GPRMC,165738.000,A,4308.1151,N,07726.5129,W,36.40,182.23,190923,,,A*49
$GPGGA,165738.250,4308.1124,N,07726.5131,W,1,08,1.26,159.9,M,-34.4,M,,*5B
$GPRMC,165738.500,A,4308.1098,N,07726.5132,W,36.61,182.45,190923,,,A*41
$GPGGA,165738.750,4308.1070,N,07726.5134,W,1,08,1.26,159.6,M,-34.4,M,,*54
$GPRMC,165739.000,A,4308.1044,N,07726.5136,W,37.86,182.55,190923,,,A*49
$GPGGA,165739.250,4308.1017,N,07726.5138,W,1,08,1.26,159.5,M,-34.4,M,,*5E
$GPRMC,165739.500,A,4308.0990,N,07726.5139,W,38.29,181.46,190923,,,A*49
$GPGGA,165739.750,4308.0963,N,07726.5140,W,1,08,1.26,159.3,M,-34.4,M,,*59
$GPRMC,165740.000,A,4308.0936,N,07726.5141,W,38.72,180.24,190923,,,A*4A
$GPGGA,165740.250,4308.0908,N,07726.5141,W,1,08,1.26,159.1,M,-34.4,M,,*5C
$GPRMC,165740.500,A,4308.0881,N,07726.5141,W,39.00,178.74,190923,,,A*44
$GPGGA,165740.750,4308.0853,N,07726.5140,W,1,08,1.26,158.9,M,-34.4,M,,*5E
$GPRMC,165741.000,A,4308.0826,N,07726.5139,W,39.04,177.87,190923,,,A*45
$GPGGA,165741.250,4308.0797,N,07726.5138,W,1,08,1.26,158.6,M,-34.4,M,,*5D
$GPRMC,165741.500,A,4308.0770,N,07726.5137,W,39.42,177.73,190923,,,A*4B
$GPGGA,165741.750,4308.0741,N,07726.5136,W,1,08,1.27,158.3,M,-34.4,M,,*59
$GPRMC,165742.000,A,4308.0713,N,07726.5135,W,39.70,177.69,190923,,,A*40
$GPGGA,165742.250,4308.0684,N,07726.5134,W,1,08,1.26,158.0,M,-34.4,M,,*57
$GPRMC,165742.500,A,4308.0656,N,07726.5133,W,39.80,177.52,190923,,,A*44
$GPGGA,165742.750,4308.0627,N,07726.5131,W,1,08,1.26,157.6,M,-34.4,M,,*57
$GPRMC,165743.000,A,4308.0599,N,07726.5129,W,39.93,176.87,190923,,,A*40
$GPGGA,165743.250,4308.0570,N,07726.5127,W,1,08,1.26,157.4,M,-34.4,M,,*57
$GPRMC,165743.500,A,4308.0541,N,07726.5125,W,40.64,176.17,190923,,,A*43
$GPGGA,165743.750,4308.0512,N,07726.5122,W,1,08,1.26,156.8,M,-34.4,M,,*5E
$GPRMC,165744.000,A,4308.0484,N,07726.5119,W,41.00,175.71,190923,,,A*46
$GPGGA,165744.250,4308.0455,N,07726.5116,W,1,08,1.26,156.5,M,-34.4,M,,*54
$GPRMC,165744.500,A,4308.0426,N,07726.5113,W,41.36,175.35,190923,,,A*44
$GPGGA,165744.750,4308.0397,N,07726.5110,W,1,08,1.26,156.0,M,-34.4,M,,*5B
$GPRMC,165745.000,A,4308.0369,N,07726.5107,W,41.38,174.70,190923,,,A*47
$GPGGA,165745.250,4308.0340,N,07726.5104,W,1,08,1.26,155.8,M,-34.3,M,,*5C
$GPRMC,165745.500,A,4308.0311,N,07726.5100,W,41.66,174.46,190923,,,A*44
$GPGGA,165745.750,4308.0282,N,07726.5096,W,1,08,1.26,155.6,M,-34.3,M,,*52
$GPRMC,165746.000,A,4308.0253,N,07726.5092,W,42.05,173.93,190923,,,A*46
$GPGGA,165746.250,4308.0224,N,07726.5088,W,1,08,1.26,155.4,M,-34.3,M,,*55
$GPRMC,165746.500,A,4308.0194,N,07726.5083,W,42.11,173.27,190923,,,A*41
$GPGGA,165746.750,4308.0165,N,07726.5079,W,1,08,1.26,155.3,M,-34.3,M,,*5F
$GPRMC,165747.000,A,4308.0136,N,07726.5074,W,42.22,173.16,190923,,,A*47
$GPGGA,165747.250,4308.0107,N,07726.5069,W,1,08,1.26,155.2,M,-34.3,M,,*5F
$GPRMC,165747.500,A,4308.0077,N,07726.5064,W,42.50,172.98,190923,,,A*45
$GPGGA,165747.750,4308.0048,N,07726.5059,W,1,08,1.26,155.2,M,-34.3,M,,*53
$GPRMC,165748.000,A,4308.0019,N,07726.5054,W,42.40,172.74,190923,,,A*47
$GPGGA,165748.250,4307.9990,N,07726.5048,W,1,08,1.26,155.2,M,-34.3,M,,*53
$GPRMC,165748.500,A,4307.9961,N,07726.5043,W,42.18,172.20,190923,,,A*48
$GPGGA,165748.750,4307.9933,N,07726.5037,W,1,08,1.26,155.3,M,-34.3,M,,*56
$GPRMC,165749.000,A,4307.9904,N,07726.5031,W,41.67,171.89,190923,,,A*41
$GPGGA,165749.250,4307.9876,N,07726.5026,W,1,08,1.26,155.3,M,-34.3,M,,*52
$GPRMC,165749.500,A,4307.9848,N,07726.5020,W,41.54,171.25,190923,,,A*4B
$GPGGA,165749.750,4307.9819,N,07726.5014,W,1,08,1.26,155.3,M,-34.3,M,,*5F
$GPRMC,165750.000,A,4307.9792,N,07726.5008,W,40.52,171.22,190923,,,A*44
$GPGGA,165750.250,4307.9764,N,07726.5002,W,1,08,1.26,155.3,M,-34.3,M,,*50
$GPRMC,165750.500,A,4307.9737,N,07726.4997,W,39.66,170.80,190923,,,A*40
$GPGGA,165750.750,4307.9709,N,07726.4991,W,1,08,1.26,155.2,M,-34.3,M,,*5D
$GPRMC,165751.000,A,4307.9682,N,07726.4985,W,39.25,171.07,190923,,,A*41
$GPGGA,165751.250,4307.9655,N,07726.4980,W,1,08,1.26,155.2,M,-34.3,M,,*51
$GPRMC,165751.500,A,4307.9629,N,07726.4974,W,38.84,171.24,190923,,,A*40
$GPGGA,165751.750,4307.9602,N,07726.4969,W,1,08,1.26,155.1,M,-34.3,M,,*52
$GPRMC,165752.000,A,4307.9576,N,07726.4964,W,38.60,171.76,190923,,,A*43
$GPGGA,165752.250,4307.9549,N,07726.4959,W,1,08,1.26,155.1,M,-34.3,M,,*5B
$GPRMC,165752.500,A,4307.9523,N,07726.4954,W,38.41,172.15,190923,,,A*40
$GPGGA,165752.750,4307.9496,N,07726.4950,W,1,08,1.26,155.0,M,-34.3,M,,*55
$GPRMC,165753.000,A,4307.9470,N,07726.4945,W,37.87,172.25,190923,,,A*45
$GPGGA,165753.250,4307.9444,N,07726.4941,W,1,08,1.26,155.0,M,-34.3,M,,*5E
$GPRMC,165753.500,A,4307.9418,N,07726.4936,W,37.77,172.68,190923,,,A*4C
$GPGGA,165753.750,4307.9392,N,07726.4932,W,1,08,1.26,155.0,M,-34.3,M,,*53
$GPRMC,165754.000,A,4307.9365,N,07726.4928,W,37.50,173.61,190923,,,A*41
$GPGGA,165754.250,4307.9339,N,07726.4925,W,1,08,1.26,154.9,M,-34.3,M,,*5E
$GPRMC,165754.500,A,4307.9313,N,07726.4922,W,37.47,175.05,190923,,,A*4D
$GPGGA,165754.750,4307.9287,N,07726.4920,W,1,08,1.26,154.8,M,-34.3,M,,*5B
$GPRMC,165755.000,A,4307.9261,N,07726.4918,W,37.33,176.39,190923,,,A*4B
$GPGGA,165755.250,4307.9236,N,07726.4916,W,1,08,1.26,154.7,M,-34.3,M,,*5F
$GPRMC,165755.500,A,4307.9210,N,07726.4914,W,37.21,176.78,190923,,,A*42
$GPGGA,165755.750,4307.9184,N,07726.4912,W,1,08,1.26,154.5,M,-34.3,M,,*56
$GPRMC,165756.000,A,4307.9159,N,07726.4910,W,37.04,176.31,190923,,,A*44
$GPGGA,165756.250,4307.9134,N,07726.4907,W,1,08,1.26,154.4,M,-34.3,M,,*5E
$GPRMC,165756.500,A,4307.9108,N,07726.4905,W,35.87,175.97,190923,,,A*47
$GPGGA,165756.750,4307.9083,N,07726.4903,W,1,08,1.26,154.1,M,-34.3,M,,*57
$GPRMC,165757.000,A,4307.9058,N,07726.4900,W,35.49,175.80,190923,,,A*46
$GPGGA,165757.250,4307.9034,N,07726.4898,W,1,08,1.26,154.1,M,-34.3,M,,*5C
$GPRMC,165757.500,A,4307.9010,N,07726.4895,W,35.05,175.15,190923,,,A*46
$GPGGA,165757.750,4307.8986,N,07726.4893,W,1,08,1.26,154.0,M,-34.3,M,,*52
$GPRMC,165758.000,A,4307.8962,N,07726.4890,W,33.83,174.88,190923,,,A*49
$GPGGA,165758.250,4307.8939,N,07726.4887,W,1,08,1.26,153.8,M,-34.3,M,,*56
$GPRMC,165758.500,A,4307.8917,N,07726.4885,W,32.14,175.21,190923,,,A*47
$GPGGA,165758.750,4307.8895,N,07726.4882,W,1,08,1.26,153.6,M,-34.3,M,,*5F
$GPRMC,165759.000,A,4307.8873,N,07726.4880,W,30.83,175.59,190923,,,A*46
$GPGGA,165759.250,4307.8854,N,07726.4877,W,1,08,1.26,153.4,M,-34.3,M,,*5E
$GPRMC,165759.500,A,4307.8834,N,07726.4875,W,28.30,176.40,190923,,,A*40
$GPGGA,165759.750,4307.8814,N,07726.4874,W,1,08,1.26,153.1,M,-34.3,M,,*59
$GPRMC,165800.000,A,4307.8795,N,07726.4872,W,26.46,177.17,190923,,,A*49
$GPGGA,165800.250,4307.8777,N,07726.4871,W,1,08,1.26,152.9,M,-34.3,M,,*59
$GPRMC,165800.500,A,4307.8760,N,07726.4870,W,24.55,177.12,190923,,,A*41
$GPGGA,165800.750,4307.8743,N,07726.4869,W,1,08,1.26,152.6,M,-34.3,M,,*5D
$GPRMC,165801.000,A,4307.8726,N,07726.4867,W,23.71,176.67,190923,,,A*43
$GPGGA,165801.250,4307.8709,N,07726.4866,W,1,08,1.26,152.5,M,-34.3,M,,*5B
$GPRMC,165801.500,A,4307.8692,N,07726.4866,W,23.68,177.31,190923,,,A*43
$GPGGA,165801.750,4307.8676,N,07726.4865,W,1,08,1.26,152.2,M,-34.3,M,,*53
$GPRMC,165802.000,A,4307.8660,N,07726.4864,W,22.51,179.55,190923,,,A*4D
$GPGGA,165802.250,4307.8645,N,07726.4864,W,1,08,1.26,152.2,M,-34.3,M,,*54
$GPRMC,165802.500,A,4307.8630,N,07726.4865,W,20.55,184.16,190923,,,A*4F
$GPGGA,165802.750,4307.8616,N,07726.4867,W,1,08,1.26,152.2,M,-34.3,M,,*54
$GPRMC,165803.000,A,4307.8602,N,07726.4870,W,20.30,186.61,190923,,,A*4F
$GPGGA,165803.250,4307.8588,N,07726.4873,W,1,08,1.26,152.2,M,-34.3,M,,*51
$GPRMC,165803.500,A,4307.8575,N,07726.4876,W,19.69,189.74,190923,,,A*42
$GPGGA,165803.750,4307.8562,N,07726.4880,W,1,08,1.26,152.2,M,-34.3,M,,*5C
$GPRMC,165804.000,A,4307.8551,N,07726.4885,W,18.69,196.02,190923,,,A*44
$GPGGA,165804.250,4307.8539,N,07726.4891,W,1,08,1.21,152.3,M,-34.3,M,,*56
$GPRMC,165804.500,A,4307.8531,N,07726.4900,W,17.22,204.58,190923,,,A*4C
$GPGGA,165804.750,4307.8523,N,07726.4909,W,1,08,1.26,152.3,M,-34.3,M,,*5F
$GPRMC,165805.000,A,4307.8516,N,07726.4918,W,16.49,211.53,190923,,,A*47
$GPGGA,165805.250,4307.8510,N,07726.4928,W,1,08,1.21,152.3,M,-34.3,M,,*5F
$GPRMC,165805.500,A,4307.8502,N,07726.4938,W,15.48,216.30,190923,,,A*45
$GPGGA,165805.750,4307.8497,N,07726.4950,W,1,08,1.21,152.3,M,-34.3,M,,*5B
$GPRMC,165806.000,A,4307.8493,N,07726.4964,W,15.05,224.26,190923,,,A*4C
$GPGGA,165806.250,4307.8488,N,07726.4978,W,1,08,1.21,152.1,M,-34.3,M,,*5B
$GPRMC,165806.500,A,4307.8485,N,07726.4992,W,14.63,229.59,190923,,,A*43
$GPGGA,165806.750,4307.8482,N,07726.5009,W,1,08,1.21,152.0,M,-34.3,M,,*5B
$GPRMC,165807.000,A,4307.8482,N,07726.5028,W,14.83,239.08,190923,,,A*42
$GPGGA,165807.250,4307.8480,N,07726.5046,W,1,08,1.21,151.9,M,-34.3,M,,*5C
$GPRMC,165807.500,A,4307.8479,N,07726.5066,W,15.75,245.19,190923,,,A*4A
$GPGGA,165807.750,4307.8481,N,07726.5089,W,1,08,1.21,151.9,M,-34.3,M,,*5B
$GPRMC,165808.000,A,4307.8482,N,07726.5112,W,17.84,255.14,190923,,,A*46
$GPGGA,165808.250,4307.8487,N,07726.5143,W,1,08,1.21,151.9,M,-34.3,M,,*50
$GPRMC,165808.500,A,4307.8490,N,07726.5169,W,21.82,264.86,190923,,,A*46
$GPGGA,165808.750,4307.8495,N,07726.5198,W,1,08,1.26,151.8,M,-34.3,M,,*56
$GPRMC,165809.000,A,4307.8497,N,07726.5223,W,24.60,271.21,190923,,,A*48
$GPGGA,165809.250,4307.8499,N,07726.5250,W,1,08,1.26,151.7,M,-34.3,M,,*56
$GPRMC,165809.500,A,4307.8501,N,07726.5277,W,25.82,271.86,190923,,,A*42
$GPGGA,165809.750,4307.8503,N,07726.5304,W,1,08,1.26,151.6,M,-34.3,M,,*50
$GPRMC,165810.000,A,4307.8504,N,07726.5331,W,27.08,271.07,190923,,,A*40
$GPGGA,165810.250,4307.8506,N,07726.5359,W,1,08,1.26,151.4,M,-34.3,M,,*52
$GPRMC,165810.500,A,4307.8506,N,07726.5387,W,28.23,269.94,190923,,,A*4F
$GPGGA,165810.750,4307.8507,N,07726.5417,W,1,08,1.26,151.4,M,-34.3,M,,*5B
$GPRMC,165811.000,A,4307.8507,N,07726.5445,W,29.43,268.89,190923,,,A*49
$GPGGA,165811.250,4307.8507,N,07726.5475,W,1,08,1.26,151.4,M,-34.3,M,,*5B
$GPRMC,165811.500,A,4307.8507,N,07726.5505,W,30.28,268.28,190923,,,A*47
$GPGGA,165811.750,4307.8508,N,07726.5536,W,1,08,1.26,151.5,M,-34.3,M,,*56
$GPRMC,165812.000,A,4307.8508,N,07726.5567,W,30.85,268.88,190923,,,A*47
$GPGGA,165812.250,4307.8508,N,07726.5599,W,1,08,1.26,151.4,M,-34.3,M,,*54
$GPRMC,165812.500,A,4307.8509,N,07726.5630,W,32.04,268.94,190923,,,A*44
$GPGGA,165812.750,4307.8509,N,07726.5663,W,1,08,1.26,151.4,M,-34.3,M,,*56
$GPRMC,165813.000,A,4307.8509,N,07726.5695,W,33.04,269.61,190923,,,A*45
$GPGGA,165813.250,4307.8510,N,07726.5728,W,1,08,1.26,151.4,M,-34.3,M,,*54
$GPRMC,165813.500,A,4307.8510,N,07726.5761,W,33.75,270.46,190923,,,A*49
$GPGGA,165813.750,4307.8511,N,07726.5794,W,1,08,1.26,151.4,M,-34.3,M,,*57
$GPRMC,165814.000,A,4307.8512,N,07726.5827,W,33.97,270.57,190923,,,A*48
$GPGGA,165814.250,4307.8512,N,07726.5860,W,1,08,1.26,151.3,M,-34.3,M,,*55
$GPRMC,165814.500,A,4307.8512,N,07726.5894,W,34.27,270.55,190923,,,A*4B
$GPGGA,165814.750,4307.8513,N,07726.5928,W,1,08,1.26,151.1,M,-34.3,M,,*5E
$GPRMC,165815.000,A,4307.8513,N,07726.5961,W,34.40,270.36,190923,,,A*41
$GPGGA,165815.250,4307.8513,N,07726.5995,W,1,08,1.26,151.0,M,-34.3,M,,*5D
$GPRMC,165815.500,A,4307.8514,N,07726.6028,W,34.46,270.23,190923,,,A*46
$GPGGA,165815.750,4307.8514,N,07726.6062,W,1,08,1.26,150.8,M,-34.3,M,,*54
$GPRMC,165816.000,A,4307.8514,N,07726.6095,W,34.61,270.30,190923,,,A*41
$GPGGA,165816.250,4307.8515,N,07726.6129,W,1,08,1.26,150.7,M,-34.3,M,,*52
$GPRMC,165816.500,A,4307.8515,N,07726.6163,W,34.48,269.94,190923,,,A*40
$GPGGA,165816.750,4307.8515,N,07726.6196,W,1,08,1.26,150.7,M,-34.3,M,,*53
$GPRMC,165817.000,A,4307.8516,N,07726.6229,W,34.48,270.00,190923,,,A*4F
$GPGGA,165817.250,4307.8516,N,07726.6263,W,1,08,1.26,150.6,M,-34.3,M,,*5C
