Vers 81
USE_SERIAL_FEEDBACK=true
DEVELOPMENT_MODE=false
USE_RMC_ONLY=false

$GPRMC,204528.000,A,4305.3104,N,07740.7329,W,0.04,70.87,290823,,,A*44
$GPGGA,204528.250,4305.3105,N,07740.7329,W,1,03,2.22,184.4,M,-34.4,M,,*58
$GPRMC,204528.500,A,4305.3105,N,07740.7329,W,0.00,262.73,290823,,,A*7E
$GPGGA,204528.750,4305.3105,N,07740.7329,W,1,03,2.22,184.4,M,-34.4,M,,*5D
$GPRMC,204529.000,A,4305.3106,N,07740.7329,W,0.04,28.83,290823,,,A*4E
$GPGGA,204529.250,4305.3106,N,07740.7330,W,1,03,2.22,184.4,M,-34.4,M,,*52
$GPRMC,204529.500,A,4305.3106,N,07740.7330,W,0.03,293.19,290823,,,A*75
$GPGGA,204529.750,4305.3106,N,07740.7331,W,1,03,2.22,184.4,M,-34.4,M,,*56
$GPRMC,204530.000,A,4305.3106,N,07740.7331,W,0.08,282.08,290823,,,A*72
$GPGGA,204530.250,4305.3106,N,07740.7332,W,1,03,2.22,184.4,M,-34.4,M,,*58
$GPRMC,204530.500,A,4305.3106,N,07740.7332,W,0.04,285.89,290823,,,A*76
$GPGGA,204530.750,4305.3106,N,07740.7333,W,1,03,2.22,184.4,M,-34.4,M,,*5C
$GPRMC,204531.000,A,4305.3106,N,07740.7334,W,0.02,292.10,290823,,,A*74
$GPGGA,204531.250,4305.3106,N,07740.7334,W,1,03,2.22,184.4,M,-34.4,M,,*5F
$GPRMC,204531.500,A,4305.3106,N,07740.7334,W,0.01,304.57,290823,,,A*7F
$GPGGA,204531.750,4305.3106,N,07740.7335,W,1,03,2.22,184.4,M,-34.4,M,,*5B
$GPRMC,204532.000,A,4305.3106,N,07740.7335,W,0.01,230.87,290823,,,A*73
$GPGGA,204532.096,4305.3105,N,07740.7364,W,1,06,1.91,174.7,M,-34,M,,*50
$GPRMC,204532.500,A,4305.3104,N,07740.7364,W,0.12,214.67,290823,,,A*7A
$GPGGA,204532.750,4305.3104,N,07740.7364,W,1,06,1.91,174.9,M,-34.4,M,,*52
$GPRMC,204533.000,A,4305.3105,N,07740.7363,W,0.05,200.53,290823,,,A*7C
$GPGGA,204533.250,4305.3105,N,07740.7363,W,1,06,1.91,174.9,M,-34.4,M,,*50
$GPRMC,204533.500,A,4305.3105,N,07740.7363,W,0.04,243.40,290823,,,A*7D
$GPGGA,204533.750,4305.3106,N,07740.7363,W,1,06,1.91,174.6,M,-34.4,M,,*59
$GPRMC,204534.000,A,4305.3106,N,07740.7363,W,0.05,128.23,290823,,,A*76
$GPGGA,204534.250,4305.3106,N,07740.7364,W,1,06,1.91,174.3,M,-34.4,M,,*59
$GPRMC,204534.500,A,4305.3107,N,07740.7363,W,0.04,82.00,290823,,,A*43
$GPGGA,204534.750,4305.3107,N,07740.7363,W,1,06,1.91,174.0,M,-34.4,M,,*59
$GPRMC,204535.000,A,4305.3107,N,07740.7364,W,0.01,199.29,290823,,,A*75
$GPGGA,204535.250,4305.3108,N,07740.7364,W,1,06,1.91,173.8,M,-34.4,M,,*5A
$GPRMC,204535.500,A,4305.3108,N,07740.7364,W,0.04,27.30,290823,,,A*46
$GPGGA,204535.750,4305.3108,N,07740.7364,W,1,06,1.91,173.5,M,-34.4,M,,*52
$GPRMC,204536.000,A,4305.3108,N,07740.7364,W,0.04,63.39,290823,,,A*49
$GPGGA,204536.250,4305.3108,N,07740.7365,W,1,06,1.91,173.2,M,-34.4,M,,*52
$GPRMC,204536.500,A,4305.3108,N,07740.7365,W,0.03,178.07,290823,,,A*7C
$GPGGA,204536.750,4305.3108,N,07740.7365,W,1,06,1.91,173.0,M,-34.4,M,,*55
$GPRMC,204537.000,A,4305.3108,N,07740.7365,W,0.01,134.25,290823,,,A*72
$GPGGA,204537.250,4305.3108,N,07740.7365,W,1,06,1.91,173.0,M,-34.4,M,,*51
$GPRMC,204537.500,A,4305.3108,N,07740.7366,W,0.01,136.80,290823,,,A*79
$GPGGA,204537.750,4305.3108,N,07740.7366,W,1,06,1.91,172.8,M,-34.4,M,,*5E
$GPRMC,204538.000,A,4305.3108,N,07740.7366,W,0.01,292.80,290823,,,A*7E
$GPGGA,204538.250,4305.3108,N,07740.7367,W,1,06,1.91,172.6,M,-34.4,M,,*5B
$GPRMC,204538.500,A,4305.3108,N,07740.7367,W,0.06,140.99,290823,,,A*79
$GPGGA,204538.750,4305.3107,N,07740.7367,W,1,06,1.91,172.4,M,-34.4,M,,*53
$GPRMC,204539.000,A,4305.3107,N,07740.7367,W,0.01,324.39,290823,,,A*7F
$GPGGA,204539.250,4305.3107,N,07740.7367,W,1,06,1.91,172.2,M,-34.4,M,,*51
$GPRMC,204539.500,A,4305.3107,N,07740.7368,W,0.03,11.16,290823,,,A*4F
$GPGGA,204539.750,4305.3106,N,07740.7368,W,1,06,1.97,171.8,M,-34.4,M,,*55
$GPRMC,204540.000,A,4305.3106,N,07740.7368,W,0.08,324.31,290823,,,A*7E
$GPGGA,204540.250,4305.3105,N,07740.7369,W,1,06,1.91,171.6,M,-34.4,M,,*54
$GPRMC,204540.500,A,4305.3105,N,07740.7369,W,0.07,315.17,290823,,,A*70
$GPGGA,204540.750,4305.3104,N,07740.7369,W,1,06,1.91,171.5,M,-34.4,M,,*53
$GPRMC,204541.000,A,4305.3104,N,07740.7370,W,0.12,290.95,290823,,,A*7F
$GPGGA,204541.250,4305.3103,N,07740.7370,W,1,06,1.91,171.4,M,-34.4,M,,*59
$GPRMC,204541.500,A,4305.3102,N,07740.7371,W,0.17,263.89,290823,,,A*79
$GPGGA,204541.750,4305.3102,N,07740.7372,W,1,06,1.91,171.3,M,-34.4,M,,*58
$GPRMC,204542.000,A,4305.3102,N,07740.7372,W,0.14,251.25,290823,,,A*78
$GPGGA,204542.250,4305.3101,N,07740.7372,W,1,06,1.90,171.1,M,-34.4,M,,*5E
$GPRMC,204542.500,A,4305.3101,N,07740.7373,W,0.12,243.40,290823,,,A*79
$GPGGA,204542.750,4305.3100,N,07740.7373,W,1,06,1.91,171.0,M,-34.4,M,,*5B
$GPRMC,204543.000,A,4305.3100,N,07740.7373,W,0.18,210.09,290823,,,A*7D
$GPGGA,204543.250,4305.3099,N,07740.7374,W,1,06,1.91,170.9,M,-34.4,M,,*51
$GPRMC,204543.500,A,4305.3098,N,07740.7374,W,0.31,193.30,290823,,,A*76
$GPGGA,204543.750,4305.3097,N,07740.7375,W,1,06,1.91,170.8,M,-34.4,M,,*5A
$GPRMC,204544.000,A,4305.3097,N,07740.7375,W,0.25,198.83,290823,,,A*7C
$GPGGA,204544.250,4305.3097,N,07740.7375,W,1,06,1.91,170.6,M,-34.4,M,,*56
$GPRMC,204544.500,A,4305.3097,N,07740.7376,W,0.22,194.98,290823,,,A*7B
$GPGGA,204544.750,4305.3097,N,07740.7376,W,1,06,1.91,170.4,M,-34.4,M,,*52
$GPRMC,204545.000,A,4305.3097,N,07740.7376,W,0.19,198.31,290823,,,A*78
$GPGGA,204545.250,4305.3097,N,07740.7377,W,1,06,1.91,170.2,M,-34.4,M,,*51
$GPRMC,204545.500,A,4305.3097,N,07740.7377,W,0.14,198.55,290823,,,A*73
$GPGGA,204545.750,4305.3097,N,07740.7377,W,1,06,1.90,169.9,M,-34.4,M,,*56
$GPRMC,204546.000,A,4305.3098,N,07740.7376,W,0.09,7.04,290823,,,A*74
$GPGGA,204546.250,4305.3098,N,07740.7376,W,1,06,1.97,169.7,M,-34.4,M,,*57
$GPRMC,204546.500,A,4305.3098,N,07740.7376,W,0.08,39.92,290823,,,A*42
$GPGGA,204546.750,4305.3097,N,07740.7378,W,1,06,1.91,169.5,M,-34.4,M,,*57
$GPRMC,204547.000,A,4305.3097,N,07740.7378,W,0.04,224.82,290823,,,A*74
$GPGGA,204547.250,4305.3097,N,07740.7378,W,1,06,1.91,169.3,M,-34.4,M,,*55
$GPRMC,204547.500,A,4305.3098,N,07740.7378,W,0.02,64.58,290823,,,A*49
$GPGGA,204547.750,4305.3097,N,07740.7378,W,1,06,1.91,169.2,M,-34.4,M,,*51
$GPRMC,204548.000,A,4305.3098,N,07740.7378,W,0.06,20.50,290823,,,A*4F
$GPGGA,204548.250,4305.3097,N,07740.7379,W,1,06,1.91,169.1,M,-34.4,M,,*59
$GPRMC,204548.500,A,4305.3098,N,07740.7379,W,0.04,141.53,290823,,,A*7C
$GPGGA,204548.750,4305.3098,N,07740.7378,W,1,06,1.91,169.0,M,-34.4,M,,*53
$GPRMC,204549.000,A,4305.3097,N,07740.7379,W,0.02,281.67,290823,,,A*79
$GPGGA,204549.250,4305.3097,N,07740.7379,W,1,06,1.91,168.9,M,-34.4,M,,*51
$GPRMC,204549.500,A,4305.3097,N,07740.7380,W,0.02,133.29,290823,,,A*7A
$GPGGA,204549.750,4305.3097,N,07740.7380,W,1,06,1.91,168.8,M,-34.4,M,,*53
$GPRMC,204550.000,A,4305.3097,N,07740.7380,W,0.05,49.50,290823,,,A*42
$GPGGA,204550.250,4305.3097,N,07740.7380,W,1,06,1.91,168.7,M,-34.4,M,,*51
$GPRMC,204550.500,A,4305.3097,N,07740.7380,W,0.04,68.55,290823,,,A*40
$GPGGA,204550.750,4305.3098,N,07740.7380,W,1,06,1.91,168.5,M,-34.4,M,,*59
$GPRMC,204551.000,A,4305.3097,N,07740.7380,W,0.03,307.32,290823,,,A*78
$GPGGA,204551.250,4305.3098,N,07740.7380,W,1,06,1.91,168.5,M,-34.4,M,,*5D
$GPRMC,204551.500,A,4305.3098,N,07740.7380,W,0.05,44.31,290823,,,A*43
$GPGGA,204551.750,4305.3098,N,07740.7380,W,1,06,1.91,168.3,M,-34.4,M,,*5E
$GPRMC,204552.000,A,4305.3098,N,07740.7381,W,0.04,238.24,290823,,,A*78
$GPGGA,204552.250,4305.3098,N,07740.7381,W,1,06,1.91,168.2,M,-34.4,M,,*58
$GPRMC,204552.500,A,4305.3098,N,07740.7381,W,0.02,34.42,290823,,,A*45
$GPGGA,204552.750,4305.3098,N,07740.7381,W,1,06,1.91,168.1,M,-34.4,M,,*5E
$GPRMC,204553.000,A,4305.3098,N,07740.7381,W,0.04,38.36,290823,,,A*48
$GPGGA,204553.250,4305.3098,N,07740.7381,W,1,06,1.91,168.0,M,-34.4,M,,*5B
$GPRMC,204553.500,A,4305.3098,N,07740.7381,W,0.07,207.00,290823,,,A*75
$GPGGA,204553.750,4305.3098,N,07740.7381,W,1,06,1.91,168.0,M,-34.4,M,,*5E
$GPRMC,204554.000,A,4305.3098,N,07740.7382,W,0.02,126.64,290823,,,A*73
$GPGGA,204554.250,4305.3098,N,07740.7382,W,1,06,1.91,167.9,M,-34.4,M,,*59
$GPRMC,204554.500,A,4305.3098,N,07740.7382,W,0.03,221.73,290823,,,A*75
$GPGGA,204554.750,4305.3098,N,07740.7382,W,1,06,1.91,167.8,M,-34.4,M,,*5D
$GPRMC,204555.000,A,4305.3098,N,07740.7382,W,0.02,198.14,290823,,,A*70
$GPGGA,204555.250,4305.3098,N,07740.7382,W,1,06,1.91,167.7,M,-34.4,M,,*56
$GPRMC,204555.500,A,4305.3098,N,07740.7382,W,0.04,284.04,290823,,,A*7C
$GPGGA,204555.750,4305.3098,N,07740.7383,W,1,06,1.91,167.6,M,-34.4,M,,*53
$GPRMC,204556.000,A,4305.3098,N,07740.7383,W,0.04,221.99,290823,,,A*70
$GPGGA,204556.250,4305.3098,N,07740.7383,W,1,06,1.91,167.5,M,-34.4,M,,*56
$GPRMC,204556.500,A,4305.3098,N,07740.7383,W,0.04,255.77,290823,,,A*76
$GPGGA,204556.750,4305.3099,N,07740.7382,W,1,06,1.91,167.4,M,-34.4,M,,*52
$GPRMC,204557.000,A,4305.3099,N,07740.7383,W,0.02,209.07,290823,,,A*7B
$GPGGA,204557.250,4305.3099,N,07740.7383,W,1,06,1.91,167.4,M,-34.4,M,,*57
$GPRMC,204557.500,A,4305.3099,N,07740.7383,W,0.04,257.44,290823,,,A*74
$GPGGA,204557.750,4305.3099,N,07740.7383,W,1,06,1.91,167.3,M,-34.4,M,,*55
$GPRMC,204558.000,A,4305.3099,N,07740.7383,W,0.04,164.42,290823,,,A*7B
$GPGGA,204558.250,4305.3099,N,07740.7383,W,1,06,1.91,167.3,M,-34.4,M,,*5F
$GPRMC,204558.500,A,4305.3100,N,07740.7383,W,0.06,50.93,290823,,,A*47
$GPGGA,204558.750,4305.3100,N,07740.7383,W,1,06,1.91,167.2,M,-34.4,M,,*5A
$GPRMC,204559.000,A,4305.3100,N,07740.7383,W,0.06,48.50,290823,,,A*45
$GPGGA,204559.250,4305.3101,N,07740.7383,W,1,06,1.91,167.1,M,-34.4,M,,*5C
$GPRMC,204559.500,A,4305.3101,N,07740.7383,W,0.04,19.98,290823,,,A*43
$GPGGA,204559.750,4305.3101,N,07740.7383,W,1,06,1.91,167.1,M,-34.4,M,,*59
$GPRMC,204600.000,A,4305.3101,N,07740.7383,W,0.01,220.40,290823,,,A*71
$GPGGA,204600.250,4305.3101,N,07740.7383,W,1,06,1.90,167.1,M,-34.4,M,,*52
$GPRMC,204600.500,A,4305.3101,N,07740.7383,W,0.02,117.74,290823,,,A*77
$GPGGA,204600.750,4305.3101,N,07740.7383,W,1,06,1.91,167.1,M,-34.4,M,,*56
$GPRMC,204601.000,A,4305.3101,N,07740.7383,W,0.05,61.41,290823,,,A*42
$GPGGA,204601.250,4305.3101,N,07740.7383,W,1,06,1.90,167.1,M,-34.4,M,,*53
$GPRMC,204601.500,A,4305.3101,N,07740.7383,W,0.02,57.59,290823,,,A*4C
$GPGGA,204601.750,4305.3101,N,07740.7383,W,1,06,1.91,167.1,M,-34.4,M,,*57
$GPRMC,204602.000,A,4305.3101,N,07740.7383,W,0.02,307.40,290823,,,A*74
$GPGGA,204602.250,4305.3101,N,07740.7383,W,1,06,1.91,167.1,M,-34.4,M,,*51
$GPRMC,204602.500,A,4305.3101,N,07740.7383,W,0.03,300.14,290823,,,A*76
$GPGGA,204602.750,4305.3101,N,07740.7383,W,1,06,1.91,167.1,M,-34.4,M,,*54
$GPRMC,204603.000,A,4305.3101,N,07740.7383,W,0.05,286.25,290823,,,A*79
$GPGGA,204603.250,4305.3101,N,07740.7383,W,1,06,1.91,167.1,M,-34.4,M,,*50
$GPRMC,204603.500,A,4305.3101,N,07740.7383,W,0.04,39.54,290823,,,A*4D
$GPGGA,204603.750,4305.3101,N,07740.7383,W,1,06,1.91,167.1,M,-34.4,M,,*55
$GPRMC,204604.000,A,4305.3101,N,07740.7383,W,0.06,318.84,290823,,,A*70
$GPGGA,204604.250,4305.3101,N,07740.7383,W,1,06,1.91,167.1,M,-34.4,M,,*57
$GPRMC,204604.500,A,4305.3101,N,07740.7383,W,0.27,328.95,290823,,,A*75
$GPGGA,204604.750,4305.3101,N,07740.7383,W,1,06,1.91,167.1,M,-34.4,M,,*52
$GPRMC,204605.000,A,4305.3102,N,07740.7383,W,0.91,324.24,290823,,,A*79
$GPGGA,204605.250,4305.3103,N,07740.7383,W,1,06,1.91,167.1,M,-34.4,M,,*54
$GPRMC,204605.500,A,4305.3104,N,07740.7384,W,2.06,346.68,290823,,,A*7D
$GPGGA,204605.750,4305.3106,N,07740.7384,W,1,06,1.97,167.2,M,-34.4,M,,*56
$GPRMC,204606.000,A,4305.3108,N,07740.7384,W,3.14,358.25,290823,,,A*73
$GPGGA,204606.250,4305.3110,N,07740.7385,W,1,06,1.97,167.2,M,-34.4,M,,*56
$GPRMC,204606.500,A,4305.3112,N,07740.7385,W,3.55,359.40,290823,,,A*7B
$GPGGA,204606.750,4305.3114,N,07740.7386,W,1,06,1.97,167.2,M,-34.4,M,,*54
$GPRMC,204607.000,A,4305.3117,N,07740.7386,W,3.88,1.17,290823,,,A*75
$GPGGA,204607.250,4305.3120,N,07740.7386,W,1,06,1.97,167.2,M,-34.4,M,,*57
$GPRMC,204607.500,A,4305.3122,N,07740.7386,W,4.38,1.05,290823,,,A*79
$GPGGA,204607.750,4305.3125,N,07740.7387,W,1,06,1.97,167.3,M,-34.4,M,,*57
$GPRMC,204608.000,A,4305.3129,N,07740.7386,W,4.94,3.07,290823,,,A*7E
$GPGGA,204608.250,4305.3132,N,07740.7387,W,1,06,1.97,167.2,M,-34.4,M,,*5A
$GPRMC,204608.500,A,4305.3135,N,07740.7387,W,4.96,358.79,290823,,,A*71
$GPGGA,204608.750,4305.3139,N,07740.7387,W,1,06,1.97,167.2,M,-34.4,M,,*54
$GPRMC,204609.000,A,4305.3142,N,07740.7387,W,5.26,356.92,290823,,,A*74
$GPGGA,204609.250,4305.3146,N,07740.7388,W,1,06,1.97,167.2,M,-34.4,M,,*57
$GPRMC,204609.500,A,4305.3149,N,07740.7389,W,5.20,349.08,290823,,,A*7F
$GPGGA,204609.750,4305.3153,N,07740.7390,W,1,06,1.97,167.2,M,-34.4,M,,*5F
$GPRMC,204610.000,A,4305.3157,N,07740.7390,W,5.57,351.41,290823,,,A*71
$GPGGA,204610.250,4305.3161,N,07740.7392,W,1,06,1.97,167.1,M,-34.4,M,,*52
$GPRMC,204610.500,A,4305.3165,N,07740.7394,W,6.15,343.34,290823,,,A*75
$GPGGA,204610.750,4305.3169,N,07740.7396,W,1,06,1.97,167.1,M,-34.4,M,,*5B
$GPRMC,204611.000,A,4305.3172,N,07740.7399,W,6.29,334.82,290823,,,A*78
$GPGGA,204611.250,4305.3176,N,07740.7402,W,1,06,1.97,167.1,M,-34.4,M,,*5B
$GPRMC,204611.500,A,4305.3178,N,07740.7406,W,6.03,321.31,290823,,,A*72
$GPGGA,204611.750,4305.3181,N,07740.7410,W,1,06,1.97,167.1,M,-34.4,M,,*55
$GPRMC,204612.000,A,4305.3183,N,07740.7415,W,5.55,312.87,290823,,,A*7F
$GPGGA,204612.250,4305.3185,N,07740.7419,W,1,06,1.97,167.1,M,-34.4,M,,*5E
$GPRMC,204612.500,A,4305.3186,N,07740.7423,W,4.68,302.39,290823,,,A*71
$GPGGA,204612.750,4305.3188,N,07740.7426,W,1,06,1.97,167.0,M,-34.4,M,,*5B
$GPRMC,204613.000,A,4305.3189,N,07740.7429,W,3.81,301.06,290823,,,A*7F
$GPGGA,204613.250,4305.3190,N,07740.7433,W,1,06,1.90,167.0,M,-34.4,M,,*55
$GPRMC,204613.500,A,4305.3191,N,07740.7436,W,3.85,291.11,290823,,,A*77
$GPGGA,204613.750,4305.3192,N,07740.7440,W,1,06,1.91,167.0,M,-34.4,M,,*57
$GPRMC,204614.000,A,4305.3194,N,07740.7443,W,4.54,292.02,290823,,,A*78
$GPGGA,204614.250,4305.3196,N,07740.7447,W,1,06,1.97,166.9,M,-34.4,M,,*58
$GPRMC,204614.500,A,4305.3198,N,07740.7452,W,5.33,298.81,290823,,,A*70
$GPGGA,204614.750,4305.3200,N,07740.7456,W,1,06,1.97,166.8,M,-34.4,M,,*50
$GPRMC,204615.000,A,4305.3203,N,07740.7460,W,6.06,305.14,290823,,,A*78
$GPGGA,204615.250,4305.3206,N,07740.7465,W,1,06,1.97,166.7,M,-34.4,M,,*5D
$GPRMC,204615.500,A,4305.3209,N,07740.7470,W,6.75,307.24,290823,,,A*73
$GPGGA,204615.750,4305.3214,N,07740.7474,W,1,06,1.97,166.6,M,-34.4,M,,*5A
$GPRMC,204616.000,A,4305.3218,N,07740.7478,W,6.96,319.00,290823,,,A*79
$GPGGA,204616.250,4305.3223,N,07740.7481,W,1,06,1.98,166.5,M,-34.4,M,,*5E
$GPRMC,204616.500,A,4305.3228,N,07740.7484,W,6.94,330.61,290823,,,A*72
$GPGGA,204616.750,4305.3232,N,07740.7487,W,1,06,1.97,166.6,M,-34.4,M,,*51
$GPRMC,204617.000,A,4305.3237,N,07740.7489,W,7.03,334.41,290823,,,A*7C
$GPGGA,204617.250,4305.3243,N,07740.7491,W,1,06,1.97,166.6,M,-34.4,M,,*54
$GPRMC,204617.500,A,4305.3248,N,07740.7492,W,6.91,342.90,290823,,,A*7C
$GPGGA,204617.750,4305.3253,N,07740.7493,W,1,06,1.91,166.7,M,-34.4,M,,*55
$GPRMC,204618.000,A,4305.3258,N,07740.7493,W,6.71,352.00,290823,,,A*70
$GPGGA,204618.250,4305.3265,N,07740.7492,W,1,06,1.97,166.7,M,-34.4,M,,*5D
$GPRMC,204618.500,A,4305.3271,N,07740.7491,W,7.75,357.42,290823,,,A*7A
$GPGGA,204618.750,4305.3277,N,07740.7491,W,1,06,1.97,166.7,M,-34.4,M,,*58
$GPRMC,204619.000,A,4305.3283,N,07740.7491,W,7.91,359.15,290823,,,A*75
$GPGGA,204619.250,4305.3288,N,07740.7491,W,1,06,1.97,166.8,M,-34.4,M,,*53
$GPRMC,204619.500,A,4305.3293,N,07740.7491,W,7.65,0.15,290823,,,A*75
$GPGGA,204619.750,4305.3298,N,07740.7492,W,1,06,1.97,166.8,M,-34.4,M,,*54
$GPRMC,204620.000,A,4305.3303,N,07740.7493,W,7.73,354.76,290823,,,A*70
$GPGGA,204620.250,4305.3308,N,07740.7495,W,1,06,1.97,166.6,M,-34.4,M,,*5A
$GPRMC,204620.500,A,4305.3315,N,07740.7494,W,8.11,354.70,290823,,,A*78
$GPGGA,204620.750,4305.3322,N,07740.7494,W,1,06,1.97,166.6,M,-34.4,M,,*56
$GPRMC,204621.000,A,4305.3328,N,07740.7494,W,8.50,358.27,290823,,,A*79
$GPGGA,204621.250,4305.3334,N,07740.7495,W,1,06,1.97,166.6,M,-34.4,M,,*54
$GPRMC,204621.500,A,4305.3339,N,07740.7495,W,8.18,356.89,290823,,,A*7B
$GPGGA,204621.750,4305.3345,N,07740.7496,W,1,06,1.97,166.6,M,-34.4,M,,*54
$GPRMC,204622.000,A,4305.3351,N,07740.7495,W,7.92,0.30,290823,,,A*7C
$GPGGA,204622.250,4305.3356,N,07740.7495,W,1,06,1.97,166.6,M,-34.4,M,,*53
$GPRMC,204622.500,A,4305.3360,N,07740.7495,W,7.11,5.13,290823,,,A*74
$GPGGA,204622.750,4305.3364,N,07740.7495,W,1,06,1.97,166.6,M,-34.4,M,,*57
$GPRMC,204623.000,A,4305.3367,N,07740.7495,W,6.00,9.16,290823,,,A*7F
$GPGGA,204623.250,4305.3370,N,07740.7495,W,1,06,1.97,166.5,M,-34.4,M,,*55
$GPRMC,204623.500,A,4305.3372,N,07740.7495,W,5.07,10.12,290823,,,A*46
$GPGGA,204623.750,4305.3373,N,07740.7497,W,1,06,1.97,166.4,M,-34.4,M,,*50
$GPRMC,204624.000,A,4305.3375,N,07740.7497,W,3.87,6.01,290823,,,A*7A
$GPGGA,204624.250,4305.3377,N,07740.7498,W,1,06,1.97,166.4,M,-34.4,M,,*59
$GPRMC,204624.500,A,4305.3378,N,07740.7498,W,2.96,2.54,290823,,,A*78
$GPGGA,204624.750,4305.3381,N,07740.7498,W,1,06,1.97,166.3,M,-34.4,M,,*52
$GPRMC,204625.000,A,4305.3380,N,07740.7499,W,2.01,354.96,290823,,,A*7A
$GPGGA,204625.250,4305.3383,N,07740.7498,W,1,06,1.97,166.5,M,-34.4,M,,*52
$GPRMC,204625.500,A,4305.3384,N,07740.7498,W,1.67,345.18,290823,,,A*7F
$GPGGA,204625.750,4305.3385,N,07740.7498,W,1,06,1.97,166.4,M,-34.4,M,,*50
$GPRMC,204626.000,A,4305.3386,N,07740.7498,W,2.05,357.84,290823,,,A*7A
$GPGGA,204626.250,4305.3388,N,07740.7498,W,1,06,1.97,166.3,M,-34.4,M,,*5C
$GPRMC,204626.500,A,4305.3390,N,07740.7498,W,2.64,353.10,290823,,,A*76
$GPGGA,204626.750,4305.3392,N,07740.7499,W,1,06,1.97,166.3,M,-34.4,M,,*53
$GPRMC,204627.000,A,4305.3394,N,07740.7500,W,3.08,339.70,290823,,,A*77
$GPGGA,204627.250,4305.3397,N,07740.7501,W,1,06,1.90,166.2,M,-34.4,M,,*54
$GPRMC,204627.500,A,4305.3400,N,07740.7502,W,4.38,339.99,290823,,,A*79
$GPGGA,204627.750,4305.3404,N,07740.7503,W,1,06,1.97,166.1,M,-34.4,M,,*5A
$GPRMC,204628.000,A,4305.3409,N,07740.7504,W,5.85,338.56,290823,,,A*79
$GPGGA,204628.250,4305.3412,N,07740.7507,W,1,06,1.97,166.0,M,-34.4,M,,*52
$GPRMC,204628.500,A,4305.3416,N,07740.7511,W,7.34,327.82,290823,,,A*79
$GPGGA,204628.750,4305.3420,N,07740.7517,W,1,06,1.91,166.0,M,-34.4,M,,*51
$GPRMC,204629.000,A,4305.3423,N,07740.7524,W,8.86,314.97,290823,,,A*7F
$GPGGA,204629.250,4305.3426,N,07740.7531,W,1,06,1.97,166.0,M,-34.4,M,,*51
$GPRMC,204629.500,A,4305.3429,N,07740.7540,W,9.99,305.41,290823,,,A*76
$GPGGA,204629.750,4305.3433,N,07740.7548,W,1,06,1.97,166.0,M,-34.4,M,,*5E
$GPRMC,204630.000,A,4305.3437,N,07740.7557,W,10.76,302.40,290823,,,A*4D
$GPGGA,204630.250,4305.3439,N,07740.7567,W,1,06,1.97,165.9,M,-34.4,M,,*5E
$GPRMC,204630.500,A,4305.3440,N,07740.7577,W,11.08,292.30,290823,,,A*4D
$GPGGA,204630.750,4305.3442,N,07740.7588,W,1,06,1.91,165.9,M,-34.4,M,,*50
$GPRMC,204631.000,A,4305.3443,N,07740.7599,W,11.83,285.27,290823,,,A*49
$GPGGA,204631.250,4305.3444,N,07740.7611,W,1,06,1.97,165.8,M,-34.4,M,,*56
$GPRMC,204631.500,A,4305.3445,N,07740.7623,W,12.75,279.26,290823,,,A*40
$GPGGA,204631.750,4305.3445,N,07740.7636,W,1,06,1.90,165.7,M,-34.4,M,,*5F
$GPRMC,204632.000,A,4305.3445,N,07740.7648,W,13.62,273.13,290823,,,A*40
$GPGGA,204632.250,4305.3445,N,07740.7661,W,1,06,1.98,165.7,M,-34.4,M,,*53
$GPRMC,204632.500,A,4305.3444,N,07740.7675,W,14.45,270.34,290823,,,A*4E
$GPGGA,204632.750,4305.3444,N,07740.7689,W,1,06,1.91,165.6,M,-34.4,M,,*59
$GPRMC,204633.000,A,4305.3444,N,07740.7703,W,15.13,269.04,290823,,,A*43
$GPGGA,204633.250,4305.3443,N,07740.7718,W,1,06,1.90,165.6,M,-34.4,M,,*52
$GPRMC,204633.500,A,4305.3442,N,07740.7732,W,15.73,267.21,290823,,,A*4D
$GPGGA,204633.750,4305.3442,N,07740.7747,W,1,06,1.91,165.6,M,-34.4,M,,*5D
$GPRMC,204634.000,A,4305.3441,N,07740.7762,W,15.98,267.28,290823,,,A*45
$GPGGA,204634.250,4305.3441,N,07740.7777,W,1,06,1.97,165.7,M,-34.4,M,,*58
$GPRMC,204634.500,A,4305.3441,N,07740.7792,W,16.48,267.38,290823,,,A*40
$GPGGA,204634.750,4305.3441,N,07740.7808,W,1,06,1.90,165.7,M,-34.4,M,,*5D
$GPRMC,204635.000,A,4305.3440,N,07740.7825,W,17.17,267.01,290823,,,A*47
$GPGGA,204635.250,4305.3440,N,07740.7841,W,1,06,1.97,165.7,M,-34.4,M,,*52
$GPRMC,204635.500,A,4305.3440,N,07740.7857,W,17.40,267.67,290823,,,A*45
$GPGGA,204635.750,4305.3439,N,07740.7874,W,1,06,1.91,165.7,M,-34.4,M,,*59
$GPRMC,204636.000,A,4305.3439,N,07740.7890,W,17.52,268.05,290823,,,A*4E
$GPGGA,204636.250,4305.3438,N,07740.7907,W,1,06,1.97,165.8,M,-34.4,M,,*52
$GPRMC,204636.500,A,4305.3437,N,07740.7925,W,17.90,266.98,290823,,,A*4E
$GPGGA,204636.750,4305.3436,N,07740.7942,W,1,06,1.90,165.8,M,-34.4,M,,*5F
$GPRMC,204637.000,A,4305.3435,N,07740.7959,W,18.36,265.87,290823,,,A*4D
$GPGGA,204637.250,4305.3433,N,07740.7977,W,1,06,1.91,165.8,M,-34.4,M,,*59
$GPRMC,204637.500,A,4305.3432,N,07740.7995,W,18.44,265.03,290823,,,A*46
$GPGGA,204637.750,4305.3431,N,07740.8013,W,1,06,1.90,165.9,M,-34.4,M,,*5A
$GPRMC,204638.000,A,4305.3430,N,07740.8031,W,18.40,265.04,290823,,,A*45
$GPGGA,204638.250,4305.3429,N,07740.8048,W,1,06,1.97,165.9,M,-34.4,M,,*50
$GPRMC,204638.500,A,4305.3428,N,07740.8066,W,18.19,265.71,290823,,,A*45
$GPGGA,204638.750,4305.3428,N,07740.8083,W,1,06,1.91,166.0,M,-34.4,M,,*5F
$GPRMC,204639.000,A,4305.3428,N,07740.8100,W,17.73,266.60,290823,,,A*40
$GPGGA,204639.250,4305.3428,N,07740.8116,W,1,06,1.97,166.0,M,-34.4,M,,*50
$GPRMC,204639.500,A,4305.3429,N,07740.8133,W,17.33,268.46,290823,,,A*4A
$GPGGA,204639.750,4305.3429,N,07740.8149,W,1,06,1.91,166.1,M,-34.4,M,,*59
$GPRMC,204640.000,A,4305.3429,N,07740.8165,W,17.05,268.87,290823,,,A*4A
$GPGGA,204640.250,4305.3430,N,07740.8181,W,1,06,1.97,166.1,M,-34.4,M,,*58
$GPRMC,204640.500,A,4305.3430,N,07740.8197,W,17.05,269.20,290823,,,A*46
$GPGGA,204640.750,4305.3430,N,07740.8213,W,1,06,1.90,166.2,M,-34.4,M,,*51
$GPRMC,204641.000,A,4305.3431,N,07740.8229,W,17.24,269.39,290823,,,A*4E
$GPGGA,204641.250,4305.3432,N,07740.8245,W,1,06,1.97,166.3,M,-34.4,M,,*52
$GPRMC,204641.500,A,4305.3433,N,07740.8262,W,17.55,269.72,290823,,,A*4F
$GPGGA,204641.750,4305.3434,N,07740.8278,W,1,06,1.98,166.3,M,-34.4,M,,*50
$GPRMC,204642.000,A,4305.3434,N,07740.8295,W,17.71,269.10,290823,,,A*44
$GPGGA,204642.250,4305.3434,N,07740.8311,W,1,06,1.97,166.3,M,-34.4,M,,*57
$GPRMC,204642.500,A,4305.3434,N,07740.8327,W,17.70,269.26,290823,,,A*4D
$GPGGA,204642.750,4305.3434,N,07740.8344,W,1,06,1.90,166.3,M,-34.4,M,,*55
$GPRMC,204643.000,A,4305.3434,N,07740.8360,W,17.62,268.62,290823,,,A*48
$GPGGA,204643.250,4305.3434,N,07740.8376,W,1,06,1.97,166.3,M,-34.4,M,,*57
$GPRMC,204643.500,A,4305.3434,N,07740.8392,W,17.21,268.30,290823,,,A*40
$GPGGA,204643.750,4305.3434,N,07740.8408,W,1,06,1.91,166.3,M,-34.4,M,,*5A
$GPRMC,204644.000,A,4305.3434,N,07740.8424,W,16.83,267.92,290823,,,A*46
$GPGGA,204644.250,4305.3434,N,07740.8439,W,1,06,1.90,166.3,M,-34.4,M,,*5B
$GPRMC,204644.500,A,4305.3434,N,07740.8454,W,16.30,267.35,290823,,,A*41
$GPGGA,204644.750,4305.3434,N,07740.8469,W,1,06,1.90,166.3,M,-34.4,M,,*5B
$GPRMC,204645.000,A,4305.3433,N,07740.8483,W,15.82,267.44,290823,,,A*44
$GPGGA,204645.250,4305.3433,N,07740.8498,W,1,06,1.97,166.3,M,-34.4,M,,*51
$GPRMC,204645.500,A,4305.3433,N,07740.8512,W,15.44,268.12,290823,,,A*4E
$GPGGA,204645.750,4305.3433,N,07740.8527,W,1,06,1.91,166.3,M,-34.4,M,,*57
$GPRMC,204646.000,A,4305.3433,N,07740.8541,W,15.20,268.76,290823,,,A*4E
$GPGGA,204646.250,4305.3433,N,07740.8555,W,1,06,1.91,166.3,M,-34.4,M,,*54
$GPRMC,204646.500,A,4305.3433,N,07740.8568,W,14.81,268.54,290823,,,A*4A
$GPGGA,204646.750,4305.3433,N,07740.8582,W,1,06,1.91,166.3,M,-34.4,M,,*5B
$GPRMC,204647.000,A,4305.3433,N,07740.8595,W,14.72,268.70,290823,,,A*46
$GPGGA,204647.250,4305.3433,N,07740.8609,W,1,06,1.97,166.3,M,-34.4,M,,*59
$GPRMC,204647.500,A,4305.3433,N,07740.8623,W,14.62,268.97,290823,,,A*45
$GPGGA,204647.750,4305.3433,N,07740.8636,W,1,06,1.90,166.3,M,-34.4,M,,*57
$GPRMC,204648.000,A,4305.3433,N,07740.8650,W,14.53,269.94,290823,,,A*4B
$GPGGA,204648.250,4305.3434,N,07740.8663,W,1,06,1.97,166.3,M,-34.4,M,,*5D
$GPRMC,204648.500,A,4305.3435,N,07740.8676,W,14.43,273.18,290823,,,A*42
$GPGGA,204648.750,4305.3436,N,07740.8689,W,1,06,1.91,166.3,M,-34.4,M,,*58
$GPRMC,204649.000,A,4305.3437,N,07740.8702,W,14.15,274.76,290823,,,A*4A
$GPGGA,204649.250,4305.3438,N,07740.8715,W,1,06,1.97,166.3,M,-34.4,M,,*50
$GPRMC,204649.500,A,4305.3439,N,07740.8728,W,14.19,276.93,290823,,,A*4C
$GPGGA,204649.750,4305.3441,N,07740.8741,W,1,06,1.97,166.2,M,-34.4,M,,*5B
$GPRMC,204650.000,A,4305.3443,N,07740.8753,W,13.78,279.29,290823,,,A*4E
$GPGGA,204650.250,4305.3445,N,07740.8766,W,1,06,1.97,166.2,M,-34.4,M,,*57
$GPRMC,204650.500,A,4305.3447,N,07740.8778,W,13.66,280.62,290823,,,A*40
$GPGGA,204650.750,4305.3449,N,07740.8791,W,1,06,1.97,166.1,M,-34.4,M,,*55
$GPRMC,204651.000,A,4305.3450,N,07740.8803,W,13.45,280.80,290823,,,A*4C
$GPGGA,204651.250,4305.3453,N,07740.8815,W,1,06,1.97,166.0,M,-34.4,M,,*58
$GPRMC,204651.500,A,4305.3455,N,07740.8826,W,12.82,282.84,290823,,,A*47
$GPGGA,204651.750,4305.3458,N,07740.8838,W,1,06,1.90,165.9,M,-34.4,M,,*54
$GPRMC,204652.000,A,4305.3461,N,07740.8848,W,12.17,285.48,290823,,,A*45
$GPGGA,204652.250,4305.3465,N,07740.8858,W,1,06,1.97,165.8,M,-34.4,M,,*5C
$GPRMC,204652.500,A,4305.3469,N,07740.8868,W,11.64,290.98,290823,,,A*44
$GPGGA,204652.750,4305.3472,N,07740.8878,W,1,06,1.90,165.7,M,-34.4,M,,*55
$GPRMC,204653.000,A,4305.3476,N,07740.8887,W,11.35,294.94,290823,,,A*43
$GPGGA,204653.250,4305.3480,N,07740.8896,W,1,06,1.97,165.6,M,-34.4,M,,*5A
$GPRMC,204653.500,A,4305.3484,N,07740.8905,W,10.81,297.37,290823,,,A*44
$GPGGA,204653.750,4305.3488,N,07740.8914,W,1,06,1.90,165.5,M,-34.4,M,,*58
$GPRMC,204654.000,A,4305.3492,N,07740.8922,W,10.06,297.35,290823,,,A*49
$GPGGA,204654.250,4305.3496,N,07740.8929,W,1,06,1.97,165.5,M,-34.4,M,,*5C
$GPRMC,204654.500,A,4305.3500,N,07740.8935,W,8.76,300.59,290823,,,A*7B
$GPGGA,204654.750,4305.3503,N,07740.8941,W,1,06,1.97,165.5,M,-34.4,M,,*5A
$GPRMC,204655.000,A,4305.3507,N,07740.8946,W,7.10,302.32,290823,,,A*7C
$GPGGA,204655.250,4305.3509,N,07740.8951,W,1,06,1.97,165.5,M,-34.4,M,,*55
$GPRMC,204655.500,A,4305.3511,N,07740.8955,W,5.13,300.51,290823,,,A*7A
$GPGGA,204655.750,4305.3512,N,07740.8958,W,1,06,1.97,165.4,M,-34.4,M,,*52
$GPRMC,204656.000,A,4305.3514,N,07740.8961,W,3.62,297.85,290823,,,A*78
$GPGGA,204656.250,4305.3515,N,07740.8963,W,1,06,1.90,165.3,M,-34.4,M,,*5B
$GPRMC,204656.500,A,4305.3516,N,07740.8965,W,2.48,297.85,290823,,,A*72
$GPGGA,204656.750,4305.3518,N,07740.8966,W,1,06,1.90,165.2,M,-34.4,M,,*57
$GPRMC,204657.000,A,4305.3519,N,07740.8967,W,1.72,297.85,290823,,,A*71
$GPGGA,204657.250,4305.3520,N,07740.8968,W,1,06,1.91,165.2,M,-34.4,M,,*57
$GPRMC,204657.500,A,4305.3522,N,07740.8968,W,1.15,297.85,290823,,,A*72
$GPGGA,204657.750,4305.3523,N,07740.8968,W,1,06,1.90,165.2,M,-34.4,M,,*50
$GPRMC,204658.000,A,4305.3524,N,07740.8967,W,0.85,297.85,290823,,,A*79
$GPGGA,204658.250,4305.3525,N,07740.8966,W,1,06,1.90,165.2,M,-34.4,M,,*52
$GPRMC,204658.500,A,4305.3526,N,07740.8965,W,0.60,297.85,290823,,,A*77
$GPGGA,204658.750,4305.3527,N,07740.8964,W,1,06,1.97,165.2,M,-34.4,M,,*50
$GPRMC,204659.000,A,4305.3527,N,07740.8962,W,0.50,297.85,290823,,,A*76
$GPGGA,204659.250,4305.3527,N,07740.8961,W,1,06,1.90,165.2,M,-34.4,M,,*56
$GPRMC,204659.500,A,4305.3527,N,07740.8960,W,0.45,297.85,290823,,,A*75
$GPGGA,204659.750,4305.3528,N,07740.8960,W,1,06,1.90,165.1,M,-34.4,M,,*5E
$GPRMC,204700.000,A,4305.3528,N,07740.8959,W,0.43,297.85,290823,,,A*7E
$GPGGA,204700.250,4305.3529,N,07740.8958,W,1,06,1.90,165.0,M,-34.4,M,,*5D
$GPRMC,204700.500,A,4305.3529,N,07740.8958,W,0.39,297.85,290823,,,A*76
$GPGGA,204700.750,4305.3529,N,07740.8957,W,1,06,1.90,165.0,M,-34.4,M,,*57
$GPRMC,204701.000,A,4305.3529,N,07740.8957,W,0.34,297.85,290823,,,A*70
$GPGGA,204701.250,4305.3529,N,07740.8957,W,1,06,1.90,165.0,M,-34.4,M,,*53
$GPRMC,204701.500,A,4305.3529,N,07740.8956,W,0.29,297.85,290823,,,A*78
$GPGGA,204701.750,4305.3529,N,07740.8956,W,1,06,1.91,165.0,M,-34.4,M,,*56
$GPRMC,204702.000,A,4305.3529,N,07740.8956,W,0.29,297.85,290823,,,A*7E
$GPGGA,204702.250,4305.3529,N,07740.8955,W,1,06,1.90,165.0,M,-34.4,M,,*52
$GPRMC,204702.500,A,4305.3529,N,07740.8955,W,0.26,297.85,290823,,,A*77
$GPGGA,204702.750,4305.3529,N,07740.8955,W,1,06,1.90,165.0,M,-34.4,M,,*57
$GPRMC,204703.000,A,4305.3529,N,07740.8955,W,0.23,297.85,290823,,,A*76
$GPGGA,204703.250,4305.3530,N,07740.8955,W,1,06,1.90,165.0,M,-34.4,M,,*5B
$GPRMC,204703.500,A,4305.3530,N,07740.8955,W,0.26,297.85,290823,,,A*7E
$GPGGA,204703.750,4305.3530,N,07740.8954,W,1,06,1.90,165.0,M,-34.4,M,,*5F
$GPRMC,204704.000,A,4305.3530,N,07740.8954,W,0.21,297.85,290823,,,A*7A
$GPGGA,204704.250,4305.3530,N,07740.8954,W,1,06,1.90,165.0,M,-34.4,M,,*5D
$GPRMC,204704.500,A,4305.3530,N,07740.8954,W,0.18,297.85,290823,,,A*75
$GPGGA,204704.750,4305.3530,N,07740.8954,W,1,06,1.97,165.0,M,-34.4,M,,*5F
$GPRMC,204705.000,A,4305.3530,N,07740.8954,W,0.21,297.85,290823,,,A*7B
$GPGGA,204705.250,4305.3531,N,07740.8954,W,1,06,1.97,165.0,M,-34.4,M,,*5A
$GPRMC,204705.500,A,4305.3531,N,07740.8954,W,0.25,297.85,290823,,,A*7B
$GPGGA,204705.750,4305.3531,N,07740.8954,W,1,06,1.90,165.0,M,-34.4,M,,*58
$GPRMC,204706.000,A,4305.3531,N,07740.8955,W,0.33,297.85,290823,,,A*7B
$GPGGA,204706.250,4305.3531,N,07740.8955,W,1,06,1.90,165.0,M,-34.4,M,,*5F
$GPRMC,204706.500,A,4305.3531,N,07740.8955,W,0.52,297.85,290823,,,A*79
$GPGGA,204706.750,4305.3532,N,07740.8956,W,1,06,1.90,165.0,M,-34.4,M,,*5A
$GPRMC,204707.000,A,4305.3532,N,07740.8956,W,0.63,297.85,290823,,,A*7F
$GPGGA,204707.250,4305.3532,N,07740.8956,W,1,06,1.91,165.0,M,-34.4,M,,*5F
$GPRMC,204707.500,A,4305.3532,N,07740.8957,W,0.70,297.85,290823,,,A*79
$GPGGA,204707.750,4305.3533,N,07740.8957,W,1,06,1.90,165.0,M,-34.4,M,,*5B
$GPRMC,204708.000,A,4305.3533,N,07740.8958,W,0.66,297.85,290823,,,A*7A
$GPGGA,204708.250,4305.3533,N,07740.8959,W,1,06,1.90,165.0,M,-34.4,M,,*5F
$GPRMC,204708.500,A,4305.3534,N,07740.8959,W,0.44,297.85,290823,,,A*79
$GPGGA,204708.750,4305.3534,N,07740.8959,W,1,06,1.90,165.0,M,-34.4,M,,*5D
$GPRMC,204709.000,A,4305.3534,N,07740.8959,W,0.31,297.85,290823,,,A*7F
$GPGGA,204709.250,4305.3534,N,07740.8960,W,1,06,1.90,165.0,M,-34.4,M,,*53
$GPRMC,204709.500,A,4305.3534,N,07740.8960,W,0.19,297.85,290823,,,A*7A
$GPGGA,204709.750,4305.3534,N,07740.8960,W,1,06,1.90,165.0,M,-34.4,M,,*56
$GPRMC,204710.000,A,4305.3534,N,07740.8960,W,0.03,297.85,290823,,,A*7C
$GPGGA,204710.250,4305.3535,N,07740.8960,W,1,06,1.97,165.0,M,-34.4,M,,*5D
$GPRMC,204710.500,A,4305.3535,N,07740.8960,W,0.08,297.85,290823,,,A*73
$GPGGA,204710.750,4305.3535,N,07740.8960,W,1,06,1.97,165.0,M,-34.4,M,,*58
$GPRMC,204711.000,A,4305.3535,N,07740.8960,W,0.07,297.85,290823,,,A*78
$GPGGA,204711.250,4305.3535,N,07740.8960,W,1,06,1.90,164.9,M,-34.4,M,,*53
$GPRMC,204711.500,A,4305.3535,N,07740.8960,W,0.03,297.85,290823,,,A*79
$GPGGA,204711.750,4305.3535,N,07740.8960,W,1,06,1.90,164.9,M,-34.4,M,,*56
$GPRMC,204712.000,A,4305.3535,N,07740.8960,W,0.01,297.85,290823,,,A*7D
$GPGGA,204712.250,4305.3535,N,07740.8960,W,1,06,1.90,164.9,M,-34.4,M,,*50
$GPRMC,204712.500,A,4305.3535,N,07740.8960,W,0.04,297.85,290823,,,A*7D
$GPGGA,204712.750,4305.3535,N,07740.8960,W,1,06,1.90,164.9,M,-34.4,M,,*55
$GPRMC,204713.000,A,4305.3535,N,07740.8960,W,0.00,297.85,290823,,,A*7D
$GPGGA,204713.250,4305.3535,N,07740.8960,W,1,06,1.90,164.9,M,-34.4,M,,*51
$GPRMC,204713.500,A,4305.3535,N,07740.8960,W,0.02,297.85,290823,,,A*7A
$GPGGA,204713.750,4305.3535,N,07740.8960,W,1,06,1.98,164.9,M,-34.4,M,,*5C
$GPRMC,204714.000,A,4305.3535,N,07740.8960,W,0.04,297.85,290823,,,A*7E
$GPGGA,204714.250,4305.3535,N,07740.8960,W,1,06,1.97,164.9,M,-34.4,M,,*51
$GPRMC,204714.500,A,4305.3535,N,07740.8960,W,0.02,297.85,290823,,,A*7D
$GPGGA,204714.750,4305.3535,N,07740.8960,W,1,06,1.90,164.9,M,-34.4,M,,*53
$GPRMC,204715.000,A,4305.3535,N,07740.8960,W,0.02,297.85,290823,,,A*79
$GPGGA,204715.250,4305.3535,N,07740.8960,W,1,06,1.90,164.9,M,-34.4,M,,*57
$GPRMC,204715.500,A,4305.3535,N,07740.8960,W,0.03,297.85,290823,,,A*7D
$GPGGA,204715.750,4305.3535,N,07740.8960,W,1,06,1.90,164.9,M,-34.4,M,,*52
$GPRMC,204716.000,A,4305.3535,N,07740.8960,W,0.04,297.85,290823,,,A*7C
$GPGGA,204716.250,4305.3535,N,07740.8960,W,1,06,1.90,164.9,M,-34.4,M,,*54
$GPRMC,204716.500,A,4305.3535,N,07740.8960,W,0.04,297.85,290823,,,A*79
$GPGGA,204716.750,4305.3535,N,07740.8960,W,1,06,1.90,164.9,M,-34.4,M,,*51
$GPRMC,204717.000,A,4305.3535,N,07740.8960,W,0.02,297.85,290823,,,A*7B
$GPGGA,204717.250,4305.3535,N,07740.8960,W,1,06,1.90,164.9,M,-34.4,M,,*55
$GPRMC,204717.500,A,4305.3535,N,07740.8960,W,0.04,297.85,290823,,,A*78
$GPGGA,204717.750,4305.3535,N,07740.8960,W,1,06,1.90,164.9,M,-34.4,M,,*50
$GPRMC,204718.000,A,4305.3535,N,07740.8960,W,0.02,297.85,290823,,,A*74
$GPGGA,204718.250,4305.3535,N,07740.8960,W,1,06,1.90,164.9,M,-34.4,M,,*5A
$GPRMC,204718.500,A,4305.3535,N,07740.8960,W,0.01,297.85,290823,,,A*72
$GPGGA,204718.750,4305.3535,N,07740.8960,W,1,06,1.90,164.9,M,-34.4,M,,*5F
$GPRMC,204719.000,A,4305.3535,N,07740.8960,W,0.03,297.85,290823,,,A*74
$GPGGA,204719.250,4305.3535,N,07740.8960,W,1,06,1.90,164.9,M,-34.4,M,,*5B
$GPRMC,204719.500,A,4305.3535,N,07740.8960,W,0.01,297.85,290823,,,A*73
$GPGGA,204719.750,4305.3535,N,07740.8960,W,1,06,1.91,164.9,M,-34.4,M,,*5F
$GPRMC,204720.000,A,4305.3535,N,07740.8960,W,0.00,297.85,290823,,,A*7D
$GPGGA,204720.250,4305.3535,N,07740.8960,W,1,07,1.81,164.9,M,-34.4,M,,*50
$GPRMC,204720.500,A,4305.3535,N,07740.8960,W,0.02,297.85,290823,,,A*7A
$GPGGA,204720.750,4305.3535,N,07740.8960,W,1,07,1.81,164.9,M,-34.4,M,,*55
$GPRMC,204721.000,A,4305.3535,N,07740.8960,W,0.03,297.85,290823,,,A*7F
$GPGGA,204721.250,4305.3535,N,07740.8960,W,1,07,1.81,164.9,M,-34.4,M,,*51
$GPRMC,204721.500,A,4305.3535,N,07740.8960,W,0.01,297.85,290823,,,A*78
$GPGGA,204721.750,4305.3535,N,07740.8960,W,1,07,1.81,164.9,M,-34.4,M,,*54
$GPRMC,204722.000,A,4305.3535,N,07740.8960,W,0.01,297.85,290823,,,A*7E
$GPGGA,204722.250,4305.3535,N,07740.8960,W,1,07,1.81,164.9,M,-34.4,M,,*52
$GPRMC,204722.500,A,4305.3535,N,07740.8960,W,0.04,297.85,290823,,,A*7E
$GPGGA,204722.750,4305.3535,N,07740.8960,W,1,07,1.82,164.9,M,-34.4,M,,*54
$GPRMC,204723.000,A,4305.3535,N,07740.8960,W,0.03,297.85,290823,,,A*7D
$GPGGA,204723.250,4305.3535,N,07740.8960,W,1,07,1.82,164.9,M,-34.4,M,,*50
$GPRMC,204723.500,A,4305.3535,N,07740.8960,W,0.03,297.85,290823,,,A*78
$GPGGA,204723.750,4305.3535,N,07740.8960,W,1,07,1.81,164.9,M,-34.4,M,,*56
$GPRMC,204724.000,A,4305.3535,N,07740.8960,W,0.05,297.85,290823,,,A*7C
$GPGGA,204724.250,4305.3535,N,07740.8960,W,1,07,1.82,164.9,M,-34.4,M,,*57
$GPRMC,204724.500,A,4305.3535,N,07740.8960,W,0.02,297.85,290823,,,A*7E
$GPGGA,204724.750,4305.3535,N,07740.8960,W,1,07,1.93,164.9,M,-34.4,M,,*52
$GPRMC,204725.000,A,4305.3535,N,07740.8960,W,0.01,297.85,290823,,,A*79
$GPGGA,204725.250,4305.3535,N,07740.8960,W,1,07,1.82,164.9,M,-34.4,M,,*56
$GPRMC,204725.500,A,4305.3535,N,07740.8960,W,0.69,297.85,290823,,,A*72
$GPGGA,204725.750,4305.3535,N,07740.8961,W,1,07,1.82,164.9,M,-34.4,M,,*52
$GPRMC,204726.000,A,4305.3536,N,07740.8962,W,2.20,297.85,290823,,,A*7A
$GPGGA,204726.250,4305.3537,N,07740.8964,W,1,07,1.81,164.9,M,-34.4,M,,*50
$GPRMC,204726.500,A,4305.3538,N,07740.8966,W,3.31,312.04,290823,,,A*71
$GPGGA,204726.750,4305.3540,N,07740.8968,W,1,07,1.81,164.9,M,-34.4,M,,*59
$GPRMC,204727.000,A,4305.3542,N,07740.8970,W,3.38,316.83,290823,,,A*7D
$GPGGA,204727.250,4305.3544,N,07740.8973,W,1,07,1.81,164.9,M,-34.4,M,,*53
$GPRMC,204727.500,A,4305.3546,N,07740.8975,W,3.46,322.52,290823,,,A*7B
$GPGGA,204727.750,4305.3548,N,07740.8977,W,1,07,1.82,164.8,M,-34.4,M,,*5C
$GPRMC,204728.000,A,4305.3550,N,07740.8978,W,3.44,326.28,290823,,,A*70
$GPGGA,204728.250,4305.3551,N,07740.8980,W,1,07,1.81,164.8,M,-34.4,M,,*55
$GPRMC,204728.500,A,4305.3553,N,07740.8981,W,2.71,332.79,290823,,,A*76
$GPGGA,204728.750,4305.3554,N,07740.8982,W,1,07,1.82,164.7,M,-34.4,M,,*5B
$GPRMC,204729.000,A,4305.3556,N,07740.8983,W,2.17,341.32,290823,,,A*7E
$GPGGA,204729.250,4305.3557,N,07740.8984,W,1,07,1.81,164.7,M,-34.4,M,,*59
$GPRMC,204729.500,A,4305.3557,N,07740.8984,W,0.82,321.62,290823,,,A*70
$GPGGA,204729.750,4305.3558,N,07740.8984,W,1,07,1.82,164.6,M,-34.4,M,,*51
$GPRMC,204730.000,A,4305.3558,N,07740.8984,W,0.62,331.52,290823,,,A*7E
$GPGGA,204730.250,4305.3558,N,07740.8984,W,1,07,1.93,164.6,M,-34.4,M,,*5C
$GPRMC,204730.500,A,4305.3558,N,07740.8984,W,0.42,331.52,290823,,,A*79
$GPGGA,204730.750,4305.3558,N,07740.8983,W,1,07,1.81,164.5,M,-34.4,M,,*5E
$GPRMC,204731.000,A,4305.3558,N,07740.8983,W,0.38,331.52,290823,,,A*77
$GPGGA,204731.250,4305.3557,N,07740.8983,W,1,07,1.82,164.4,M,-34.4,M,,*57
$GPRMC,204731.500,A,4305.3557,N,07740.8983,W,0.33,331.52,290823,,,A*76
$GPGGA,204731.750,4305.3556,N,07740.8983,W,1,07,1.82,164.3,M,-34.4,M,,*54
$GPRMC,204732.000,A,4305.3556,N,07740.8983,W,0.27,331.52,290823,,,A*74
$GPGGA,204732.250,4305.3555,N,07740.8983,W,1,07,1.82,164.2,M,-34.4,M,,*50
$GPRMC,204732.500,A,4305.3555,N,07740.8984,W,0.22,331.52,290823,,,A*70
$GPGGA,204732.750,4305.3555,N,07740.8984,W,1,07,1.81,164.1,M,-34.4,M,,*52
$GPRMC,204733.000,A,4305.3555,N,07740.8984,W,0.18,331.52,290823,,,A*7D
$GPGGA,204733.250,4305.3555,N,07740.8984,W,1,07,1.81,164.0,M,-34.4,M,,*57
$GPRMC,204733.500,A,4305.3555,N,07740.8984,W,0.15,331.52,290823,,,A*75
$GPGGA,204733.750,4305.3555,N,07740.8984,W,1,07,1.81,164.0,M,-34.4,M,,*52
$GPRMC,204734.000,A,4305.3554,N,07740.8984,W,0.18,331.52,290823,,,A*7B
$GPGGA,204734.250,4305.3554,N,07740.8984,W,1,07,1.82,164.0,M,-34.4,M,,*52
$GPRMC,204734.500,A,4305.3554,N,07740.8984,W,0.18,331.52,290823,,,A*7E
$GPGGA,204734.750,4305.3554,N,07740.8984,W,1,07,1.82,164.0,M,-34.4,M,,*57
$GPRMC,204735.000,A,4305.3554,N,07740.8984,W,0.20,331.52,290823,,,A*71
$GPGGA,204735.250,4305.3554,N,07740.8984,W,1,07,1.81,164.0,M,-34.4,M,,*50
$GPRMC,204735.500,A,4305.3554,N,07740.8984,W,0.16,331.52,290823,,,A*71
$GPGGA,204735.750,4305.3554,N,07740.8984,W,1,07,1.81,164.0,M,-34.4,M,,*55
$GPRMC,204736.000,A,4305.3554,N,07740.8984,W,0.16,331.52,290823,,,A*77
$GPGGA,204736.250,4305.3553,N,07740.8984,W,1,07,1.81,164.0,M,-34.4,M,,*54
$GPRMC,204736.500,A,4305.3553,N,07740.8984,W,0.11,331.52,290823,,,A*72
$GPGGA,204736.750,4305.3553,N,07740.8983,W,1,07,1.81,164.0,M,-34.4,M,,*56
$GPRMC,204737.000,A,4305.3553,N,07740.8983,W,0.12,331.52,290823,,,A*72
$GPGGA,204737.250,4305.3553,N,07740.8983,W,1,07,1.81,164.1,M,-34.4,M,,*53
$GPRMC,204737.500,A,4305.3553,N,07740.8983,W,0.16,331.52,290823,,,A*73
$GPGGA,204737.750,4305.3554,N,07740.8983,W,1,07,1.82,164.0,M,-34.4,M,,*53
$GPRMC,204738.000,A,4305.3554,N,07740.8983,W,0.26,331.52,290823,,,A*7D
$GPGGA,204738.250,4305.3554,N,07740.8983,W,1,07,1.82,164.0,M,-34.4,M,,*59
$GPRMC,204738.500,A,4305.3554,N,07740.8983,W,0.54,331.52,290823,,,A*7D
$GPGGA,204738.750,4305.3554,N,07740.8984,W,1,07,1.81,164.0,M,-34.4,M,,*58
$GPRMC,204739.000,A,4305.3555,N,07740.8985,W,0.73,317.40,290823,,,A*7C
$GPGGA,204739.250,4305.3556,N,07740.8986,W,1,07,1.81,163.9,M,-34.4,M,,*52
$GPRMC,204739.500,A,4305.3557,N,07740.8987,W,0.97,319.58,290823,,,A*74
$GPGGA,204739.750,4305.3558,N,07740.8987,W,1,07,1.82,163.9,M,-34.4,M,,*5B
$GPRMC,204740.000,A,4305.3560,N,07740.8988,W,1.31,321.36,290823,,,A*7A
$GPGGA,204740.250,4305.3561,N,07740.8989,W,1,07,1.81,163.8,M,-34.4,M,,*56
$GPRMC,204740.500,A,4305.3563,N,07740.8990,W,1.60,321.55,290823,,,A*74
$GPGGA,204740.750,4305.3566,N,07740.8992,W,1,07,1.81,163.8,M,-34.4,M,,*5E
$GPRMC,204741.000,A,4305.3569,N,07740.8995,W,3.11,308.51,290823,,,A*74
$GPGGA,204741.250,4305.3572,N,07740.8997,W,1,07,1.82,163.8,M,-34.4,M,,*59
$GPRMC,204741.500,A,4305.3576,N,07740.8998,W,4.18,322.95,290823,,,A*7C
$GPGGA,204741.750,4305.3580,N,07740.9001,W,1,07,1.81,163.8,M,-34.4,M,,*55
$GPRMC,204742.000,A,4305.3584,N,07740.9004,W,5.17,324.79,290823,,,A*70
$GPGGA,204742.250,4305.3587,N,07740.9006,W,1,07,1.93,163.8,M,-34.4,M,,*50
$GPRMC,204742.500,A,4305.3591,N,07740.9008,W,4.82,329.13,290823,,,A*71
$GPGGA,204742.750,4305.3595,N,07740.9010,W,1,07,1.92,163.8,M,-34.4,M,,*50
$GPRMC,204743.000,A,4305.3598,N,07740.9011,W,4.41,334.51,290823,,,A*71
$GPGGA,204743.250,4305.3602,N,07740.9011,W,1,07,1.93,163.9,M,-34.4,M,,*58
$GPRMC,204743.500,A,4305.3606,N,07740.9011,W,3.93,344.65,290823,,,A*78
$GPGGA,204743.750,4305.3609,N,07740.9011,W,1,07,1.81,163.9,M,-34.4,M,,*55
$GPRMC,204744.000,A,4305.3613,N,07740.9009,W,3.82,357.06,290823,,,A*70
$GPGGA,204744.250,4305.3617,N,07740.9008,W,1,07,1.93,164.0,M,-34.4,M,,*5D
$GPRMC,204744.500,A,4305.3622,N,07740.9004,W,4.04,11.91,290823,,,A*4C
$GPGGA,204744.750,4305.3627,N,07740.9001,W,1,07,1.93,164.1,M,-34.4,M,,*53
$GPRMC,204745.000,A,4305.3633,N,07740.8997,W,4.81,18.90,290823,,,A*4F
$GPGGA,204745.250,4305.3638,N,07740.8993,W,1,07,1.93,164.1,M,-34.4,M,,*5A
$GPRMC,204745.500,A,4305.3645,N,07740.8988,W,5.66,24.47,290823,,,A*48
$GPGGA,204745.750,4305.3651,N,07740.8983,W,1,07,1.93,164.2,M,-34.4,M,,*52
$GPRMC,204746.000,A,4305.3657,N,07740.8978,W,6.62,25.28,290823,,,A*4D
$GPGGA,204746.250,4305.3664,N,07740.8972,W,1,07,1.93,164.2,M,-34.4,M,,*5C
$GPRMC,204746.500,A,4305.3676,N,07740.8960,W,7.99,27.86,290823,,,A*41
$GPGGA,204746.750,4305.3688,N,07740.8946,W,1,07,1.82,164.2,M,-34.4,M,,*5C
$GPRMC,204747.000,A,4305.3701,N,07740.8932,W,9.90,30.36,290823,,,A*49
$GPGGA,204747.250,4305.3712,N,07740.8923,W,1,07,1.93,164.3,M,-34.4,M,,*58
$GPRMC,204747.500,A,4305.3722,N,07740.8913,W,11.06,30.26,290823,,,A*79
$GPGGA,204747.750,4305.3733,N,07740.8902,W,1,07,1.81,164.3,M,-34.4,M,,*5E
$GPRMC,204748.000,A,4305.3743,N,07740.8893,W,12.02,31.76,290823,,,A*7E
$GPGGA,204748.250,4305.3753,N,07740.8883,W,1,07,1.93,164.3,M,-34.4,M,,*59
$GPRMC,204748.500,A,4305.3764,N,07740.8872,W,13.04,31.90,290823,,,A*7E
$GPGGA,204748.750,4305.3776,N,07740.8861,W,1,07,1.81,164.4,M,-34.4,M,,*53
$GPRMC,204749.000,A,4305.3787,N,07740.8850,W,13.97,32.87,290823,,,A*78
$GPGGA,204749.250,4305.3800,N,07740.8835,W,1,07,1.93,164.4,M,-34.4,M,,*5B
$GPRMC,204749.500,A,4305.3815,N,07740.8818,W,15.52,35.11,290823,,,A*72
$GPGGA,204749.750,4305.3830,N,07740.8801,W,1,07,1.93,164.4,M,-34.4,M,,*5A
$GPRMC,204750.000,A,4305.3847,N,07740.8783,W,17.22,35.31,290823,,,A*72
$GPGGA,204750.250,4305.3867,N,07740.8762,W,1,07,1.93,164.5,M,-34.4,M,,*5E
$GPRMC,204750.500,A,4305.3885,N,07740.8742,W,19.26,34.79,290823,,,A*73
$GPGGA,204750.750,4305.3902,N,07740.8725,W,1,07,1.93,164.5,M,-34.4,M,,*5A
$GPRMC,204751.000,A,4305.3937,N,07740.8683,W,21.70,35.72,290823,,,A*71
$GPGGA,204751.250,4305.3969,N,07740.8645,W,1,07,1.93,164.5,M,-34.4,M,,*54
$GPRMC,204751.500,A,4305.4002,N,07740.8607,W,24.73,36.85,290823,,,A*7D
$GPGGA,204751.750,4305.4033,N,07740.8571,W,1,07,1.82,164.5,M,-34.4,M,,*54
$GPRMC,204752.000,A,4305.4062,N,07740.8538,W,27.38,37.21,290823,,,A*71
$GPGGA,204752.250,4305.4094,N,07740.8500,W,1,07,1.93,164.6,M,-34.4,M,,*5A
$GPRMC,204752.500,A,4305.4116,N,07740.8476,W,29.61,37.83,290823,,,A*77
$GPGGA,204752.750,4305.4138,N,07740.8452,W,1,07,1.81,164.6,M,-34.4,M,,*5D
$GPRMC,204753.000,A,4305.4161,N,07740.8425,W,30.57,38.40,290823,,,A*78
$GPGGA,204753.250,4305.4182,N,07740.8402,W,1,07,1.93,164.7,M,-34.4,M,,*5F
$GPRMC,204753.500,A,4305.4201,N,07740.8380,W,30.68,38.09,290823,,,A*71
$GPGGA,204753.750,4305.4219,N,07740.8361,W,1,07,1.93,164.8,M,-34.4,M,,*56
$GPRMC,204754.000,A,4305.4237,N,07740.8342,W,30.72,38.17,290823,,,A*7C
$GPGGA,204754.250,4305.4255,N,07740.8321,W,1,07,1.93,164.8,M,-34.4,M,,*58
$GPRMC,204754.500,A,4305.4273,N,07740.8301,W,30.09,38.16,290823,,,A*73
$GPGGA,204754.750,4305.4292,N,07740.8280,W,1,07,1.93,164.9,M,-34.4,M,,*5D
$GPRMC,204755.000,A,4305.4311,N,07740.8259,W,30.06,38.23,290823,,,A*77
$GPGGA,204755.250,4305.4328,N,07740.8240,W,1,07,1.93,164.9,M,-34.4,M,,*55
$GPRMC,204755.500,A,4305.4345,N,07740.8221,W,30.06,38.11,290823,,,A*7D
$GPGGA,204755.750,4305.4362,N,07740.8203,W,1,07,1.81,164.8,M,-34.4,M,,*5B
$GPRMC,204756.000,A,4305.4380,N,07740.8184,W,29.71,37.76,290823,,,A*78
$GPGGA,204756.250,4305.4404,N,07740.8158,W,1,08,1.24,164.8,M,-34.4,M,,*57
$GPRMC,204756.500,A,4305.4429,N,07740.8131,W,29.06,37.34,290823,,,A*71
$GPGGA,204756.750,4305.4453,N,07740.8105,W,1,08,1.24,164.7,M,-34.4,M,,*57
$GPRMC,204757.000,A,4305.4475,N,07740.8081,W,28.97,37.36,290823,,,A*7D
$GPGGA,204757.250,4305.4496,N,07740.8059,W,1,08,1.24,164.6,M,-34.4,M,,*53
$GPRMC,204757.500,A,4305.4516,N,07740.8038,W,28.91,37.28,290823,,,A*77
$GPGGA,204757.750,4305.4535,N,07740.8018,W,1,08,1.18,164.4,M,-34.4,M,,*56
$GPRMC,204758.000,A,4305.4554,N,07740.7999,W,28.82,36.72,290823,,,A*7A
$GPGGA,204758.250,4305.4574,N,07740.7978,W,1,08,1.24,164.3,M,-34.4,M,,*51
$GPRMC,204758.500,A,4305.4594,N,07740.7958,W,28.72,35.69,290823,,,A*78
$GPGGA,204758.750,4305.4613,N,07740.7939,W,1,08,1.18,164.2,M,-34.4,M,,*5D
$GPRMC,204759.000,A,4305.4632,N,07740.7921,W,28.97,35.04,290823,,,A*7D
$GPGGA,204759.250,4305.4650,N,07740.7904,W,1,08,1.24,164.1,M,-34.4,M,,*5C
$GPRMC,204759.500,A,4305.4668,N,07740.7887,W,29.01,34.20,290823,,,A*73
$GPGGA,204759.750,4305.4686,N,07740.7871,W,1,08,1.24,164.0,M,-34.4,M,,*50
$GPRMC,204800.000,A,4305.4704,N,07740.7854,W,29.02,32.96,290823,,,A*78
$GPGGA,204800.250,4305.4722,N,07740.7839,W,1,08,1.24,163.9,M,-34.4,M,,*5B
$GPRMC,204800.500,A,4305.4740,N,07740.7824,W,29.07,31.29,290823,,,A*78
$GPGGA,204800.750,4305.4757,N,07740.7809,W,1,08,1.24,163.8,M,-34.4,M,,*5E
$GPRMC,204801.000,A,4305.4775,N,07740.7794,W,29.35,30.01,290823,,,A*74
$GPGGA,204801.250,4305.4793,N,07740.7780,W,1,08,1.24,163.7,M,-34.4,M,,*53
$GPRMC,204801.500,A,4305.4811,N,07740.7766,W,29.43,29.04,290823,,,A*7D
$GPGGA,204801.750,4305.4829,N,07740.7753,W,1,08,1.24,163.7,M,-34.4,M,,*56
$GPRMC,204802.000,A,4305.4847,N,07740.7739,W,29.51,27.93,290823,,,A*71
$GPGGA,204802.250,4305.4866,N,07740.7726,W,1,08,1.24,163.7,M,-34.4,M,,*59
$GPRMC,204802.500,A,4305.4885,N,07740.7713,W,29.97,26.43,290823,,,A*74
$GPGGA,204802.750,4305.4904,N,07740.7700,W,1,08,1.24,163.7,M,-34.4,M,,*5D
$GPRMC,204803.000,A,4305.4924,N,07740.7687,W,30.49,25.13,290823,,,A*7B
$GPGGA,204803.250,4305.4944,N,07740.7675,W,1,08,1.24,163.8,M,-34.4,M,,*51
$GPRMC,204803.500,A,4305.4964,N,07740.7662,W,30.75,23.40,290823,,,A*7E
$GPGGA,204803.750,4305.4984,N,07740.7650,W,1,08,1.24,163.9,M,-34.4,M,,*5E
$GPRMC,204804.000,A,4305.5004,N,07740.7638,W,30.79,22.62,290823,,,A*70
$GPGGA,204804.250,4305.5024,N,07740.7627,W,1,08,1.24,164.0,M,-34.4,M,,*50
$GPRMC,204804.500,A,4305.5045,N,07740.7615,W,31.15,21.98,290823,,,A*72
$GPGGA,204804.750,4305.5066,N,07740.7603,W,1,08,1.24,164.1,M,-34.4,M,,*54
$GPRMC,204805.000,A,4305.5087,N,07740.7591,W,31.23,21.71,290823,,,A*75
$GPGGA,204805.250,4305.5108,N,07740.7580,W,1,08,1.24,164.1,M,-34.4,M,,*51
$GPRMC,204805.500,A,4305.5129,N,07740.7568,W,31.41,21.68,290823,,,A*7F
$GPGGA,204805.750,4305.5150,N,07740.7557,W,1,08,1.24,164.0,M,-34.4,M,,*52
$GPRMC,204806.000,A,4305.5171,N,07740.7545,W,31.50,21.72,290823,,,A*70
$GPGGA,204806.250,4305.5192,N,07740.7533,W,1,08,1.24,163.9,M,-34.4,M,,*56
$GPRMC,204806.500,A,4305.5213,N,07740.7521,W,31.93,22.14,290823,,,A*7C
$GPGGA,204806.750,4305.5234,N,07740.7509,W,1,08,1.24,163.8,M,-34.4,M,,*54
$GPRMC,204807.000,A,4305.5255,N,07740.7497,W,32.01,22.64,290823,,,A*79
$GPGGA,204807.250,4305.5276,N,07740.7484,W,1,08,1.24,163.7,M,-34.4,M,,*5D
$GPRMC,204807.500,A,4305.5297,N,07740.7472,W,32.12,22.81,290823,,,A*70
$GPGGA,204807.750,4305.5319,N,07740.7460,W,1,08,1.24,163.8,M,-34.4,M,,*55
$GPRMC,204808.000,A,4305.5340,N,07740.7448,W,32.21,22.02,290823,,,A*73
$GPGGA,204808.250,4305.5362,N,07740.7436,W,1,08,1.24,164.0,M,-34.4,M,,*5F
$GPRMC,204808.500,A,4305.5383,N,07740.7425,W,32.50,20.77,290823,,,A*74
$GPGGA,204808.750,4305.5405,N,07740.7414,W,1,08,1.24,164.1,M,-34.4,M,,*5D
$GPRMC,204809.000,A,4305.5426,N,07740.7403,W,31.34,19.45,290823,,,A*76
$GPGGA,204809.250,4305.5447,N,07740.7393,W,1,08,1.24,164.0,M,-34.4,M,,*56
$GPRMC,204809.500,A,4305.5468,N,07740.7383,W,31.44,18.16,290823,,,A*76
$GPGGA,204809.750,4305.5489,N,07740.7374,W,1,08,1.24,163.8,M,-34.4,M,,*57
$GPRMC,204810.000,A,4305.5510,N,07740.7365,W,30.98,17.12,290823,,,A*76
$GPGGA,204810.250,4305.5531,N,07740.7356,W,1,08,1.24,163.6,M,-34.4,M,,*56
$GPRMC,204810.500,A,4305.5552,N,07740.7348,W,30.90,16.99,290823,,,A*70
$GPGGA,204810.750,4305.5573,N,07740.7339,W,1,08,1.24,163.5,M,-34.4,M,,*5F
$GPRMC,204811.000,A,4305.5594,N,07740.7330,W,30.92,17.23,290823,,,A*73
$GPGGA,204811.250,4305.5615,N,07740.7321,W,1,08,1.24,163.4,M,-34.4,M,,*50
$GPRMC,204811.500,A,4305.5636,N,07740.7312,W,31.25,17.21,290823,,,A*72
$GPGGA,204811.750,4305.5657,N,07740.7303,W,1,08,1.18,163.3,M,-34.4,M,,*5B
$GPRMC,204812.000,A,4305.5678,N,07740.7295,W,31.50,17.39,290823,,,A*7B
$GPGGA,204812.250,4305.5700,N,07740.7286,W,1,08,1.24,163.2,M,-34.4,M,,*5C
$GPRMC,204812.500,A,4305.5722,N,07740.7277,W,31.61,16.67,290823,,,A*74
$GPGGA,204812.750,4305.5744,N,07740.7269,W,1,08,1.24,163.2,M,-34.4,M,,*58
$GPRMC,204813.000,A,4305.5766,N,07740.7260,W,31.80,16.35,290823,,,A*7E
$GPGGA,204813.250,4305.5788,N,07740.7251,W,1,07,1.29,163.2,M,-34.4,M,,*55
$GPRMC,204813.500,A,4305.5810,N,07740.7243,W,32.02,16.23,290823,,,A*7A
$GPGGA,204813.750,4305.5833,N,07740.7234,W,1,07,1.23,163.3,M,-34.4,M,,*57
$GPRMC,204814.000,A,4305.5856,N,07740.7226,W,33.22,16.00,290823,,,A*7B
$GPGGA,204814.250,4305.5878,N,07740.7217,W,1,08,1.24,163.4,M,-34.4,M,,*54
$GPRMC,204814.500,A,4305.5901,N,07740.7209,W,33.39,16.13,290823,,,A*78
$GPGGA,204814.750,4305.5923,N,07740.7200,W,1,08,1.24,163.4,M,-34.4,M,,*58
$GPRMC,204815.000,A,4305.5945,N,07740.7191,W,33.36,16.01,290823,,,A*72
$GPGGA,204815.250,4305.5968,N,07740.7183,W,1,08,1.24,163.4,M,-34.4,M,,*5B
$GPRMC,204815.500,A,4305.5990,N,07740.7174,W,33.38,15.59,290823,,,A*74
$GPGGA,204815.750,4305.6013,N,07740.7166,W,1,08,1.24,163.5,M,-34.4,M,,*52
$GPRMC,204816.000,A,4305.6035,N,07740.7158,W,33.33,15.00,290823,,,A*7E
$GPGGA,204816.250,4305.6058,N,07740.7150,W,1,08,1.24,163.5,M,-34.4,M,,*5E
$GPRMC,204816.500,A,4305.6080,N,07740.7143,W,33.05,14.87,290823,,,A*74
$GPGGA,204816.750,4305.6103,N,07740.7135,W,1,08,1.24,163.6,M,-34.4,M,,*54
$GPRMC,204817.000,A,4305.6125,N,07740.7127,W,33.31,15.02,290823,,,A*77
$GPGGA,204817.250,4305.6148,N,07740.7119,W,1,08,1.24,163.6,M,-34.4,M,,*51
$GPRMC,204817.500,A,4305.6170,N,07740.7111,W,33.54,15.34,290823,,,A*71
$GPGGA,204817.750,4305.6193,N,07740.7103,W,1,08,1.24,163.6,M,-34.4,M,,*59
$GPRMC,204818.000,A,4305.6216,N,07740.7094,W,33.77,15.57,290823,,,A*70
$GPGGA,204818.250,4305.6239,N,07740.7086,W,1,08,1.24,163.6,M,-34.4,M,,*5C
$GPRMC,204818.500,A,4305.6262,N,07740.7078,W,34.11,15.19,290823,,,A*79
$GPGGA,204818.750,4305.6285,N,07740.7070,W,1,08,1.24,163.6,M,-34.4,M,,*57
$GPRMC,204819.000,A,4305.6309,N,07740.7062,W,34.47,14.49,290823,,,A*7D
$GPGGA,204819.250,4305.6332,N,07740.7054,W,1,08,1.24,163.7,M,-34.4,M,,*59
$GPRMC,204819.500,A,4305.6356,N,07740.7046,W,34.68,14.06,290823,,,A*72
$GPGGA,204819.750,4305.6380,N,07740.7039,W,1,08,1.24,163.7,M,-34.4,M,,*5E
$GPRMC,204820.000,A,4305.6404,N,07740.7031,W,34.90,13.79,290823,,,A*75
$GPGGA,204820.250,4305.6428,N,07740.7024,W,1,08,1.24,163.6,M,-34.4,M,,*59
$GPRMC,204820.500,A,4305.6451,N,07740.7016,W,34.89,13.80,290823,,,A*7B
$GPGGA,204820.750,4305.6475,N,07740.7008,W,1,08,1.24,163.6,M,-34.4,M,,*5A
$GPRMC,204821.000,A,4305.6498,N,07740.7001,W,34.84,13.51,290823,,,A*7D
$GPGGA,204821.250,4305.6522,N,07740.6993,W,1,08,1.24,163.7,M,-34.4,M,,*56
$GPRMC,204821.500,A,4305.6546,N,07740.6986,W,34.64,13.01,290823,,,A*76
$GPGGA,204821.750,4305.6569,N,07740.6979,W,1,08,1.24,163.8,M,-34.4,M,,*57
$GPRMC,204822.000,A,4305.6593,N,07740.6972,W,34.66,12.46,290823,,,A*73
$GPGGA,204822.250,4305.6617,N,07740.6965,W,1,08,1.24,163.9,M,-34.4,M,,*57
$GPRMC,204822.500,A,4305.6641,N,07740.6959,W,34.92,12.11,290823,,,A*7A
$GPGGA,204822.750,4305.6664,N,07740.6952,W,1,08,1.24,164.0,M,-34.4,M,,*5C
$GPRMC,204823.000,A,4305.6689,N,07740.6945,W,35.34,12.18,290823,,,A*73
$GPGGA,204823.250,4305.6713,N,07740.6938,W,1,08,1.24,164.1,M,-34.4,M,,*54
$GPRMC,204823.500,A,4305.6737,N,07740.6931,W,35.39,12.27,290823,,,A*70
$GPGGA,204823.750,4305.6761,N,07740.6924,W,1,08,1.24,164.3,M,-34.4,M,,*5B
$GPRMC,204824.000,A,4305.6785,N,07740.6918,W,35.84,12.01,290823,,,A*72
$GPGGA,204824.250,4305.6810,N,07740.6911,W,1,08,1.24,164.3,M,-34.4,M,,*56
$GPRMC,204824.500,A,4305.6834,N,07740.6904,W,35.83,11.60,290823,,,A*7C
$GPGGA,204824.750,4305.6858,N,07740.6897,W,1,08,1.24,164.4,M,-34.4,M,,*57
$GPRMC,204825.000,A,4305.6883,N,07740.6891,W,36.08,10.90,290823,,,A*77
$GPGGA,204825.250,4305.6908,N,07740.6885,W,1,08,1.24,164.3,M,-34.4,M,,*53
$GPRMC,204825.500,A,4305.6932,N,07740.6879,W,36.42,10.22,290823,,,A*78
$GPGGA,204825.750,4305.6957,N,07740.6873,W,1,08,1.24,164.1,M,-34.4,M,,*57
$GPRMC,204826.000,A,4305.6982,N,07740.6867,W,36.43,10.29,290823,,,A*70
$GPGGA,204826.250,4305.7007,N,07740.6861,W,1,08,1.24,164.0,M,-34.4,M,,*5E
$GPRMC,204826.500,A,4305.7032,N,07740.6855,W,36.62,10.34,290823,,,A*78
$GPGGA,204826.750,4305.7057,N,07740.6849,W,1,08,1.24,163.9,M,-34.4,M,,*5A
$GPRMC,204827.000,A,4305.7082,N,07740.6842,W,36.70,10.66,290823,,,A*75
$GPGGA,204827.250,4305.7107,N,07740.6836,W,1,08,1.24,163.9,M,-34.4,M,,*52
$GPRMC,204827.500,A,4305.7132,N,07740.6830,W,36.67,10.84,290823,,,A*75
$GPGGA,204827.750,4305.7157,N,07740.6823,W,1,08,1.24,163.9,M,-34.4,M,,*56
$GPRMC,204828.000,A,4305.7182,N,07740.6817,W,36.53,11.13,290823,,,A*79
$GPGGA,204828.250,4305.7207,N,07740.6810,W,1,08,1.24,164.0,M,-34.4,M,,*54
$GPRMC,204828.500,A,4305.7232,N,07740.6803,W,36.61,11.44,290823,,,A*72
$GPGGA,204828.750,4305.7257,N,07740.6796,W,1,08,1.24,164.1,M,-34.4,M,,*54
$GPRMC,204829.000,A,4305.7283,N,07740.6789,W,36.95,11.90,290823,,,A*73
$GPGGA,204829.250,4305.7308,N,07740.6782,W,1,08,1.24,164.3,M,-34.4,M,,*5C
$GPRMC,204829.500,A,4305.7334,N,07740.6774,W,36.95,12.04,290823,,,A*77
$GPGGA,204829.750,4305.7360,N,07740.6766,W,1,08,1.24,164.5,M,-34.4,M,,*5B
$GPRMC,204830.000,A,4305.7386,N,07740.6758,W,37.71,12.12,290823,,,A*71
$GPGGA,204830.250,4305.7411,N,07740.6750,W,1,08,1.24,164.7,M,-34.4,M,,*50
$GPRMC,204830.500,A,4305.7437,N,07740.6742,W,37.65,12.21,290823,,,A*77
$GPGGA,204830.750,4305.7463,N,07740.6734,W,1,08,1.24,164.8,M,-34.4,M,,*5D
$GPRMC,204831.000,A,4305.7489,N,07740.6726,W,37.68,12.34,290823,,,A*7D
$GPGGA,204831.250,4305.7515,N,07740.6718,W,1,08,1.24,164.7,M,-34.4,M,,*58
$GPRMC,204831.500,A,4305.7540,N,07740.6710,W,37.72,12.81,290823,,,A*7C
$GPGGA,204831.750,4305.7566,N,07740.6702,W,1,08,1.24,164.7,M,-34.4,M,,*52
$GPRMC,204832.000,A,4305.7592,N,07740.6694,W,37.79,13.41,290823,,,A*7E
$GPGGA,204832.250,4305.7618,N,07740.6685,W,1,08,1.24,164.7,M,-34.4,M,,*50
$GPRMC,204832.500,A,4305.7644,N,07740.6676,W,38.10,13.72,290823,,,A*7F
$GPGGA,204832.750,4305.7670,N,07740.6667,W,1,08,1.18,164.7,M,-34.4,M,,*58
$GPRMC,204833.000,A,4305.7695,N,07740.6658,W,38.10,14.92,290823,,,A*72
$GPGGA,204833.250,4305.7721,N,07740.6648,W,1,08,1.24,164.7,M,-34.4,M,,*5B
$GPRMC,204833.500,A,4305.7747,N,07740.6637,W,38.34,16.49,290823,,,A*72
$GPGGA,204833.750,4305.7772,N,07740.6626,W,1,08,1.24,164.8,M,-34.4,M,,*5F
$GPRMC,204834.000,A,4305.7798,N,07740.6614,W,38.38,17.95,290823,,,A*7F
$GPGGA,204834.250,4305.7823,N,07740.6602,W,1,08,1.24,164.9,M,-34.4,M,,*51
$GPRMC,204834.500,A,4305.7848,N,07740.6590,W,38.40,19.31,290823,,,A*78
$GPGGA,204834.750,4305.7872,N,07740.6578,W,1,08,1.24,164.9,M,-34.4,M,,*5E
$GPRMC,204835.000,A,4305.7897,N,07740.6565,W,38.10,20.67,290823,,,A*78
$GPGGA,204835.250,4305.7921,N,07740.6552,W,1,08,1.24,165.0,M,-34.4,M,,*5D
$GPRMC,204835.500,A,4305.7946,N,07740.6539,W,37.97,21.14,290823,,,A*7C
$GPGGA,204835.750,4305.7970,N,07740.6526,W,1,08,1.24,165.0,M,-34.4,M,,*5F
$GPRMC,204836.000,A,4305.7994,N,07740.6513,W,37.87,21.23,290823,,,A*78
$GPGGA,204836.250,4305.8019,N,07740.6500,W,1,08,1.24,165.0,M,-34.4,M,,*54
$GPRMC,204836.500,A,4305.8043,N,07740.6487,W,37.81,21.55,290823,,,A*7A
$GPGGA,204836.750,4305.8067,N,07740.6473,W,1,08,1.24,165.1,M,-34.4,M,,*5C
$GPRMC,204837.000,A,4305.8091,N,07740.6460,W,37.79,21.58,290823,,,A*72
$GPGGA,204837.250,4305.8116,N,07740.6447,W,1,08,1.24,165.1,M,-34.4,M,,*58
$GPRMC,204837.500,A,4305.8140,N,07740.6434,W,37.82,20.95,290823,,,A*7F
$GPGGA,204837.750,4305.8165,N,07740.6421,W,1,08,1.24,165.2,M,-34.4,M,,*5A
$GPRMC,204838.000,A,4305.8190,N,07740.6408,W,37.88,21.23,290823,,,A*71
$GPGGA,204838.250,4305.8214,N,07740.6394,W,1,08,1.24,165.5,M,-34.4,M,,*5B
$GPRMC,204838.500,A,4305.8239,N,07740.6381,W,37.82,21.11,290823,,,A*79
$GPGGA,204838.750,4305.8264,N,07740.6367,W,1,08,1.24,165.9,M,-34.4,M,,*59
$GPRMC,204839.000,A,4305.8288,N,07740.6354,W,37.45,20.99,290823,,,A*75
$GPGGA,204839.250,4305.8312,N,07740.6341,W,1,08,1.24,166.1,M,-34.4,M,,*52
$GPRMC,204839.500,A,4305.8336,N,07740.6329,W,37.24,20.46,290823,,,A*7B
$GPGGA,204839.750,4305.8360,N,07740.6316,W,1,08,1.24,166.4,M,-34.4,M,,*55
$GPRMC,204840.000,A,4305.8384,N,07740.6303,W,36.39,20.78,290823,,,A*71
$GPGGA,204840.250,4305.8407,N,07740.6291,W,1,08,1.24,166.7,M,-34.4,M,,*55
$GPRMC,204840.500,A,4305.8431,N,07740.6279,W,35.78,20.86,290823,,,A*76
$GPGGA,204840.750,4305.8454,N,07740.6267,W,1,08,1.24,166.8,M,-34.4,M,,*50
$GPRMC,204841.000,A,4305.8476,N,07740.6255,W,33.99,21.16,290823,,,A*7E
$GPGGA,204841.250,4305.8498,N,07740.6244,W,1,08,1.24,166.7,M,-34.4,M,,*5A
$GPRMC,204841.500,A,4305.8519,N,07740.6233,W,32.81,21.10,290823,,,A*7D
$GPGGA,204841.750,4305.8540,N,07740.6222,W,1,08,1.24,166.8,M,-34.4,M,,*54
$GPRMC,204842.000,A,4305.8562,N,07740.6211,W,32.42,20.31,290823,,,A*7A
$GPGGA,204842.250,4305.8583,N,07740.6200,W,1,08,1.24,166.8,M,-34.4,M,,*5D
$GPRMC,204842.500,A,4305.8604,N,07740.6190,W,32.14,19.69,290823,,,A*72
$GPGGA,204842.750,4305.8625,N,07740.6179,W,1,08,1.24,166.9,M,-34.4,M,,*5B
$GPRMC,204843.000,A,4305.8646,N,07740.6169,W,31.79,19.13,290823,,,A*73
$GPGGA,204843.250,4305.8667,N,07740.6159,W,1,08,1.24,167.0,M,-34.4,M,,*53
$GPRMC,204843.500,A,4305.8688,N,07740.6149,W,31.74,18.78,290823,,,A*77
$GPGGA,204843.750,4305.8709,N,07740.6140,W,1,08,1.18,166.9,M,-34.4,M,,*50
$GPRMC,204844.000,A,4305.8729,N,07740.6130,W,31.54,18.00,290823,,,A*7C
$GPGGA,204844.250,4305.8750,N,07740.6121,W,1,08,1.24,166.7,M,-34.4,M,,*58
$GPRMC,204844.500,A,4305.8771,N,07740.6112,W,31.42,17.74,290823,,,A*7F
$GPGGA,204844.750,4305.8792,N,07740.6103,W,1,08,1.18,166.5,M,-34.4,M,,*5E
$GPRMC,204845.000,A,4305.8813,N,07740.6094,W,31.31,17.26,290823,,,A*7C
$GPGGA,204845.250,4305.8833,N,07740.6085,W,1,08,1.24,166.3,M,-34.4,M,,*58
$GPRMC,204845.500,A,4305.8854,N,07740.6077,W,31.05,16.97,290823,,,A*7B
$GPGGA,204845.750,4305.8875,N,07740.6068,W,1,08,1.18,166.2,M,-34.4,M,,*52
$GPRMC,204846.000,A,4305.8896,N,07740.6059,W,30.95,16.83,290823,,,A*72
$GPGGA,204846.250,4305.8916,N,07740.6051,W,1,08,1.24,166.1,M,-34.4,M,,*56
$GPRMC,204846.500,A,4305.8937,N,07740.6043,W,30.88,16.73,290823,,,A*75
$GPGGA,204846.750,4305.8958,N,07740.6034,W,1,08,1.24,165.8,M,-34.4,M,,*50
$GPRMC,204847.000,A,4305.8978,N,07740.6025,W,30.82,16.79,290823,,,A*7A
$GPGGA,204847.250,4305.8999,N,07740.6017,W,1,08,1.24,165.6,M,-34.4,M,,*56
$GPRMC,204847.500,A,4305.9020,N,07740.6009,W,30.74,16.87,290823,,,A*7C
$GPGGA,204847.750,4305.9040,N,07740.6000,W,1,08,1.24,165.4,M,-34.4,M,,*5B
$GPRMC,204848.000,A,4305.9061,N,07740.5992,W,30.51,17.65,290823,,,A*71
$GPGGA,204848.250,4305.9081,N,07740.5983,W,1,08,1.24,165.2,M,-34.4,M,,*5B
$GPRMC,204848.500,A,4305.9101,N,07740.5975,W,30.95,17.96,290823,,,A*7E
$GPGGA,204848.750,4305.9122,N,07740.5965,W,1,08,1.24,165.0,M,-34.4,M,,*5C
$GPRMC,204849.000,A,4305.9143,N,07740.5956,W,31.16,18.29,290823,,,A*7C
$GPGGA,204849.250,4305.9163,N,07740.5947,W,1,08,1.24,164.9,M,-34.4,M,,*55
$GPRMC,204849.500,A,4305.9184,N,07740.5937,W,31.70,18.27,290823,,,A*7B
$GPGGA,204849.750,4305.9206,N,07740.5928,W,1,08,1.18,165.0,M,-34.4,M,,*5E
$GPRMC,204850.000,A,4305.9227,N,07740.5919,W,32.14,17.94,290823,,,A*76
$GPGGA,204850.250,4305.9249,N,07740.5910,W,1,08,1.24,165.1,M,-34.4,M,,*5D
$GPRMC,204850.500,A,4305.9270,N,07740.5901,W,32.33,17.15,290823,,,A*74
$GPGGA,204850.750,4305.9292,N,07740.5892,W,1,08,1.18,165.1,M,-34.4,M,,*5A
$GPRMC,204851.000,A,4305.9314,N,07740.5883,W,32.52,16.84,290823,,,A*76
$GPGGA,204851.250,4305.9336,N,07740.5874,W,1,08,1.24,165.2,M,-34.4,M,,*55
$GPRMC,204851.500,A,4305.9358,N,07740.5864,W,32.79,17.12,290823,,,A*75
$GPGGA,204851.750,4305.9380,N,07740.5855,W,1,08,1.24,165.3,M,-34.4,M,,*5F
$GPRMC,204852.000,A,4305.9402,N,07740.5846,W,32.91,17.44,290823,,,A*7E
$GPGGA,204852.250,4305.9424,N,07740.5836,W,1,08,1.24,165.4,M,-34.4,M,,*52
$GPRMC,204852.500,A,4305.9446,N,07740.5827,W,33.58,17.44,290823,,,A*78
$GPGGA,204852.750,4305.9469,N,07740.5817,W,1,08,1.18,165.5,M,-34.4,M,,*53
$GPRMC,204853.000,A,4305.9492,N,07740.5808,W,33.84,16.96,290823,,,A*77
$GPGGA,204853.250,4305.9515,N,07740.5799,W,1,08,1.24,165.6,M,-34.4,M,,*58
$GPRMC,204853.500,A,4305.9537,N,07740.5789,W,34.07,17.24,290823,,,A*7E
$GPGGA,204853.750,4305.9560,N,07740.5779,W,1,08,1.24,165.6,M,-34.4,M,,*51
$GPRMC,204854.000,A,4305.9583,N,07740.5770,W,34.12,17.60,290823,,,A*71
$GPGGA,204854.250,4305.9606,N,07740.5760,W,1,08,1.24,165.8,M,-34.4,M,,*56
