Vers 81
USE_SERIAL_FEEDBACK=true
DEVELOPMENT_MODE=false
USE_RMC_ONLY=false

$GPRMC,210734.000,A,4305.1599,N,07740.8763,W,0.07,91.43,171023,,,A*49
$GPGGA,210734.250,4305.1600,N,07740.8762,W,1,05,1.17,162.3,M,-34.4,M,,*5A
$GPRMC,210734.500,A,4305.1601,N,07740.8762,W,0.01,320.12,171023,,,A*74
$GPGGA,210734.750,4305.1601,N,07740.8761,W,1,05,1.17,163.1,M,-34.4,M,,*5E
$GPRMC,210735.000,A,4305.1602,N,07740.8760,W,0.03,50.96,171023,,,A*4B
$GPGGA,210735.250,4305.1602,N,07740.8760,W,1,05,1.17,163.5,M,-34.4,M,,*5C
$GPRMC,210735.500,A,4305.1602,N,07740.8760,W,0.03,200.45,171023,,,A*77
$GPGGA,210735.750,4305.1602,N,07740.8760,W,1,05,1.17,163.4,M,-34.4,M,,*58
$GPRMC,210736.000,A,4305.1601,N,07740.8759,W,0.03,223.64,171023,,,A*7A
$GPGGA,210736.250,4305.1601,N,07740.8759,W,1,05,1.17,163.6,M,-34.4,M,,*55
$GPRMC,210736.500,A,4305.1601,N,07740.8759,W,0.02,93.85,171023,,,A*48
$GPGGA,210736.750,4305.1601,N,07740.8759,W,1,05,1.17,163.7,M,-34.4,M,,*51
$GPRMC,210737.000,A,4305.1601,N,07740.8759,W,0.01,199.65,171023,,,A*7A
$GPGGA,210737.250,4305.1601,N,07740.8759,W,1,05,1.17,163.7,M,-34.4,M,,*55
$GPRMC,210737.500,A,4305.1601,N,07740.8759,W,0.02,230.00,171023,,,A*7F
$GPGGA,210737.750,4305.1601,N,07740.8759,W,1,05,1.17,163.5,M,-34.4,M,,*52
$GPRMC,210738.000,A,4305.1601,N,07740.8758,W,0.01,116.18,171023,,,A*79
$GPGGA,210738.250,4305.1601,N,07740.8758,W,1,05,1.17,163.5,M,-34.4,M,,*59
$GPRMC,210738.500,A,4305.1601,N,07740.8758,W,0.02,262.50,171023,,,A*73
$GPGGA,210738.750,4305.1600,N,07740.8758,W,1,05,1.17,163.4,M,-34.4,M,,*5C
$GPRMC,210739.000,A,4305.1600,N,07740.8758,W,0.04,151.68,171023,,,A*78
$GPGGA,210739.250,4305.1600,N,07740.8759,W,1,05,1.17,163.3,M,-34.4,M,,*5E
$GPRMC,210739.500,A,4305.1600,N,07740.8759,W,0.04,181.08,171023,,,A*77
$GPGGA,210739.750,4305.1600,N,07740.8759,W,1,05,1.17,163.2,M,-34.4,M,,*5A
$GPRMC,210740.000,A,4305.1600,N,07740.8759,W,0.01,32.04,171023,,,A*4C
$GPGGA,210740.250,4305.1600,N,07740.8759,W,1,05,1.17,163.1,M,-34.4,M,,*52
$GPRMC,210740.500,A,4305.1600,N,07740.8759,W,0.02,203.02,171023,,,A*7C
$GPGGA,210740.750,4305.1600,N,07740.8759,W,1,05,1.17,163.0,M,-34.4,M,,*56
$GPRMC,210741.000,A,4305.1600,N,07740.8758,W,0.02,167.96,171023,,,A*75
$GPGGA,210741.250,4305.1600,N,07740.8758,W,1,05,1.17,162.9,M,-34.4,M,,*5B
$GPRMC,210741.500,A,4305.1600,N,07740.8758,W,0.02,209.89,171023,,,A*75
$GPGGA,210741.750,4305.1600,N,07740.8758,W,1,05,1.17,162.8,M,-34.4,M,,*5F
$GPRMC,210742.000,A,4305.1600,N,07740.8758,W,0.04,159.67,171023,,,A*73
$GPGGA,210742.250,4305.1600,N,07740.8757,W,1,05,1.17,162.6,M,-34.4,M,,*58
$GPRMC,210742.500,A,4305.1600,N,07740.8757,W,0.01,104.98,171023,,,A*74
$GPGGA,210742.750,4305.1600,N,07740.8757,W,1,05,1.17,162.4,M,-34.4,M,,*5F
$GPRMC,210743.000,A,4305.1600,N,07740.8757,W,0.01,341.64,171023,,,A*70
$GPGGA,210743.250,4305.1599,N,07740.8757,W,1,05,1.17,162.3,M,-34.4,M,,*5F
$GPRMC,210743.500,A,4305.1599,N,07740.8757,W,0.01,1.36,171023,,,A*76
$GPGGA,210743.750,4305.1599,N,07740.8757,W,1,05,1.48,162.1,M,-34.4,M,,*52
$GPRMC,210744.000,A,4305.1599,N,07740.8757,W,0.03,109.49,171023,,,A*77
$GPGGA,210744.250,4305.1599,N,07740.8757,W,1,05,1.17,161.9,M,-34.4,M,,*51
$GPRMC,210744.500,A,4305.1598,N,07740.8757,W,0.02,242.54,171023,,,A*72
$GPGGA,210744.750,4305.1598,N,07740.8757,W,1,05,1.17,161.6,M,-34.4,M,,*5A
$GPRMC,210745.000,A,4305.1598,N,07740.8757,W,0.03,12.58,171023,,,A*4C
$GPGGA,210745.250,4305.1598,N,07740.8757,W,1,05,1.48,161.5,M,-34.4,M,,*57
$GPRMC,210745.500,A,4305.1598,N,07740.8757,W,0.03,54.96,171023,,,A*49
$GPGGA,210745.750,4305.1598,N,07740.8757,W,1,05,1.17,161.5,M,-34.4,M,,*58
$GPRMC,210746.000,A,4305.1598,N,07740.8757,W,0.03,157.70,171023,,,A*75
$GPGGA,210746.250,4305.1598,N,07740.8757,W,1,05,1.17,161.4,M,-34.4,M,,*5F
$GPRMC,210746.500,A,4305.1598,N,07740.8757,W,0.01,201.12,171023,,,A*76
$GPGGA,210746.750,4305.1598,N,07740.8757,W,1,05,1.17,161.4,M,-34.4,M,,*5A
$GPRMC,210747.000,A,4305.1598,N,07740.8757,W,0.05,192.39,171023,,,A*76
$GPGGA,210747.250,4305.1598,N,07740.8757,W,1,05,1.17,161.2,M,-34.4,M,,*58
$GPRMC,210747.500,A,4305.1597,N,07740.8757,W,0.01,170.91,171023,,,A*76
$GPGGA,210747.750,4305.1597,N,07740.8757,W,1,05,1.17,161.1,M,-34.4,M,,*51
$GPRMC,210748.000,A,4305.1597,N,07740.8756,W,0.04,161.17,171023,,,A*76
$GPGGA,210748.250,4305.1597,N,07740.8756,W,1,05,1.17,161.0,M,-34.4,M,,*5B
$GPRMC,210748.500,A,4305.1597,N,07740.8756,W,0.02,104.69,171023,,,A*7F
$GPGGA,210748.750,4305.1597,N,07740.8756,W,1,05,1.17,160.9,M,-34.4,M,,*56
$GPRMC,210749.000,A,4305.1596,N,07740.8756,W,0.04,212.78,171023,,,A*78
$GPGGA,210749.250,4305.1596,N,07740.8756,W,1,05,1.17,160.9,M,-34.4,M,,*53
$GPRMC,210749.500,A,4305.1596,N,07740.8756,W,0.05,33.23,171023,,,A*43
$GPGGA,210749.750,4305.1596,N,07740.8756,W,1,05,1.17,160.8,M,-34.4,M,,*57
$GPRMC,210750.000,A,4305.1596,N,07740.8756,W,0.03,156.23,171023,,,A*7A
$GPGGA,210750.250,4305.1596,N,07740.8756,W,1,06,1.09,160.7,M,-34.4,M,,*59
$GPRMC,210750.500,A,4305.1596,N,07740.8756,W,0.02,2.98,171023,,,A*7E
$GPGGA,210750.750,4305.1595,N,07740.8756,W,1,06,1.40,160.6,M,-34.4,M,,*53
$GPRMC,210751.000,A,4305.1595,N,07740.8756,W,0.01,31.60,171023,,,A*4D
$GPGGA,210751.250,4305.1595,N,07740.8756,W,1,06,1.10,160.5,M,-34.4,M,,*51
$GPRMC,210751.500,A,4305.1595,N,07740.8756,W,0.01,128.98,171023,,,A*76
$GPGGA,210751.750,4305.1595,N,07740.8756,W,1,06,1.09,160.4,M,-34.4,M,,*5D
$GPRMC,210752.000,A,4305.1594,N,07740.8756,W,0.01,4.78,171023,,,A*70
$GPGGA,210752.250,4305.1594,N,07740.8756,W,1,06,1.40,160.3,M,-34.4,M,,*50
$GPRMC,210752.500,A,4305.1594,N,07740.8756,W,0.01,53.06,171023,,,A*4E
$GPGGA,210752.750,4305.1594,N,07740.8757,W,1,06,1.10,160.3,M,-34.4,M,,*51
$GPRMC,210753.000,A,4305.1594,N,07740.8757,W,0.02,133.85,171023,,,A*74
$GPGGA,210753.250,4305.1594,N,07740.8757,W,1,06,1.10,160.2,M,-34.4,M,,*54
$GPRMC,210753.500,A,4305.1594,N,07740.8757,W,0.04,202.62,171023,,,A*7F
$GPGGA,210753.750,4305.1594,N,07740.8757,W,1,06,1.10,160.0,M,-34.4,M,,*53
$GPRMC,210754.000,A,4305.1593,N,07740.8757,W,0.00,183.07,171023,,,A*77
$GPGGA,210754.250,4305.1593,N,07740.8757,W,1,06,1.10,159.7,M,-34.4,M,,*5B
$GPRMC,210754.500,A,4305.1593,N,07740.8757,W,0.03,35.79,171023,,,A*44
$GPGGA,210754.750,4305.1593,N,07740.8756,W,1,06,1.10,159.5,M,-34.4,M,,*5D
$GPRMC,210755.000,A,4305.1592,N,07740.8756,W,0.01,56.27,171023,,,A*4C
$GPGGA,210755.250,4305.1592,N,07740.8756,W,1,06,1.10,159.3,M,-34.4,M,,*5E
$GPRMC,210755.500,A,4305.1592,N,07740.8756,W,0.01,170.02,171023,,,A*7B
$GPGGA,210755.750,4305.1592,N,07740.8756,W,1,06,1.10,159.3,M,-34.4,M,,*5B
$GPRMC,210756.000,A,4305.1592,N,07740.8756,W,0.01,95.73,171023,,,A*41
$GPGGA,210756.250,4305.1592,N,07740.8756,W,1,06,1.10,159.3,M,-34.4,M,,*5D
$GPRMC,210756.500,A,4305.1592,N,07740.8756,W,0.03,286.57,171023,,,A*70
$GPGGA,210756.750,4305.1592,N,07740.8756,W,1,06,1.10,159.3,M,-34.4,M,,*58
$GPRMC,210757.000,A,4305.1592,N,07740.8756,W,0.01,345.76,171023,,,A*7B
$GPGGA,210757.250,4305.1592,N,07740.8756,W,1,06,1.40,159.2,M,-34.4,M,,*58
$GPRMC,210757.500,A,4305.1591,N,07740.8756,W,0.02,208.08,171023,,,A*7F
$GPGGA,210757.750,4305.1591,N,07740.8756,W,1,06,1.10,159.1,M,-34.4,M,,*58
$GPRMC,210758.000,A,4305.1591,N,07740.8756,W,0.03,67.66,171023,,,A*47
$GPGGA,210758.250,4305.1591,N,07740.8756,W,1,06,1.10,159.0,M,-34.4,M,,*53
$GPRMC,210758.500,A,4305.1591,N,07740.8756,W,0.03,284.53,171023,,,A*7B
$GPGGA,210758.750,4305.1590,N,07740.8756,W,1,06,1.10,158.9,M,-34.4,M,,*5F
$GPRMC,210759.000,A,4305.1590,N,07740.8756,W,0.02,205.36,171023,,,A*75
$GPGGA,210759.250,4305.1590,N,07740.8756,W,1,06,1.10,158.8,M,-34.4,M,,*5A
$GPRMC,210759.500,A,4305.1590,N,07740.8756,W,0.02,23.28,171023,,,A*49
$GPGGA,210759.750,4305.1590,N,07740.8756,W,1,06,1.10,158.8,M,-34.4,M,,*5F
$GPRMC,210800.000,A,4305.1590,N,07740.8756,W,0.04,150.85,171023,,,A*7B
$GPGGA,210800.250,4305.1590,N,07740.8756,W,1,06,1.10,158.9,M,-34.4,M,,*58
$GPRMC,210800.500,A,4305.1590,N,07740.8756,W,0.01,247.37,171023,,,A*77
$GPGGA,210800.750,4305.1590,N,07740.8756,W,1,06,1.10,158.8,M,-34.4,M,,*5C
$GPRMC,210801.000,A,4305.1590,N,07740.8756,W,0.07,352.38,171023,,,A*7F
$GPGGA,210801.250,4305.1590,N,07740.8756,W,1,06,1.40,158.8,M,-34.4,M,,*5D
$GPRMC,210801.500,A,4305.1590,N,07740.8756,W,0.40,358.11,171023,,,A*78
$GPGGA,210801.750,4305.1590,N,07740.8756,W,1,06,1.40,158.7,M,-34.4,M,,*57
$GPRMC,210802.000,A,4305.1591,N,07740.8756,W,0.92,358.19,171023,,,A*78
$GPGGA,210802.250,4305.1593,N,07740.8755,W,1,08,1.10,159.3,M,-34.4,M,,*5F
$GPRMC,210802.500,A,4305.1595,N,07740.8754,W,1.13,359.80,171023,,,A*72
$GPGGA,210802.750,4305.1597,N,07740.8753,W,1,08,1.10,160.8,M,-34.4,M,,*59
$GPRMC,210803.000,A,4305.1600,N,07740.8752,W,1.52,357.50,171023,,,A*79
$GPGGA,210803.250,4305.1602,N,07740.8751,W,1,08,1.10,162.4,M,-34.4,M,,*5E
$GPRMC,210803.500,A,4305.1605,N,07740.8751,W,1.86,355.50,171023,,,A*71
$GPGGA,210803.750,4305.1608,N,07740.8750,W,1,08,1.10,163.8,M,-34.4,M,,*5D
$GPRMC,210804.000,A,4305.1610,N,07740.8749,W,2.25,357.72,171023,,,A*76
$GPGGA,210804.250,4305.1613,N,07740.8748,W,1,08,1.10,164.8,M,-34.4,M,,*5B
$GPRMC,210804.500,A,4305.1615,N,07740.8747,W,2.03,358.23,171023,,,A*77
$GPGGA,210804.750,4305.1618,N,07740.8746,W,1,08,1.10,165.5,M,-34.4,M,,*57
$GPRMC,210805.000,A,4305.1620,N,07740.8745,W,1.27,359.40,171023,,,A*76
$GPGGA,210805.250,4305.1621,N,07740.8744,W,1,08,1.10,166.0,M,-34.4,M,,*5D
$GPRMC,210805.500,A,4305.1622,N,07740.8743,W,0.36,3.44,171023,,,A*7E
$GPGGA,210805.750,4305.1623,N,07740.8742,W,1,08,1.10,166.4,M,-34.4,M,,*58
$GPRMC,210806.000,A,4305.1624,N,07740.8742,W,0.09,0.14,171023,,,A*75
$GPGGA,210806.250,4305.1625,N,07740.8741,W,1,08,1.10,166.7,M,-34.4,M,,*58
$GPRMC,210806.500,A,4305.1625,N,07740.8741,W,0.05,2.00,171023,,,A*79
$GPGGA,210806.750,4305.1627,N,07740.8741,W,1,08,1.10,167.0,M,-34.4,M,,*59
$GPRMC,210807.000,A,4305.1628,N,07740.8741,W,0.50,1.77,171023,,,A*73
$GPGGA,210807.250,4305.1629,N,07740.8741,W,1,08,1.10,167.4,M,-34.4,M,,*57
$GPRMC,210807.500,A,4305.1630,N,07740.8740,W,0.99,358.49,171023,,,A*79
$GPGGA,210807.750,4305.1631,N,07740.8740,W,1,08,1.10,167.8,M,-34.4,M,,*56
$GPRMC,210808.000,A,4305.1633,N,07740.8740,W,1.49,1.87,171023,,,A*71
$GPGGA,210808.250,4305.1634,N,07740.8739,W,1,08,1.10,168.1,M,-34.4,M,,*51
$GPRMC,210808.500,A,4305.1636,N,07740.8738,W,1.95,4.95,171023,,,A*79
$GPGGA,210808.750,4305.1638,N,07740.8738,W,1,08,1.10,168.4,M,-34.4,M,,*5C
$GPRMC,210809.000,A,4305.1639,N,07740.8737,W,2.20,8.90,171023,,,A*79
$GPGGA,210809.250,4305.1641,N,07740.8736,W,1,08,1.10,168.6,M,-34.4,M,,*5A
$GPRMC,210809.500,A,4305.1643,N,07740.8736,W,2.29,18.35,171023,,,A*47
$GPGGA,210809.750,4305.1645,N,07740.8735,W,1,08,1.05,168.8,M,-34.4,M,,*52
$GPRMC,210810.000,A,4305.1647,N,07740.8734,W,2.37,23.72,171023,,,A*48
$GPGGA,210810.250,4305.1649,N,07740.8733,W,1,08,1.05,169.1,M,-34.4,M,,*5D
$GPRMC,210810.500,A,4305.1651,N,07740.8732,W,2.11,29.83,171023,,,A*4C
$GPGGA,210810.750,4305.1652,N,07740.8731,W,1,08,1.05,169.2,M,-34.4,M,,*53
$GPRMC,210811.000,A,4305.1654,N,07740.8731,W,1.71,39.75,171023,,,A*43
$GPGGA,210811.250,4305.1655,N,07740.8730,W,1,08,1.05,169.5,M,-34.4,M,,*56
$GPRMC,210811.500,A,4305.1657,N,07740.8729,W,1.29,40.21,171023,,,A*4E
$GPGGA,210811.750,4305.1658,N,07740.8728,W,1,08,1.05,169.8,M,-34.4,M,,*5A
$GPRMC,210812.000,A,4305.1658,N,07740.8728,W,0.43,44.29,171023,,,A*47
$GPGGA,210812.250,4305.1659,N,07740.8728,W,1,08,1.05,170.0,M,-34.4,M,,*5D
$GPRMC,210812.500,A,4305.1659,N,07740.8728,W,0.08,220.56,171023,,,A*74
$GPGGA,210812.750,4305.1659,N,07740.8728,W,1,08,1.05,170.2,M,-34.4,M,,*5A
$GPRMC,210813.000,A,4305.1659,N,07740.8728,W,1.32,227.18,171023,,,A*75
$GPGGA,210813.250,4305.1658,N,07740.8730,W,1,08,1.05,170.5,M,-34.4,M,,*51
$GPRMC,210813.500,A,4305.1657,N,07740.8731,W,2.77,224.29,171023,,,A*75
$GPGGA,210813.750,4305.1656,N,07740.8733,W,1,08,1.05,170.6,M,-34.4,M,,*5A
$GPRMC,210814.000,A,4305.1654,N,07740.8736,W,3.75,230.70,171023,,,A*79
$GPGGA,210814.250,4305.1653,N,07740.8739,W,1,08,1.05,170.8,M,-34.4,M,,*59
$GPRMC,210814.500,A,4305.1652,N,07740.8743,W,4.51,239.70,171023,,,A*70
$GPGGA,210814.750,4305.1650,N,07740.8747,W,1,08,1.10,170.9,M,-34.4,M,,*53
$GPRMC,210815.000,A,4305.1649,N,07740.8751,W,5.65,250.99,171023,,,A*73
$GPGGA,210815.250,4305.1648,N,07740.8756,W,1,08,1.10,171.1,M,-34.4,M,,*57
$GPRMC,210815.500,A,4305.1647,N,07740.8762,W,5.64,259.30,171023,,,A*73
$GPGGA,210815.750,4305.1647,N,07740.8767,W,1,08,1.10,171.3,M,-34.4,M,,*5D
$GPRMC,210816.000,A,4305.1647,N,07740.8772,W,5.76,269.19,171023,,,A*7F
$GPGGA,210816.250,4305.1647,N,07740.8778,W,1,08,1.10,171.4,M,-34.4,M,,*52
$GPRMC,210816.500,A,4305.1648,N,07740.8784,W,5.86,275.24,171023,,,A*70
$GPGGA,210816.750,4305.1648,N,07740.8789,W,1,08,1.10,171.5,M,-34.4,M,,*57
$GPRMC,210817.000,A,4305.1649,N,07740.8795,W,5.85,281.76,171023,,,A*7A
$GPGGA,210817.250,4305.1650,N,07740.8801,W,1,08,1.10,171.6,M,-34.4,M,,*56
$GPRMC,210817.500,A,4305.1652,N,07740.8806,W,6.04,290.06,171023,,,A*7D
$GPGGA,210817.750,4305.1653,N,07740.8812,W,1,08,1.10,171.6,M,-34.4,M,,*52
$GPRMC,210818.000,A,4305.1656,N,07740.8817,W,6.43,300.18,171023,,,A*77
$GPGGA,210818.250,4305.1658,N,07740.8822,W,1,08,1.10,171.8,M,-34.4,M,,*5E
$GPRMC,210818.500,A,4305.1661,N,07740.8828,W,6.73,310.31,171023,,,A*73
$GPGGA,210818.750,4305.1665,N,07740.8832,W,1,08,1.10,171.9,M,-34.4,M,,*55
$GPRMC,210819.000,A,4305.1669,N,07740.8836,W,7.46,325.48,171023,,,A*7F
$GPGGA,210819.250,4305.1674,N,07740.8840,W,1,08,1.10,171.9,M,-34.4,M,,*54
$GPRMC,210819.500,A,4305.1679,N,07740.8843,W,8.33,340.28,171023,,,A*71
$GPGGA,210819.750,4305.1685,N,07740.8845,W,1,08,1.10,171.8,M,-34.4,M,,*5B
$GPRMC,210820.000,A,4305.1691,N,07740.8847,W,9.59,350.28,171023,,,A*70
$GPGGA,210820.250,4305.1698,N,07740.8848,W,1,08,1.10,171.8,M,-34.4,M,,*55
$GPRMC,210820.500,A,4305.1706,N,07740.8848,W,10.81,356.41,171023,,,A*41
$GPGGA,210820.750,4305.1714,N,07740.8849,W,1,08,1.10,171.8,M,-34.4,M,,*54
$GPRMC,210821.000,A,4305.1722,N,07740.8849,W,11.76,359.13,171023,,,A*43
$GPGGA,210821.250,4305.1731,N,07740.8850,W,1,08,1.10,171.8,M,-34.4,M,,*5F
$GPRMC,210821.500,A,4305.1740,N,07740.8850,W,12.68,358.93,171023,,,A*4F
$GPGGA,210821.750,4305.1750,N,07740.8850,W,1,08,1.10,171.7,M,-34.4,M,,*52
$GPRMC,210822.000,A,4305.1759,N,07740.8851,W,13.43,359.40,171023,,,A*47
$GPGGA,210822.250,4305.1769,N,07740.8851,W,1,08,1.10,171.7,M,-34.4,M,,*5F
$GPRMC,210822.500,A,4305.1779,N,07740.8851,W,14.50,358.93,171023,,,A*4A
$GPGGA,210822.750,4305.1790,N,07740.8851,W,1,08,1.10,171.5,M,-34.4,M,,*5E
$GPRMC,210823.000,A,4305.1800,N,07740.8851,W,15.47,359.50,171023,,,A*46
$GPGGA,210823.250,4305.1811,N,07740.8850,W,1,08,1.10,171.3,M,-34.4,M,,*5B
$GPRMC,210823.500,A,4305.1823,N,07740.8850,W,16.39,359.79,171023,,,A*42
$GPGGA,210823.750,4305.1834,N,07740.8850,W,1,08,1.10,171.1,M,-34.4,M,,*5B
$GPRMC,210824.000,A,4305.1846,N,07740.8849,W,17.21,358.68,171023,,,A*42
$GPGGA,210824.250,4305.1858,N,07740.8849,W,1,08,1.10,171.0,M,-34.4,M,,*5A
$GPRMC,210824.500,A,4305.1871,N,07740.8849,W,17.86,359.40,171023,,,A*45
$GPGGA,210824.750,4305.1884,N,07740.8849,W,1,08,1.10,170.8,M,-34.4,M,,*57
$GPRMC,210825.000,A,4305.1896,N,07740.8849,W,18.53,359.51,171023,,,A*4F
$GPGGA,210825.250,4305.1910,N,07740.8849,W,1,08,1.10,170.7,M,-34.4,M,,*50
$GPRMC,210825.500,A,4305.1923,N,07740.8850,W,18.51,0.38,171023,,,A*4F
$GPGGA,210825.750,4305.1936,N,07740.8850,W,1,08,1.10,170.6,M,-34.4,M,,*58
$GPRMC,210826.000,A,4305.1949,N,07740.8850,W,18.53,0.07,171023,,,A*4B
$GPGGA,210826.250,4305.1962,N,07740.8850,W,1,08,1.10,170.5,M,-34.4,M,,*5C
$GPRMC,210826.500,A,4305.1975,N,07740.8850,W,18.54,359.54,171023,,,A*4F
$GPGGA,210826.750,4305.1988,N,07740.8850,W,1,08,1.10,170.4,M,-34.4,M,,*5C
$GPRMC,210827.000,A,4305.2000,N,07740.8849,W,18.54,359.19,171023,,,A*42
$GPGGA,210827.250,4305.2014,N,07740.8850,W,1,08,1.10,170.2,M,-34.4,M,,*51
$GPRMC,210827.500,A,4305.2027,N,07740.8850,W,18.52,358.58,171023,,,A*48
$GPGGA,210827.750,4305.2040,N,07740.8850,W,1,08,1.10,170.0,M,-34.4,M,,*57
$GPRMC,210828.000,A,4305.2052,N,07740.8851,W,18.36,358.28,171023,,,A*44
$GPGGA,210828.250,4305.2065,N,07740.8851,W,1,08,1.10,169.9,M,-34.4,M,,*5A
$GPRMC,210828.500,A,4305.2078,N,07740.8852,W,18.34,357.70,171023,,,A*4A
$GPGGA,210828.750,4305.2091,N,07740.8853,W,1,08,1.10,169.7,M,-34.4,M,,*58
$GPRMC,210829.000,A,4305.2104,N,07740.8853,W,18.34,357.73,171023,,,A*46
$GPGGA,210829.250,4305.2117,N,07740.8855,W,1,08,1.10,169.6,M,-34.4,M,,*54
$GPRMC,210829.500,A,4305.2129,N,07740.8856,W,18.30,356.83,171023,,,A*43
$GPGGA,210829.750,4305.2142,N,07740.8857,W,1,08,1.10,169.5,M,-34.4,M,,*50
$GPRMC,210830.000,A,4305.2154,N,07740.8859,W,18.22,356.24,171023,,,A*45
$GPGGA,210830.250,4305.2167,N,07740.8860,W,1,08,1.10,169.4,M,-34.4,M,,*5F
$GPRMC,210830.500,A,4305.2179,N,07740.8861,W,18.00,355.99,171023,,,A*41
$GPGGA,210830.750,4305.2191,N,07740.8862,W,1,08,1.10,169.4,M,-34.4,M,,*51
$GPRMC,210831.000,A,4305.2203,N,07740.8863,W,17.64,355.20,171023,,,A*46
$GPGGA,210831.250,4305.2215,N,07740.8865,W,1,08,1.10,169.3,M,-34.4,M,,*5A
$GPRMC,210831.500,A,4305.2227,N,07740.8867,W,17.56,354.30,171023,,,A*40
$GPGGA,210831.750,4305.2240,N,07740.8869,W,1,08,1.10,169.2,M,-34.4,M,,*52
$GPRMC,210832.000,A,4305.2252,N,07740.8871,W,17.51,353.10,171023,,,A*41
$GPGGA,210832.250,4305.2264,N,07740.8873,W,1,08,1.10,169.1,M,-34.4,M,,*5A
$GPRMC,210832.500,A,4305.2278,N,07740.8875,W,17.47,352.65,171023,,,A*4C
$GPGGA,210832.750,4305.2291,N,07740.8879,W,1,08,1.10,169.0,M,-34.4,M,,*5E
$GPRMC,210833.000,A,4305.2304,N,07740.8882,W,17.39,352.37,171023,,,A*44
$GPGGA,210833.250,4305.2318,N,07740.8885,W,1,08,1.10,168.9,M,-34.4,M,,*51
$GPRMC,210833.500,A,4305.2330,N,07740.8888,W,16.96,352.39,171023,,,A*46
$GPGGA,210833.750,4305.2341,N,07740.8890,W,1,08,1.10,168.7,M,-34.4,M,,*52
$GPRMC,210834.000,A,4305.2351,N,07740.8892,W,15.92,351.81,171023,,,A*4F
$GPGGA,210834.250,4305.2362,N,07740.8894,W,1,08,1.10,168.6,M,-34.4,M,,*54
$GPRMC,210834.500,A,4305.2371,N,07740.8895,W,14.05,350.82,171023,,,A*42
$GPGGA,210834.750,4305.2379,N,07740.8895,W,1,08,1.10,168.5,M,-34.4,M,,*59
$GPRMC,210835.000,A,4305.2385,N,07740.8896,W,10.85,350.58,171023,,,A*45
$GPGGA,210835.250,4305.2392,N,07740.8896,W,1,08,1.10,168.3,M,-34.4,M,,*5D
$GPRMC,210835.500,A,4305.2397,N,07740.8896,W,9.06,351.53,171023,,,A*7A
$GPGGA,210835.750,4305.2401,N,07740.8896,W,1,08,1.10,168.1,M,-34.4,M,,*57
$GPRMC,210836.000,A,4305.2406,N,07740.8896,W,6.86,350.30,171023,,,A*70
$GPGGA,210836.250,4305.2410,N,07740.8896,W,1,08,1.10,168.0,M,-34.4,M,,*50
$GPRMC,210836.500,A,4305.2412,N,07740.8896,W,5.27,356.26,171023,,,A*79
$GPGGA,210836.750,4305.2414,N,07740.8895,W,1,08,1.10,168.0,M,-34.4,M,,*52
$GPRMC,210837.000,A,4305.2416,N,07740.8894,W,5.26,3.72,171023,,,A*78
$GPGGA,210837.250,4305.2421,N,07740.8892,W,1,08,1.10,168.1,M,-34.4,M,,*56
$GPRMC,210837.500,A,4305.2426,N,07740.8891,W,7.00,9.36,171023,,,A*77
$GPGGA,210837.750,4305.2432,N,07740.8887,W,1,08,1.10,168.4,M,-34.4,M,,*50
$GPRMC,210838.000,A,4305.2438,N,07740.8882,W,10.01,23.95,171023,,,A*76
$GPGGA,210838.250,4305.2444,N,07740.8876,W,1,08,1.10,168.3,M,-34.4,M,,*52
$GPRMC,210838.500,A,4305.2451,N,07740.8869,W,11.58,35.33,171023,,,A*7F
$GPGGA,210838.750,4305.2456,N,07740.8860,W,1,08,1.10,168.4,M,-34.4,M,,*54
$GPRMC,210839.000,A,4305.2462,N,07740.8849,W,13.51,47.58,171023,,,A*7A
$GPGGA,210839.250,4305.2467,N,07740.8836,W,1,08,1.05,168.3,M,-34.4,M,,*52
$GPRMC,210839.500,A,4305.2471,N,07740.8823,W,15.46,60.00,171023,,,A*79
$GPGGA,210839.750,4305.2476,N,07740.8808,W,1,08,1.10,168.7,M,-34.4,M,,*5A
$GPRMC,210840.000,A,4305.2480,N,07740.8793,W,17.01,67.05,171023,,,A*7B
$GPGGA,210840.250,4305.2483,N,07740.8776,W,1,08,1.05,168.8,M,-34.4,M,,*56
$GPRMC,210840.500,A,4305.2486,N,07740.8759,W,18.39,72.36,171023,,,A*7E
$GPGGA,210840.750,4305.2489,N,07740.8741,W,1,08,1.10,168.7,M,-34.4,M,,*56
$GPRMC,210841.000,A,4305.2492,N,07740.8723,W,19.68,75.17,171023,,,A*73
$GPGGA,210841.250,4305.2495,N,07740.8705,W,1,08,1.10,168.7,M,-34.4,M,,*5F
$GPRMC,210841.500,A,4305.2498,N,07740.8686,W,20.92,76.97,171023,,,A*76
$GPGGA,210841.750,4305.2501,N,07740.8666,W,1,08,1.10,168.6,M,-34.4,M,,*53
$GPRMC,210842.000,A,4305.2504,N,07740.8647,W,22.04,77.18,171023,,,A*72
$GPGGA,210842.250,4305.2507,N,07740.8627,W,1,08,1.10,168.6,M,-34.4,M,,*56
$GPRMC,210842.500,A,4305.2510,N,07740.8606,W,22.97,77.13,171023,,,A*76
$GPGGA,210842.750,4305.2514,N,07740.8585,W,1,08,1.10,168.5,M,-34.4,M,,*59
$GPRMC,210843.000,A,4305.2518,N,07740.8564,W,23.66,76.99,171023,,,A*71
$GPGGA,210843.250,4305.2522,N,07740.8542,W,1,08,1.10,168.4,M,-34.4,M,,*52
$GPRMC,210843.500,A,4305.2525,N,07740.8520,W,24.38,77.34,171023,,,A*70
$GPGGA,210843.750,4305.2529,N,07740.8498,W,1,08,1.10,168.4,M,-34.4,M,,*5A
$GPRMC,210844.000,A,4305.2532,N,07740.8476,W,24.63,78.39,171023,,,A*7A
$GPGGA,210844.250,4305.2536,N,07740.8453,W,1,08,1.10,168.3,M,-34.4,M,,*56
$GPRMC,210844.500,A,4305.2539,N,07740.8431,W,24.15,79.35,171023,,,A*7B
$GPGGA,210844.750,4305.2541,N,07740.8409,W,1,08,1.10,168.3,M,-34.4,M,,*5C
$GPRMC,210845.000,A,4305.2544,N,07740.8387,W,23.93,80.30,171023,,,A*75
$GPGGA,210845.250,4305.2547,N,07740.8364,W,1,08,1.10,168.2,M,-34.4,M,,*53
$GPRMC,210845.500,A,4305.2550,N,07740.8342,W,23.52,81.12,171023,,,A*70
$GPGGA,210845.750,4305.2552,N,07740.8320,W,1,08,1.10,168.2,M,-34.4,M,,*52
$GPRMC,210846.000,A,4305.2554,N,07740.8297,W,23.26,82.11,171023,,,A*78
$GPGGA,210846.250,4305.2556,N,07740.8276,W,1,08,1.11,168.1,M,-34.4,M,,*50
$GPRMC,210846.500,A,4305.2558,N,07740.8253,W,22.96,82.93,171023,,,A*79
$GPGGA,210846.750,4305.2559,N,07740.8231,W,1,08,1.10,168.1,M,-34.4,M,,*58
$GPRMC,210847.000,A,4305.2561,N,07740.8209,W,22.56,83.35,171023,,,A*79
$GPGGA,210847.250,4305.2562,N,07740.8187,W,1,08,1.10,168.1,M,-34.4,M,,*5A
$GPRMC,210847.500,A,4305.2563,N,07740.8166,W,22.27,84.30,171023,,,A*70
$GPGGA,210847.750,4305.2565,N,07740.8145,W,1,08,1.10,168.0,M,-34.4,M,,*57
$GPRMC,210848.000,A,4305.2566,N,07740.8124,W,21.94,84.61,171023,,,A*76
$GPGGA,210848.250,4305.2568,N,07740.8103,W,1,08,1.10,168.0,M,-34.4,M,,*52
$GPRMC,210848.500,A,4305.2569,N,07740.8082,W,21.66,84.61,171023,,,A*7C
$GPGGA,210848.750,4305.2570,N,07740.8062,W,1,08,1.10,168.0,M,-34.4,M,,*58
$GPRMC,210849.000,A,4305.2572,N,07740.8041,W,21.17,84.67,171023,,,A*7D
$GPGGA,210849.250,4305.2573,N,07740.8021,W,1,08,1.11,167.9,M,-34.4,M,,*5F
$GPRMC,210849.500,A,4305.2575,N,07740.8001,W,20.88,84.95,171023,,,A*71
$GPGGA,210849.750,4305.2576,N,07740.7982,W,1,08,1.10,167.9,M,-34.4,M,,*51
$GPRMC,210850.000,A,4305.2577,N,07740.7962,W,20.60,84.98,171023,,,A*76
$GPGGA,210850.250,4305.2578,N,07740.7943,W,1,08,1.10,167.9,M,-34.4,M,,*5F
$GPRMC,210850.500,A,4305.2579,N,07740.7924,W,20.29,84.93,171023,,,A*79
$GPGGA,210850.750,4305.2581,N,07740.7905,W,1,08,1.10,167.8,M,-34.4,M,,*5F
$GPRMC,210851.000,A,4305.2582,N,07740.7887,W,19.61,84.88,171023,,,A*7D
$GPGGA,210851.250,4305.2583,N,07740.7868,W,1,08,1.11,167.8,M,-34.4,M,,*52
$GPRMC,210851.500,A,4305.2584,N,07740.7851,W,17.98,85.18,171023,,,A*75
$GPGGA,210851.750,4305.2585,N,07740.7835,W,1,08,1.10,167.8,M,-34.4,M,,*58
$GPRMC,210852.000,A,4305.2586,N,07740.7820,W,15.97,85.82,171023,,,A*79
$GPGGA,210852.250,4305.2587,N,07740.7806,W,1,08,1.11,167.7,M,-34.4,M,,*52
$GPRMC,210852.500,A,4305.2587,N,07740.7793,W,14.21,86.18,171023,,,A*76
$GPGGA,210852.750,4305.2588,N,07740.7780,W,1,08,1.11,167.7,M,-34.4,M,,*59
$GPRMC,210853.000,A,4305.2588,N,07740.7768,W,12.70,86.72,171023,,,A*77
$GPGGA,210853.250,4305.2589,N,07740.7757,W,1,08,1.10,167.6,M,-34.4,M,,*56
$GPRMC,210853.500,A,4305.2589,N,07740.7746,W,12.08,87.33,171023,,,A*74
$GPGGA,210853.750,4305.2590,N,07740.7735,W,1,08,1.11,167.6,M,-34.4,M,,*5E
$GPRMC,210854.000,A,4305.2590,N,07740.7724,W,11.66,87.57,171023,,,A*73
$GPGGA,210854.250,4305.2590,N,07740.7713,W,1,08,1.11,167.5,M,-34.4,M,,*5B
$GPRMC,210854.500,A,4305.2591,N,07740.7702,W,11.23,88.07,171023,,,A*78
$GPGGA,210854.750,4305.2591,N,07740.7692,W,1,08,1.11,167.5,M,-34.4,M,,*57
$GPRMC,210855.000,A,4305.2591,N,07740.7682,W,10.96,88.52,171023,,,A*7A
$GPGGA,210855.250,4305.2591,N,07740.7672,W,1,08,1.11,167.5,M,-34.4,M,,*5D
$GPRMC,210855.500,A,4305.2591,N,07740.7662,W,10.29,88.88,171023,,,A*72
$GPGGA,210855.750,4305.2591,N,07740.7653,W,1,08,1.11,167.5,M,-34.4,M,,*5B
$GPRMC,210856.000,A,4305.2591,N,07740.7644,W,9.17,89.39,171023,,,A*4E
$GPGGA,210856.250,4305.2591,N,07740.7636,W,1,08,1.10,167.4,M,-34.4,M,,*5E
$GPRMC,210856.500,A,4305.2592,N,07740.7630,W,7.43,89.61,171023,,,A*49
$GPGGA,210856.750,4305.2592,N,07740.7623,W,1,08,1.11,167.5,M,-34.4,M,,*5C
$GPRMC,210857.000,A,4305.2592,N,07740.7618,W,5.32,89.40,171023,,,A*40
$GPGGA,210857.250,4305.2592,N,07740.7614,W,1,08,1.11,167.5,M,-34.4,M,,*5C
$GPRMC,210857.500,A,4305.2592,N,07740.7610,W,3.62,90.15,171023,,,A*46
$GPGGA,210857.750,4305.2592,N,07740.7608,W,1,08,1.06,167.5,M,-34.4,M,,*52
$GPRMC,210858.000,A,4305.2592,N,07740.7605,W,2.07,90.15,171023,,,A*4A
$GPGGA,210858.250,4305.2592,N,07740.7604,W,1,08,1.06,167.4,M,-34.4,M,,*55
$GPRMC,210858.500,A,4305.2592,N,07740.7603,W,0.74,90.15,171023,,,A*4F
$GPGGA,210858.750,4305.2592,N,07740.7603,W,1,08,1.06,167.4,M,-34.4,M,,*57
$GPRMC,210859.000,A,4305.2592,N,07740.7603,W,0.45,90.15,171023,,,A*49
$GPGGA,210859.250,4305.2592,N,07740.7602,W,1,08,1.06,167.4,M,-34.4,M,,*52
$GPRMC,210859.500,A,4305.2592,N,07740.7601,W,1.40,90.15,171023,,,A*4A
$GPGGA,210859.750,4305.2592,N,07740.7600,W,1,08,1.06,167.3,M,-34.4,M,,*52
$GPRMC,210900.000,A,4305.2592,N,07740.7597,W,2.90,90.15,171023,,,A*40
$GPGGA,210900.250,4305.2592,N,07740.7595,W,1,08,1.06,167.3,M,-34.4,M,,*55
$GPRMC,210900.500,A,4305.2591,N,07740.7592,W,4.25,89.95,171023,,,A*4B
$GPGGA,210900.750,4305.2591,N,07740.7589,W,1,08,1.11,167.3,M,-34.4,M,,*58
$GPRMC,210901.000,A,4305.2591,N,07740.7585,W,5.39,90.29,171023,,,A*4A
$GPGGA,210901.250,4305.2591,N,07740.7580,W,1,08,1.11,167.3,M,-34.4,M,,*55
$GPRMC,210901.500,A,4305.2590,N,07740.7575,W,6.36,89.26,171023,,,A*4A
$GPGGA,210901.750,4305.2590,N,07740.7569,W,1,08,1.11,167.2,M,-34.4,M,,*57
$GPRMC,210902.000,A,4305.2590,N,07740.7563,W,7.16,89.22,171023,,,A*4C
$GPGGA,210902.250,4305.2590,N,07740.7556,W,1,08,1.11,167.2,M,-34.4,M,,*5D
$GPRMC,210902.500,A,4305.2591,N,07740.7548,W,8.00,86.59,171023,,,A*4A
$GPGGA,210902.750,4305.2591,N,07740.7541,W,1,08,1.11,167.3,M,-34.4,M,,*5E
$GPRMC,210903.000,A,4305.2592,N,07740.7532,W,9.32,77.18,171023,,,A*4B
$GPGGA,210903.250,4305.2594,N,07740.7524,W,1,08,1.11,167.3,M,-34.4,M,,*5C
$GPRMC,210903.500,A,4305.2597,N,07740.7515,W,10.53,65.85,171023,,,A*76
$GPGGA,210903.750,4305.2600,N,07740.7506,W,1,08,1.11,167.3,M,-34.4,M,,*57
$GPRMC,210904.000,A,4305.2605,N,07740.7497,W,12.08,53.11,171023,,,A*73
$GPGGA,210904.250,4305.2610,N,07740.7488,W,1,08,1.11,167.3,M,-34.4,M,,*53
$GPRMC,210904.500,A,4305.2617,N,07740.7481,W,12.98,36.70,171023,,,A*7F
$GPGGA,210904.750,4305.2624,N,07740.7474,W,1,08,1.11,167.3,M,-34.4,M,,*52
$GPRMC,210905.000,A,4305.2633,N,07740.7469,W,14.10,26.91,171023,,,A*73
$GPGGA,210905.250,4305.2642,N,07740.7465,W,1,08,1.11,167.3,M,-34.4,M,,*56
$GPRMC,210905.500,A,4305.2651,N,07740.7460,W,14.79,18.89,171023,,,A*70
$GPGGA,210905.750,4305.2661,N,07740.7457,W,1,08,1.11,167.5,M,-34.4,M,,*55
$GPRMC,210906.000,A,4305.2671,N,07740.7454,W,15.54,9.49,171023,,,A*41
$GPGGA,210906.250,4305.2682,N,07740.7452,W,1,08,1.11,167.6,M,-34.4,M,,*58
$GPRMC,210906.500,A,4305.2693,N,07740.7451,W,16.25,0.55,171023,,,A*4C
$GPGGA,210906.750,4305.2705,N,07740.7452,W,1,08,1.11,167.7,M,-34.4,M,,*52
$GPRMC,210907.000,A,4305.2716,N,07740.7452,W,17.05,358.89,171023,,,A*4B
$GPGGA,210907.250,4305.2728,N,07740.7452,W,1,08,1.11,167.9,M,-34.4,M,,*57
$GPRMC,210907.500,A,4305.2741,N,07740.7453,W,17.82,357.31,171023,,,A*4E
$GPGGA,210907.750,4305.2753,N,07740.7454,W,1,08,1.11,168.0,M,-34.4,M,,*5E
$GPRMC,210908.000,A,4305.2766,N,07740.7455,W,18.50,357.14,171023,,,A*40
$GPGGA,210908.250,4305.2779,N,07740.7456,W,1,08,1.11,168.0,M,-34.4,M,,*5E
$GPRMC,210908.500,A,4305.2792,N,07740.7457,W,18.82,356.68,171023,,,A*49
$GPGGA,210908.750,4305.2805,N,07740.7458,W,1,08,1.11,168.1,M,-34.4,M,,*50
$GPRMC,210909.000,A,4305.2819,N,07740.7459,W,19.54,357.12,171023,,,A*49
$GPGGA,210909.250,4305.2832,N,07740.7460,W,1,08,1.11,168.2,M,-34.4,M,,*58
$GPRMC,210909.500,A,4305.2846,N,07740.7461,W,19.84,357.21,171023,,,A*40
$GPGGA,210909.750,4305.2860,N,07740.7462,W,1,08,1.11,168.3,M,-34.4,M,,*59
$GPRMC,210910.000,A,4305.2874,N,07740.7463,W,20.34,357.04,171023,,,A*48
$GPGGA,210910.250,4305.2889,N,07740.7464,W,1,08,1.11,168.4,M,-34.4,M,,*52
$GPRMC,210910.500,A,4305.2903,N,07740.7465,W,20.63,357.86,171023,,,A*42
$GPGGA,210910.750,4305.2918,N,07740.7466,W,1,08,1.11,168.4,M,-34.4,M,,*5C
$GPRMC,210911.000,A,4305.2932,N,07740.7467,W,21.10,357.81,171023,,,A*44
$GPGGA,210911.250,4305.2947,N,07740.7467,W,1,08,1.11,168.4,M,-34.4,M,,*53
$GPRMC,210911.500,A,4305.2962,N,07740.7468,W,21.33,357.99,171023,,,A*43
$GPGGA,210911.750,4305.2977,N,07740.7468,W,1,07,1.41,168.4,M,-34.4,M,,*50
$GPRMC,210912.000,A,4305.2992,N,07740.7469,W,21.63,358.17,171023,,,A*47
$GPGGA,210912.250,4305.3007,N,07740.7469,W,1,08,1.11,168.5,M,-34.4,M,,*53
$GPRMC,210912.500,A,4305.3022,N,07740.7469,W,22.11,358.79,171023,,,A*4F
$GPGGA,210912.750,4305.3038,N,07740.7470,W,1,08,1.11,168.4,M,-34.4,M,,*53
$GPRMC,210913.000,A,4305.3053,N,07740.7470,W,22.32,359.52,171023,,,A*4C
$GPGGA,210913.250,4305.3068,N,07740.7470,W,1,08,1.11,168.5,M,-34.4,M,,*53
$GPRMC,210913.500,A,4305.3084,N,07740.7470,W,21.99,359.79,171023,,,A*48
$GPGGA,210913.750,4305.3099,N,07740.7470,W,1,08,1.11,168.5,M,-34.4,M,,*58
$GPRMC,210914.000,A,4305.3114,N,07740.7471,W,21.64,359.55,171023,,,A*4F
$GPGGA,210914.250,4305.3129,N,07740.7471,W,1,08,1.11,168.5,M,-34.4,M,,*51
$GPRMC,210914.500,A,4305.3145,N,07740.7472,W,21.38,359.33,171023,,,A*44
$GPGGA,210914.750,4305.3159,N,07740.7472,W,1,08,1.11,168.6,M,-34.4,M,,*53
$GPRMC,210915.000,A,4305.3174,N,07740.7473,W,20.54,359.08,171023,,,A*40
$GPGGA,210915.250,4305.3188,N,07740.7473,W,1,08,1.11,168.6,M,-34.4,M,,*5A
$GPRMC,210915.500,A,4305.3202,N,07740.7474,W,20.12,358.65,171023,,,A*48
$GPGGA,210915.750,4305.3216,N,07740.7474,W,1,08,1.11,168.7,M,-34.4,M,,*5D
$GPRMC,210916.000,A,4305.3230,N,07740.7474,W,19.58,358.69,171023,,,A*47
$GPGGA,210916.250,4305.3243,N,07740.7475,W,1,08,1.11,168.8,M,-34.4,M,,*55
$GPRMC,210916.500,A,4305.3257,N,07740.7475,W,19.11,357.92,171023,,,A*44
$GPGGA,210916.750,4305.3270,N,07740.7475,W,1,07,1.41,168.8,M,-34.4,M,,*5A
$GPRMC,210917.000,A,4305.3283,N,07740.7476,W,18.46,358.62,171023,,,A*49
$GPGGA,210917.250,4305.3295,N,07740.7476,W,1,08,1.11,169.0,M,-34.4,M,,*55
$GPRMC,210917.500,A,4305.3307,N,07740.7476,W,16.97,358.84,171023,,,A*4B
$GPGGA,210917.750,4305.3319,N,07740.7476,W,1,08,1.11,169.0,M,-34.4,M,,*55
$GPRMC,210918.000,A,4305.3330,N,07740.7476,W,14.72,0.92,171023,,,A*45
$GPGGA,210918.250,4305.3341,N,07740.7476,W,1,08,1.11,169.1,M,-34.4,M,,*53
$GPRMC,210918.500,A,4305.3351,N,07740.7477,W,12.19,2.84,171023,,,A*48
$GPGGA,210918.750,4305.3359,N,07740.7477,W,1,08,1.11,169.1,M,-34.4,M,,*5E
$GPRMC,210919.000,A,4305.3367,N,07740.7477,W,10.15,7.06,171023,,,A*48
$GPGGA,210919.250,4305.3374,N,07740.7476,W,1,08,1.11,169.1,M,-34.4,M,,*54
$GPRMC,210919.500,A,4305.3381,N,07740.7475,W,8.82,13.10,171023,,,A*42
$GPGGA,210919.750,4305.3388,N,07740.7474,W,1,08,1.11,169.2,M,-34.4,M,,*53
$GPRMC,210920.000,A,4305.3394,N,07740.7472,W,8.77,20.26,171023,,,A*41
$GPGGA,210920.250,4305.3400,N,07740.7469,W,1,08,1.11,169.2,M,-34.4,M,,*57
$GPRMC,210920.500,A,4305.3406,N,07740.7466,W,9.60,30.56,171023,,,A*4C
$GPGGA,210920.750,4305.3412,N,07740.7461,W,1,08,1.11,169.1,M,-34.4,M,,*5A
$GPRMC,210921.000,A,4305.3418,N,07740.7454,W,10.41,40.23,171023,,,A*78
$GPGGA,210921.250,4305.3423,N,07740.7448,W,1,08,1.11,169.2,M,-34.4,M,,*54
$GPRMC,210921.500,A,4305.3429,N,07740.7439,W,11.27,47.93,171023,,,A*79
$GPGGA,210921.750,4305.3434,N,07740.7429,W,1,08,1.11,169.3,M,-34.4,M,,*51
$GPRMC,210922.000,A,4305.3438,N,07740.7418,W,12.54,59.37,171023,,,A*7A
$GPGGA,210922.250,4305.3442,N,07740.7406,W,1,08,1.11,169.3,M,-34.4,M,,*5B
$GPRMC,210922.500,A,4305.3446,N,07740.7394,W,12.75,67.97,171023,,,A*71
$GPGGA,210922.750,4305.3449,N,07740.7381,W,1,08,1.11,169.4,M,-34.4,M,,*5A
$GPRMC,210923.000,A,4305.3451,N,07740.7367,W,13.68,79.99,171023,,,A*73
$GPGGA,210923.250,4305.3452,N,07740.7352,W,1,08,1.11,169.4,M,-34.4,M,,*5A
$GPRMC,210923.500,A,4305.3453,N,07740.7336,W,16.05,83.76,171023,,,A*7A
$GPGGA,210923.750,4305.3454,N,07740.7317,W,1,08,1.11,169.3,M,-34.4,M,,*5F
$GPRMC,210924.000,A,4305.3455,N,07740.7299,W,19.01,85.44,171023,,,A*76
$GPGGA,210924.250,4305.3456,N,07740.7279,W,1,08,1.11,169.4,M,-34.4,M,,*51
$GPRMC,210924.500,A,4305.3457,N,07740.7260,W,20.23,85.94,171023,,,A*70
$GPGGA,210924.750,4305.3458,N,07740.7239,W,1,08,1.11,169.4,M,-34.4,M,,*5E
$GPRMC,210925.000,A,4305.3459,N,07740.7218,W,21.38,85.93,171023,,,A*79
$GPGGA,210925.250,4305.3460,N,07740.7197,W,1,08,1.11,169.5,M,-34.4,M,,*57
$GPRMC,210925.500,A,4305.3462,N,07740.7176,W,22.12,86.01,171023,,,A*7C
$GPGGA,210925.750,4305.3462,N,07740.7154,W,1,08,1.11,169.4,M,-34.4,M,,*5E
$GPRMC,210926.000,A,4305.3463,N,07740.7132,W,23.07,86.39,171023,,,A*75
$GPGGA,210926.250,4305.3464,N,07740.7110,W,1,08,1.11,169.5,M,-34.4,M,,*5F
$GPRMC,210926.500,A,4305.3465,N,07740.7087,W,24.00,86.37,171023,,,A*77
$GPGGA,210926.750,4305.3466,N,07740.7064,W,1,08,1.11,169.4,M,-34.4,M,,*5B
$GPRMC,210927.000,A,4305.3467,N,07740.7041,W,24.78,85.97,171023,,,A*7D
$GPGGA,210927.250,4305.3468,N,07740.7017,W,1,08,1.11,169.4,M,-34.4,M,,*55
$GPRMC,210927.500,A,4305.3469,N,07740.6993,W,25.58,86.47,171023,,,A*7C
$GPGGA,210927.750,4305.3470,N,07740.6969,W,1,08,1.11,169.5,M,-34.4,M,,*59
$GPRMC,210928.000,A,4305.3471,N,07740.6944,W,26.10,86.09,171023,,,A*70
$GPGGA,210928.250,4305.3472,N,07740.6919,W,1,08,1.11,169.4,M,-34.4,M,,*57
$GPRMC,210928.500,A,4305.3474,N,07740.6894,W,26.40,86.00,171023,,,A*70
$GPGGA,210928.750,4305.3475,N,07740.6869,W,1,08,1.11,169.3,M,-34.4,M,,*54
$GPRMC,210929.000,A,4305.3476,N,07740.6843,W,26.64,85.92,171023,,,A*72
$GPGGA,210929.250,4305.3477,N,07740.6817,W,1,08,1.11,169.2,M,-34.4,M,,*5A
$GPRMC,210929.500,A,4305.3479,N,07740.6790,W,27.77,85.96,171023,,,A*7E
$GPGGA,210929.750,4305.3480,N,07740.6764,W,1,08,1.11,169.2,M,-34.4,M,,*5C
$GPRMC,210930.000,A,4305.3482,N,07740.6737,W,28.25,85.67,171023,,,A*7C
$GPGGA,210930.250,4305.3483,N,07740.6710,W,1,08,1.11,169.1,M,-34.4,M,,*52
$GPRMC,210930.500,A,4305.3485,N,07740.6683,W,28.73,85.45,171023,,,A*73
$GPGGA,210930.750,4305.3486,N,07740.6655,W,1,08,1.11,169.0,M,-34.4,M,,*53
$GPRMC,210931.000,A,4305.3488,N,07740.6628,W,28.87,85.49,171023,,,A*7C
$GPGGA,210931.250,4305.3489,N,07740.6600,W,1,08,1.11,169.0,M,-34.4,M,,*58
$GPRMC,210931.500,A,4305.3491,N,07740.6573,W,28.56,85.41,171023,,,A*78
$GPGGA,210931.750,4305.3492,N,07740.6546,W,1,08,1.11,169.0,M,-34.4,M,,*56
$GPRMC,210932.000,A,4305.3494,N,07740.6519,W,28.31,85.49,171023,,,A*7E
$GPGGA,210932.250,4305.3496,N,07740.6492,W,1,08,1.11,169.0,M,-34.4,M,,*5C
$GPRMC,210932.500,A,4305.3497,N,07740.6465,W,27.84,85.21,171023,,,A*7D
$GPGGA,210932.750,4305.3498,N,07740.6439,W,1,08,1.11,169.0,M,-34.4,M,,*56
$GPRMC,210933.000,A,4305.3500,N,07740.6413,W,27.60,85.18,171023,,,A*77
$GPGGA,210933.250,4305.3501,N,07740.6386,W,1,08,1.11,169.0,M,-34.4,M,,*50
$GPRMC,210933.500,A,4305.3503,N,07740.6360,W,27.63,85.28,171023,,,A*72
$GPGGA,210933.750,4305.3504,N,07740.6334,W,1,08,1.11,169.0,M,-34.4,M,,*59
$GPRMC,210934.000,A,4305.3506,N,07740.6307,W,27.73,85.54,171023,,,A*7E
$GPGGA,210934.250,4305.3507,N,07740.6281,W,1,08,1.11,169.1,M,-34.4,M,,*56
$GPRMC,210934.500,A,4305.3509,N,07740.6255,W,27.80,85.68,171023,,,A*71
$GPGGA,210934.750,4305.3510,N,07740.6229,W,1,08,1.11,169.1,M,-34.4,M,,*57
$GPRMC,210935.000,A,4305.3511,N,07740.6202,W,27.77,85.77,171023,,,A*78
$GPGGA,210935.250,4305.3513,N,07740.6176,W,1,08,1.11,169.2,M,-34.4,M,,*5A
$GPRMC,210935.500,A,4305.3514,N,07740.6150,W,27.74,85.88,171023,,,A*7F
$GPGGA,210935.750,4305.3515,N,07740.6123,W,1,08,1.11,169.1,M,-34.4,M,,*5A
$GPRMC,210936.000,A,4305.3517,N,07740.6097,W,27.99,85.37,171023,,,A*77
$GPGGA,210936.250,4305.3518,N,07740.6070,W,1,08,1.11,169.2,M,-34.4,M,,*55
$GPRMC,210936.500,A,4305.3520,N,07740.6043,W,28.22,84.51,171023,,,A*71
$GPGGA,210936.750,4305.3522,N,07740.6016,W,1,08,1.11,169.2,M,-34.4,M,,*59
$GPRMC,210937.000,A,4305.3523,N,07740.5990,W,28.20,84.72,171023,,,A*71
$GPGGA,210937.250,4305.3525,N,07740.5963,W,1,07,1.15,169.3,M,-34.4,M,,*58
$GPRMC,210937.500,A,4305.3526,N,07740.5936,W,27.76,84.36,171023,,,A*71
$GPGGA,210937.750,4305.3528,N,07740.5910,W,1,07,1.15,169.4,M,-34.4,M,,*53
$GPRMC,210938.000,A,4305.3529,N,07740.5884,W,27.30,85.54,171023,,,A*7B
$GPGGA,210938.250,4305.3530,N,07740.5858,W,1,07,1.15,169.5,M,-34.4,M,,*5C
$GPRMC,210938.500,A,4305.3532,N,07740.5832,W,27.25,86.34,171023,,,A*78
$GPGGA,210938.750,4305.3533,N,07740.5806,W,1,07,1.15,169.5,M,-34.4,M,,*51
$GPRMC,210939.000,A,4305.3534,N,07740.5781,W,27.04,85.87,171023,,,A*75
$GPGGA,210939.250,4305.3535,N,07740.5756,W,1,07,1.15,169.6,M,-34.4,M,,*5A
$GPRMC,210939.500,A,4305.3536,N,07740.5731,W,26.45,85.84,171023,,,A*7E
$GPGGA,210939.750,4305.3538,N,07740.5706,W,1,07,1.15,169.6,M,-34.4,M,,*57
$GPRMC,210940.000,A,4305.3539,N,07740.5681,W,26.20,85.13,171023,,,A*7D
$GPGGA,210940.250,4305.3541,N,07740.5657,W,1,07,1.15,169.9,M,-34.4,M,,*58
$GPRMC,210940.500,A,4305.3543,N,07740.5632,W,25.52,84.92,171023,,,A*73
$GPGGA,210940.750,4305.3544,N,07740.5608,W,1,08,1.11,170.0,M,-34.4,M,,*58
$GPRMC,210941.000,A,4305.3546,N,07740.5584,W,25.04,84.70,171023,,,A*73
$GPGGA,210941.250,4305.3547,N,07740.5561,W,1,08,1.11,170.1,M,-34.4,M,,*52
$GPRMC,210941.500,A,4305.3549,N,07740.5537,W,24.46,85.94,171023,,,A*7D
$GPGGA,210941.750,4305.3550,N,07740.5514,W,1,08,1.11,170.1,M,-34.4,M,,*53
$GPRMC,210942.000,A,4305.3552,N,07740.5491,W,24.30,85.50,171023,,,A*75
$GPGGA,210942.250,4305.3553,N,07740.5468,W,1,08,1.11,170.2,M,-34.4,M,,*5F
$GPRMC,210942.500,A,4305.3555,N,07740.5445,W,23.87,85.10,171023,,,A*71
$GPGGA,210942.750,4305.3556,N,07740.5422,W,1,08,1.11,170.2,M,-34.4,M,,*51
$GPRMC,210943.000,A,4305.3557,N,07740.5400,W,23.28,87.83,171023,,,A*7B
$GPGGA,210943.250,4305.3557,N,07740.5378,W,1,08,1.11,170.1,M,-34.4,M,,*5F
$GPRMC,210943.500,A,4305.3557,N,07740.5356,W,22.94,91.84,171023,,,A*7C
$GPGGA,210943.750,4305.3555,N,07740.5335,W,1,08,1.11,170.1,M,-34.4,M,,*51
$GPRMC,210944.000,A,4305.3554,N,07740.5314,W,22.22,96.14,171023,,,A*78
$GPGGA,210944.250,4305.3552,N,07740.5293,W,1,08,1.06,170.1,M,-34.4,M,,*5F
$GPRMC,210944.500,A,4305.3549,N,07740.5272,W,21.95,99.93,171023,,,A*7F
$GPGGA,210944.750,4305.3545,N,07740.5253,W,1,08,1.11,170.1,M,-34.4,M,,*56
$GPRMC,210945.000,A,4305.3540,N,07740.5235,W,20.85,107.03,171023,,,A*4E
$GPGGA,210945.250,4305.3535,N,07740.5217,W,1,08,1.11,170.0,M,-34.4,M,,*54
$GPRMC,210945.500,A,4305.3530,N,07740.5202,W,18.96,114.39,171023,,,A*4A
$GPGGA,210945.750,4305.3524,N,07740.5187,W,1,08,1.11,170.0,M,-34.4,M,,*5B
$GPRMC,210946.000,A,4305.3516,N,07740.5171,W,18.63,120.03,171023,,,A*4B
$GPGGA,210946.250,4305.3509,N,07740.5155,W,1,08,1.06,169.9,M,-34.4,M,,*5A
$GPRMC,210946.500,A,4305.3499,N,07740.5140,W,19.15,128.41,171023,,,A*44
$GPGGA,210946.750,4305.3487,N,07740.5128,W,1,08,1.11,169.8,M,-34.4,M,,*55
$GPRMC,210947.000,A,4305.3471,N,07740.5116,W,20.99,147.12,171023,,,A*44
$GPGGA,210947.250,4305.3458,N,07740.5106,W,1,08,1.11,169.9,M,-34.4,M,,*5E
$GPRMC,210947.500,A,4305.3444,N,07740.5097,W,21.53,155.37,171023,,,A*4C
$GPGGA,210947.750,4305.3429,N,07740.5089,W,1,08,1.11,169.9,M,-34.4,M,,*5B
$GPRMC,210948.000,A,4305.3413,N,07740.5082,W,21.94,164.31,171023,,,A*4F
$GPGGA,210948.250,4305.3398,N,07740.5076,W,1,08,1.11,169.7,M,-34.4,M,,*52
$GPRMC,210948.500,A,4305.3382,N,07740.5072,W,22.18,171.13,171023,,,A*49
$GPGGA,210948.750,4305.3366,N,07740.5069,W,1,08,1.11,169.6,M,-34.4,M,,*59
$GPRMC,210949.000,A,4305.3350,N,07740.5066,W,22.98,174.37,171023,,,A*4C
$GPGGA,210949.250,4305.3334,N,07740.5065,W,1,08,1.11,169.7,M,-34.4,M,,*57
$GPRMC,210949.500,A,4305.3317,N,07740.5063,W,23.45,177.58,171023,,,A*44
$GPGGA,210949.750,4305.3300,N,07740.5062,W,1,08,1.11,169.5,M,-34.4,M,,*50
$GPRMC,210950.000,A,4305.3283,N,07740.5062,W,23.90,177.89,171023,,,A*40
$GPGGA,210950.250,4305.3267,N,07740.5061,W,1,08,1.11,169.4,M,-34.4,M,,*5F
$GPRMC,210950.500,A,4305.3249,N,07740.5060,W,24.01,176.67,171023,,,A*4F
$GPGGA,210950.750,4305.3232,N,07740.5059,W,1,08,1.11,169.6,M,-34.4,M,,*53
$GPRMC,210951.000,A,4305.3215,N,07740.5058,W,24.23,174.35,171023,,,A*4C
$GPGGA,210951.250,4305.3198,N,07740.5055,W,1,08,1.11,169.6,M,-34.4,M,,*58
$GPRMC,210951.500,A,4305.3181,N,07740.5052,W,24.23,169.81,171023,,,A*4E
$GPGGA,210951.750,4305.3163,N,07740.5048,W,1,08,1.11,169.6,M,-34.4,M,,*55
$GPRMC,210952.000,A,4305.3147,N,07740.5043,W,24.03,162.54,171023,,,A*43
$GPGGA,210952.250,4305.3131,N,07740.5036,W,1,08,1.12,169.7,M,-34.4,M,,*5F
$GPRMC,210952.500,A,4305.3115,N,07740.5028,W,23.97,155.68,171023,,,A*4D
$GPGGA,210952.750,4305.3100,N,07740.5018,W,1,08,1.11,169.8,M,-34.4,M,,*58
$GPRMC,210953.000,A,4305.3085,N,07740.5008,W,23.90,149.48,171023,,,A*4B
$GPGGA,210953.250,4305.3071,N,07740.4997,W,1,08,1.11,169.9,M,-34.4,M,,*55
$GPRMC,210953.500,A,4305.3057,N,07740.4985,W,23.42,142.43,171023,,,A*43
$GPGGA,210953.750,4305.3045,N,07740.4971,W,1,08,1.11,170.0,M,-34.4,M,,*5E
$GPRMC,210954.000,A,4305.3033,N,07740.4957,W,23.41,135.59,171023,,,A*44
$GPGGA,210954.250,4305.3021,N,07740.4941,W,1,08,1.11,170.0,M,-34.4,M,,*5D
$GPRMC,210954.500,A,4305.3011,N,07740.4924,W,23.15,128.78,171023,,,A*4B
$GPGGA,210954.750,4305.3001,N,07740.4907,W,1,08,1.11,170.1,M,-34.4,M,,*59
$GPRMC,210955.000,A,4305.2992,N,07740.4889,W,22.94,121.80,171023,,,A*4C
$GPGGA,210955.250,4305.2983,N,07740.4870,W,1,08,1.11,170.1,M,-34.4,M,,*5E
$GPRMC,210955.500,A,4305.2976,N,07740.4851,W,22.77,115.22,171023,,,A*44
$GPGGA,210955.750,4305.2969,N,07740.4831,W,1,08,1.12,170.1,M,-34.4,M,,*59
$GPRMC,210956.000,A,4305.2963,N,07740.4811,W,22.85,109.61,171023,,,A*45
$GPGGA,210956.250,4305.2958,N,07740.4790,W,1,08,1.11,170.1,M,-34.4,M,,*5A
$GPRMC,210956.500,A,4305.2953,N,07740.4769,W,23.18,104.70,171023,,,A*4B
$GPGGA,210956.750,4305.2950,N,07740.4748,W,1,08,1.11,170.2,M,-34.4,M,,*51
$GPRMC,210957.000,A,4305.2947,N,07740.4727,W,23.04,98.09,171023,,,A*77
$GPGGA,210957.250,4305.2945,N,07740.4705,W,1,08,1.12,170.2,M,-34.4,M,,*5B
$GPRMC,210957.500,A,4305.2944,N,07740.4683,W,23.37,90.14,171023,,,A*7A
$GPGGA,210957.750,4305.2945,N,07740.4661,W,1,08,1.11,170.1,M,-34.4,M,,*5D
$GPRMC,210958.000,A,4305.2946,N,07740.4639,W,23.38,82.33,171023,,,A*7A
$GPGGA,210958.250,4305.2949,N,07740.4617,W,1,08,1.11,170.1,M,-34.4,M,,*5A
$GPRMC,210958.500,A,4305.2953,N,07740.4596,W,23.55,73.97,171023,,,A*76
$GPGGA,210958.750,4305.2958,N,07740.4575,W,1,07,1.15,170.0,M,-34.4,M,,*52
$GPRMC,210959.000,A,4305.2964,N,07740.4554,W,23.44,65.02,171023,,,A*73
$GPGGA,210959.250,4305.2972,N,07740.4534,W,1,08,1.12,169.9,M,-34.4,M,,*52
$GPRMC,210959.500,A,4305.2980,N,07740.4515,W,23.66,57.32,171023,,,A*7B
$GPGGA,210959.750,4305.2989,N,07740.4496,W,1,08,1.11,169.9,M,-34.4,M,,*59
$GPRMC,211000.000,A,4305.3000,N,07740.4478,W,23.89,50.33,171023,,,A*77
$GPGGA,211000.250,4305.3011,N,07740.4461,W,1,08,1.12,169.8,M,-34.4,M,,*5B
$GPRMC,211000.500,A,4305.3022,N,07740.4445,W,23.91,44.37,171023,,,A*74
$GPGGA,211000.750,4305.3034,N,07740.4429,W,1,08,1.12,169.7,M,-34.4,M,,*5A
$GPRMC,211001.000,A,4305.3047,N,07740.4415,W,24.13,39.09,171023,,,A*7C
$GPGGA,211001.250,4305.3061,N,07740.4401,W,1,08,1.12,169.8,M,-34.4,M,,*5B
$GPRMC,211001.500,A,4305.3074,N,07740.4388,W,24.18,33.46,171023,,,A*70
$GPGGA,211001.750,4305.3089,N,07740.4376,W,1,08,1.12,169.8,M,-34.4,M,,*5F
$GPRMC,211002.000,A,4305.3104,N,07740.4364,W,24.43,28.33,171023,,,A*74
$GPGGA,211002.250,4305.3119,N,07740.4354,W,1,08,1.12,169.7,M,-34.4,M,,*5E
$GPRMC,211002.500,A,4305.3134,N,07740.4345,W,24.44,20.17,171023,,,A*78
$GPGGA,211002.750,4305.3150,N,07740.4337,W,1,08,1.12,169.7,M,-34.4,M,,*53
$GPRMC,211003.000,A,4305.3167,N,07740.4332,W,24.48,12.79,171023,,,A*7F
$GPGGA,211003.250,4305.3183,N,07740.4327,W,1,08,1.12,169.7,M,-34.4,M,,*58
$GPRMC,211003.500,A,4305.3200,N,07740.4324,W,24.66,5.68,171023,,,A*45
$GPGGA,211003.750,4305.3217,N,07740.4322,W,1,08,1.12,169.8,M,-34.4,M,,*59
$GPRMC,211004.000,A,4305.3235,N,07740.4321,W,24.89,0.87,171023,,,A*41
$GPGGA,211004.250,4305.3252,N,07740.4321,W,1,08,1.12,169.8,M,-34.4,M,,*59
$GPRMC,211004.500,A,4305.3269,N,07740.4321,W,25.08,359.85,171023,,,A*48
$GPGGA,211004.750,4305.3287,N,07740.4320,W,1,08,1.12,169.8,M,-34.4,M,,*55
$GPRMC,211005.000,A,4305.3305,N,07740.4320,W,25.21,1.36,171023,,,A*4B
$GPGGA,211005.250,4305.3322,N,07740.4319,W,1,08,1.12,169.7,M,-34.4,M,,*5A
$GPRMC,211005.500,A,4305.3340,N,07740.4318,W,25.26,3.37,171023,,,A*40
$GPGGA,211005.750,4305.3357,N,07740.4317,W,1,08,1.12,169.7,M,-34.4,M,,*53
$GPRMC,211006.000,A,4305.3375,N,07740.4315,W,25.42,5.89,171023,,,A*4C
$GPGGA,211006.250,4305.3393,N,07740.4312,W,1,08,1.12,169.7,M,-34.4,M,,*58
$GPRMC,211006.500,A,4305.3410,N,07740.4309,W,25.32,7.27,171023,,,A*41
$GPGGA,211006.750,4305.3428,N,07740.4307,W,1,08,1.12,169.7,M,-34.4,M,,*5E
$GPRMC,211007.000,A,4305.3445,N,07740.4305,W,25.31,5.44,171023,,,A*4D
$GPGGA,211007.250,4305.3463,N,07740.4303,W,1,08,1.12,169.8,M,-34.4,M,,*5E
$GPRMC,211007.500,A,4305.3480,N,07740.4301,W,25.46,3.57,171023,,,A*41
$GPGGA,211007.750,4305.3498,N,07740.4300,W,1,08,1.12,169.9,M,-34.4,M,,*5D
$GPRMC,211008.000,A,4305.3516,N,07740.4300,W,25.48,2.09,171023,,,A*40
$GPGGA,211008.250,4305.3534,N,07740.4299,W,1,08,1.12,170.0,M,-34.4,M,,*50
$GPRMC,211008.500,A,4305.3552,N,07740.4299,W,25.85,1.24,171023,,,A*49
$GPGGA,211008.750,4305.3570,N,07740.4298,W,1,08,1.12,170.1,M,-34.4,M,,*55
$GPRMC,211009.000,A,4305.3588,N,07740.4298,W,26.14,0.65,171023,,,A*44
$GPGGA,211009.250,4305.3606,N,07740.4298,W,1,08,1.12,170.1,M,-34.4,M,,*53
$GPRMC,211009.500,A,4305.3624,N,07740.4298,W,26.15,0.75,171023,,,A*44
$GPGGA,211009.750,4305.3642,N,07740.4297,W,1,08,1.12,170.2,M,-34.4,M,,*5A
$GPRMC,211010.000,A,4305.3660,N,07740.4297,W,26.51,0.85,171023,,,A*49
$GPGGA,211010.250,4305.3679,N,07740.4296,W,1,08,1.12,170.2,M,-34.4,M,,*5E
$GPRMC,211010.500,A,4305.3697,N,07740.4296,W,26.82,1.10,171023,,,A*46
$GPGGA,211010.750,4305.3715,N,07740.4295,W,1,08,1.12,170.3,M,-34.4,M,,*52
$GPRMC,211011.000,A,4305.3734,N,07740.4295,W,26.83,0.83,171023,,,A*43
$GPGGA,211011.250,4305.3752,N,07740.4295,W,1,08,1.12,170.3,M,-34.4,M,,*55
$GPRMC,211011.500,A,4305.3771,N,07740.4294,W,26.68,0.64,171023,,,A*4A
$GPGGA,211011.750,4305.3789,N,07740.4294,W,1,08,1.12,170.4,M,-34.4,M,,*50
$GPRMC,211012.000,A,4305.3807,N,07740.4294,W,26.39,0.50,171023,,,A*41
$GPGGA,211012.250,4305.3826,N,07740.4294,W,1,08,1.12,170.5,M,-34.4,M,,*5D
$GPRMC,211012.500,A,4305.3844,N,07740.4294,W,26.13,0.63,171023,,,A*4B
$GPGGA,211012.750,4305.3861,N,07740.4293,W,1,08,1.12,170.5,M,-34.4,M,,*5C
$GPRMC,211013.000,A,4305.3879,N,07740.4293,W,25.78,0.53,171023,,,A*4B
$GPGGA,211013.250,4305.3897,N,07740.4293,W,1,07,1.42,170.6,M,-34.4,M,,*58
$GPRMC,211013.500,A,4305.3915,N,07740.4293,W,25.43,0.37,171023,,,A*4F
$GPGGA,211013.750,4305.3932,N,07740.4293,W,1,08,1.12,170.7,M,-34.4,M,,*58
$GPRMC,211014.000,A,4305.3950,N,07740.4293,W,25.29,0.24,171023,,,A*42
$GPGGA,211014.250,4305.3968,N,07740.4293,W,1,08,1.12,170.7,M,-34.4,M,,*55
$GPRMC,211014.500,A,4305.3985,N,07740.4294,W,25.32,359.98,171023,,,A*4A
$GPGGA,211014.750,4305.4003,N,07740.4294,W,1,08,1.12,170.8,M,-34.4,M,,*5B
$GPRMC,211015.000,A,4305.4020,N,07740.4294,W,25.08,359.94,171023,,,A*4A
$GPGGA,211015.250,4305.4038,N,07740.4295,W,1,08,1.12,170.8,M,-34.4,M,,*56
$GPRMC,211015.500,A,4305.4055,N,07740.4295,W,24.81,359.91,171023,,,A*49
$GPGGA,211015.750,4305.4072,N,07740.4296,W,1,08,1.12,170.8,M,-34.4,M,,*5E
$GPRMC,211016.000,A,4305.4089,N,07740.4296,W,24.31,359.90,171023,,,A*47
$GPGGA,211016.250,4305.4106,N,07740.4296,W,1,08,1.12,170.8,M,-34.4,M,,*5A
$GPRMC,211016.500,A,4305.4123,N,07740.4296,W,24.07,0.49,171023,,,A*4D
$GPGGA,211016.750,4305.4140,N,07740.4296,W,1,07,1.15,170.8,M,-34.4,M,,*55
$GPRMC,211017.000,A,4305.4156,N,07740.4296,W,23.75,0.64,171023,,,A*46
$GPGGA,211017.250,4305.4173,N,07740.4295,W,1,08,1.12,170.8,M,-34.4,M,,*5A
$GPRMC,211017.500,A,4305.4190,N,07740.4295,W,23.73,0.42,171023,,,A*48
$GPGGA,211017.750,4305.4206,N,07740.4295,W,1,08,1.12,170.8,M,-34.4,M,,*5E
$GPRMC,211018.000,A,4305.4223,N,07740.4296,W,23.73,357.70,171023,,,A*4A
$GPGGA,211018.250,4305.4239,N,07740.4297,W,1,08,1.12,170.9,M,-34.4,M,,*5B
$GPRMC,211018.500,A,4305.4256,N,07740.4298,W,23.51,354.24,171023,,,A*41
$GPGGA,211018.750,4305.4272,N,07740.4301,W,1,08,1.12,171.0,M,-34.4,M,,*57
$GPRMC,211019.000,A,4305.4288,N,07740.4304,W,23.67,349.68,171023,,,A*43
$GPGGA,211019.250,4305.4304,N,07740.4309,W,1,08,1.12,171.1,M,-34.4,M,,*5A
$GPRMC,211019.500,A,4305.4320,N,07740.4314,W,23.35,345.24,171023,,,A*47
$GPGGA,211019.750,4305.4335,N,07740.4321,W,1,08,1.12,171.2,M,-34.4,M,,*54
$GPRMC,211020.000,A,4305.4351,N,07740.4328,W,23.05,340.32,171023,,,A*40
$GPGGA,211020.250,4305.4365,N,07740.4336,W,1,08,1.12,171.2,M,-34.4,M,,*58
$GPRMC,211020.500,A,4305.4380,N,07740.4346,W,22.79,332.20,171023,,,A*4D
$GPGGA,211020.750,4305.4393,N,07740.4357,W,1,08,1.12,171.3,M,-34.4,M,,*52
$GPRMC,211021.000,A,4305.4407,N,07740.4369,W,22.56,323.22,171023,,,A*43
$GPGGA,211021.250,4305.4419,N,07740.4383,W,1,08,1.12,171.4,M,-34.4,M,,*5D
$GPRMC,211021.500,A,4305.4430,N,07740.4398,W,22.12,316.30,171023,,,A*49
$GPGGA,211021.750,4305.4441,N,07740.4413,W,1,08,1.12,171.6,M,-34.4,M,,*59
$GPRMC,211022.000,A,4305.4452,N,07740.4429,W,22.50,311.54,171023,,,A*45
$GPGGA,211022.250,4305.4462,N,07740.4446,W,1,08,1.12,171.7,M,-34.4,M,,*5F
$GPRMC,211022.500,A,4305.4471,N,07740.4462,W,22.23,307.54,171023,,,A*4D
$GPGGA,211022.750,4305.4480,N,07740.4479,W,1,08,1.12,171.7,M,-34.4,M,,*5A
$GPRMC,211023.000,A,4305.4489,N,07740.4496,W,21.32,306.80,171023,,,A*4E
$GPGGA,211023.250,4305.4498,N,07740.4512,W,1,08,1.12,171.8,M,-34.4,M,,*54
$GPRMC,211023.500,A,4305.4507,N,07740.4528,W,20.95,309.70,171023,,,A*44
$GPGGA,211023.750,4305.4516,N,07740.4543,W,1,08,1.12,171.8,M,-34.4,M,,*52
$GPRMC,211024.000,A,4305.4526,N,07740.4557,W,20.21,313.95,171023,,,A*42
$GPGGA,211024.250,4305.4536,N,07740.4571,W,1,08,1.12,171.8,M,-34.4,M,,*53
$GPRMC,211024.500,A,4305.4547,N,07740.4584,W,20.20,318.60,171023,,,A*4E
$GPGGA,211024.750,4305.4557,N,07740.4596,W,1,08,1.12,171.8,M,-34.4,M,,*58
$GPRMC,211025.000,A,4305.4568,N,07740.4607,W,19.54,324.88,171023,,,A*4F
$GPGGA,211025.250,4305.4579,N,07740.4618,W,1,08,1.12,171.9,M,-34.4,M,,*54
$GPRMC,211025.500,A,4305.4591,N,07740.4627,W,19.38,330.52,171023,,,A*46
$GPGGA,211025.750,4305.4603,N,07740.4636,W,1,08,1.12,171.8,M,-34.4,M,,*52
$GPRMC,211026.000,A,4305.4614,N,07740.4643,W,18.78,336.88,171023,,,A*48
$GPGGA,211026.250,4305.4626,N,07740.4649,W,1,08,1.12,171.9,M,-34.4,M,,*5A
$GPRMC,211026.500,A,4305.4639,N,07740.4655,W,18.54,343.18,171023,,,A*40
$GPGGA,211026.750,4305.4651,N,07740.4659,W,1,08,1.12,172.0,M,-34.4,M,,*54
$GPRMC,211027.000,A,4305.4663,N,07740.4663,W,17.87,349.98,171023,,,A*4D
$GPGGA,211027.250,4305.4676,N,07740.4665,W,1,07,1.42,172.0,M,-34.4,M,,*50
$GPRMC,211027.500,A,4305.4688,N,07740.4667,W,17.54,354.71,171023,,,A*4C
$GPGGA,211027.750,4305.4700,N,07740.4668,W,1,08,1.12,172.1,M,-34.4,M,,*53
$GPRMC,211028.000,A,4305.4712,N,07740.4670,W,17.24,356.47,171023,,,A*42
$GPGGA,211028.250,4305.4724,N,07740.4671,W,1,07,1.42,172.1,M,-34.4,M,,*5D
$GPRMC,211028.500,A,4305.4736,N,07740.4672,W,16.76,358.34,171023,,,A*4F
$GPGGA,211028.750,4305.4748,N,07740.4673,W,1,07,1.42,172.2,M,-34.4,M,,*53
$GPRMC,211029.000,A,4305.4759,N,07740.4675,W,16.36,358.21,171023,,,A*45
$GPGGA,211029.250,4305.4771,N,07740.4676,W,1,07,1.42,172.2,M,-34.4,M,,*58
$GPRMC,211029.500,A,4305.4782,N,07740.4678,W,15.93,357.65,171023,,,A*48
$GPGGA,211029.750,4305.4794,N,07740.4679,W,1,07,1.42,172.2,M,-34.4,M,,*59
$GPRMC,211030.000,A,4305.4805,N,07740.4680,W,15.48,357.73,171023,,,A*43
$GPGGA,211030.250,4305.4816,N,07740.4680,W,1,07,1.42,172.3,M,-34.4,M,,*56
$GPRMC,211030.500,A,4305.4826,N,07740.4681,W,15.41,357.97,171023,,,A*45
$GPGGA,211030.750,4305.4837,N,07740.4681,W,1,08,1.12,172.2,M,-34.4,M,,*5A
$GPRMC,211031.000,A,4305.4848,N,07740.4681,W,15.18,358.97,171023,,,A*4A
$GPGGA,211031.250,4305.4858,N,07740.4681,W,1,08,1.12,172.1,M,-34.4,M,,*54
$GPRMC,211031.500,A,4305.4868,N,07740.4681,W,14.95,358.60,171023,,,A*41
$GPGGA,211031.750,4305.4879,N,07740.4681,W,1,08,1.12,172.0,M,-34.4,M,,*53
$GPRMC,211032.000,A,4305.4889,N,07740.4682,W,14.85,357.33,171023,,,A*43
$GPGGA,211032.250,4305.4899,N,07740.4682,W,1,08,1.12,171.9,M,-34.4,M,,*52
$GPRMC,211032.500,A,4305.4909,N,07740.4682,W,14.57,357.47,171023,,,A*43
$GPGGA,211032.750,4305.4919,N,07740.4683,W,1,07,1.42,171.9,M,-34.4,M,,*55
$GPRMC,211033.000,A,4305.4929,N,07740.4683,W,14.48,357.14,171023,,,A*4C
$GPGGA,211033.250,4305.4939,N,07740.4683,W,1,07,1.42,171.9,M,-34.4,M,,*53
$GPRMC,211033.500,A,4305.4949,N,07740.4683,W,14.26,356.95,171023,,,A*4F
$GPGGA,211033.750,4305.4959,N,07740.4683,W,1,07,1.42,171.9,M,-34.4,M,,*50
$GPRMC,211034.000,A,4305.4969,N,07740.4684,W,14.14,356.73,171023,,,A*41
$GPGGA,211034.250,4305.4979,N,07740.4684,W,1,07,1.42,171.9,M,-34.4,M,,*57
$GPRMC,211034.500,A,4305.4988,N,07740.4684,W,13.89,357.13,171023,,,A*4F
$GPGGA,211034.750,4305.4998,N,07740.4684,W,1,07,1.42,171.9,M,-34.4,M,,*5D
$GPRMC,211035.000,A,4305.5007,N,07740.4684,W,13.25,357.21,171023,,,A*43
$GPGGA,211035.250,4305.5016,N,07740.4685,W,1,07,1.42,171.8,M,-34.4,M,,*57
$GPRMC,211035.500,A,4305.5025,N,07740.4685,W,12.07,357.09,171023,,,A*4C
$GPGGA,211035.750,4305.5033,N,07740.4685,W,1,07,1.42,171.8,M,-34.4,M,,*55
$GPRMC,211036.000,A,4305.5041,N,07740.4685,W,10.88,357.64,171023,,,A*46
$GPGGA,211036.250,4305.5048,N,07740.4686,W,1,08,1.12,171.8,M,-34.4,M,,*56
$GPRMC,211036.500,A,4305.5055,N,07740.4687,W,8.86,356.76,171023,,,A*71
$GPGGA,211036.750,4305.5061,N,07740.4688,W,1,08,1.12,171.7,M,-34.4,M,,*59
$GPRMC,211037.000,A,4305.5066,N,07740.4689,W,6.77,356.54,171023,,,A*7B
$GPGGA,211037.250,4305.5070,N,07740.4690,W,1,08,1.12,171.7,M,-34.4,M,,*54
$GPRMC,211037.500,A,4305.5075,N,07740.4691,W,4.94,356.68,171023,,,A*75
$GPGGA,211037.750,4305.5078,N,07740.4692,W,1,08,1.12,171.6,M,-34.4,M,,*5A
$GPRMC,211038.000,A,4305.5082,N,07740.4694,W,3.27,356.77,171023,,,A*73
$GPGGA,211038.250,4305.5084,N,07740.4696,W,1,08,1.12,171.6,M,-34.4,M,,*57
$GPRMC,211038.500,A,4305.5086,N,07740.4697,W,1.75,356.77,171023,,,A*74
$GPGGA,211038.750,4305.5088,N,07740.4699,W,1,08,1.12,171.6,M,-34.4,M,,*51
$GPRMC,211039.000,A,4305.5089,N,07740.4700,W,0.04,356.77,171023,,,A*77
$GPGGA,211039.250,4305.5089,N,07740.4701,W,1,08,1.12,171.5,M,-34.4,M,,*57
$GPRMC,211039.500,A,4305.5090,N,07740.4702,W,0.01,356.77,171023,,,A*7D
$GPGGA,211039.750,4305.5090,N,07740.4703,W,1,08,1.07,171.5,M,-34.4,M,,*5C
$GPRMC,211040.000,A,4305.5090,N,07740.4704,W,0.00,356.77,171023,,,A*71
$GPGGA,211040.250,4305.5090,N,07740.4704,W,1,07,1.38,171.5,M,-34.4,M,,*53
$GPRMC,211040.500,A,4305.5090,N,07740.4705,W,0.00,356.77,171023,,,A*75
$GPGGA,211040.750,4305.5090,N,07740.4705,W,1,07,1.38,171.5,M,-34.4,M,,*57
$GPRMC,211041.000,A,4305.5090,N,07740.4705,W,0.00,356.77,171023,,,A*71
$GPGGA,211041.250,4305.5090,N,07740.4705,W,1,07,1.38,171.5,M,-34.4,M,,*53
$GPRMC,211041.500,A,4305.5090,N,07740.4705,W,0.00,356.77,171023,,,A*74
$GPGGA,211041.750,4305.5090,N,07740.4704,W,1,07,1.38,171.5,M,-34.4,M,,*57
$GPRMC,211042.000,A,4305.5090,N,07740.4704,W,0.00,356.77,171023,,,A*73
$GPGGA,211042.250,4305.5090,N,07740.4704,W,1,07,1.38,171.5,M,-34.4,M,,*51
$GPRMC,211042.500,A,4305.5090,N,07740.4704,W,0.00,356.77,171023,,,A*76
$GPGGA,211042.750,4305.5090,N,07740.4704,W,1,07,1.43,171.5,M,-34.4,M,,*58
$GPRMC,211043.000,A,4305.5090,N,07740.4704,W,0.00,356.77,171023,,,A*72
$GPGGA,211043.250,4305.5090,N,07740.4704,W,1,07,1.39,171.5,M,-34.4,M,,*51
$GPRMC,211043.500,A,4305.5090,N,07740.4704,W,0.03,356.77,171023,,,A*74
$GPGGA,211043.750,4305.5090,N,07740.4704,W,1,07,1.43,171.5,M,-34.4,M,,*59
$GPRMC,211044.000,A,4305.5090,N,07740.4704,W,0.20,356.77,171023,,,A*77
$GPGGA,211044.250,4305.5092,N,07740.4703,W,1,08,1.12,171.5,M,-34.4,M,,*55
$GPRMC,211044.500,A,4305.5095,N,07740.4698,W,4.14,358.27,171023,,,A*7B
$GPGGA,211044.750,4305.5099,N,07740.4694,W,1,08,1.12,171.5,M,-34.4,M,,*54
$GPRMC,211045.000,A,4305.5103,N,07740.4692,W,5.81,357.41,171023,,,A*79
$GPGGA,211045.250,4305.5107,N,07740.4690,W,1,08,1.12,171.5,M,-34.4,M,,*52
$GPRMC,211045.500,A,4305.5110,N,07740.4689,W,6.23,357.39,171023,,,A*70
$GPGGA,211045.750,4305.5114,N,07740.4688,W,1,08,1.12,171.5,M,-34.4,M,,*5C
$GPRMC,211046.000,A,4305.5118,N,07740.4687,W,6.09,357.60,171023,,,A*74
$GPGGA,211046.250,4305.5122,N,07740.4686,W,1,08,1.12,171.6,M,-34.4,M,,*52
$GPRMC,211046.500,A,4305.5125,N,07740.4686,W,5.17,356.57,171023,,,A*77
$GPGGA,211046.750,4305.5127,N,07740.4685,W,1,08,1.12,171.7,M,-34.4,M,,*50
$GPRMC,211047.000,A,4305.5130,N,07740.4685,W,3.72,356.83,171023,,,A*78
$GPGGA,211047.250,4305.5132,N,07740.4685,W,1,08,1.12,171.7,M,-34.4,M,,*50
$GPRMC,211047.500,A,4305.5133,N,07740.4686,W,1.67,355.82,171023,,,A*79
$GPGGA,211047.750,4305.5133,N,07740.4686,W,1,08,1.12,171.8,M,-34.4,M,,*58
$GPRMC,211048.000,A,4305.5133,N,07740.4686,W,0.47,356.67,171023,,,A*78
$GPGGA,211048.250,4305.5133,N,07740.4687,W,1,08,1.12,171.7,M,-34.4,M,,*5C
$GPRMC,211048.500,A,4305.5133,N,07740.4687,W,0.09,356.67,171023,,,A*76
$GPGGA,211048.750,4305.5133,N,07740.4688,W,1,08,1.07,171.6,M,-34.4,M,,*53
$GPRMC,211049.000,A,4305.5133,N,07740.4689,W,0.05,356.67,171023,,,A*70
$GPGGA,211049.250,4305.5133,N,07740.4690,W,1,08,1.07,171.6,M,-34.4,M,,*5E
$GPRMC,211049.500,A,4305.5133,N,07740.4692,W,0.03,356.67,171023,,,A*79
$GPGGA,211049.750,4305.5134,N,07740.4693,W,1,08,1.07,171.6,M,-34.4,M,,*5F
$GPRMC,211050.000,A,4305.5134,N,07740.4694,W,0.02,356.67,171023,,,A*74
$GPGGA,211050.250,4305.5134,N,07740.4696,W,1,08,1.07,171.6,M,-34.4,M,,*57
$GPRMC,211050.500,A,4305.5134,N,07740.4697,W,0.03,356.67,171023,,,A*73
$GPGGA,211050.750,4305.5135,N,07740.4699,W,1,08,1.07,171.5,M,-34.4,M,,*5F
$GPRMC,211051.000,A,4305.5135,N,07740.4701,W,0.02,356.67,171023,,,A*79
$GPGGA,211051.250,4305.5135,N,07740.4702,W,1,08,1.07,171.5,M,-34.4,M,,*58
$GPRMC,211051.500,A,4305.5135,N,07740.4702,W,0.02,356.67,171023,,,A*7F
$GPGGA,211051.750,4305.5135,N,07740.4702,W,1,08,1.07,171.5,M,-34.4,M,,*5D
$GPRMC,211052.000,A,4305.5135,N,07740.4702,W,0.05,356.67,171023,,,A*7E
$GPGGA,211052.250,4305.5135,N,07740.4702,W,1,08,1.07,171.5,M,-34.4,M,,*5B
$GPRMC,211052.500,A,4305.5135,N,07740.4702,W,0.02,356.67,171023,,,A*7C
$GPGGA,211052.750,4305.5135,N,07740.4702,W,1,08,1.12,171.6,M,-34.4,M,,*59
$GPRMC,211053.000,A,4305.5135,N,07740.4703,W,0.04,356.67,171023,,,A*7F
$GPGGA,211053.250,4305.5135,N,07740.4703,W,1,08,1.07,171.6,M,-34.4,M,,*58
$GPRMC,211053.500,A,4305.5135,N,07740.4703,W,0.29,356.67,171023,,,A*75
$GPGGA,211053.750,4305.5135,N,07740.4703,W,1,08,1.12,171.6,M,-34.4,M,,*59
$GPRMC,211054.000,A,4305.5136,N,07740.4703,W,2.16,358.38,171023,,,A*7E
$GPGGA,211054.250,4305.5138,N,07740.4703,W,1,08,1.12,171.5,M,-34.4,M,,*55
$GPRMC,211054.500,A,4305.5139,N,07740.4703,W,4.75,357.35,171023,,,A*75
$GPGGA,211054.750,4305.5142,N,07740.4703,W,1,08,1.12,171.5,M,-34.4,M,,*5D
$GPRMC,211055.000,A,4305.5146,N,07740.4702,W,6.39,357.00,171023,,,A*74
$GPGGA,211055.250,4305.5150,N,07740.4702,W,1,08,1.12,171.5,M,-34.4,M,,*5B
$GPRMC,211055.500,A,4305.5155,N,07740.4701,W,6.94,357.16,171023,,,A*70
$GPGGA,211055.750,4305.5159,N,07740.4700,W,1,08,1.12,171.6,M,-34.4,M,,*56
$GPRMC,211056.000,A,4305.5164,N,07740.4699,W,7.00,355.73,171023,,,A*79
$GPGGA,211056.250,4305.5169,N,07740.4698,W,1,08,1.12,171.6,M,-34.4,M,,*53
$GPRMC,211056.500,A,4305.5173,N,07740.4697,W,7.19,356.72,171023,,,A*7E
$GPGGA,211056.750,4305.5178,N,07740.4696,W,1,08,1.12,171.5,M,-34.4,M,,*5B
$GPRMC,211057.000,A,4305.5182,N,07740.4696,W,6.78,357.07,171023,,,A*70
$GPGGA,211057.250,4305.5187,N,07740.4695,W,1,08,1.12,171.6,M,-34.4,M,,*5F
$GPRMC,211057.500,A,4305.5191,N,07740.4694,W,5.80,358.55,171023,,,A*79
$GPGGA,211057.750,4305.5194,N,07740.4693,W,1,08,1.12,171.6,M,-34.4,M,,*5E
$GPRMC,211058.000,A,4305.5197,N,07740.4692,W,4.69,357.18,171023,,,A*73
$GPGGA,211058.250,4305.5200,N,07740.4691,W,1,08,1.12,171.7,M,-34.4,M,,*59
$GPRMC,211058.500,A,4305.5202,N,07740.4691,W,3.02,357.19,171023,,,A*71
$GPGGA,211058.750,4305.5203,N,07740.4691,W,1,08,1.12,171.8,M,-34.4,M,,*50
$GPRMC,211059.000,A,4305.5204,N,07740.4690,W,2.07,356.59,171023,,,A*73
$GPGGA,211059.250,4305.5205,N,07740.4689,W,1,08,1.12,171.8,M,-34.4,M,,*5B
$GPRMC,211059.500,A,4305.5206,N,07740.4688,W,1.21,354.89,171023,,,A*75
$GPGGA,211059.750,4305.5206,N,07740.4688,W,1,08,1.13,171.9,M,-34.4,M,,*5C
$GPRMC,211100.000,A,4305.5205,N,07740.4687,W,0.41,357.18,171023,,,A*7D
$GPGGA,211100.250,4305.5204,N,07740.4686,W,1,08,1.12,172.0,M,-34.4,M,,*53
