Vers 81
USE_SERIAL_FEEDBACK=true
DEVELOPMENT_MODE=false
USE_RMC_ONLY=false

$GPRMC,202333.250,A,4305.3152,N,07740.6811,W,0.05,123.07,061023,,,A*71
$GPGGA,202333.500,4305.3153,N,07740.6812,W,1,07,1.02,177.8,M,-34.4,M,,*54
$GPRMC,202333.750,A,4305.3153,N,07740.6814,W,0.05,171.35,061023,,,A*76
$GPGGA,202334.000,4305.3153,N,07740.6815,W,1,07,1.02,178.1,M,-34.4,M,,*57
$GPRMC,202334.250,A,4305.3153,N,07740.6816,W,0.02,346.12,061023,,,A*72
$GPGGA,202334.500,4305.3153,N,07740.6818,W,1,07,1.06,178.6,M,-34.4,M,,*5C
$GPRMC,202334.750,A,4305.3153,N,07740.6819,W,0.07,156.29,061023,,,A*76
$GPGGA,202335.000,4305.3154,N,07740.6820,W,1,07,1.02,179.0,M,-34.4,M,,*57
$GPRMC,202335.250,A,4305.3154,N,07740.6821,W,0.02,351.02,061023,,,A*77
$GPGGA,202335.500,4305.3154,N,07740.6822,W,1,07,1.06,179.2,M,-34.4,M,,*56
$GPRMC,202335.750,A,4305.3154,N,07740.6823,W,0.02,151.39,061023,,,A*7A
$GPGGA,202336.000,4305.3154,N,07740.6823,W,1,07,1.02,179.1,M,-34.4,M,,*56
$GPRMC,202336.250,A,4305.3154,N,07740.6823,W,0.03,317.03,061023,,,A*74
$GPGGA,202336.500,4305.3155,N,07740.6824,W,1,07,1.02,178.9,M,-34.4,M,,*5C
$GPRMC,202336.750,A,4305.3155,N,07740.6824,W,0.03,336.78,061023,,,A*78
$GPGGA,202337.000,4305.3155,N,07740.6825,W,1,07,1.02,178.7,M,-34.4,M,,*57
$GPRMC,202337.250,A,4305.3155,N,07740.6825,W,0.01,99.48,061023,,,A*4A
$GPGGA,202337.500,4305.3155,N,07740.6826,W,1,07,1.02,178.7,M,-34.4,M,,*51
$GPRMC,202337.750,A,4305.3156,N,07740.6827,W,0.03,185.51,061023,,,A*78
$GPGGA,202338.000,4305.3156,N,07740.6827,W,1,07,1.02,178.7,M,-34.4,M,,*59
$GPRMC,202338.250,A,4305.3157,N,07740.6828,W,0.01,243.57,061023,,,A*71
$GPGGA,202338.500,4305.3157,N,07740.6828,W,1,07,1.02,178.7,M,-34.4,M,,*52
$GPRMC,202338.750,A,4305.3157,N,07740.6828,W,0.02,212.84,061023,,,A*7D
$GPGGA,202339.000,4305.3157,N,07740.6829,W,1,07,1.02,178.5,M,-34.4,M,,*55
$GPRMC,202339.250,A,4305.3157,N,07740.6829,W,0.06,324.35,061023,,,A*72
$GPGGA,202339.500,4305.3157,N,07740.6829,W,1,07,1.02,178.4,M,-34.4,M,,*51
$GPRMC,202339.750,A,4305.3157,N,07740.6829,W,0.02,311.01,061023,,,A*72
$GPGGA,202340.000,4305.3157,N,07740.6829,W,1,07,1.02,178.2,M,-34.4,M,,*5C
$GPRMC,202340.250,A,4305.3157,N,07740.6829,W,0.02,196.75,061023,,,A*77
$GPGGA,202340.500,4305.3157,N,07740.6829,W,1,07,1.02,178.2,M,-34.4,M,,*59
$GPRMC,202340.750,A,4305.3157,N,07740.6830,W,0.05,207.69,061023,,,A*7B
$GPGGA,202341.000,4305.3158,N,07740.6830,W,1,07,1.02,178.1,M,-34.4,M,,*59
$GPRMC,202341.250,A,4305.3157,N,07740.6830,W,0.08,227.19,061023,,,A*77
$GPGGA,202341.500,4305.3158,N,07740.6830,W,1,07,1.02,178.2,M,-34.4,M,,*5F
$GPRMC,202341.750,A,4305.3158,N,07740.6831,W,0.05,194.58,061023,,,A*7F
$GPGGA,202342.000,4305.3158,N,07740.6831,W,1,07,1.02,178.3,M,-34.4,M,,*59
$GPRMC,202342.250,A,4305.3158,N,07740.6831,W,0.05,88.76,061023,,,A*49
$GPGGA,202342.500,4305.3158,N,07740.6831,W,1,07,1.02,178.4,M,-34.4,M,,*5B
$GPRMC,202342.750,A,4305.3158,N,07740.6832,W,0.10,62.55,061023,,,A*4E
$GPGGA,202343.000,4305.3158,N,07740.6832,W,1,07,1.02,178.6,M,-34.4,M,,*5E
$GPRMC,202343.250,A,4305.3158,N,07740.6832,W,0.09,55.95,061023,,,A*4A
$GPGGA,202343.500,4305.3158,N,07740.6833,W,1,07,1.02,178.8,M,-34.4,M,,*54
$GPRMC,202343.750,A,4305.3159,N,07740.6833,W,0.05,0.12,061023,,,A*7C
$GPGGA,202344.000,4305.3159,N,07740.6834,W,1,07,1.06,179.0,M,-34.4,M,,*5D
$GPRMC,202344.250,A,4305.3159,N,07740.6834,W,0.08,347.89,061023,,,A*76
$GPGGA,202344.500,4305.3159,N,07740.6834,W,1,07,1.06,179.2,M,-34.4,M,,*5A
$GPRMC,202344.750,A,4305.3159,N,07740.6834,W,0.10,25.21,061023,,,A*4F
$GPGGA,202345.000,4305.3159,N,07740.6835,W,1,07,1.02,179.4,M,-34.4,M,,*5D
$GPRMC,202345.250,A,4305.3159,N,07740.6835,W,0.10,321.90,061023,,,A*77
$GPGGA,202345.500,4305.3160,N,07740.6836,W,1,07,1.02,179.5,M,-34.4,M,,*50
$GPRMC,202345.750,A,4305.3160,N,07740.6836,W,0.13,306.88,061023,,,A*74
$GPGGA,202346.000,4305.3160,N,07740.6836,W,1,07,1.02,179.6,M,-34.4,M,,*55
$GPRMC,202346.250,A,4305.3160,N,07740.6836,W,0.12,322.45,061023,,,A*74
$GPGGA,202346.500,4305.3160,N,07740.6836,W,1,07,1.02,179.7,M,-34.4,M,,*51
$GPRMC,202346.750,A,4305.3160,N,07740.6836,W,0.12,334.62,061023,,,A*73
$GPGGA,202347.000,4305.3160,N,07740.6837,W,1,07,1.02,179.8,M,-34.4,M,,*5B
$GPRMC,202347.250,A,4305.3160,N,07740.6837,W,0.12,334.55,061023,,,A*72
$GPGGA,202347.500,4305.3160,N,07740.6837,W,1,07,1.02,179.9,M,-34.4,M,,*5F
$GPRMC,202347.750,A,4305.3160,N,07740.6837,W,0.09,313.51,061023,,,A*7C
$GPGGA,202348.000,4305.3160,N,07740.6837,W,1,07,1.02,180.1,M,-34.4,M,,*5B
$GPRMC,202348.250,A,4305.3160,N,07740.6837,W,0.05,341.96,061023,,,A*76
$GPGGA,202348.500,4305.3160,N,07740.6836,W,1,07,1.02,180.2,M,-34.4,M,,*5C
$GPRMC,202348.750,A,4305.3160,N,07740.6836,W,0.03,187.58,061023,,,A*7E
$GPGGA,202349.000,4305.3161,N,07740.6836,W,1,07,1.02,180.3,M,-34.4,M,,*58
$GPRMC,202349.250,A,4305.3161,N,07740.6836,W,0.05,299.54,061023,,,A*7D
$GPGGA,202349.500,4305.3160,N,07740.6835,W,1,07,1.02,180.3,M,-34.4,M,,*5F
$GPRMC,202349.750,A,4305.3160,N,07740.6835,W,0.03,246.00,061023,,,A*7F
$GPGGA,202350.000,4305.3161,N,07740.6835,W,1,07,1.02,180.4,M,-34.4,M,,*54
$GPRMC,202350.250,A,4305.3161,N,07740.6835,W,0.01,117.75,061023,,,A*74
$GPGGA,202350.500,4305.3161,N,07740.6834,W,1,07,1.02,180.5,M,-34.4,M,,*51
$GPRMC,202350.750,A,4305.3160,N,07740.6834,W,0.05,170.60,061023,,,A*70
$GPGGA,202351.000,4305.3160,N,07740.6834,W,1,07,1.02,180.6,M,-34.4,M,,*57
$GPRMC,202351.250,A,4305.3160,N,07740.6833,W,0.08,183.54,061023,,,A*75
$GPGGA,202351.500,4305.3160,N,07740.6833,W,1,07,1.02,180.7,M,-34.4,M,,*54
$GPRMC,202351.750,A,4305.3161,N,07740.6833,W,0.05,176.22,061023,,,A*77
$GPGGA,202352.000,4305.3161,N,07740.6832,W,1,07,1.02,180.9,M,-34.4,M,,*5C
$GPRMC,202352.250,A,4305.3161,N,07740.6832,W,0.07,161.59,061023,,,A*78
$GPGGA,202352.500,4305.3161,N,07740.6832,W,1,07,1.02,181.0,M,-34.4,M,,*51
$GPRMC,202352.750,A,4305.3161,N,07740.6832,W,0.01,95.19,061023,,,A*45
$GPGGA,202353.000,4305.3162,N,07740.6832,W,1,07,1.02,181.1,M,-34.4,M,,*57
$GPRMC,202353.250,A,4305.3162,N,07740.6831,W,0.07,333.23,061023,,,A*71
$GPGGA,202353.500,4305.3162,N,07740.6831,W,1,07,1.02,181.2,M,-34.4,M,,*52
$GPRMC,202353.750,A,4305.3162,N,07740.6831,W,0.07,19.15,061023,,,A*4A
$GPGGA,202354.000,4305.3162,N,07740.6831,W,1,07,1.02,181.4,M,-34.4,M,,*56
$GPRMC,202354.250,A,4305.3162,N,07740.6831,W,0.07,347.99,061023,,,A*74
$GPGGA,202354.500,4305.3163,N,07740.6831,W,1,07,1.06,181.5,M,-34.4,M,,*57
$GPRMC,202354.750,A,4305.3163,N,07740.6830,W,0.09,351.98,061023,,,A*79
$GPGGA,202355.000,4305.3163,N,07740.6830,W,1,07,1.06,181.6,M,-34.4,M,,*51
$GPRMC,202355.250,A,4305.3164,N,07740.6830,W,0.16,0.32,061023,,,A*73
$GPGGA,202355.500,4305.3164,N,07740.6830,W,1,07,1.06,181.7,M,-34.4,M,,*52
$GPRMC,202355.750,A,4305.3164,N,07740.6830,W,0.10,349.12,061023,,,A*7C
$GPGGA,202356.000,4305.3164,N,07740.6830,W,1,07,1.06,181.9,M,-34.4,M,,*5A
$GPRMC,202356.250,A,4305.3163,N,07740.6830,W,0.04,352.41,061023,,,A*74
$GPGGA,202356.500,4305.3163,N,07740.6829,W,1,07,1.06,182.1,M,-34.4,M,,*5B
$GPRMC,202356.750,A,4305.3162,N,07740.6829,W,0.06,170.64,061023,,,A*7F
$GPGGA,202357.000,4305.3162,N,07740.6829,W,1,07,1.02,182.2,M,-34.4,M,,*59
$GPRMC,202357.250,A,4305.3163,N,07740.6829,W,0.05,189.78,061023,,,A*72
$GPGGA,202357.500,4305.3163,N,07740.6829,W,1,07,1.02,182.4,M,-34.4,M,,*5B
$GPRMC,202357.750,A,4305.3163,N,07740.6829,W,0.03,258.80,061023,,,A*79
$GPGGA,202358.000,4305.3164,N,07740.6829,W,1,07,1.02,182.5,M,-34.4,M,,*57
$GPRMC,202358.250,A,4305.3164,N,07740.6828,W,0.08,42.59,061023,,,A*43
$GPGGA,202358.500,4305.3165,N,07740.6828,W,1,07,1.02,182.6,M,-34.4,M,,*51
$GPRMC,202358.750,A,4305.3165,N,07740.6828,W,0.16,40.11,061023,,,A*46
$GPGGA,202359.000,4305.3165,N,07740.6827,W,1,07,1.02,182.7,M,-34.4,M,,*5B
$GPRMC,202359.250,A,4305.3165,N,07740.6827,W,0.07,66.53,061023,,,A*4F
$GPGGA,202359.500,4305.3166,N,07740.6827,W,1,07,1.02,182.8,M,-34.4,M,,*52
$GPRMC,202359.750,A,4305.3167,N,07740.6827,W,0.13,23.80,061023,,,A*42
$GPGGA,202400.000,4305.3168,N,07740.6828,W,1,07,1.02,182.9,M,-34.4,M,,*5C
$GPRMC,202400.250,A,4305.3168,N,07740.6827,W,0.18,9.06,061023,,,A*7E
$GPGGA,202400.500,4305.3168,N,07740.6827,W,1,07,1.06,183.0,M,-34.4,M,,*5A
$GPRMC,202400.750,A,4305.3169,N,07740.6827,W,0.13,3.73,061023,,,A*79
$GPGGA,202401.000,4305.3168,N,07740.6827,W,1,07,1.06,183.2,M,-34.4,M,,*5C
$GPRMC,202401.250,A,4305.3168,N,07740.6827,W,0.04,50.72,061023,,,A*4D
$GPGGA,202401.500,4305.3168,N,07740.6827,W,1,07,1.02,183.3,M,-34.4,M,,*5C
$GPRMC,202401.750,A,4305.3168,N,07740.6827,W,0.04,245.95,061023,,,A*77
$GPGGA,202402.000,4305.3169,N,07740.6827,W,1,07,1.02,183.4,M,-34.4,M,,*5C
$GPRMC,202402.250,A,4305.3169,N,07740.6827,W,0.03,295.18,061023,,,A*7F
$GPGGA,202402.500,4305.3169,N,07740.6827,W,1,08,1.02,183.4,M,-34.4,M,,*56
$GPRMC,202402.750,A,4305.3169,N,07740.6827,W,0.03,261.23,061023,,,A*79
$GPGGA,202403.000,4305.3169,N,07740.6828,W,1,08,1.02,183.5,M,-34.4,M,,*5C
$GPRMC,202403.250,A,4305.3170,N,07740.6827,W,0.06,342.92,061023,,,A*7A
$GPGGA,202403.500,4305.3170,N,07740.6827,W,1,08,1.02,183.6,M,-34.4,M,,*5D
$GPRMC,202403.750,A,4305.3170,N,07740.6827,W,0.06,349.36,061023,,,A*7A
$GPGGA,202404.000,4305.3169,N,07740.6827,W,1,08,1.04,183.6,M,-34.4,M,,*51
$GPRMC,202404.250,A,4305.3169,N,07740.6827,W,0.04,67.17,061023,,,A*4E
$GPGGA,202404.500,4305.3169,N,07740.6826,W,1,08,1.02,183.6,M,-34.4,M,,*53
$GPRMC,202404.750,A,4305.3169,N,07740.6826,W,0.07,80.92,061023,,,A*4D
$GPGGA,202405.000,4305.3169,N,07740.6826,W,1,08,1.02,183.6,M,-34.4,M,,*57
$GPRMC,202405.250,A,4305.3169,N,07740.6825,W,0.13,69.52,061023,,,A*44
$GPGGA,202405.500,4305.3169,N,07740.6825,W,1,08,1.01,183.6,M,-34.4,M,,*52
$GPRMC,202405.750,A,4305.3169,N,07740.6825,W,0.09,72.88,061023,,,A*47
$GPGGA,202406.000,4305.3169,N,07740.6825,W,1,08,1.02,183.6,M,-34.4,M,,*57
$GPRMC,202406.250,A,4305.3169,N,07740.6825,W,0.06,88.32,061023,,,A*4A
$GPGGA,202406.500,4305.3169,N,07740.6825,W,1,08,1.02,183.6,M,-34.4,M,,*52
$GPRMC,202406.750,A,4305.3169,N,07740.6825,W,0.04,120.40,061023,,,A*7B
$GPGGA,202407.000,4305.3169,N,07740.6825,W,1,08,1.02,183.6,M,-34.4,M,,*56
$GPRMC,202407.250,A,4305.3169,N,07740.6825,W,0.02,102.51,061023,,,A*79
$GPGGA,202407.500,4305.3169,N,07740.6825,W,1,08,1.02,183.6,M,-34.4,M,,*53
$GPRMC,202407.750,A,4305.3169,N,07740.6825,W,0.12,356.02,061023,,,A*78
$GPGGA,202408.000,4305.3169,N,07740.6825,W,1,08,1.04,183.6,M,-34.4,M,,*5F
$GPRMC,202408.250,A,4305.3169,N,07740.6825,W,0.04,321.75,061023,,,A*75
$GPGGA,202408.500,4305.3169,N,07740.6825,W,1,08,1.02,183.6,M,-34.4,M,,*5C
$GPRMC,202408.750,A,4305.3169,N,07740.6825,W,0.06,148.74,061023,,,A*7E
$GPGGA,202409.000,4305.3169,N,07740.6825,W,1,08,1.02,183.6,M,-34.4,M,,*58
$GPRMC,202409.250,A,4305.3169,N,07740.6825,W,0.01,215.82,061023,,,A*7F
$GPGGA,202409.500,4305.3169,N,07740.6825,W,1,08,1.02,183.6,M,-34.4,M,,*5D
$GPRMC,202409.750,A,4305.3169,N,07740.6825,W,0.07,162.92,061023,,,A*7E
$GPGGA,202410.000,4305.3169,N,07740.6825,W,1,08,1.02,183.6,M,-34.4,M,,*50
$GPRMC,202410.250,A,4305.3169,N,07740.6825,W,0.02,47.82,061023,,,A*41
$GPGGA,202410.500,4305.3169,N,07740.6825,W,1,08,1.02,183.6,M,-34.4,M,,*55
$GPRMC,202410.750,A,4305.3169,N,07740.6825,W,0.02,232.96,061023,,,A*71
$GPGGA,202411.000,4305.3169,N,07740.6825,W,1,08,1.02,183.6,M,-34.4,M,,*51
$GPRMC,202411.250,A,4305.3169,N,07740.6825,W,0.03,348.59,061023,,,A*7B
$GPGGA,202411.500,4305.3169,N,07740.6825,W,1,08,1.04,183.6,M,-34.4,M,,*52
$GPRMC,202411.750,A,4305.3169,N,07740.6825,W,0.05,164.58,061023,,,A*75
$GPGGA,202412.000,4305.3169,N,07740.6825,W,1,08,1.02,183.6,M,-34.4,M,,*52
$GPRMC,202412.250,A,4305.3169,N,07740.6825,W,0.03,133.74,061023,,,A*79
$GPGGA,202412.500,4305.3169,N,07740.6825,W,1,08,1.02,183.6,M,-34.4,M,,*57
$GPRMC,202412.750,A,4305.3169,N,07740.6825,W,0.03,59.52,061023,,,A*45
$GPGGA,202413.000,4305.3169,N,07740.6825,W,1,08,1.02,183.6,M,-34.4,M,,*53
$GPRMC,202413.250,A,4305.3169,N,07740.6825,W,0.03,334.93,061023,,,A*74
$GPGGA,202413.500,4305.3169,N,07740.6825,W,1,08,1.02,183.6,M,-34.4,M,,*56
$GPRMC,202413.750,A,4305.3169,N,07740.6825,W,0.01,42.43,061023,,,A*4C
$GPGGA,202414.000,4305.3169,N,07740.6825,W,1,08,1.02,183.6,M,-34.4,M,,*54
$GPRMC,202414.250,A,4305.3169,N,07740.6825,W,0.01,92.33,061023,,,A*44
$GPGGA,202414.500,4305.3169,N,07740.6825,W,1,08,1.02,183.6,M,-34.4,M,,*51
$GPRMC,202414.750,A,4305.3169,N,07740.6825,W,0.06,195.00,061023,,,A*70
$GPGGA,202415.000,4305.3169,N,07740.6825,W,1,08,1.04,183.6,M,-34.4,M,,*53
$GPRMC,202415.250,A,4305.3169,N,07740.6825,W,0.02,349.80,061023,,,A*7B
$GPGGA,202415.500,4305.3169,N,07740.6825,W,1,08,1.04,183.6,M,-34.4,M,,*56
$GPRMC,202415.750,A,4305.3169,N,07740.6825,W,0.01,339.04,061023,,,A*76
$GPGGA,202416.000,4305.3169,N,07740.6825,W,1,08,1.04,183.6,M,-34.4,M,,*50
$GPRMC,202416.250,A,4305.3169,N,07740.6825,W,0.01,148.29,061023,,,A*7B
$GPGGA,202416.500,4305.3169,N,07740.6825,W,1,08,1.04,183.6,M,-34.4,M,,*55
$GPRMC,202416.750,A,4305.3169,N,07740.6825,W,0.00,345.61,061023,,,A*7C
$GPGGA,202417.000,4305.3169,N,07740.6825,W,1,08,1.04,183.6,M,-34.4,M,,*51
$GPRMC,202417.250,A,4305.3169,N,07740.6825,W,0.01,149.54,061023,,,A*71
$GPGGA,202417.500,4305.3169,N,07740.6825,W,1,08,1.04,183.6,M,-34.4,M,,*54
$GPRMC,202417.750,A,4305.3169,N,07740.6825,W,0.02,308.74,061023,,,A*72
$GPGGA,202418.000,4305.3169,N,07740.6825,W,1,08,1.04,183.6,M,-34.4,M,,*5E
$GPRMC,202418.250,A,4305.3169,N,07740.6825,W,0.01,149.66,061023,,,A*7F
$GPGGA,202418.500,4305.3169,N,07740.6825,W,1,08,1.04,183.6,M,-34.4,M,,*5B
$GPRMC,202418.750,A,4305.3169,N,07740.6825,W,0.01,189.57,061023,,,A*74
$GPGGA,202419.000,4305.3169,N,07740.6825,W,1,08,1.04,183.6,M,-34.4,M,,*5F
$GPRMC,202419.250,A,4305.3169,N,07740.6825,W,0.01,84.39,061023,,,A*44
$GPGGA,202419.500,4305.3169,N,07740.6825,W,1,08,1.04,183.6,M,-34.4,M,,*5A
$GPRMC,202419.750,A,4305.3169,N,07740.6825,W,0.00,354.02,061023,,,A*76
$GPGGA,202420.000,4305.3169,N,07740.6825,W,1,08,1.04,183.6,M,-34.4,M,,*55
$GPRMC,202420.250,A,4305.3169,N,07740.6825,W,0.00,0.00,061023,,,A*79
$GPGGA,202420.500,4305.3169,N,07740.6825,W,1,08,1.04,183.6,M,-34.4,M,,*50
$GPRMC,202420.750,A,4305.3169,N,07740.6825,W,0.00,0.00,061023,,,A*7C
$GPGGA,202421.000,4305.3169,N,07740.6825,W,1,08,1.04,183.6,M,-34.4,M,,*54
$GPRMC,202421.250,A,4305.3169,N,07740.6825,W,0.00,5.14,061023,,,A*78
$GPGGA,202421.500,4305.3169,N,07740.6825,W,1,08,1.04,183.6,M,-34.4,M,,*51
$GPRMC,202421.750,A,4305.3169,N,07740.6825,W,0.01,233.62,061023,,,A*7A
$GPGGA,202422.000,4305.3169,N,07740.6825,W,1,08,1.04,183.6,M,-34.4,M,,*57
$GPRMC,202422.250,A,4305.3169,N,07740.6825,W,0.01,358.16,061023,,,A*73
$GPGGA,202422.500,4305.3169,N,07740.6825,W,1,08,1.04,183.6,M,-34.4,M,,*52
$GPRMC,202422.750,A,4305.3169,N,07740.6825,W,0.01,25.95,061023,,,A*44
$GPGGA,202423.000,4305.3169,N,07740.6825,W,1,08,1.04,183.6,M,-34.4,M,,*56
$GPRMC,202423.250,A,4305.3169,N,07740.6825,W,0.00,351.83,061023,,,A*76
$GPGGA,202423.500,4305.3169,N,07740.6825,W,1,08,1.04,183.6,M,-34.4,M,,*53
$GPRMC,202423.750,A,4305.3169,N,07740.6825,W,0.00,143.78,061023,,,A*76
$GPGGA,202424.000,4305.3169,N,07740.6825,W,1,08,1.04,183.6,M,-34.4,M,,*51
$GPRMC,202424.250,A,4305.3169,N,07740.6825,W,0.01,349.94,061023,,,A*7F
$GPGGA,202424.500,4305.3169,N,07740.6825,W,1,08,1.04,183.6,M,-34.4,M,,*54
$GPRMC,202424.750,A,4305.3169,N,07740.6825,W,0.00,281.20,061023,,,A*71
$GPGGA,202425.000,4305.3169,N,07740.6825,W,1,08,1.04,183.6,M,-34.4,M,,*50
$GPRMC,202425.250,A,4305.3169,N,07740.6825,W,0.00,0.00,061023,,,A*7C
$GPGGA,202425.500,4305.3169,N,07740.6825,W,1,08,1.04,183.6,M,-34.4,M,,*55
$GPRMC,202425.750,A,4305.3169,N,07740.6825,W,0.01,296.95,061023,,,A*79
$GPGGA,202426.000,4305.3169,N,07740.6825,W,1,08,1.04,183.6,M,-34.4,M,,*53
$GPRMC,202426.250,A,4305.3169,N,07740.6825,W,0.00,0.00,061023,,,A*7F
$GPGGA,202426.500,4305.3169,N,07740.6825,W,1,08,1.04,183.6,M,-34.4,M,,*56
$GPRMC,202426.750,A,4305.3169,N,07740.6825,W,0.01,52.04,061023,,,A*48
$GPGGA,202427.000,4305.3169,N,07740.6825,W,1,08,1.04,183.6,M,-34.4,M,,*52
$GPRMC,202427.250,A,4305.3169,N,07740.6825,W,0.01,258.09,061023,,,A*79
$GPGGA,202427.500,4305.3169,N,07740.6825,W,1,08,1.04,183.6,M,-34.4,M,,*57
$GPRMC,202427.750,A,4305.3169,N,07740.6825,W,0.00,16.27,061023,,,A*49
$GPGGA,202428.000,4305.3169,N,07740.6825,W,1,08,1.04,183.6,M,-34.4,M,,*5D
$GPRMC,202428.250,A,4305.3169,N,07740.6825,W,0.01,354.73,061023,,,A*76
$GPGGA,202428.500,4305.3169,N,07740.6825,W,1,08,1.04,183.6,M,-34.4,M,,*58
$GPRMC,202428.750,A,4305.3169,N,07740.6825,W,0.01,321.44,061023,,,A*75
$GPGGA,202429.000,4305.3169,N,07740.6825,W,1,08,1.04,183.6,M,-34.4,M,,*5C
$GPRMC,202429.250,A,4305.3169,N,07740.6825,W,0.01,62.44,061023,,,A*45
$GPGGA,202429.500,4305.3169,N,07740.6825,W,1,08,1.04,183.6,M,-34.4,M,,*59
$GPRMC,202429.750,A,4305.3169,N,07740.6825,W,0.00,95.73,061023,,,A*4D
$GPGGA,202430.000,4305.3169,N,07740.6825,W,1,08,1.04,183.6,M,-34.4,M,,*54
$GPRMC,202430.250,A,4305.3169,N,07740.6825,W,0.00,287.82,061023,,,A*7F
$GPGGA,202430.500,4305.3169,N,07740.6825,W,1,08,1.04,183.6,M,-34.4,M,,*51
$GPRMC,202430.750,A,4305.3169,N,07740.6825,W,0.01,113.52,061023,,,A*78
$GPGGA,202431.000,4305.3169,N,07740.6825,W,1,08,1.04,183.6,M,-34.4,M,,*55
$GPRMC,202431.250,A,4305.3169,N,07740.6825,W,0.01,63.51,061023,,,A*49
$GPGGA,202431.500,4305.3169,N,07740.6825,W,1,08,1.04,183.6,M,-34.4,M,,*50
$GPRMC,202431.750,A,4305.3169,N,07740.6825,W,0.00,163.11,061023,,,A*78
$GPGGA,202432.000,4305.3169,N,07740.6825,W,1,08,1.04,183.6,M,-34.4,M,,*56
$GPRMC,202432.250,A,4305.3169,N,07740.6825,W,0.01,163.16,061023,,,A*78
$GPGGA,202432.500,4305.3169,N,07740.6825,W,1,09,0.99,183.6,M,-34.4,M,,*57
$GPRMC,202432.750,A,4305.3169,N,07740.6825,W,0.01,327.77,061023,,,A*78
$GPGGA,202433.000,4305.3169,N,07740.6825,W,1,09,0.99,183.6,M,-34.4,M,,*53
$GPRMC,202433.250,A,4305.3169,N,07740.6825,W,0.00,0.00,061023,,,A*7B
$GPGGA,202433.500,4305.3169,N,07740.6825,W,1,09,0.99,183.6,M,-34.4,M,,*56
$GPRMC,202433.750,A,4305.3169,N,07740.6825,W,0.01,281.13,061023,,,A*76
$GPGGA,202434.000,4305.3169,N,07740.6825,W,1,09,0.99,183.6,M,-34.4,M,,*54
$GPRMC,202434.250,A,4305.3169,N,07740.6825,W,0.01,269.17,061023,,,A*76
$GPGGA,202434.500,4305.3169,N,07740.6825,W,1,09,0.99,183.6,M,-34.4,M,,*51
$GPRMC,202434.750,A,4305.3169,N,07740.6825,W,0.00,5.13,061023,,,A*7E
$GPGGA,202435.000,4305.3169,N,07740.6825,W,1,09,0.99,183.6,M,-34.4,M,,*55
$GPRMC,202435.250,A,4305.3169,N,07740.6825,W,0.01,297.73,061023,,,A*74
$GPGGA,202435.500,4305.3169,N,07740.6825,W,1,09,0.99,183.6,M,-34.4,M,,*50
$GPRMC,202435.750,A,4305.3169,N,07740.6825,W,0.00,98.08,061023,,,A*41
$GPGGA,202436.000,4305.3169,N,07740.6825,W,1,09,0.99,183.6,M,-34.4,M,,*56
$GPRMC,202436.250,A,4305.3169,N,07740.6825,W,0.00,0.00,061023,,,A*7E
$GPGGA,202436.500,4305.3169,N,07740.6825,W,1,09,0.99,183.6,M,-34.4,M,,*53
$GPRMC,202436.750,A,4305.3169,N,07740.6825,W,0.01,330.67,061023,,,A*7B
$GPGGA,202437.000,4305.3169,N,07740.6825,W,1,09,0.99,183.6,M,-34.4,M,,*57
$GPRMC,202437.250,A,4305.3169,N,07740.6825,W,0.00,10.69,061023,,,A*41
$GPGGA,202437.500,4305.3169,N,07740.6825,W,1,09,0.99,183.6,M,-34.4,M,,*52
$GPRMC,202437.750,A,4305.3169,N,07740.6825,W,0.01,345.90,061023,,,A*70
$GPGGA,202438.000,4305.3169,N,07740.6825,W,1,09,0.99,183.6,M,-34.4,M,,*58
$GPRMC,202438.250,A,4305.3169,N,07740.6825,W,0.00,257.27,061023,,,A*75
$GPGGA,202438.500,4305.3169,N,07740.6825,W,1,09,0.99,183.6,M,-34.4,M,,*5D
$GPRMC,202438.750,A,4305.3169,N,07740.6825,W,0.01,103.18,061023,,,A*7F
$GPGGA,202439.000,4305.3169,N,07740.6825,W,1,09,0.99,183.6,M,-34.4,M,,*59
$GPRMC,202439.250,A,4305.3169,N,07740.6825,W,0.00,165.79,061023,,,A*7D
$GPGGA,202439.500,4305.3169,N,07740.6825,W,1,09,0.99,183.6,M,-34.4,M,,*5C
$GPRMC,202439.750,A,4305.3169,N,07740.6825,W,0.00,31.10,061023,,,A*47
$GPGGA,202440.000,4305.3169,N,07740.6825,W,1,09,0.99,183.6,M,-34.4,M,,*57
$GPRMC,202440.250,A,4305.3169,N,07740.6825,W,0.01,64.21,061023,,,A*4F
$GPGGA,202440.500,4305.3169,N,07740.6825,W,1,09,0.99,183.6,M,-34.4,M,,*52
$GPRMC,202440.750,A,4305.3169,N,07740.6825,W,0.01,305.17,061023,,,A*7B
$GPGGA,202441.000,4305.3169,N,07740.6825,W,1,09,0.99,183.6,M,-34.4,M,,*56
$GPRMC,202441.250,A,4305.3169,N,07740.6825,W,0.00,207.02,061023,,,A*79
$GPGGA,202441.500,4305.3169,N,07740.6825,W,1,09,0.99,183.6,M,-34.4,M,,*53
$GPRMC,202441.750,A,4305.3169,N,07740.6825,W,0.01,323.99,061023,,,A*78
$GPGGA,202442.000,4305.3169,N,07740.6825,W,1,09,0.99,183.6,M,-34.4,M,,*55
$GPRMC,202442.250,A,4305.3169,N,07740.6825,W,0.01,176.88,061023,,,A*7C
$GPGGA,202442.500,4305.3169,N,07740.6825,W,1,09,0.99,183.6,M,-34.4,M,,*50
$GPRMC,202442.750,A,4305.3169,N,07740.6825,W,0.01,166.51,061023,,,A*7C
$GPGGA,202443.000,4305.3169,N,07740.6825,W,1,09,0.99,183.6,M,-34.4,M,,*54
$GPRMC,202443.250,A,4305.3169,N,07740.6825,W,0.00,51.12,061023,,,A*4B
$GPGGA,202443.500,4305.3169,N,07740.6825,W,1,09,0.99,183.6,M,-34.4,M,,*51
$GPRMC,202443.750,A,4305.3169,N,07740.6825,W,0.00,0.00,061023,,,A*79
$GPGGA,202444.000,4305.3169,N,07740.6825,W,1,09,0.99,183.6,M,-34.4,M,,*53
$GPRMC,202444.250,A,4305.3169,N,07740.6825,W,0.01,113.34,061023,,,A*7E
$GPGGA,202444.500,4305.3169,N,07740.6825,W,1,09,0.99,183.6,M,-34.4,M,,*56
$GPRMC,202444.750,A,4305.3169,N,07740.6825,W,0.01,270.02,061023,,,A*78
$GPGGA,202445.000,4305.3169,N,07740.6825,W,1,09,0.99,183.6,M,-34.4,M,,*52
$GPRMC,202445.250,A,4305.3169,N,07740.6825,W,0.01,346.48,061023,,,A*76
$GPGGA,202445.500,4305.3169,N,07740.6825,W,1,09,0.99,183.6,M,-34.4,M,,*57
$GPRMC,202445.750,A,4305.3169,N,07740.6825,W,0.00,333.74,061023,,,A*7F
$GPGGA,202446.000,4305.3169,N,07740.6825,W,1,09,0.99,183.6,M,-34.4,M,,*51
$GPRMC,202446.250,A,4305.3169,N,07740.6825,W,0.01,115.63,061023,,,A*78
$GPGGA,202446.500,4305.3169,N,07740.6825,W,1,09,0.99,183.6,M,-34.4,M,,*54
$GPRMC,202446.750,A,4305.3169,N,07740.6825,W,0.01,3.64,061023,,,A*7C
$GPGGA,202447.000,4305.3169,N,07740.6825,W,1,09,0.99,183.6,M,-34.4,M,,*50
$GPRMC,202447.250,A,4305.3169,N,07740.6825,W,0.00,133.00,061023,,,A*79
$GPGGA,202447.500,4305.3169,N,07740.6825,W,1,09,0.99,183.6,M,-34.4,M,,*55
$GPRMC,202447.750,A,4305.3169,N,07740.6825,W,0.00,301.54,061023,,,A*7E
$GPGGA,202448.000,4305.3169,N,07740.6825,W,1,09,0.99,183.6,M,-34.4,M,,*5F
$GPRMC,202448.250,A,4305.3169,N,07740.6825,W,0.00,38.89,061023,,,A*4D
$GPGGA,202448.500,4305.3169,N,07740.6825,W,1,09,0.99,183.6,M,-34.4,M,,*5A
$GPRMC,202448.750,A,4305.3169,N,07740.6825,W,0.01,36.17,061023,,,A*40
$GPGGA,202449.000,4305.3169,N,07740.6825,W,1,09,0.99,183.6,M,-34.4,M,,*5E
$GPRMC,202449.250,A,4305.3169,N,07740.6825,W,0.00,203.50,061023,,,A*72
$GPGGA,202449.500,4305.3169,N,07740.6825,W,1,09,0.99,183.6,M,-34.4,M,,*5B
$GPRMC,202449.750,A,4305.3169,N,07740.6825,W,0.01,95.96,061023,,,A*41
$GPGGA,202450.000,4305.3169,N,07740.6825,W,1,09,0.99,183.6,M,-34.4,M,,*56
$GPRMC,202450.250,A,4305.3169,N,07740.6825,W,0.00,42.04,061023,,,A*4C
$GPGGA,202450.500,4305.3169,N,07740.6825,W,1,09,0.99,183.6,M,-34.4,M,,*53
$GPRMC,202450.750,A,4305.3169,N,07740.6825,W,0.00,353.38,061023,,,A*75
$GPGGA,202451.000,4305.3169,N,07740.6825,W,1,09,0.99,183.6,M,-34.4,M,,*57
$GPRMC,202451.250,A,4305.3169,N,07740.6825,W,0.00,132.68,061023,,,A*71
$GPGGA,202451.500,4305.3169,N,07740.6825,W,1,09,0.99,183.6,M,-34.4,M,,*52
$GPRMC,202451.750,A,4305.3169,N,07740.6825,W,0.01,305.25,061023,,,A*7A
$GPGGA,202452.000,4305.3169,N,07740.6825,W,1,09,0.99,183.6,M,-34.4,M,,*54
$GPRMC,202452.250,A,4305.3169,N,07740.6825,W,0.01,115.08,061023,,,A*70
$GPGGA,202452.500,4305.3169,N,07740.6825,W,1,09,0.99,183.6,M,-34.4,M,,*51
$GPRMC,202452.750,A,4305.3169,N,07740.6825,W,0.00,0.00,061023,,,A*79
$GPGGA,202453.000,4305.3169,N,07740.6825,W,1,09,0.99,183.5,M,-34.4,M,,*56
$GPRMC,202453.250,A,4305.3169,N,07740.6825,W,0.00,300.71,061023,,,A*78
$GPGGA,202453.500,4305.3169,N,07740.6825,W,1,09,0.99,183.5,M,-34.4,M,,*53
$GPRMC,202453.750,A,4305.3169,N,07740.6825,W,0.01,88.66,061023,,,A*49
$GPGGA,202454.000,4305.3169,N,07740.6825,W,1,09,0.99,183.5,M,-34.4,M,,*51
$GPRMC,202454.250,A,4305.3169,N,07740.6825,W,0.00,287.41,061023,,,A*72
$GPGGA,202454.500,4305.3169,N,07740.6825,W,1,09,0.99,183.5,M,-34.4,M,,*54
$GPRMC,202454.750,A,4305.3169,N,07740.6825,W,0.01,120.61,061023,,,A*7A
$GPGGA,202455.000,4305.3169,N,07740.6825,W,1,09,0.99,183.5,M,-34.4,M,,*50
$GPRMC,202455.250,A,4305.3169,N,07740.6825,W,0.01,283.22,061023,,,A*73
$GPGGA,202455.500,4305.3169,N,07740.6825,W,1,09,0.99,183.5,M,-34.4,M,,*55
$GPRMC,202455.750,A,4305.3169,N,07740.6825,W,0.01,331.35,061023,,,A*78
$GPGGA,202456.000,4305.3169,N,07740.6825,W,1,09,0.99,183.5,M,-34.4,M,,*53
$GPRMC,202456.250,A,4305.3169,N,07740.6825,W,0.00,31.48,061023,,,A*46
$GPGGA,202456.500,4305.3169,N,07740.6825,W,1,09,0.99,183.5,M,-34.4,M,,*56
$GPRMC,202456.750,A,4305.3169,N,07740.6825,W,0.01,173.48,061023,,,A*75
$GPGGA,202457.000,4305.3169,N,07740.6825,W,1,09,0.99,183.5,M,-34.4,M,,*52
$GPRMC,202457.250,A,4305.3169,N,07740.6825,W,0.00,309.78,061023,,,A*7C
$GPGGA,202457.500,4305.3169,N,07740.6825,W,1,09,0.99,183.5,M,-34.4,M,,*57
$GPRMC,202457.750,A,4305.3169,N,07740.6825,W,0.00,30.09,061023,,,A*46
$GPGGA,202458.000,4305.3169,N,07740.6825,W,1,09,0.99,183.5,M,-34.4,M,,*5D
$GPRMC,202458.250,A,4305.3169,N,07740.6825,W,0.01,29.64,061023,,,A*4E
$GPGGA,202458.500,4305.3169,N,07740.6825,W,1,09,0.99,183.5,M,-34.4,M,,*58
$GPRMC,202458.750,A,4305.3169,N,07740.6825,W,0.00,32.31,061023,,,A*40
$GPGGA,202459.000,4305.3169,N,07740.6825,W,1,09,0.99,183.5,M,-34.4,M,,*5C
$GPRMC,202459.250,A,4305.3169,N,07740.6825,W,0.00,33.44,061023,,,A*47
$GPGGA,202459.500,4305.3169,N,07740.6825,W,1,09,0.99,183.5,M,-34.4,M,,*59
$GPRMC,202459.750,A,4305.3169,N,07740.6825,W,0.00,6.13,061023,,,A*76
$GPGGA,202500.000,4305.3169,N,07740.6825,W,1,09,0.99,183.5,M,-34.4,M,,*51
$GPRMC,202500.250,A,4305.3169,N,07740.6825,W,0.00,182.84,061023,,,A*7D
$GPGGA,202500.500,4305.3169,N,07740.6825,W,1,09,0.99,183.5,M,-34.4,M,,*54
$GPRMC,202500.750,A,4305.3169,N,07740.6825,W,0.00,301.97,061023,,,A*73
$GPGGA,202501.000,4305.3169,N,07740.6825,W,1,09,0.99,183.5,M,-34.4,M,,*50
$GPRMC,202501.250,A,4305.3169,N,07740.6825,W,0.00,86.33,061023,,,A*45
$GPGGA,202501.500,4305.3169,N,07740.6825,W,1,09,0.99,183.5,M,-34.4,M,,*55
$GPRMC,202501.750,A,4305.3169,N,07740.6825,W,0.01,131.51,061023,,,A*78
$GPGGA,202502.000,4305.3169,N,07740.6825,W,1,09,0.99,183.5,M,-34.4,M,,*53
$GPRMC,202502.250,A,4305.3169,N,07740.6825,W,0.00,230.20,061023,,,A*7B
$GPGGA,202502.500,4305.3169,N,07740.6825,W,1,09,0.99,183.5,M,-34.4,M,,*56
$GPRMC,202502.750,A,4305.3169,N,07740.6825,W,0.01,63.76,061023,,,A*48
$GPGGA,202503.000,4305.3169,N,07740.6825,W,1,09,0.99,183.5,M,-34.4,M,,*52
$GPRMC,202503.250,A,4305.3169,N,07740.6825,W,0.00,299.20,061023,,,A*79
$GPGGA,202503.500,4305.3169,N,07740.6825,W,1,09,0.99,183.5,M,-34.4,M,,*57
$GPRMC,202503.750,A,4305.3169,N,07740.6825,W,0.01,104.30,061023,,,A*7B
$GPGGA,202504.000,4305.3169,N,07740.6825,W,1,09,0.99,183.5,M,-34.4,M,,*55
$GPRMC,202504.250,A,4305.3169,N,07740.6825,W,0.00,133.14,061023,,,A*7A
$GPGGA,202504.500,4305.3169,N,07740.6825,W,1,09,0.99,183.5,M,-34.4,M,,*50
$GPRMC,202504.750,A,4305.3169,N,07740.6825,W,0.00,114.54,061023,,,A*7E
$GPGGA,202505.000,4305.3169,N,07740.6825,W,1,09,0.99,183.5,M,-34.4,M,,*54
$GPRMC,202505.250,A,4305.3169,N,07740.6824,W,0.09,76.85,061023,,,A*4B
$GPGGA,202505.500,4305.3169,N,07740.6824,W,1,09,0.99,183.5,M,-34.4,M,,*50
$GPRMC,202505.750,A,4305.3169,N,07740.6824,W,1.23,60.85,061023,,,A*40
$GPGGA,202506.000,4305.3170,N,07740.6824,W,1,09,0.97,183.5,M,-34.4,M,,*50
$GPRMC,202506.250,A,4305.3170,N,07740.6822,W,2.97,80.47,061023,,,A*44
$GPGGA,202506.500,4305.3170,N,07740.6819,W,1,09,0.97,183.5,M,-34.4,M,,*5B
$GPRMC,202506.750,A,4305.3171,N,07740.6815,W,3.75,82.10,061023,,,A*49
$GPGGA,202507.000,4305.3171,N,07740.6811,W,1,09,0.97,183.4,M,-34.4,M,,*57
$GPRMC,202507.250,A,4305.3171,N,07740.6807,W,4.90,81.88,061023,,,A*40
$GPGGA,202507.500,4305.3172,N,07740.6802,W,1,09,0.99,183.4,M,-34.4,M,,*5D
$GPRMC,202507.750,A,4305.3173,N,07740.6796,W,6.27,82.00,061023,,,A*4D
$GPGGA,202508.000,4305.3173,N,07740.6790,W,1,09,0.99,183.4,M,-34.4,M,,*52
$GPRMC,202508.250,A,4305.3174,N,07740.6783,W,7.72,82.49,061023,,,A*48
$GPGGA,202508.500,4305.3175,N,07740.6775,W,1,09,0.99,183.3,M,-34.4,M,,*5D
$GPRMC,202508.750,A,4305.3176,N,07740.6767,W,8.87,80.96,061023,,,A*40
$GPGGA,202509.000,4305.3177,N,07740.6758,W,1,09,0.99,183.3,M,-34.4,M,,*54
$GPRMC,202509.250,A,4305.3178,N,07740.6749,W,9.44,81.17,061023,,,A*40
$GPGGA,202509.500,4305.3179,N,07740.6740,W,1,09,0.99,183.2,M,-34.4,M,,*57
$GPRMC,202509.750,A,4305.3180,N,07740.6730,W,10.30,82.03,061023,,,A*71
$GPGGA,202510.000,4305.3180,N,07740.6720,W,1,09,0.99,183.2,M,-34.4,M,,*5A
$GPRMC,202510.250,A,4305.3181,N,07740.6709,W,11.18,84.51,061023,,,A*7D
$GPGGA,202510.500,4305.3181,N,07740.6697,W,1,09,0.99,183.1,M,-34.4,M,,*50
$GPRMC,202510.750,A,4305.3182,N,07740.6686,W,11.82,85.09,061023,,,A*72
$GPGGA,202511.000,4305.3182,N,07740.6674,W,1,09,0.99,183.0,M,-34.4,M,,*5B
$GPRMC,202511.250,A,4305.3183,N,07740.6662,W,12.71,85.35,061023,,,A*7D
$GPGGA,202511.500,4305.3184,N,07740.6649,W,1,09,0.99,183.0,M,-34.4,M,,*56
$GPRMC,202511.750,A,4305.3185,N,07740.6636,W,13.20,84.49,061023,,,A*70
$GPGGA,202512.000,4305.3186,N,07740.6623,W,1,09,0.99,182.9,M,-34.4,M,,*56
$GPRMC,202512.250,A,4305.3188,N,07740.6610,W,13.81,82.44,061023,,,A*7F
$GPGGA,202512.500,4305.3189,N,07740.6597,W,1,09,0.99,182.8,M,-34.4,M,,*51
$GPRMC,202512.750,A,4305.3190,N,07740.6583,W,14.22,82.35,061023,,,A*72
$GPGGA,202513.000,4305.3191,N,07740.6569,W,1,09,0.99,182.8,M,-34.4,M,,*5D
$GPRMC,202513.250,A,4305.3193,N,07740.6555,W,15.08,82.95,061023,,,A*7D
$GPGGA,202513.500,4305.3194,N,07740.6540,W,1,09,0.99,182.7,M,-34.4,M,,*59
$GPRMC,202513.750,A,4305.3195,N,07740.6526,W,15.49,82.83,061023,,,A*78
$GPGGA,202514.000,4305.3196,N,07740.6510,W,1,09,0.99,182.7,M,-34.4,M,,*5C
$GPRMC,202514.250,A,4305.3197,N,07740.6495,W,15.76,84.44,061023,,,A*70
$GPGGA,202514.500,4305.3198,N,07740.6479,W,1,09,0.99,182.7,M,-34.4,M,,*59
$GPRMC,202514.750,A,4305.3199,N,07740.6463,W,15.95,85.46,061023,,,A*7C
$GPGGA,202515.000,4305.3200,N,07740.6448,W,1,09,0.99,182.7,M,-34.4,M,,*5D
$GPRMC,202515.250,A,4305.3202,N,07740.6432,W,15.86,86.03,061023,,,A*7D
$GPGGA,202515.500,4305.3203,N,07740.6417,W,1,09,0.99,182.7,M,-34.4,M,,*51
$GPRMC,202515.750,A,4305.3204,N,07740.6402,W,15.46,85.65,061023,,,A*72
$GPGGA,202516.000,4305.3205,N,07740.6387,W,1,09,0.99,182.7,M,-34.4,M,,*5F
$GPRMC,202516.250,A,4305.3206,N,07740.6372,W,15.12,85.56,061023,,,A*77
$GPGGA,202516.500,4305.3207,N,07740.6357,W,1,09,0.99,182.7,M,-34.4,M,,*55
$GPRMC,202516.750,A,4305.3209,N,07740.6343,W,14.70,85.69,061023,,,A*76
$GPGGA,202517.000,4305.3209,N,07740.6328,W,1,09,0.99,182.7,M,-34.4,M,,*57
$GPRMC,202517.250,A,4305.3210,N,07740.6315,W,14.34,86.27,061023,,,A*70
$GPGGA,202517.500,4305.3211,N,07740.6302,W,1,09,0.99,182.8,M,-34.4,M,,*5C
$GPRMC,202517.750,A,4305.3211,N,07740.6288,W,14.24,86.74,061023,,,A*76
$GPGGA,202518.000,4305.3211,N,07740.6275,W,1,09,0.99,182.8,M,-34.4,M,,*57
$GPRMC,202518.250,A,4305.3211,N,07740.6262,W,13.52,87.66,061023,,,A*7C
$GPGGA,202518.500,4305.3210,N,07740.6250,W,1,09,0.99,182.9,M,-34.4,M,,*55
$GPRMC,202518.750,A,4305.3210,N,07740.6237,W,12.77,88.98,061023,,,A*70
$GPGGA,202519.000,4305.3210,N,07740.6226,W,1,09,0.99,182.9,M,-34.4,M,,*50
$GPRMC,202519.250,A,4305.3209,N,07740.6216,W,11.30,89.82,061023,,,A*75
$GPGGA,202519.500,4305.3208,N,07740.6206,W,1,09,0.99,182.9,M,-34.4,M,,*5E
$GPRMC,202519.750,A,4305.3208,N,07740.6197,W,9.72,90.23,061023,,,A*47
$GPGGA,202520.000,4305.3208,N,07740.6190,W,1,09,0.99,182.9,M,-34.4,M,,*5D
$GPRMC,202520.250,A,4305.3208,N,07740.6183,W,7.57,91.06,061023,,,A*42
$GPGGA,202520.500,4305.3208,N,07740.6178,W,1,09,0.99,182.8,M,-34.4,M,,*5F
$GPRMC,202520.750,A,4305.3208,N,07740.6173,W,5.62,93.19,061023,,,A*40
$GPGGA,202521.000,4305.3207,N,07740.6169,W,1,09,0.99,182.8,M,-34.4,M,,*54
$GPRMC,202521.250,A,4305.3208,N,07740.6165,W,4.23,91.67,061023,,,A*4C
$GPGGA,202521.500,4305.3209,N,07740.6162,W,1,09,0.99,182.8,M,-34.4,M,,*54
$GPRMC,202521.750,A,4305.3210,N,07740.6158,W,4.50,83.99,061023,,,A*48
$GPGGA,202522.000,4305.3211,N,07740.6153,W,1,09,0.99,182.7,M,-34.4,M,,*56
$GPRMC,202522.250,A,4305.3213,N,07740.6147,W,5.76,78.26,061023,,,A*46
$GPGGA,202522.500,4305.3210,N,07740.6139,W,1,09,0.99,182.6,M,-34.4,M,,*5F
$GPRMC,202522.750,A,4305.3209,N,07740.6132,W,6.39,77.38,061023,,,A*42
$GPGGA,202523.000,4305.3211,N,07740.6122,W,1,09,0.99,182.6,M,-34.4,M,,*50
$GPRMC,202523.250,A,4305.3211,N,07740.6115,W,7.93,68.83,061023,,,A*45
$GPGGA,202523.500,4305.3214,N,07740.6107,W,1,09,0.99,182.6,M,-34.4,M,,*57
$GPRMC,202523.750,A,4305.3218,N,07740.6099,W,9.23,56.70,061023,,,A*48
$GPGGA,202524.000,4305.3221,N,07740.6091,W,1,09,0.99,182.4,M,-34.4,M,,*5F
$GPRMC,202524.250,A,4305.3227,N,07740.6084,W,9.99,45.48,061023,,,A*42
$GPGGA,202524.500,4305.3233,N,07740.6078,W,1,09,0.99,182.3,M,-34.4,M,,*59
$GPRMC,202524.750,A,4305.3240,N,07740.6072,W,10.74,35.36,061023,,,A*7A
$GPGGA,202525.000,4305.3247,N,07740.6067,W,1,09,0.99,182.5,M,-34.4,M,,*56
$GPRMC,202525.250,A,4305.3254,N,07740.6063,W,12.11,23.15,061023,,,A*7C
$GPGGA,202525.500,4305.3263,N,07740.6059,W,1,09,0.99,182.6,M,-34.4,M,,*5B
$GPRMC,202525.750,A,4305.3273,N,07740.6056,W,13.16,15.16,061023,,,A*7A
$GPGGA,202526.000,4305.3283,N,07740.6054,W,1,09,0.99,182.6,M,-34.4,M,,*5E
$GPRMC,202526.250,A,4305.3294,N,07740.6052,W,14.21,7.04,061023,,,A*42
$GPGGA,202526.500,4305.3305,N,07740.6052,W,1,09,0.99,182.7,M,-34.4,M,,*53
$GPRMC,202526.750,A,4305.3315,N,07740.6051,W,14.73,3.15,061023,,,A*4F
$GPGGA,202527.000,4305.3327,N,07740.6052,W,1,09,0.99,182.8,M,-34.4,M,,*58
$GPRMC,202527.250,A,4305.3337,N,07740.6053,W,14.99,358.73,061023,,,A*40
$GPGGA,202527.500,4305.3348,N,07740.6055,W,1,09,0.99,183.0,M,-34.4,M,,*5A
$GPRMC,202527.750,A,4305.3359,N,07740.6056,W,14.99,356.64,061023,,,A*40
$GPGGA,202528.000,4305.3370,N,07740.6058,W,1,09,0.99,183.1,M,-34.4,M,,*57
$GPRMC,202528.250,A,4305.3381,N,07740.6060,W,14.91,354.72,061023,,,A*47
$GPGGA,202528.500,4305.3392,N,07740.6063,W,1,09,0.99,183.1,M,-34.4,M,,*56
$GPRMC,202528.750,A,4305.3403,N,07740.6065,W,14.70,354.33,061023,,,A*40
$GPGGA,202529.000,4305.3413,N,07740.6067,W,1,08,1.02,183.2,M,-34.4,M,,*59
$GPRMC,202529.250,A,4305.3423,N,07740.6068,W,14.26,354.98,061023,,,A*49
$GPGGA,202529.500,4305.3433,N,07740.6069,W,1,09,0.99,183.2,M,-34.4,M,,*52
$GPRMC,202529.750,A,4305.3441,N,07740.6071,W,13.33,356.06,061023,,,A*46
$GPGGA,202530.000,4305.3448,N,07740.6072,W,1,09,0.99,183.3,M,-34.4,M,,*58
$GPRMC,202530.250,A,4305.3455,N,07740.6071,W,10.56,359.69,061023,,,A*48
$GPGGA,202530.500,4305.3461,N,07740.6070,W,1,09,0.99,183.3,M,-34.4,M,,*54
$GPRMC,202530.750,A,4305.3467,N,07740.6071,W,8.25,3.78,061023,,,A*7D
$GPGGA,202531.000,4305.3472,N,07740.6070,W,1,09,0.99,183.3,M,-34.4,M,,*52
$GPRMC,202531.250,A,4305.3476,N,07740.6070,W,6.49,7.47,061023,,,A*74
$GPGGA,202531.500,4305.3480,N,07740.6070,W,1,09,0.99,183.1,M,-34.4,M,,*58
$GPRMC,202531.750,A,4305.3484,N,07740.6069,W,6.01,10.11,061023,,,A*4D
$GPGGA,202532.000,4305.3488,N,07740.6068,W,1,09,0.99,183.0,M,-34.4,M,,*5E
$GPRMC,202532.250,A,4305.3493,N,07740.6067,W,6.17,16.31,061023,,,A*40
$GPGGA,202532.500,4305.3499,N,07740.6064,W,1,09,0.99,182.9,M,-34.4,M,,*5F
$GPRMC,202532.750,A,4305.3504,N,07740.6061,W,7.16,24.18,061023,,,A*46
$GPGGA,202533.000,4305.3509,N,07740.6056,W,1,09,0.99,182.6,M,-34.4,M,,*5D
$GPRMC,202533.250,A,4305.3514,N,07740.6052,W,8.60,33.34,061023,,,A*45
$GPGGA,202533.500,4305.3519,N,07740.6046,W,1,09,0.99,182.5,M,-34.4,M,,*5B
$GPRMC,202533.750,A,4305.3524,N,07740.6040,W,9.22,40.84,061023,,,A*48
$GPGGA,202534.000,4305.3528,N,07740.6032,W,1,09,0.99,182.5,M,-34.4,M,,*58
$GPRMC,202534.250,A,4305.3532,N,07740.6022,W,10.60,53.09,061023,,,A*70
$GPGGA,202534.500,4305.3537,N,07740.6010,W,1,09,0.99,182.3,M,-34.4,M,,*55
$GPRMC,202534.750,A,4305.3540,N,07740.5999,W,12.14,62.37,061023,,,A*74
$GPGGA,202535.000,4305.3544,N,07740.5987,W,1,09,0.99,182.1,M,-34.4,M,,*53
$GPRMC,202535.250,A,4305.3547,N,07740.5974,W,13.74,67.63,061023,,,A*77
$GPGGA,202535.500,4305.3551,N,07740.5959,W,1,09,0.99,182.0,M,-34.4,M,,*50
$GPRMC,202535.750,A,4305.3554,N,07740.5945,W,15.71,72.34,061023,,,A*77
$GPGGA,202536.000,4305.3556,N,07740.5929,W,1,09,0.99,181.7,M,-34.4,M,,*52
$GPRMC,202536.250,A,4305.3559,N,07740.5912,W,17.36,75.30,061023,,,A*7C
$GPGGA,202536.500,4305.3561,N,07740.5895,W,1,09,0.99,181.4,M,-34.4,M,,*56
$GPRMC,202536.750,A,4305.3563,N,07740.5877,W,18.64,78.04,061023,,,A*70
$GPGGA,202537.000,4305.3565,N,07740.5857,W,1,09,0.99,181.1,M,-34.4,M,,*5D
$GPRMC,202537.250,A,4305.3567,N,07740.5837,W,20.14,80.74,061023,,,A*78
$GPGGA,202537.500,4305.3568,N,07740.5816,W,1,09,0.99,180.8,M,-34.4,M,,*58
$GPRMC,202537.750,A,4305.3570,N,07740.5795,W,21.28,81.73,061023,,,A*74
$GPGGA,202538.000,4305.3572,N,07740.5773,W,1,09,0.99,180.5,M,-34.4,M,,*58
$GPRMC,202538.250,A,4305.3573,N,07740.5751,W,22.22,82.27,061023,,,A*7E
$GPGGA,202538.500,4305.3575,N,07740.5729,W,1,09,0.99,180.3,M,-34.4,M,,*53
$GPRMC,202538.750,A,4305.3577,N,07740.5707,W,22.54,82.54,061023,,,A*79
$GPGGA,202539.000,4305.3579,N,07740.5685,W,1,09,0.99,180.0,M,-34.4,M,,*5F
$GPRMC,202539.250,A,4305.3579,N,07740.5662,W,22.59,84.10,061023,,,A*7A
$GPGGA,202539.500,4305.3580,N,07740.5640,W,1,09,0.99,179.9,M,-34.4,M,,*5A
$GPRMC,202539.750,A,4305.3581,N,07740.5618,W,22.51,84.68,061023,,,A*72
$GPGGA,202540.000,4305.3582,N,07740.5596,W,1,09,0.99,179.7,M,-34.4,M,,*55
$GPRMC,202540.250,A,4305.3583,N,07740.5575,W,22.12,84.47,061023,,,A*79
$GPGGA,202540.500,4305.3584,N,07740.5553,W,1,09,0.99,179.7,M,-34.4,M,,*5F
$GPRMC,202540.750,A,4305.3585,N,07740.5533,W,21.71,84.76,061023,,,A*7C
$GPGGA,202541.000,4305.3586,N,07740.5512,W,1,09,0.99,179.6,M,-34.4,M,,*5D
$GPRMC,202541.250,A,4305.3587,N,07740.5492,W,21.14,84.67,061023,,,A*73
$GPGGA,202541.500,4305.3588,N,07740.5472,W,1,09,0.99,179.6,M,-34.4,M,,*51
$GPRMC,202541.750,A,4305.3589,N,07740.5452,W,20.67,85.07,061023,,,A*76
$GPGGA,202542.000,4305.3589,N,07740.5433,W,1,09,0.99,179.5,M,-34.4,M,,*50
$GPRMC,202542.250,A,4305.3589,N,07740.5413,W,20.24,86.95,061023,,,A*7A
$GPGGA,202542.500,4305.3589,N,07740.5394,W,1,09,0.99,179.4,M,-34.4,M,,*5E
$GPRMC,202542.750,A,4305.3589,N,07740.5375,W,19.49,89.43,061023,,,A*7D
$GPGGA,202543.000,4305.3588,N,07740.5357,W,1,09,0.99,179.3,M,-34.4,M,,*53
$GPRMC,202543.250,A,4305.3585,N,07740.5338,W,18.82,94.48,061023,,,A*7D
$GPGGA,202543.500,4305.3584,N,07740.5321,W,1,09,0.99,179.1,M,-34.4,M,,*59
$GPRMC,202543.750,A,4305.3581,N,07740.5303,W,17.85,97.95,061023,,,A*7F
$GPGGA,202544.000,4305.3577,N,07740.5285,W,1,09,0.99,179.1,M,-34.4,M,,*58
$GPRMC,202544.250,A,4305.3573,N,07740.5268,W,17.85,105.06,061023,,,A*4C
$GPGGA,202544.500,4305.3569,N,07740.5252,W,1,09,0.99,179.0,M,-34.4,M,,*59
$GPRMC,202544.750,A,4305.3564,N,07740.5236,W,17.14,108.88,061023,,,A*47
$GPGGA,202545.000,4305.3560,N,07740.5221,W,1,09,0.99,178.9,M,-34.4,M,,*58
$GPRMC,202545.250,A,4305.3552,N,07740.5205,W,16.15,114.95,061023,,,A*47
$GPGGA,202545.500,4305.3542,N,07740.5188,W,1,09,0.99,178.9,M,-34.4,M,,*5D
$GPRMC,202545.750,A,4305.3530,N,07740.5172,W,16.75,123.84,061023,,,A*47
$GPGGA,202546.000,4305.3518,N,07740.5158,W,1,09,0.99,179.0,M,-34.4,M,,*51
$GPRMC,202546.250,A,4305.3506,N,07740.5146,W,16.57,136.84,061023,,,A*47
$GPGGA,202546.500,4305.3492,N,07740.5134,W,1,09,0.99,179.1,M,-34.4,M,,*5C
$GPRMC,202546.750,A,4305.3480,N,07740.5124,W,17.57,146.02,061023,,,A*41
$GPGGA,202547.000,4305.3466,N,07740.5114,W,1,09,0.99,178.8,M,-34.4,M,,*59
$GPRMC,202547.250,A,4305.3449,N,07740.5104,W,18.81,155.24,061023,,,A*40
$GPGGA,202547.500,4305.3433,N,07740.5098,W,1,09,0.99,178.4,M,-34.4,M,,*55
$GPRMC,202547.750,A,4305.3417,N,07740.5092,W,20.04,164.24,061023,,,A*44
$GPGGA,202548.000,4305.3401,N,07740.5087,W,1,09,0.99,178.3,M,-34.4,M,,*57
$GPRMC,202548.250,A,4305.3386,N,07740.5085,W,20.95,171.18,061023,,,A*44
$GPGGA,202548.500,4305.3370,N,07740.5084,W,1,09,0.99,178.2,M,-34.4,M,,*51
$GPRMC,202548.750,A,4305.3353,N,07740.5082,W,21.77,175.59,061023,,,A*42
$GPGGA,202549.000,4305.3336,N,07740.5082,W,1,09,0.99,178.1,M,-34.4,M,,*52
$GPRMC,202549.250,A,4305.3319,N,07740.5082,W,21.99,178.80,061023,,,A*41
$GPGGA,202549.500,4305.3302,N,07740.5084,W,1,09,0.99,178.0,M,-34.4,M,,*57
$GPRMC,202549.750,A,4305.3286,N,07740.5085,W,21.95,180.53,061023,,,A*41
$GPGGA,202550.000,4305.3270,N,07740.5086,W,1,09,0.99,177.8,M,-34.4,M,,*5B
$GPRMC,202550.250,A,4305.3254,N,07740.5087,W,21.90,180.22,061023,,,A*42
$GPGGA,202550.500,4305.3237,N,07740.5087,W,1,09,0.99,177.8,M,-34.4,M,,*5C
$GPRMC,202550.750,A,4305.3220,N,07740.5086,W,21.79,177.01,061023,,,A*4B
$GPGGA,202551.000,4305.3204,N,07740.5084,W,1,09,0.99,177.7,M,-34.4,M,,*54
$GPRMC,202551.250,A,4305.3188,N,07740.5082,W,21.41,172.81,061023,,,A*4C
$GPGGA,202551.500,4305.3173,N,07740.5079,W,1,09,0.99,177.7,M,-34.4,M,,*50
$GPRMC,202551.750,A,4305.3157,N,07740.5074,W,21.44,167.29,061023,,,A*41
$GPGGA,202552.000,4305.3143,N,07740.5069,W,1,09,0.99,177.6,M,-34.4,M,,*55
$GPRMC,202552.250,A,4305.3129,N,07740.5064,W,20.92,161.73,061023,,,A*4C
$GPGGA,202552.500,4305.3114,N,07740.5057,W,1,09,0.99,177.6,M,-34.4,M,,*5F
$GPRMC,202552.750,A,4305.3101,N,07740.5048,W,20.77,156.69,061023,,,A*49
$GPGGA,202553.000,4305.3088,N,07740.5038,W,1,09,0.99,177.6,M,-34.4,M,,*56
$GPRMC,202553.250,A,4305.3075,N,07740.5027,W,21.29,150.43,061023,,,A*42
$GPGGA,202553.500,4305.3061,N,07740.5014,W,1,09,0.99,177.8,M,-34.4,M,,*54
$GPRMC,202553.750,A,4305.3049,N,07740.5001,W,22.25,144.30,061023,,,A*42
$GPGGA,202554.000,4305.3038,N,07740.4986,W,1,09,0.99,178.1,M,-34.4,M,,*5F
$GPRMC,202554.250,A,4305.3027,N,07740.4971,W,22.77,137.27,061023,,,A*42
$GPGGA,202554.500,4305.3016,N,07740.4955,W,1,09,0.99,178.5,M,-34.4,M,,*5C
$GPRMC,202554.750,A,4305.3006,N,07740.4939,W,22.71,131.78,061023,,,A*42
$GPGGA,202555.000,4305.2996,N,07740.4921,W,1,09,0.99,178.5,M,-34.4,M,,*5B
$GPRMC,202555.250,A,4305.2987,N,07740.4903,W,22.73,124.87,061023,,,A*48
$GPGGA,202555.500,4305.2979,N,07740.4885,W,1,09,0.99,178.3,M,-34.4,M,,*56
$GPRMC,202555.750,A,4305.2971,N,07740.4866,W,22.56,118.76,061023,,,A*40
$GPGGA,202556.000,4305.2964,N,07740.4846,W,1,08,1.02,178.3,M,-34.4,M,,*51
$GPRMC,202556.250,A,4305.2957,N,07740.4826,W,23.33,113.15,061023,,,A*4A
$GPGGA,202556.500,4305.2951,N,07740.4805,W,1,09,0.99,178.3,M,-34.4,M,,*57
$GPRMC,202556.750,A,4305.2946,N,07740.4784,W,23.64,108.73,061023,,,A*40
$GPGGA,202557.000,4305.2942,N,07740.4763,W,1,09,0.99,178.4,M,-34.4,M,,*59
$GPRMC,202557.250,A,4305.2939,N,07740.4742,W,23.41,103.15,061023,,,A*4A
$GPGGA,202557.500,4305.2936,N,07740.4720,W,1,09,0.99,178.6,M,-34.4,M,,*5A
$GPRMC,202557.750,A,4305.2933,N,07740.4698,W,23.38,100.60,061023,,,A*4C
$GPGGA,202558.000,4305.2932,N,07740.4676,W,1,09,0.99,178.9,M,-34.4,M,,*59
$GPRMC,202558.250,A,4305.2933,N,07740.4654,W,23.18,94.54,061023,,,A*7F
$GPGGA,202558.500,4305.2934,N,07740.4631,W,1,09,0.99,178.8,M,-34.4,M,,*58
$GPRMC,202558.750,A,4305.2935,N,07740.4609,W,23.56,89.87,061023,,,A*7C
$GPGGA,202559.000,4305.2938,N,07740.4587,W,1,09,0.99,178.8,M,-34.4,M,,*5E
$GPRMC,202559.250,A,4305.2942,N,07740.4566,W,22.82,84.85,061023,,,A*75
$GPGGA,202559.500,4305.2950,N,07740.4547,W,1,09,0.99,179.1,M,-34.4,M,,*51
$GPRMC,202559.750,A,4305.2956,N,07740.4528,W,22.19,77.17,061023,,,A*7A
$GPGGA,202600.000,4305.2963,N,07740.4508,W,1,09,0.99,179.1,M,-34.4,M,,*50
$GPRMC,202600.250,A,4305.2972,N,07740.4490,W,21.99,69.67,061023,,,A*77
$GPGGA,202600.500,4305.2981,N,07740.4472,W,1,09,1.00,178.9,M,-34.4,M,,*5D
$GPRMC,202600.750,A,4305.2991,N,07740.4454,W,21.78,63.92,061023,,,A*78
$GPGGA,202601.000,4305.3003,N,07740.4438,W,1,09,0.99,179.0,M,-34.4,M,,*5C
$GPRMC,202601.250,A,4305.3019,N,07740.4422,W,22.39,54.85,061023,,,A*71
$GPGGA,202601.500,4305.3035,N,07740.4409,W,1,09,0.99,179.0,M,-34.4,M,,*5E
$GPRMC,202601.750,A,4305.3050,N,07740.4396,W,22.25,46.37,061023,,,A*76
$GPGGA,202602.000,4305.3065,N,07740.4383,W,1,09,0.99,179.0,M,-34.4,M,,*58
$GPRMC,202602.250,A,4305.3080,N,07740.4371,W,22.45,40.13,061023,,,A*72
$GPGGA,202602.500,4305.3100,N,07740.4363,W,1,09,0.99,179.5,M,-34.4,M,,*54
$GPRMC,202602.750,A,4305.3118,N,07740.4354,W,23.62,30.07,061023,,,A*76
$GPGGA,202603.000,4305.3138,N,07740.4349,W,1,09,0.99,179.8,M,-34.4,M,,*5E
$GPRMC,202603.250,A,4305.3157,N,07740.4345,W,24.03,18.10,061023,,,A*75
$GPGGA,202603.500,4305.3176,N,07740.4342,W,1,09,0.99,180.0,M,-34.4,M,,*54
$GPRMC,202603.750,A,4305.3193,N,07740.4338,W,24.12,11.15,061023,,,A*7E
$GPGGA,202604.000,4305.3211,N,07740.4337,W,1,09,0.99,180.1,M,-34.4,M,,*57
$GPRMC,202604.250,A,4305.3230,N,07740.4336,W,24.60,4.26,061023,,,A*49
$GPGGA,202604.500,4305.3249,N,07740.4336,W,1,09,0.99,180.4,M,-34.4,M,,*5B
$GPRMC,202604.750,A,4305.3268,N,07740.4337,W,25.37,0.12,061023,,,A*40
$GPGGA,202605.000,4305.3287,N,07740.4338,W,1,09,0.99,180.4,M,-34.4,M,,*53
$GPRMC,202605.250,A,4305.3307,N,07740.4339,W,25.97,357.41,061023,,,A*4F
$GPGGA,202605.500,4305.3326,N,07740.4341,W,1,09,1.00,180.5,M,-34.4,M,,*52
$GPRMC,202605.750,A,4305.3345,N,07740.4343,W,26.02,357.44,061023,,,A*4B
$GPGGA,202606.000,4305.3363,N,07740.4344,W,1,09,0.99,180.6,M,-34.4,M,,*52
$GPRMC,202606.250,A,4305.3382,N,07740.4344,W,25.74,359.11,061023,,,A*4D
$GPGGA,202606.500,4305.3401,N,07740.4345,W,1,09,0.99,180.7,M,-34.4,M,,*54
$GPRMC,202606.750,A,4305.3419,N,07740.4346,W,25.51,359.39,061023,,,A*42
$GPGGA,202607.000,4305.3437,N,07740.4346,W,1,09,0.99,180.7,M,-34.4,M,,*56
$GPRMC,202607.250,A,4305.3456,N,07740.4347,W,25.54,359.38,061023,,,A*48
$GPGGA,202607.500,4305.3474,N,07740.4347,W,1,09,0.99,180.7,M,-34.4,M,,*55
$GPRMC,202607.750,A,4305.3492,N,07740.4347,W,25.21,0.06,061023,,,A*45
$GPGGA,202608.000,4305.3509,N,07740.4347,W,1,09,0.99,180.7,M,-34.4,M,,*54
$GPRMC,202608.250,A,4305.3527,N,07740.4348,W,25.08,0.16,061023,,,A*45
$GPGGA,202608.500,4305.3545,N,07740.4348,W,1,09,0.99,180.5,M,-34.4,M,,*54
$GPRMC,202608.750,A,4305.3562,N,07740.4347,W,25.00,0.86,061023,,,A*4F
$GPGGA,202609.000,4305.3580,N,07740.4347,W,1,09,0.99,180.4,M,-34.4,M,,*57
$GPRMC,202609.250,A,4305.3598,N,07740.4347,W,24.82,1.35,061023,,,A*4C
$GPGGA,202609.500,4305.3615,N,07740.4347,W,1,09,0.99,180.5,M,-34.4,M,,*5C
$GPRMC,202609.750,A,4305.3633,N,07740.4346,W,24.66,1.60,061023,,,A*40
$GPGGA,202610.000,4305.3651,N,07740.4346,W,1,09,0.99,180.3,M,-34.4,M,,*56
$GPRMC,202610.250,A,4305.3669,N,07740.4345,W,24.93,1.50,061023,,,A*48
$GPGGA,202610.500,4305.3687,N,07740.4345,W,1,09,1.00,180.2,M,-34.4,M,,*5B
$GPRMC,202610.750,A,4305.3705,N,07740.4345,W,25.05,1.17,061023,,,A*4B
$GPGGA,202611.000,4305.3724,N,07740.4344,W,1,09,1.00,180.0,M,-34.4,M,,*54
$GPRMC,202611.250,A,4305.3742,N,07740.4344,W,25.25,1.33,061023,,,A*49
$GPGGA,202611.500,4305.3760,N,07740.4344,W,1,09,0.99,179.9,M,-34.4,M,,*5F
$GPRMC,202611.750,A,4305.3778,N,07740.4343,W,25.50,1.11,061023,,,A*40
$GPGGA,202612.000,4305.3796,N,07740.4343,W,1,09,0.99,179.8,M,-34.4,M,,*56
$GPRMC,202612.250,A,4305.3814,N,07740.4343,W,25.41,1.17,061023,,,A*45
$GPGGA,202612.500,4305.3832,N,07740.4343,W,1,09,0.99,179.8,M,-34.4,M,,*52
$GPRMC,202612.750,A,4305.3850,N,07740.4343,W,25.31,0.19,061023,,,A*48
$GPGGA,202613.000,4305.3868,N,07740.4344,W,1,09,1.00,179.8,M,-34.4,M,,*5F
$GPRMC,202613.250,A,4305.3885,N,07740.4344,W,25.52,0.10,061023,,,A*4F
$GPGGA,202613.500,4305.3904,N,07740.4345,W,1,09,0.99,179.8,M,-34.4,M,,*51
$GPRMC,202613.750,A,4305.3922,N,07740.4345,W,25.81,0.27,061023,,,A*4D
$GPGGA,202614.000,4305.3940,N,07740.4345,W,1,09,0.99,179.8,M,-34.4,M,,*53
$GPRMC,202614.250,A,4305.3958,N,07740.4345,W,25.53,0.57,061023,,,A*4A
$GPGGA,202614.500,4305.3975,N,07740.4346,W,1,09,0.99,179.8,M,-34.4,M,,*53
$GPRMC,202614.750,A,4305.3993,N,07740.4346,W,25.47,0.66,061023,,,A*4C
$GPGGA,202615.000,4305.4011,N,07740.4346,W,1,09,1.00,179.8,M,-34.4,M,,*5A
$GPRMC,202615.250,A,4305.4028,N,07740.4346,W,25.48,0.47,061023,,,A*4A
$GPGGA,202615.500,4305.4047,N,07740.4346,W,1,09,1.00,179.9,M,-34.4,M,,*5D
$GPRMC,202615.750,A,4305.4065,N,07740.4347,W,25.82,359.76,061023,,,A*4C
$GPGGA,202616.000,4305.4083,N,07740.4348,W,1,09,1.00,179.9,M,-34.4,M,,*5D
$GPRMC,202616.250,A,4305.4102,N,07740.4349,W,26.04,359.35,061023,,,A*4E
$GPGGA,202616.500,4305.4120,N,07740.4350,W,1,09,1.00,179.9,M,-34.4,M,,*59
$GPRMC,202616.750,A,4305.4138,N,07740.4351,W,26.05,359.23,061023,,,A*4D
$GPGGA,202617.000,4305.4156,N,07740.4351,W,1,09,0.99,179.8,M,-34.4,M,,*5D
$GPRMC,202617.250,A,4305.4174,N,07740.4352,W,25.96,359.72,061023,,,A*4F
$GPGGA,202617.500,4305.4192,N,07740.4352,W,1,09,1.00,179.8,M,-34.4,M,,*52
$GPRMC,202617.750,A,4305.4210,N,07740.4353,W,25.96,0.09,061023,,,A*49
$GPGGA,202618.000,4305.4228,N,07740.4353,W,1,08,1.18,179.8,M,-34.4,M,,*53
$GPRMC,202618.250,A,4305.4246,N,07740.4354,W,25.75,359.52,061023,,,A*4B
$GPGGA,202618.500,4305.4264,N,07740.4355,W,1,09,0.99,180.0,M,-34.4,M,,*5F
$GPRMC,202618.750,A,4305.4282,N,07740.4357,W,25.52,356.84,061023,,,A*44
$GPGGA,202619.000,4305.4300,N,07740.4360,W,1,09,0.99,180.0,M,-34.4,M,,*5E
$GPRMC,202619.250,A,4305.4317,N,07740.4364,W,24.96,351.60,061023,,,A*49
$GPGGA,202619.500,4305.4334,N,07740.4370,W,1,09,1.00,180.1,M,-34.4,M,,*5D
$GPRMC,202619.750,A,4305.4351,N,07740.4377,W,24.74,345.06,061023,,,A*45
$GPGGA,202620.000,4305.4367,N,07740.4385,W,1,09,1.00,180.1,M,-34.4,M,,*5E
$GPRMC,202620.250,A,4305.4382,N,07740.4395,W,24.72,336.44,061023,,,A*4C
$GPGGA,202620.500,4305.4398,N,07740.4407,W,1,09,1.00,180.2,M,-34.4,M,,*55
$GPRMC,202620.750,A,4305.4413,N,07740.4420,W,25.07,329.57,061023,,,A*40
$GPGGA,202621.000,4305.4426,N,07740.4435,W,1,08,1.18,180.5,M,-34.4,M,,*5D
$GPRMC,202621.250,A,4305.4438,N,07740.4452,W,25.10,320.22,061023,,,A*45
$GPGGA,202621.500,4305.4451,N,07740.4469,W,1,08,1.18,180.9,M,-34.4,M,,*5D
$GPRMC,202621.750,A,4305.4464,N,07740.4487,W,25.86,315.75,061023,,,A*4A
$GPGGA,202622.000,4305.4477,N,07740.4505,W,1,09,1.00,180.8,M,-34.4,M,,*5D
$GPRMC,202622.250,A,4305.4490,N,07740.4523,W,26.54,311.93,061023,,,A*48
$GPGGA,202622.500,4305.4502,N,07740.4542,W,1,09,1.00,180.6,M,-34.4,M,,*56
$GPRMC,202622.750,A,4305.4514,N,07740.4561,W,25.84,309.73,061023,,,A*4F
$GPGGA,202623.000,4305.4525,N,07740.4579,W,1,09,1.00,180.7,M,-34.4,M,,*5E
$GPRMC,202623.250,A,4305.4535,N,07740.4597,W,24.10,308.88,061023,,,A*48
$GPGGA,202623.500,4305.4546,N,07740.4614,W,1,09,0.99,180.6,M,-34.4,M,,*56
$GPRMC,202623.750,A,4305.4556,N,07740.4630,W,22.96,310.64,061023,,,A*45
$GPGGA,202624.000,4305.4567,N,07740.4646,W,1,09,0.99,180.8,M,-34.4,M,,*5E
$GPRMC,202624.250,A,4305.4578,N,07740.4660,W,22.17,315.32,061023,,,A*41
$GPGGA,202624.500,4305.4590,N,07740.4673,W,1,09,1.00,180.8,M,-34.4,M,,*54
$GPRMC,202624.750,A,4305.4602,N,07740.4685,W,21.70,321.83,061023,,,A*4E
$GPGGA,202625.000,4305.4615,N,07740.4695,W,1,09,0.99,180.7,M,-34.4,M,,*58
$GPRMC,202625.250,A,4305.4628,N,07740.4704,W,20.90,331.22,061023,,,A*4F
$GPGGA,202625.500,4305.4640,N,07740.4712,W,1,09,0.99,180.4,M,-34.4,M,,*50
$GPRMC,202625.750,A,4305.4653,N,07740.4720,W,20.50,336.98,061023,,,A*4A
$GPGGA,202626.000,4305.4666,N,07740.4725,W,1,09,0.99,180.2,M,-34.4,M,,*50
$GPRMC,202626.250,A,4305.4679,N,07740.4730,W,20.40,343.38,061023,,,A*4C
$GPGGA,202626.500,4305.4693,N,07740.4734,W,1,09,1.00,180.0,M,-34.4,M,,*5C
$GPRMC,202626.750,A,4305.4706,N,07740.4738,W,20.04,347.23,061023,,,A*46
$GPGGA,202627.000,4305.4720,N,07740.4740,W,1,09,1.00,179.8,M,-34.4,M,,*5C
$GPRMC,202627.250,A,4305.4733,N,07740.4742,W,19.65,353.55,061023,,,A*40
$GPGGA,202627.500,4305.4747,N,07740.4743,W,1,08,1.02,179.7,M,-34.4,M,,*57
$GPRMC,202627.750,A,4305.4760,N,07740.4744,W,19.39,356.91,061023,,,A*41
$GPGGA,202628.000,4305.4773,N,07740.4744,W,1,07,1.19,179.6,M,-34.4,M,,*59
$GPRMC,202628.250,A,4305.4786,N,07740.4744,W,19.04,359.28,061023,,,A*40
$GPGGA,202628.500,4305.4798,N,07740.4745,W,1,08,1.18,179.6,M,-34.4,M,,*56
$GPRMC,202628.750,A,4305.4811,N,07740.4746,W,18.37,357.50,061023,,,A*46
$GPGGA,202629.000,4305.4823,N,07740.4746,W,1,08,1.18,179.8,M,-34.4,M,,*50
$GPRMC,202629.250,A,4305.4835,N,07740.4747,W,18.12,357.36,061023,,,A*42
$GPGGA,202629.500,4305.4847,N,07740.4748,W,1,09,0.99,179.9,M,-34.4,M,,*51
$GPRMC,202629.750,A,4305.4859,N,07740.4748,W,17.44,357.39,061023,,,A*41
$GPGGA,202630.000,4305.4870,N,07740.4749,W,1,09,0.99,179.9,M,-34.4,M,,*59
$GPRMC,202630.250,A,4305.4881,N,07740.4748,W,16.80,357.89,061023,,,A*4B
$GPGGA,202630.500,4305.4891,N,07740.4749,W,1,09,1.00,179.8,M,-34.4,M,,*53
$GPRMC,202630.750,A,4305.4901,N,07740.4749,W,16.00,357.88,061023,,,A*4F
$GPGGA,202631.000,4305.4910,N,07740.4749,W,1,09,0.99,179.8,M,-34.4,M,,*5E
$GPRMC,202631.250,A,4305.4919,N,07740.4749,W,14.83,358.37,061023,,,A*40
$GPGGA,202631.500,4305.4928,N,07740.4750,W,1,09,1.00,179.7,M,-34.4,M,,*56
$GPRMC,202631.750,A,4305.4938,N,07740.4750,W,13.98,357.81,061023,,,A*41
$GPGGA,202632.000,4305.4946,N,07740.4751,W,1,09,1.00,179.6,M,-34.4,M,,*58
$GPRMC,202632.250,A,4305.4954,N,07740.4752,W,12.78,357.99,061023,,,A*49
$GPGGA,202632.500,4305.4962,N,07740.4753,W,1,09,1.00,179.5,M,-34.4,M,,*5A
$GPRMC,202632.750,A,4305.4970,N,07740.4754,W,11.89,357.21,061023,,,A*42
$GPGGA,202633.000,4305.4977,N,07740.4755,W,1,09,1.00,179.5,M,-34.4,M,,*5C
$GPRMC,202633.250,A,4305.4984,N,07740.4756,W,11.04,356.51,061023,,,A*4C
$GPGGA,202633.500,4305.4990,N,07740.4758,W,1,08,1.18,179.4,M,-34.4,M,,*54
$GPRMC,202633.750,A,4305.4997,N,07740.4759,W,10.40,355.91,061023,,,A*4A
$GPGGA,202634.000,4305.5004,N,07740.4760,W,1,09,1.00,179.4,M,-34.4,M,,*50
$GPRMC,202634.250,A,4305.5010,N,07740.4761,W,9.69,356.07,061023,,,A*7B
$GPGGA,202634.500,4305.5016,N,07740.4762,W,1,09,1.00,179.4,M,-34.4,M,,*54
$GPRMC,202634.750,A,4305.5022,N,07740.4762,W,8.82,356.53,061023,,,A*79
$GPGGA,202635.000,4305.5028,N,07740.4762,W,1,09,1.00,179.3,M,-34.4,M,,*5A
$GPRMC,202635.250,A,4305.5032,N,07740.4762,W,7.83,358.49,061023,,,A*77
$GPGGA,202635.500,4305.5037,N,07740.4763,W,1,09,0.99,179.3,M,-34.4,M,,*51
$GPRMC,202635.750,A,4305.5042,N,07740.4763,W,6.90,359.39,061023,,,A*71
$GPGGA,202636.000,4305.5046,N,07740.4763,W,1,09,1.00,179.2,M,-34.4,M,,*51
$GPRMC,202636.250,A,4305.5049,N,07740.4763,W,5.90,358.14,061023,,,A*71
$GPGGA,202636.500,4305.5053,N,07740.4763,W,1,09,1.00,179.1,M,-34.4,M,,*53
$GPRMC,202636.750,A,4305.5057,N,07740.4763,W,5.70,357.15,061023,,,A*7B
$GPGGA,202637.000,4305.5061,N,07740.4763,W,1,09,1.00,178.9,M,-34.4,M,,*5F
$GPRMC,202637.250,A,4305.5065,N,07740.4764,W,5.71,356.82,061023,,,A*77
$GPGGA,202637.500,4305.5069,N,07740.4764,W,1,09,0.99,178.8,M,-34.4,M,,*55
$GPRMC,202637.750,A,4305.5073,N,07740.4765,W,5.76,355.63,061023,,,A*7F
$GPGGA,202638.000,4305.5076,N,07740.4766,W,1,09,1.00,178.7,M,-34.4,M,,*5D
$GPRMC,202638.250,A,4305.5080,N,07740.4767,W,5.74,355.60,061023,,,A*7A
$GPGGA,202638.500,4305.5083,N,07740.4767,W,1,09,0.99,178.6,M,-34.4,M,,*53
$GPRMC,202638.750,A,4305.5086,N,07740.4768,W,5.72,355.75,061023,,,A*74
$GPGGA,202639.000,4305.5090,N,07740.4768,W,1,09,1.00,178.5,M,-34.4,M,,*58
$GPRMC,202639.250,A,4305.5095,N,07740.4767,W,5.75,356.34,061023,,,A*7C
$GPGGA,202639.500,4305.5100,N,07740.4767,W,1,09,1.00,178.1,M,-34.4,M,,*5E
$GPRMC,202639.750,A,4305.5104,N,07740.4766,W,5.79,357.68,061023,,,A*75
$GPGGA,202640.000,4305.5108,N,07740.4766,W,1,09,1.00,177.8,M,-34.4,M,,*5A
$GPRMC,202640.250,A,4305.5112,N,07740.4767,W,5.39,356.74,061023,,,A*70
$GPGGA,202640.500,4305.5115,N,07740.4767,W,1,09,0.99,177.6,M,-34.4,M,,*5D
$GPRMC,202640.750,A,4305.5118,N,07740.4768,W,4.72,357.62,061023,,,A*78
$GPGGA,202641.000,4305.5122,N,07740.4768,W,1,09,1.00,177.5,M,-34.4,M,,*50
$GPRMC,202641.250,A,4305.5124,N,07740.4768,W,3.96,355.76,061023,,,A*79
$GPGGA,202641.500,4305.5127,N,07740.4767,W,1,09,1.00,177.2,M,-34.4,M,,*58
$GPRMC,202641.750,A,4305.5130,N,07740.4767,W,3.22,355.83,061023,,,A*73
$GPGGA,202642.000,4305.5132,N,07740.4767,W,1,09,1.00,176.8,M,-34.4,M,,*51
$GPRMC,202642.250,A,4305.5134,N,07740.4767,W,2.18,355.83,061023,,,A*79
$GPGGA,202642.500,4305.5134,N,07740.4766,W,1,09,1.00,176.5,M,-34.4,M,,*5E
$GPRMC,202642.750,A,4305.5135,N,07740.4766,W,1.09,355.83,061023,,,A*7F
$GPGGA,202643.000,4305.5135,N,07740.4766,W,1,09,1.00,176.2,M,-34.4,M,,*5C
$GPRMC,202643.250,A,4305.5135,N,07740.4765,W,0.47,355.83,061023,,,A*73
$GPGGA,202643.500,4305.5135,N,07740.4765,W,1,09,1.00,175.9,M,-34.4,M,,*52
$GPRMC,202643.750,A,4305.5134,N,07740.4765,W,0.20,355.83,061023,,,A*76
$GPGGA,202644.000,4305.5134,N,07740.4764,W,1,09,0.97,176.2,M,-34.4,M,,*57
$GPRMC,202644.250,A,4305.5134,N,07740.4764,W,0.16,355.83,061023,,,A*70
$GPGGA,202644.500,4305.5134,N,07740.4764,W,1,09,0.97,176.3,M,-34.4,M,,*53
$GPRMC,202644.750,A,4305.5134,N,07740.4764,W,0.17,355.83,061023,,,A*74
$GPGGA,202645.000,4305.5133,N,07740.4764,W,1,09,0.97,176.2,M,-34.4,M,,*51
$GPRMC,202645.250,A,4305.5133,N,07740.4764,W,0.19,355.83,061023,,,A*79
$GPGGA,202645.500,4305.5133,N,07740.4764,W,1,09,0.97,176.2,M,-34.4,M,,*54
$GPRMC,202645.750,A,4305.5133,N,07740.4764,W,0.23,161.00,061023,,,A*7B
$GPGGA,202646.000,4305.5133,N,07740.4764,W,1,09,0.97,176.2,M,-34.4,M,,*52
$GPRMC,202646.250,A,4305.5132,N,07740.4764,W,0.20,174.38,061023,,,A*70
$GPGGA,202646.500,4305.5132,N,07740.4764,W,1,09,0.97,176.2,M,-34.4,M,,*56
$GPRMC,202646.750,A,4305.5132,N,07740.4764,W,0.20,175.05,061023,,,A*7A
$GPGGA,202647.000,4305.5132,N,07740.4764,W,1,09,0.97,176.2,M,-34.4,M,,*52
$GPRMC,202647.250,A,4305.5132,N,07740.4764,W,0.19,174.87,061023,,,A*7F
$GPGGA,202647.500,4305.5132,N,07740.4764,W,1,09,0.97,176.2,M,-34.4,M,,*57
$GPRMC,202647.750,A,4305.5132,N,07740.4764,W,0.17,173.02,061023,,,A*7E
$GPGGA,202648.000,4305.5132,N,07740.4764,W,1,09,0.97,176.1,M,-34.4,M,,*5E
$GPRMC,202648.250,A,4305.5131,N,07740.4764,W,0.14,171.26,061023,,,A*70
$GPGGA,202648.500,4305.5131,N,07740.4764,W,1,09,0.97,176.1,M,-34.4,M,,*58
$GPRMC,202648.750,A,4305.5131,N,07740.4764,W,0.13,169.48,061023,,,A*73
$GPGGA,202649.000,4305.5131,N,07740.4764,W,1,09,0.97,176.1,M,-34.4,M,,*5C
$GPRMC,202649.250,A,4305.5131,N,07740.4764,W,0.06,169.48,061023,,,A*73
$GPGGA,202649.500,4305.5131,N,07740.4764,W,1,09,0.97,176.1,M,-34.4,M,,*59
$GPRMC,202649.750,A,4305.5131,N,07740.4764,W,0.05,169.48,061023,,,A*75
$GPGGA,202650.000,4305.5131,N,07740.4764,W,1,09,0.97,176.1,M,-34.4,M,,*54
$GPRMC,202650.250,A,4305.5131,N,07740.4764,W,0.08,169.48,061023,,,A*75
$GPGGA,202650.500,4305.5131,N,07740.4764,W,1,09,1.00,176.1,M,-34.4,M,,*5E
$GPRMC,202650.750,A,4305.5131,N,07740.4764,W,0.12,169.48,061023,,,A*7B
$GPGGA,202651.000,4305.5131,N,07740.4764,W,1,09,1.00,176.1,M,-34.4,M,,*5A
$GPRMC,202651.250,A,4305.5132,N,07740.4764,W,0.17,169.48,061023,,,A*79
$GPGGA,202651.500,4305.5132,N,07740.4764,W,1,09,1.00,176.1,M,-34.4,M,,*5C
$GPRMC,202651.750,A,4305.5132,N,07740.4764,W,0.16,169.48,061023,,,A*7D
$GPGGA,202652.000,4305.5132,N,07740.4764,W,1,09,1.00,176.1,M,-34.4,M,,*5A
$GPRMC,202652.250,A,4305.5132,N,07740.4764,W,0.13,169.48,061023,,,A*7E
$GPGGA,202652.500,4305.5132,N,07740.4763,W,1,09,0.97,176.1,M,-34.4,M,,*57
$GPRMC,202652.750,A,4305.5132,N,07740.4763,W,0.10,169.48,061023,,,A*7F
$GPGGA,202653.000,4305.5132,N,07740.4763,W,1,09,0.97,176.1,M,-34.4,M,,*53
$GPRMC,202653.250,A,4305.5132,N,07740.4763,W,0.12,169.48,061023,,,A*79
$GPGGA,202653.500,4305.5132,N,07740.4763,W,1,09,0.97,176.1,M,-34.4,M,,*56
$GPRMC,202653.750,A,4305.5132,N,07740.4763,W,0.14,169.48,061023,,,A*7A
$GPGGA,202654.000,4305.5132,N,07740.4763,W,1,09,0.97,176.1,M,-34.4,M,,*54
$GPRMC,202654.250,A,4305.5132,N,07740.4763,W,0.17,169.48,061023,,,A*7B
$GPGGA,202654.500,4305.5132,N,07740.4763,W,1,09,0.97,176.1,M,-34.4,M,,*51
$GPRMC,202654.750,A,4305.5132,N,07740.4763,W,0.16,169.48,061023,,,A*7F
$GPGGA,202655.000,4305.5132,N,07740.4762,W,1,09,0.97,176.1,M,-34.4,M,,*54
$GPRMC,202655.250,A,4305.5133,N,07740.4762,W,0.15,169.48,061023,,,A*78
$GPGGA,202655.500,4305.5133,N,07740.4762,W,1,09,0.97,176.1,M,-34.4,M,,*50
$GPRMC,202655.750,A,4305.5133,N,07740.4762,W,0.16,169.48,061023,,,A*7E
$GPGGA,202656.000,4305.5133,N,07740.4762,W,1,09,0.97,176.1,M,-34.4,M,,*56
$GPRMC,202656.250,A,4305.5132,N,07740.4762,W,0.16,169.48,061023,,,A*79
$GPGGA,202656.500,4305.5132,N,07740.4761,W,1,09,0.97,176.1,M,-34.4,M,,*51
$GPRMC,202656.750,A,4305.5132,N,07740.4761,W,0.20,169.48,061023,,,A*7A
$GPGGA,202657.000,4305.5132,N,07740.4761,W,1,09,0.97,176.1,M,-34.4,M,,*55
$GPRMC,202657.250,A,4305.5132,N,07740.4761,W,0.22,169.48,061023,,,A*7C
$GPGGA,202657.500,4305.5132,N,07740.4761,W,1,09,0.97,176.1,M,-34.4,M,,*50
$GPRMC,202657.750,A,4305.5132,N,07740.4761,W,0.23,169.48,061023,,,A*78
$GPGGA,202658.000,4305.5132,N,07740.4760,W,1,09,0.97,176.1,M,-34.4,M,,*5B
$GPRMC,202658.250,A,4305.5132,N,07740.4760,W,0.22,169.48,061023,,,A*72
$GPGGA,202658.500,4305.5132,N,07740.4760,W,1,09,0.97,176.1,M,-34.4,M,,*5E
$GPRMC,202658.750,A,4305.5132,N,07740.4760,W,0.25,169.48,061023,,,A*70
$GPGGA,202659.000,4305.5132,N,07740.4760,W,1,09,0.97,176.1,M,-34.4,M,,*5A
$GPRMC,202659.250,A,4305.5132,N,07740.4759,W,0.23,169.48,061023,,,A*78
$GPGGA,202659.500,4305.5132,N,07740.4759,W,1,09,0.97,176.1,M,-34.4,M,,*55
$GPRMC,202659.750,A,4305.5132,N,07740.4759,W,0.16,169.48,061023,,,A*7B
