Vers 81
USE_SERIAL_FEEDBACK=true
DEVELOPMENT_MODE=false
USE_RMC_ONLY=false

$GPRMC,213421.750,A,4308.2920,N,07726.2645,W,0.66,348.66,030823,,,A*7B
$GPGGA,213422.000,4308.2917,N,07726.2648,W,1,04,5.55,138.8,M,-34.4,M,,*59
$GPRMC,213422.250,A,4308.2916,N,07726.2649,W,0.67,355.21,030823,,,A*7A
$GPGGA,213422.500,4308.2916,N,07726.2649,W,1,04,5.55,138.9,M,-34.4,M,,*5D
$GPRMC,213422.750,A,4308.2917,N,07726.2650,W,0.49,358.86,030823,,,A*7A
$GPGGA,213423.000,4308.2918,N,07726.2650,W,1,04,5.54,138.9,M,-34.4,M,,*5E
$GPRMC,213423.250,A,4308.2918,N,07726.2651,W,0.39,5.08,030823,,,A*7A
$GPGGA,213423.500,4308.2917,N,07726.2652,W,1,04,5.54,138.6,M,-34.4,M,,*59
$GPRMC,213423.750,A,4308.2915,N,07726.2654,W,0.44,348.43,030823,,,A*78
$GPGGA,213424.000,4308.2914,N,07726.2656,W,1,04,5.54,137.8,M,-34.4,M,,*5D
$GPRMC,213424.250,A,4308.2914,N,07726.2657,W,0.47,348.72,030823,,,A*79
$GPGGA,213424.500,4308.2914,N,07726.2659,W,1,04,5.54,137.3,M,-34.4,M,,*5C
$GPRMC,213424.750,A,4308.2914,N,07726.2660,W,0.39,341.47,030823,,,A*7E
$GPGGA,213425.000,4308.2912,N,07726.2661,W,1,04,3.66,136.8,M,-34.4,M,,*58
$GPRMC,213425.250,A,4308.2911,N,07726.2662,W,0.23,350.88,030823,,,A*75
$GPGGA,213425.500,4308.2910,N,07726.2663,W,1,04,5.53,136.4,M,-34.4,M,,*51
$GPRMC,213425.750,A,4308.2910,N,07726.2664,W,0.19,354.83,030823,,,A*71
$GPGGA,213426.000,4308.2909,N,07726.2665,W,1,04,5.53,136.1,M,-34.4,M,,*5C
$GPRMC,213426.250,A,4308.2909,N,07726.2666,W,0.17,337.28,030823,,,A*77
$GPGGA,213426.500,4308.2907,N,07726.2668,W,1,04,3.66,135.8,M,-34.4,M,,*50
$GPRMC,213426.750,A,4308.2906,N,07726.2669,W,0.18,2.47,030823,,,A*71
$GPGGA,213427.000,4308.2906,N,07726.2670,W,1,04,5.53,135.3,M,-34.4,M,,*57
$GPRMC,213427.250,A,4308.2906,N,07726.2672,W,0.18,6.09,030823,,,A*71
$GPGGA,213427.500,4308.2906,N,07726.2673,W,1,04,5.53,134.8,M,-34.4,M,,*5B
$GPRMC,213427.750,A,4308.2905,N,07726.2675,W,0.24,3.10,030823,,,A*72
$GPGGA,213428.000,4308.2905,N,07726.2677,W,1,04,5.52,134.4,M,-34.4,M,,*5B
$GPRMC,213428.250,A,4308.2906,N,07726.2679,W,0.32,354.62,030823,,,A*74
$GPGGA,213428.500,4308.2905,N,07726.2680,W,1,04,5.52,134.1,M,-34.4,M,,*53
$GPRMC,213428.750,A,4308.2905,N,07726.2681,W,0.27,341.02,030823,,,A*73
$GPGGA,213429.000,4308.2905,N,07726.2683,W,1,04,3.66,134.0,M,-34.4,M,,*54
$GPRMC,213429.250,A,4308.2904,N,07726.2683,W,0.16,344.12,030823,,,A*72
$GPGGA,213429.500,4308.2904,N,07726.2684,W,1,04,3.65,133.8,M,-34.4,M,,*5B
$GPRMC,213429.750,A,4308.2905,N,07726.2685,W,0.19,1.10,030823,,,A*7F
$GPGGA,213430.000,4308.2906,N,07726.2686,W,1,04,5.52,133.8,M,-34.4,M,,*54
$GPRMC,213430.250,A,4308.2906,N,07726.2687,W,0.20,346.31,030823,,,A*7A
$GPGGA,213430.500,4308.2906,N,07726.2688,W,1,04,5.51,133.8,M,-34.4,M,,*5C
$GPRMC,213430.750,A,4308.2906,N,07726.2688,W,0.16,327.69,030823,,,A*7F
$GPGGA,213431.000,4308.2906,N,07726.2689,W,1,04,3.65,133.9,M,-34.4,M,,*59
$GPRMC,213431.250,A,4308.2907,N,07726.2690,W,0.18,332.13,030823,,,A*74
$GPGGA,213431.500,4308.2908,N,07726.2691,W,1,04,3.65,133.8,M,-34.4,M,,*5A
$GPRMC,213431.750,A,4308.2908,N,07726.2691,W,0.25,352.66,030823,,,A*75
$GPGGA,213432.000,4308.2909,N,07726.2692,W,1,04,5.51,133.8,M,-34.4,M,,*5F
$GPRMC,213432.250,A,4308.2910,N,07726.2688,W,0.20,1.42,030823,,,A*74
$GPGGA,213432.500,4308.2912,N,07726.2685,W,1,05,5.22,135.8,M,-34.4,M,,*55
$GPRMC,213432.750,A,4308.2913,N,07726.2683,W,0.14,356.24,030823,,,A*7F
$GPGGA,213433.000,4308.2915,N,07726.2682,W,1,05,5.22,137.3,M,-34.4,M,,*58
$GPRMC,213433.250,A,4308.2916,N,07726.2680,W,0.22,330.98,030823,,,A*7F
$GPGGA,213433.500,4308.2917,N,07726.2679,W,1,05,2.62,138.4,M,-34.4,M,,*50
$GPRMC,213433.750,A,4308.2919,N,07726.2677,W,0.15,331.54,030823,,,A*78
$GPGGA,213434.000,4308.2920,N,07726.2676,W,1,05,2.63,139.4,M,-34.4,M,,*59
$GPRMC,213434.250,A,4308.2922,N,07726.2675,W,0.21,355.50,030823,,,A*71
$GPGGA,213434.500,4308.2924,N,07726.2675,W,1,05,5.21,140.3,M,-34.4,M,,*53
$GPRMC,213434.750,A,4308.2925,N,07726.2674,W,0.25,341.53,030823,,,A*70
$GPGGA,213435.000,4308.2926,N,07726.2674,W,1,05,2.62,141.2,M,-34.4,M,,*54
$GPRMC,213435.250,A,4308.2928,N,07726.2672,W,0.23,338.34,030823,,,A*76
$GPGGA,213435.500,4308.2930,N,07726.2672,W,1,05,2.63,142.0,M,-34.4,M,,*50
$GPRMC,213435.750,A,4308.2931,N,07726.2671,W,0.25,332.04,030823,,,A*77
$GPGGA,213436.000,4308.2932,N,07726.2671,W,1,05,2.62,142.6,M,-34.4,M,,*50
$GPRMC,213436.250,A,4308.2934,N,07726.2671,W,0.30,329.08,030823,,,A*76
$GPGGA,213436.500,4308.2935,N,07726.2671,W,1,05,2.63,143.1,M,-34.4,M,,*55
$GPRMC,213436.750,A,4308.2936,N,07726.2670,W,0.29,349.62,030823,,,A*72
$GPGGA,213437.000,4308.2937,N,07726.2669,W,1,05,5.20,143.5,M,-34.4,M,,*5E
$GPRMC,213437.250,A,4308.2937,N,07726.2669,W,0.25,351.48,030823,,,A*72
$GPGGA,213437.500,4308.2938,N,07726.2669,W,1,05,5.20,143.9,M,-34.4,M,,*58
$GPRMC,213437.750,A,4308.2938,N,07726.2669,W,0.18,325.60,030823,,,A*7F
$GPGGA,213438.000,4308.2939,N,07726.2669,W,1,05,2.62,144.3,M,-34.4,M,,*5F
$GPRMC,213438.250,A,4308.2939,N,07726.2669,W,0.19,302.88,030823,,,A*76
$GPGGA,213438.500,4308.2940,N,07726.2669,W,1,05,2.63,144.7,M,-34.4,M,,*51
$GPRMC,213438.750,A,4308.2942,N,07726.2668,W,0.22,315.98,030823,,,A*71
$GPGGA,213439.000,4308.2943,N,07726.2668,W,1,05,2.62,145.1,M,-34.4,M,,*51
$GPRMC,213439.250,A,4308.2944,N,07726.2668,W,0.26,326.95,030823,,,A*7A
$GPGGA,213439.500,4308.2945,N,07726.2667,W,1,05,2.62,145.5,M,-34.4,M,,*59
$GPRMC,213439.750,A,4308.2946,N,07726.2667,W,0.25,328.01,030823,,,A*72
$GPGGA,213440.000,4308.2947,N,07726.2667,W,1,05,2.62,145.9,M,-34.4,M,,*5C
$GPRMC,213440.250,A,4308.2948,N,07726.2667,W,0.28,321.34,030823,,,A*75
$GPGGA,213440.500,4308.2949,N,07726.2667,W,1,05,2.62,146.2,M,-34.4,M,,*5F
$GPRMC,213440.750,A,4308.2950,N,07726.2667,W,0.31,315.69,030823,,,A*7E
$GPGGA,213441.000,4308.2951,N,07726.2667,W,1,05,2.62,146.6,M,-34.4,M,,*56
$GPRMC,213441.250,A,4308.2951,N,07726.2667,W,0.25,309.16,030823,,,A*7B
$GPGGA,213441.500,4308.2951,N,07726.2666,W,1,05,2.62,146.8,M,-34.4,M,,*5C
$GPRMC,213441.750,A,4308.2952,N,07726.2666,W,0.15,274.61,030823,,,A*74
$GPGGA,213442.000,4308.2952,N,07726.2667,W,1,05,2.62,147.0,M,-34.4,M,,*51
$GPRMC,213442.250,A,4308.2954,N,07726.2667,W,0.24,286.94,030823,,,A*70
$GPGGA,213442.500,4308.2955,N,07726.2667,W,1,05,2.62,147.2,M,-34.4,M,,*51
$GPRMC,213442.750,A,4308.2955,N,07726.2668,W,0.28,293.60,030823,,,A*78
$GPGGA,213443.000,4308.2956,N,07726.2668,W,1,05,2.62,147.4,M,-34.4,M,,*5F
$GPRMC,213443.250,A,4308.2957,N,07726.2669,W,0.35,288.83,030823,,,A*74
$GPGGA,213443.500,4308.2959,N,07726.2669,W,1,05,2.62,147.8,M,-34.4,M,,*58
$GPRMC,213443.750,A,4308.2959,N,07726.2668,W,0.32,301.68,030823,,,A*7C
$GPGGA,213444.000,4308.2960,N,07726.2668,W,1,05,2.62,148.1,M,-34.4,M,,*57
$GPRMC,213444.250,A,4308.2961,N,07726.2668,W,0.22,294.48,030823,,,A*7B
$GPGGA,213444.500,4308.2962,N,07726.2668,W,1,05,2.62,148.4,M,-34.4,M,,*55
$GPRMC,213444.750,A,4308.2963,N,07726.2668,W,0.24,302.40,030823,,,A*7C
$GPGGA,213445.000,4308.2964,N,07726.2669,W,1,05,2.62,148.6,M,-34.4,M,,*54
$GPRMC,213445.250,A,4308.2964,N,07726.2669,W,0.25,299.98,030823,,,A*79
$GPGGA,213445.500,4308.2965,N,07726.2669,W,1,05,2.62,148.8,M,-34.4,M,,*5E
$GPRMC,213445.750,A,4308.2966,N,07726.2670,W,0.25,289.84,030823,,,A*7A
$GPGGA,213446.000,4308.2966,N,07726.2670,W,1,05,2.62,149.0,M,-34.4,M,,*5A
$GPRMC,213446.250,A,4308.2967,N,07726.2670,W,0.28,294.14,030823,,,A*75
$GPGGA,213446.500,4308.2967,N,07726.2670,W,1,05,2.62,149.2,M,-34.4,M,,*5C
$GPRMC,213446.750,A,4308.2967,N,07726.2671,W,0.24,291.18,030823,,,A*74
$GPGGA,213447.000,4308.2966,N,07726.2672,W,1,05,2.62,149.2,M,-34.4,M,,*5B
$GPRMC,213447.250,A,4308.2966,N,07726.2672,W,0.23,276.13,030823,,,A*77
$GPGGA,213447.500,4308.2966,N,07726.2672,W,1,05,2.62,149.1,M,-34.4,M,,*5D
$GPRMC,213447.750,A,4308.2967,N,07726.2672,W,0.26,317.61,030823,,,A*75
$GPGGA,213448.000,4308.2968,N,07726.2673,W,1,05,2.62,149.1,M,-34.4,M,,*58
$GPRMC,213448.250,A,4308.2968,N,07726.2673,W,0.29,324.04,030823,,,A*7D
$GPGGA,213448.500,4308.2968,N,07726.2673,W,1,05,2.62,149.1,M,-34.4,M,,*5D
$GPRMC,213448.750,A,4308.2968,N,07726.2673,W,0.21,330.78,030823,,,A*7E
$GPGGA,213449.000,4308.2969,N,07726.2673,W,1,05,2.62,149.2,M,-34.4,M,,*5B
$GPRMC,213449.250,A,4308.2969,N,07726.2673,W,0.14,348.09,030823,,,A*74
$GPGGA,213449.500,4308.2969,N,07726.2673,W,1,05,5.15,149.4,M,-34.4,M,,*5F
$GPRMC,213449.750,A,4308.2968,N,07726.2672,W,0.06,21.02,030823,,,A*45
$GPGGA,213450.000,4308.2968,N,07726.2673,W,1,05,2.62,149.5,M,-34.4,M,,*55
$GPRMC,213450.250,A,4308.2968,N,07726.2673,W,0.08,283.52,030823,,,A*78
$GPGGA,213450.500,4308.2968,N,07726.2674,W,1,05,2.62,149.6,M,-34.4,M,,*54
$GPRMC,213450.750,A,4308.2968,N,07726.2674,W,0.14,287.44,030823,,,A*74
$GPGGA,213451.000,4308.2967,N,07726.2675,W,1,05,2.62,149.7,M,-34.4,M,,*5F
$GPRMC,213451.250,A,4308.2967,N,07726.2675,W,0.11,268.32,030823,,,A*7B
$GPGGA,213451.500,4308.2967,N,07726.2676,W,1,05,2.62,149.8,M,-34.4,M,,*56
$GPRMC,213451.750,A,4308.2966,N,07726.2676,W,0.18,237.25,030823,,,A*79
$GPGGA,213452.000,4308.2966,N,07726.2677,W,1,05,2.62,149.9,M,-34.4,M,,*51
$GPRMC,213452.250,A,4308.2966,N,07726.2677,W,0.23,239.95,030823,,,A*73
$GPGGA,213452.500,4308.2965,N,07726.2678,W,1,05,2.62,150.0,M,-34.4,M,,*59
$GPRMC,213452.750,A,4308.2965,N,07726.2678,W,0.29,220.05,030823,,,A*71
$GPGGA,213453.000,4308.2965,N,07726.2679,W,1,05,2.62,150.0,M,-34.4,M,,*5C
$GPRMC,213453.250,A,4308.2965,N,07726.2679,W,0.22,201.72,030823,,,A*7C
$GPGGA,213453.500,4308.2965,N,07726.2678,W,1,05,2.62,150.1,M,-34.4,M,,*59
$GPRMC,213453.750,A,4308.2965,N,07726.2679,W,0.22,177.96,030823,,,A*71
$GPGGA,213454.000,4308.2965,N,07726.2679,W,1,05,2.62,150.1,M,-34.4,M,,*5A
$GPRMC,213454.250,A,4308.2965,N,07726.2679,W,0.15,206.06,030823,,,A*7B
$GPGGA,213454.500,4308.2965,N,07726.2679,W,1,05,2.62,150.1,M,-34.4,M,,*5F
$GPRMC,213454.750,A,4308.2965,N,07726.2679,W,0.16,205.34,030823,,,A*7F
$GPGGA,213455.000,4308.2964,N,07726.2679,W,1,05,2.62,150.1,M,-34.4,M,,*5A
$GPRMC,213455.250,A,4308.2964,N,07726.2679,W,0.22,209.53,030823,,,A*70
$GPGGA,213455.500,4308.2964,N,07726.2679,W,1,05,2.62,150.1,M,-34.4,M,,*5F
$GPRMC,213455.750,A,4308.2964,N,07726.2679,W,0.23,218.66,030823,,,A*72
$GPGGA,213456.000,4308.2964,N,07726.2680,W,1,05,2.62,150.1,M,-34.4,M,,*5F
$GPRMC,213456.250,A,4308.2964,N,07726.2680,W,0.26,226.35,030823,,,A*7C
$GPGGA,213456.500,4308.2964,N,07726.2680,W,1,05,2.62,150.1,M,-34.4,M,,*5A
$GPRMC,213456.750,A,4308.2964,N,07726.2680,W,0.36,222.79,030823,,,A*74
$GPGGA,213457.000,4308.2963,N,07726.2680,W,1,05,2.62,150.1,M,-34.4,M,,*59
$GPRMC,213457.250,A,4308.2963,N,07726.2681,W,0.32,220.86,030823,,,A*70
$GPGGA,213457.500,4308.2963,N,07726.2681,W,1,05,2.62,150.1,M,-34.4,M,,*5D
$GPRMC,213457.750,A,4308.2963,N,07726.2681,W,0.27,242.90,030823,,,A*72
$GPGGA,213458.000,4308.2963,N,07726.2681,W,1,05,2.62,150.1,M,-34.4,M,,*57
$GPRMC,213458.250,A,4308.2963,N,07726.2682,W,0.23,234.28,030823,,,A*7D
$GPGGA,213458.500,4308.2963,N,07726.2682,W,1,05,2.62,150.1,M,-34.4,M,,*51
$GPRMC,213458.750,A,4308.2963,N,07726.2682,W,0.19,224.18,030823,,,A*73
$GPGGA,213459.000,4308.2962,N,07726.2682,W,1,05,2.62,150.1,M,-34.4,M,,*54
$GPRMC,213459.250,A,4308.2962,N,07726.2682,W,0.22,243.60,030823,,,A*70
$GPGGA,213459.500,4308.2962,N,07726.2682,W,1,05,2.62,150.1,M,-34.4,M,,*51
$GPRMC,213459.750,A,4308.2962,N,07726.2683,W,0.20,268.65,030823,,,A*7A
$GPGGA,213500.000,4308.2962,N,07726.2683,W,1,05,2.62,150.1,M,-34.4,M,,*58
$GPRMC,213500.250,A,4308.2962,N,07726.2683,W,0.20,280.43,030823,,,A*70
$GPGGA,213500.500,4308.2962,N,07726.2683,W,1,05,2.61,150.1,M,-34.4,M,,*5E
$GPRMC,213500.750,A,4308.2962,N,07726.2683,W,0.10,270.97,030823,,,A*70
$GPGGA,213501.000,4308.2962,N,07726.2683,W,1,05,2.61,150.1,M,-34.4,M,,*5A
$GPRMC,213501.250,A,4308.2962,N,07726.2683,W,0.07,202.88,030823,,,A*79
$GPGGA,213501.500,4308.2962,N,07726.2683,W,1,05,2.62,150.1,M,-34.4,M,,*5C
$GPRMC,213501.750,A,4308.2962,N,07726.2684,W,0.10,230.85,030823,,,A*71
$GPGGA,213502.000,4308.2962,N,07726.2684,W,1,05,2.61,150.1,M,-34.4,M,,*5E
$GPRMC,213502.250,A,4308.2962,N,07726.2684,W,0.15,243.83,030823,,,A*70
$GPGGA,213502.500,4308.2962,N,07726.2684,W,1,05,2.61,150.1,M,-34.4,M,,*5B
$GPRMC,213502.750,A,4308.2962,N,07726.2684,W,0.18,213.28,030823,,,A*7C
$GPGGA,213503.000,4308.2962,N,07726.2684,W,1,05,2.62,150.1,M,-34.4,M,,*5C
$GPRMC,213503.250,A,4308.2962,N,07726.2684,W,0.12,214.40,030823,,,A*7B
$GPGGA,213503.500,4308.2962,N,07726.2684,W,1,05,2.61,150.1,M,-34.4,M,,*5A
$GPRMC,213503.750,A,4308.2962,N,07726.2684,W,0.07,272.59,030823,,,A*72
$GPGGA,213504.000,4308.2962,N,07726.2684,W,1,05,2.61,150.1,M,-34.4,M,,*58
$GPRMC,213504.250,A,4308.2962,N,07726.2684,W,0.05,264.42,030823,,,A*7F
$GPGGA,213504.500,4308.2962,N,07726.2684,W,1,05,2.62,150.1,M,-34.4,M,,*5E
$GPRMC,213504.750,A,4308.2962,N,07726.2684,W,0.10,189.83,030823,,,A*73
$GPGGA,213505.000,4308.2962,N,07726.2685,W,1,05,2.62,150.1,M,-34.4,M,,*5B
$GPRMC,213505.250,A,4308.2961,N,07726.2685,W,0.22,209.80,030823,,,A*7C
$GPGGA,213505.500,4308.2961,N,07726.2685,W,1,05,2.61,150.1,M,-34.4,M,,*5E
$GPRMC,213505.750,A,4308.2961,N,07726.2685,W,0.32,209.69,030823,,,A*7F
$GPGGA,213506.000,4308.2961,N,07726.2685,W,1,05,2.61,150.1,M,-34.4,M,,*58
$GPRMC,213506.250,A,4308.2961,N,07726.2685,W,0.24,201.23,030823,,,A*78
$GPGGA,213506.500,4308.2961,N,07726.2685,W,1,05,2.61,150.1,M,-34.4,M,,*5D
$GPRMC,213506.750,A,4308.2960,N,07726.2685,W,0.34,186.83,030823,,,A*7B
$GPGGA,213507.000,4308.2960,N,07726.2685,W,1,05,2.61,150.1,M,-34.4,M,,*58
$GPRMC,213507.250,A,4308.2960,N,07726.2685,W,0.35,181.89,030823,,,A*73
$GPGGA,213507.500,4308.2960,N,07726.2685,W,1,05,2.61,150.1,M,-34.4,M,,*5D
$GPRMC,213507.750,A,4308.2959,N,07726.2685,W,0.28,155.76,030823,,,A*79
$GPGGA,213508.000,4308.2959,N,07726.2685,W,1,05,2.61,150.1,M,-34.4,M,,*5D
$GPRMC,213508.250,A,4308.2959,N,07726.2685,W,0.36,153.63,030823,,,A*7E
$GPGGA,213508.500,4308.2959,N,07726.2685,W,1,05,2.61,150.1,M,-34.4,M,,*58
$GPRMC,213508.750,A,4308.2959,N,07726.2685,W,0.37,175.16,030823,,,A*7C
$GPGGA,213509.000,4308.2958,N,07726.2685,W,1,05,2.61,150.1,M,-34.4,M,,*5D
$GPRMC,213509.250,A,4308.2958,N,07726.2685,W,0.41,175.45,030823,,,A*7E
$GPGGA,213509.500,4308.2958,N,07726.2685,W,1,05,2.61,150.1,M,-34.4,M,,*58
$GPRMC,213509.750,A,4308.2957,N,07726.2685,W,0.38,156.36,030823,,,A*7F
$GPGGA,213510.000,4308.2957,N,07726.2684,W,1,05,2.61,150.1,M,-34.4,M,,*5B
$GPRMC,213510.250,A,4308.2957,N,07726.2684,W,0.28,141.31,030823,,,A*73
$GPGGA,213510.500,4308.2957,N,07726.2684,W,1,05,2.61,150.0,M,-34.4,M,,*5F
$GPRMC,213510.750,A,4308.2957,N,07726.2684,W,0.18,151.87,030823,,,A*79
$GPGGA,213511.000,4308.2957,N,07726.2684,W,1,05,2.61,150.0,M,-34.4,M,,*5B
$GPRMC,213511.250,A,4308.2957,N,07726.2684,W,0.12,153.85,030823,,,A*77
$GPGGA,213511.500,4308.2957,N,07726.2684,W,1,05,2.61,150.0,M,-34.4,M,,*5E
$GPRMC,213511.750,A,4308.2956,N,07726.2684,W,0.16,173.40,030823,,,A*7C
$GPGGA,213512.000,4308.2956,N,07726.2684,W,1,05,2.61,150.0,M,-34.4,M,,*59
$GPRMC,213512.250,A,4308.2956,N,07726.2684,W,0.25,190.62,030823,,,A*77
$GPGGA,213512.500,4308.2956,N,07726.2684,W,1,05,2.61,150.0,M,-34.4,M,,*5C
$GPRMC,213512.750,A,4308.2956,N,07726.2684,W,0.27,190.12,030823,,,A*77
$GPGGA,213513.000,4308.2956,N,07726.2684,W,1,05,2.61,150.0,M,-34.4,M,,*58
$GPRMC,213513.250,A,4308.2956,N,07726.2684,W,0.19,195.72,030823,,,A*7D
$GPGGA,213513.500,4308.2955,N,07726.2684,W,1,05,2.61,150.0,M,-34.4,M,,*5E
$GPRMC,213513.750,A,4308.2955,N,07726.2684,W,0.10,84.23,030823,,,A*47
$GPGGA,213514.000,4308.2955,N,07726.2684,W,1,05,2.61,150.0,M,-34.4,M,,*5C
$GPRMC,213514.250,A,4308.2955,N,07726.2684,W,0.07,69.74,030823,,,A*42
$GPGGA,213514.500,4308.2955,N,07726.2684,W,1,05,2.61,150.0,M,-34.4,M,,*59
$GPRMC,213514.750,A,4308.2956,N,07726.2684,W,0.08,22.43,030823,,,A*40
$GPGGA,213515.000,4308.2956,N,07726.2684,W,1,05,2.61,150.0,M,-34.4,M,,*5E
$GPRMC,213515.250,A,4308.2956,N,07726.2683,W,0.04,12.61,030823,,,A*4C
$GPGGA,213515.500,4308.2956,N,07726.2683,W,1,05,5.06,150.0,M,-34.4,M,,*5A
$GPRMC,213515.750,A,4308.2956,N,07726.2683,W,0.06,19.52,030823,,,A*40
$GPGGA,213516.000,4308.2956,N,07726.2683,W,1,05,2.61,150.0,M,-34.4,M,,*5A
$GPRMC,213516.250,A,4308.2956,N,07726.2683,W,0.04,338.59,030823,,,A*7F
$GPGGA,213516.500,4308.2956,N,07726.2683,W,1,05,2.61,150.0,M,-34.4,M,,*5F
$GPRMC,213516.750,A,4308.2956,N,07726.2683,W,0.06,235.88,030823,,,A*78
$GPGGA,213517.000,4308.2956,N,07726.2684,W,1,05,2.61,150.0,M,-34.4,M,,*5C
$GPRMC,213517.250,A,4308.2956,N,07726.2684,W,0.01,189.50,030823,,,A*7D
$GPGGA,213517.500,4308.2956,N,07726.2684,W,1,05,2.61,150.0,M,-34.4,M,,*59
$GPRMC,213517.750,A,4308.2956,N,07726.2684,W,0.04,276.59,030823,,,A*77
$GPGGA,213518.000,4308.2956,N,07726.2684,W,1,05,2.61,150.0,M,-34.4,M,,*53
$GPRMC,213518.250,A,4308.2956,N,07726.2684,W,0.04,67.80,030823,,,A*4B
$GPGGA,213518.500,4308.2956,N,07726.2683,W,1,05,2.61,150.0,M,-34.4,M,,*51
$GPRMC,213518.750,A,4308.2956,N,07726.2683,W,0.09,43.93,030823,,,A*40
$GPGGA,213519.000,4308.2956,N,07726.2683,W,1,05,2.61,150.0,M,-34.4,M,,*55
$GPRMC,213519.250,A,4308.2956,N,07726.2683,W,0.07,53.01,030823,,,A*40
$GPGGA,213519.500,4308.2956,N,07726.2683,W,1,05,2.61,150.0,M,-34.4,M,,*50
$GPRMC,213519.750,A,4308.2956,N,07726.2683,W,0.13,42.69,030823,,,A*4E
$GPGGA,213520.000,4308.2956,N,07726.2683,W,1,05,2.61,150.0,M,-34.4,M,,*5F
$GPRMC,213520.250,A,4308.2956,N,07726.2683,W,0.12,18.27,030823,,,A*45
$GPGGA,213520.500,4308.2956,N,07726.2683,W,1,05,2.61,150.0,M,-34.4,M,,*5A
$GPRMC,213520.750,A,4308.2956,N,07726.2683,W,0.09,28.05,030823,,,A*49
$GPGGA,213521.000,4308.2957,N,07726.2683,W,1,05,2.61,150.0,M,-34.4,M,,*5F
$GPRMC,213521.250,A,4308.2957,N,07726.2683,W,0.11,59.14,030823,,,A*43
$GPGGA,213521.500,4308.2957,N,07726.2683,W,1,05,2.61,150.0,M,-34.4,M,,*5A
$GPRMC,213521.750,A,4308.2957,N,07726.2683,W,0.08,46.34,030823,,,A*42
$GPGGA,213522.000,4308.2957,N,07726.2683,W,1,05,2.61,150.0,M,-34.4,M,,*5C
$GPRMC,213522.250,A,4308.2957,N,07726.2682,W,0.16,12.22,030823,,,A*4C
$GPGGA,213522.500,4308.2957,N,07726.2682,W,1,05,5.03,150.0,M,-34.4,M,,*5B
$GPRMC,213522.750,A,4308.2957,N,07726.2682,W,0.27,16.08,030823,,,A*47
$GPGGA,213523.000,4308.2957,N,07726.2682,W,1,05,2.61,150.0,M,-34.4,M,,*5C
$GPRMC,213523.250,A,4308.2957,N,07726.2682,W,0.23,15.06,030823,,,A*4A
$GPGGA,213523.500,4308.2958,N,07726.2682,W,1,05,2.61,150.0,M,-34.4,M,,*56
$GPRMC,213523.750,A,4308.2958,N,07726.2682,W,0.19,353.78,030823,,,A*71
$GPGGA,213524.000,4308.2958,N,07726.2682,W,1,05,5.03,150.0,M,-34.4,M,,*57
$GPRMC,213524.250,A,4308.2958,N,07726.2682,W,0.13,301.96,030823,,,A*7E
$GPGGA,213524.500,4308.2958,N,07726.2682,W,1,05,2.61,150.0,M,-34.4,M,,*51
$GPRMC,213524.750,A,4308.2958,N,07726.2682,W,0.08,306.60,030823,,,A*7F
$GPGGA,213525.000,4308.2958,N,07726.2682,W,1,05,2.61,150.0,M,-34.4,M,,*55
$GPRMC,213525.250,A,4308.2958,N,07726.2683,W,0.10,340.68,030823,,,A*79
$GPGGA,213525.500,4308.2958,N,07726.2683,W,1,05,2.61,150.0,M,-34.4,M,,*51
$GPRMC,213525.750,A,4308.2958,N,07726.2683,W,0.12,345.36,030823,,,A*70
$GPGGA,213526.000,4308.2958,N,07726.2683,W,1,05,5.02,150.0,M,-34.4,M,,*55
$GPRMC,213526.250,A,4308.2959,N,07726.2683,W,0.08,351.39,030823,,,A*76
$GPGGA,213526.500,4308.2959,N,07726.2683,W,1,05,5.02,150.0,M,-34.4,M,,*51
$GPRMC,213526.750,A,4308.2959,N,07726.2683,W,0.17,357.70,030823,,,A*76
$GPGGA,213527.000,4308.2959,N,07726.2683,W,1,05,5.02,150.0,M,-34.4,M,,*55
$GPRMC,213527.250,A,4308.2959,N,07726.2683,W,0.28,19.53,030823,,,A*46
$GPGGA,213527.500,4308.2959,N,07726.2683,W,1,05,2.61,150.0,M,-34.4,M,,*52
$GPRMC,213527.750,A,4308.2959,N,07726.2682,W,0.24,39.57,030823,,,A*48
$GPGGA,213528.000,4308.2959,N,07726.2682,W,1,05,2.60,150.0,M,-34.4,M,,*58
$GPRMC,213528.250,A,4308.2960,N,07726.2682,W,0.27,53.94,030823,,,A*48
$GPGGA,213528.500,4308.2960,N,07726.2682,W,1,05,2.61,150.0,M,-34.4,M,,*56
$GPRMC,213528.750,A,4308.2960,N,07726.2682,W,0.18,55.49,030823,,,A*47
$GPGGA,213529.000,4308.2960,N,07726.2682,W,1,05,2.61,150.0,M,-34.4,M,,*52
$GPRMC,213529.250,A,4308.2960,N,07726.2681,W,0.13,34.89,030823,,,A*40
$GPGGA,213529.500,4308.2960,N,07726.2681,W,1,05,2.61,150.0,M,-34.4,M,,*54
$GPRMC,213529.750,A,4308.2960,N,07726.2681,W,0.17,12.52,030823,,,A*43
$GPGGA,213530.000,4308.2960,N,07726.2681,W,1,05,5.01,150.0,M,-34.4,M,,*58
$GPRMC,213530.250,A,4308.2960,N,07726.2681,W,0.11,350.22,030823,,,A*7A
$GPGGA,213530.500,4308.2960,N,07726.2681,W,1,05,5.01,150.0,M,-34.4,M,,*5D
$GPRMC,213530.750,A,4308.2960,N,07726.2681,W,0.12,281.25,030823,,,A*76
$GPGGA,213531.000,4308.2960,N,07726.2681,W,1,05,2.61,150.0,M,-34.4,M,,*58
$GPRMC,213531.250,A,4308.2960,N,07726.2682,W,0.12,286.63,030823,,,A*74
$GPGGA,213531.500,4308.2960,N,07726.2682,W,1,05,2.60,150.0,M,-34.4,M,,*5F
$GPRMC,213531.750,A,4308.2960,N,07726.2682,W,0.10,338.46,030823,,,A*70
$GPGGA,213532.000,4308.2961,N,07726.2682,W,1,05,2.61,150.0,M,-34.4,M,,*59
$GPRMC,213532.250,A,4308.2961,N,07726.2682,W,0.10,34.09,030823,,,A*43
$GPGGA,213532.500,4308.2961,N,07726.2682,W,1,05,2.60,150.0,M,-34.4,M,,*5D
$GPRMC,213532.750,A,4308.2961,N,07726.2682,W,0.18,17.04,030823,,,A*42
$GPGGA,213533.000,4308.2961,N,07726.2682,W,1,05,2.61,150.0,M,-34.4,M,,*58
$GPRMC,213533.250,A,4308.2961,N,07726.2682,W,0.13,19.90,030823,,,A*4E
$GPGGA,213533.500,4308.2961,N,07726.2682,W,1,05,2.60,150.0,M,-34.4,M,,*5C
$GPRMC,213533.750,A,4308.2961,N,07726.2681,W,0.05,322.75,030823,,,A*7F
$GPGGA,213534.000,4308.2961,N,07726.2682,W,1,05,2.60,150.0,M,-34.4,M,,*5E
$GPRMC,213534.250,A,4308.2961,N,07726.2682,W,0.07,338.33,030823,,,A*75
$GPGGA,213534.500,4308.2961,N,07726.2682,W,1,05,2.60,150.0,M,-34.4,M,,*5B
$GPRMC,213534.750,A,4308.2961,N,07726.2682,W,0.10,310.96,030823,,,A*73
$GPGGA,213535.000,4308.2961,N,07726.2682,W,1,05,2.60,150.0,M,-34.4,M,,*5F
$GPRMC,213535.250,A,4308.2961,N,07726.2682,W,0.11,304.09,030823,,,A*75
$GPGGA,213535.500,4308.2961,N,07726.2682,W,1,05,2.60,150.0,M,-34.4,M,,*5A
$GPRMC,213535.750,A,4308.2961,N,07726.2682,W,0.12,268.25,030823,,,A*76
$GPGGA,213536.000,4308.2961,N,07726.2682,W,1,05,2.60,150.0,M,-34.4,M,,*5C
$GPRMC,213536.250,A,4308.2961,N,07726.2682,W,0.13,254.70,030823,,,A*7E
$GPGGA,213536.500,4308.2961,N,07726.2682,W,1,05,2.60,150.0,M,-34.4,M,,*59
$GPRMC,213536.750,A,4308.2961,N,07726.2682,W,0.18,241.71,030823,,,A*75
$GPGGA,213537.000,4308.2961,N,07726.2683,W,1,05,2.60,150.0,M,-34.4,M,,*5C
$GPRMC,213537.250,A,4308.2961,N,07726.2683,W,0.24,230.02,030823,,,A*7D
$GPGGA,213537.500,4308.2961,N,07726.2683,W,1,05,2.60,150.0,M,-34.4,M,,*59
$GPRMC,213537.750,A,4308.2961,N,07726.2683,W,0.23,222.54,030823,,,A*7F
$GPGGA,213538.000,4308.2961,N,07726.2683,W,1,05,2.60,150.0,M,-34.4,M,,*53
$GPRMC,213538.250,A,4308.2961,N,07726.2683,W,0.15,204.32,030823,,,A*74
$GPGGA,213538.500,4308.2961,N,07726.2683,W,1,05,2.60,150.0,M,-34.4,M,,*56
$GPRMC,213538.750,A,4308.2960,N,07726.2683,W,0.07,230.02,030823,,,A*77
$GPGGA,213539.000,4308.2960,N,07726.2684,W,1,05,2.60,150.0,M,-34.4,M,,*54
$GPRMC,213539.250,A,4308.2960,N,07726.2684,W,0.01,357.74,030823,,,A*73
$GPGGA,213539.500,4308.2960,N,07726.2684,W,1,05,4.98,150.0,M,-34.4,M,,*50
$GPRMC,213539.750,A,4308.2961,N,07726.2683,W,0.12,29.16,030823,,,A*4C
$GPGGA,213540.000,4308.2961,N,07726.2683,W,1,05,2.60,150.0,M,-34.4,M,,*5C
$GPRMC,213540.250,A,4308.2961,N,07726.2683,W,0.12,345.06,030823,,,A*7F
$GPGGA,213540.500,4308.2961,N,07726.2683,W,1,05,4.97,150.0,M,-34.4,M,,*57
$GPRMC,213540.750,A,4308.2961,N,07726.2683,W,0.13,38.08,030823,,,A*4C
$GPGGA,213541.000,4308.2961,N,07726.2683,W,1,05,2.60,150.0,M,-34.4,M,,*5D
$GPRMC,213541.250,A,4308.2961,N,07726.2683,W,0.07,69.42,030823,,,A*47
$GPGGA,213541.500,4308.2961,N,07726.2683,W,1,05,2.60,150.0,M,-34.4,M,,*58
$GPRMC,213541.750,A,4308.2961,N,07726.2683,W,0.04,54.24,030823,,,A*4F
$GPGGA,213542.000,4308.2961,N,07726.2683,W,1,05,2.60,150.0,M,-34.4,M,,*5E
$GPRMC,213542.250,A,4308.2961,N,07726.2683,W,0.08,39.18,030823,,,A*41
$GPGGA,213542.500,4308.2961,N,07726.2683,W,1,05,2.60,150.0,M,-34.4,M,,*5B
$GPRMC,213542.750,A,4308.2961,N,07726.2683,W,0.10,342.38,030823,,,A*70
$GPGGA,213543.000,4308.2961,N,07726.2683,W,1,05,2.60,150.0,M,-34.4,M,,*5F
$GPRMC,213543.250,A,4308.2961,N,07726.2683,W,0.07,353.17,030823,,,A*7F
$GPGGA,213543.500,4308.2961,N,07726.2683,W,1,05,4.96,150.0,M,-34.4,M,,*55
$GPRMC,213543.750,A,4308.2961,N,07726.2683,W,0.05,97.38,030823,,,A*4E
$GPGGA,213544.000,4308.2961,N,07726.2683,W,1,05,2.60,150.0,M,-34.4,M,,*58
$GPRMC,213544.250,A,4308.2961,N,07726.2683,W,0.07,148.71,030823,,,A*70
$GPGGA,213544.500,4308.2961,N,07726.2683,W,1,05,2.60,150.0,M,-34.4,M,,*5D
$GPRMC,213544.750,A,4308.2961,N,07726.2683,W,0.10,145.76,030823,,,A*79
$GPGGA,213545.000,4308.2961,N,07726.2683,W,1,05,2.60,150.0,M,-34.4,M,,*59
$GPRMC,213545.250,A,4308.2961,N,07726.2683,W,0.12,130.80,030823,,,A*74
$GPGGA,213545.500,4308.2961,N,07726.2683,W,1,05,2.60,149.9,M,-34.4,M,,*5D
$GPRMC,213545.750,A,4308.2961,N,07726.2682,W,0.22,167.00,030823,,,A*79
$GPGGA,213546.000,4308.2961,N,07726.2682,W,1,05,2.60,149.9,M,-34.4,M,,*5A
$GPRMC,213546.250,A,4308.2961,N,07726.2682,W,0.23,159.23,030823,,,A*72
$GPGGA,213546.500,4308.2960,N,07726.2682,W,2,05,2.60,149.9,M,-34.4,M,0000,0000*5D
$GPRMC,213546.750,A,4308.2960,N,07726.2681,W,0.26,157.33,030823,,,D*7A
$GPGGA,213547.000,4308.2961,N,07726.2681,W,2,05,2.60,149.9,M,-34.4,M,0000,0000*5B
$GPRMC,213547.250,A,4308.2961,N,07726.2681,W,0.24,149.39,030823,,,D*78
$GPGGA,213547.500,4308.2961,N,07726.2679,W,2,05,2.60,149.8,M,-34.4,M,0000,0000*58
$GPRMC,213547.750,A,4308.2961,N,07726.2679,W,0.26,136.51,030823,,,D*7E
$GPGGA,213548.000,4308.2962,N,07726.2679,W,2,05,2.60,149.8,M,-34.4,M,0000,0000*51
$GPRMC,213548.250,A,4308.2962,N,07726.2680,W,0.17,154.29,030823,,,D*78
$GPGGA,213548.500,4308.2963,N,07726.2680,W,2,05,2.60,149.7,M,-34.4,M,0000,0000*5C
$GPRMC,213548.750,A,4308.2963,N,07726.2680,W,0.06,203.55,030823,,,D*76
$GPGGA,213549.000,4308.2964,N,07726.2680,W,2,05,2.60,149.7,M,-34.4,M,0000,0000*5F
$GPRMC,213549.250,A,4308.2964,N,07726.2679,W,0.06,196.06,030823,,,D*7A
$GPGGA,213549.500,4308.2964,N,07726.2679,W,2,05,2.60,149.6,M,-34.4,M,0000,0000*5D
$GPRMC,213549.750,A,4308.2964,N,07726.2679,W,0.13,216.54,030823,,,D*77
$GPGGA,213550.000,4308.2964,N,07726.2679,W,2,05,2.60,149.6,M,-34.4,M,0000,0000*50
$GPRMC,213550.250,A,4308.2965,N,07726.2678,W,0.11,189.21,030823,,,D*7F
$GPGGA,213550.500,4308.2965,N,07726.2677,W,2,06,1.61,149.5,M,-34.4,M,0000,0000*58
$GPRMC,213550.750,A,4308.2965,N,07726.2677,W,0.12,161.81,030823,,,D*7A
$GPGGA,213551.000,4308.2966,N,07726.2677,W,2,06,1.61,149.5,M,-34.4,M,0000,0000*5F
$GPRMC,213551.250,A,4308.2966,N,07726.2677,W,0.07,151.61,030823,,,D*74
$GPGGA,213551.500,4308.2967,N,07726.2676,W,2,06,1.61,149.5,M,-34.4,M,0000,0000*5A
$GPRMC,213551.750,A,4308.2968,N,07726.2676,W,0.06,105.88,030823,,,D*79
$GPGGA,213552.000,4308.2968,N,07726.2676,W,2,06,1.61,149.5,M,-34.4,M,0000,0000*53
$GPRMC,213552.250,A,4308.2969,N,07726.2676,W,0.04,3.24,030823,,,D*7D
$GPGGA,213552.500,4308.2970,N,07726.2677,W,2,06,1.89,149.5,M,-34.4,M,0000,0000*58
$GPRMC,213552.750,A,4308.2971,N,07726.2677,W,0.10,319.62,030823,,,D*7F
$GPGGA,213553.000,4308.2971,N,07726.2677,W,2,06,1.61,149.5,M,-34.4,M,0000,0000*5B
$GPRMC,213553.250,A,4308.2971,N,07726.2677,W,0.10,274.84,030823,,,D*79
$GPGGA,213553.500,4308.2971,N,07726.2677,W,2,06,1.61,149.5,M,-34.4,M,0000,0000*5E
$GPRMC,213553.750,A,4308.2972,N,07726.2677,W,0.12,258.36,030823,,,D*7A
$GPGGA,213554.000,4308.2972,N,07726.2677,W,2,06,1.61,149.5,M,-34.4,M,0000,0000*5F
$GPRMC,213554.250,A,4308.2971,N,07726.2677,W,0.20,237.14,030823,,,D*73
$GPGGA,213554.500,4308.2972,N,07726.2677,W,2,06,1.61,149.5,M,-34.4,M,0000,0000*5A
$GPRMC,213554.750,A,4308.2972,N,07726.2677,W,0.17,232.55,030823,,,D*71
$GPGGA,213555.000,4308.2973,N,07726.2677,W,2,06,1.61,149.4,M,-34.4,M,0000,0000*5E
$GPRMC,213555.250,A,4308.2973,N,07726.2676,W,0.08,233.45,030823,,,D*7B
$GPGGA,213555.500,4308.2973,N,07726.2676,W,2,06,1.61,149.5,M,-34.4,M,0000,0000*5B
$GPRMC,213555.750,A,4308.2972,N,07726.2676,W,0.17,185.30,030823,,,D*7D
$GPGGA,213556.000,4308.2972,N,07726.2676,W,2,06,1.61,149.5,M,-34.4,M,0000,0000*5C
$GPRMC,213556.250,A,4308.2972,N,07726.2676,W,0.20,181.35,030823,,,D*7E
$GPGGA,213556.500,4308.2973,N,07726.2676,W,2,06,1.61,149.5,M,-34.4,M,0000,0000*58
$GPRMC,213556.750,A,4308.2973,N,07726.2676,W,0.19,172.09,030823,,,D*73
$GPGGA,213557.000,4308.2973,N,07726.2676,W,2,06,1.61,149.5,M,-34.4,M,0000,0000*5C
$GPRMC,213557.250,A,4308.2974,N,07726.2676,W,0.11,140.07,030823,,,D*77
$GPGGA,213557.500,4308.2975,N,07726.2676,W,2,06,1.61,149.5,M,-34.4,M,0000,0000*5F
$GPRMC,213557.750,A,4308.2975,N,07726.2676,W,0.08,156.71,030823,,,D*7D
$GPGGA,213558.000,4308.2975,N,07726.2676,W,2,06,1.61,149.5,M,-34.4,M,0000,0000*55
$GPRMC,213558.250,A,4308.2975,N,07726.2676,W,0.08,173.13,030823,,,D*74
$GPGGA,213558.500,4308.2975,N,07726.2676,W,2,06,1.61,149.5,M,-34.4,M,0000,0000*50
$GPRMC,213558.750,A,4308.2975,N,07726.2676,W,0.11,153.72,030823,,,D*7C
$GPGGA,213559.000,4308.2975,N,07726.2675,W,2,06,1.61,149.5,M,-34.4,M,0000,0000*57
$GPRMC,213559.250,A,4308.2975,N,07726.2675,W,0.18,151.34,030823,,,D*72
$GPGGA,213559.500,4308.2976,N,07726.2675,W,2,06,1.61,149.5,M,-34.4,M,0000,0000*51
$GPRMC,213559.750,A,4308.2977,N,07726.2675,W,0.09,105.40,030823,,,D*77
$GPGGA,213600.000,4308.2978,N,07726.2675,W,2,06,1.61,149.5,M,-34.4,M,0000,0000*55
$GPRMC,213600.250,A,4308.2978,N,07726.2675,W,0.11,78.06,030823,,,D*42
$GPGGA,213600.500,4308.2979,N,07726.2675,W,2,06,1.61,149.5,M,-34.4,M,0000,0000*51
$GPRMC,213600.750,A,4308.2980,N,07726.2676,W,0.13,45.48,030823,,,D*45
$GPGGA,213601.000,4308.2980,N,07726.2676,W,2,06,1.61,149.4,M,-34.4,M,0000,0000*51
$GPRMC,213601.250,A,4308.2981,N,07726.2676,W,0.14,37.92,030823,,,D*45
$GPGGA,213601.500,4308.2982,N,07726.2677,W,2,06,1.61,149.4,M,-34.4,M,0000,0000*57
$GPRMC,213601.750,A,4308.2983,N,07726.2677,W,0.16,10.24,030823,,,D*49
$GPGGA,213602.000,4308.2983,N,07726.2678,W,2,06,1.89,149.4,M,-34.4,M,0000,0000*59
$GPRMC,213602.250,A,4308.2983,N,07726.2679,W,0.14,345.07,030823,,,D*71
$GPGGA,213602.500,4308.2984,N,07726.2679,W,2,06,1.89,149.4,M,-34.4,M,0000,0000*5A
$GPRMC,213602.750,A,4308.2984,N,07726.2680,W,0.13,329.08,030823,,,D*77
$GPGGA,213603.000,4308.2984,N,07726.2680,W,2,06,1.61,149.3,M,-34.4,M,0000,0000*59
$GPRMC,213603.250,A,4308.2984,N,07726.2681,W,0.15,294.97,030823,,,D*75
$GPGGA,213603.500,4308.2984,N,07726.2682,W,2,06,1.61,149.3,M,-34.4,M,0000,0000*5E
$GPRMC,213603.750,A,4308.2985,N,07726.2683,W,0.08,256.81,030823,,,D*76
$GPGGA,213604.000,4308.2985,N,07726.2684,W,2,06,1.61,149.2,M,-34.4,M,0000,0000*5A
$GPRMC,213604.250,A,4308.2986,N,07726.2685,W,0.04,291.42,030823,,,D*79
$GPGGA,213604.500,4308.2986,N,07726.2685,W,2,06,1.61,149.2,M,-34.4,M,0000,0000*5D
$GPRMC,213604.750,A,4308.2986,N,07726.2686,W,0.04,255.65,030823,,,D*72
$GPGGA,213605.000,4308.2987,N,07726.2687,W,2,06,1.61,149.2,M,-34.4,M,0000,0000*5A
$GPRMC,213605.250,A,4308.2988,N,07726.2687,W,0.05,355.96,030823,,,D*75
$GPGGA,213605.500,4308.2988,N,07726.2688,W,2,06,1.61,149.1,M,-34.4,M,0000,0000*5C
$GPRMC,213605.750,A,4308.2988,N,07726.2689,W,0.02,261.46,030823,,,D*72
$GPGGA,213606.000,4308.2988,N,07726.2690,W,2,06,1.61,149.1,M,-34.4,M,0000,0000*53
$GPRMC,213606.250,A,4308.2989,N,07726.2690,W,0.03,289.92,030823,,,D*73
$GPGGA,213606.500,4308.2990,N,07726.2691,W,2,06,1.61,149.1,M,-34.4,M,0000,0000*5E
$GPRMC,213606.750,A,4308.2991,N,07726.2690,W,0.03,29.08,030823,,,D*44
$GPGGA,213607.000,4308.2991,N,07726.2691,W,2,06,1.61,149.2,M,-34.4,M,0000,0000*58
$GPRMC,213607.250,A,4308.2991,N,07726.2692,W,0.02,300.44,030823,,,D*73
$GPGGA,213607.500,4308.2992,N,07726.2692,W,2,06,1.61,149.1,M,-34.4,M,0000,0000*5E
$GPRMC,213607.750,A,4308.2992,N,07726.2693,W,0.02,239.37,030823,,,D*7B
$GPGGA,213608.000,4308.2992,N,07726.2694,W,2,06,1.61,149.1,M,-34.4,M,0000,0000*52
$GPRMC,213608.250,A,4308.2992,N,07726.2694,W,0.02,304.57,030823,,,D*7F
$GPGGA,213608.500,4308.2992,N,07726.2695,W,2,06,1.61,149.1,M,-34.4,M,0000,0000*56
$GPRMC,213608.750,A,4308.2993,N,07726.2694,W,0.01,218.97,030823,,,D*78
$GPGGA,213609.000,4308.2993,N,07726.2694,W,2,06,1.61,149.2,M,-34.4,M,0000,0000*51
$GPRMC,213609.250,A,4308.2993,N,07726.2695,W,0.01,244.23,030823,,,D*7B
$GPGGA,213609.500,4308.2993,N,07726.2695,W,2,06,1.61,149.1,M,-34.4,M,0000,0000*56
$GPRMC,213609.750,A,4308.2994,N,07726.2694,W,0.01,60.03,030823,,,D*4E
$GPGGA,213610.000,4308.2994,N,07726.2695,W,2,06,1.61,149.2,M,-34.4,M,0000,0000*5F
$GPRMC,213610.250,A,4308.2994,N,07726.2695,W,0.02,242.66,030823,,,D*70
$GPGGA,213610.500,4308.2994,N,07726.2696,W,2,06,1.61,149.2,M,-34.4,M,0000,0000*59
$GPRMC,213610.750,A,4308.2994,N,07726.2696,W,0.01,325.98,030823,,,D*74
$GPGGA,213611.000,4308.2994,N,07726.2697,W,2,06,1.61,149.1,M,-34.4,M,0000,0000*5F
$GPRMC,213611.250,A,4308.2995,N,07726.2696,W,0.01,193.80,030823,,,D*77
$GPGGA,213611.500,4308.2995,N,07726.2697,W,2,06,1.61,149.2,M,-34.4,M,0000,0000*58
$GPRMC,213611.750,A,4308.2995,N,07726.2697,W,0.01,328.05,030823,,,D*7C
$GPGGA,213612.000,4308.2995,N,07726.2697,W,2,06,1.61,149.2,M,-34.4,M,0000,0000*5E
$GPRMC,213612.250,A,4308.2995,N,07726.2697,W,0.01,235.92,030823,,,D*79
$GPGGA,213612.500,4308.2995,N,07726.2698,W,2,06,1.61,149.1,M,-34.4,M,0000,0000*57
$GPRMC,213612.750,A,4308.2995,N,07726.2699,W,0.02,268.92,030823,,,D*79
$GPGGA,213613.000,4308.2995,N,07726.2699,W,2,06,1.61,149.1,M,-34.4,M,0000,0000*52
$GPRMC,213613.250,A,4308.2995,N,07726.2699,W,0.01,282.91,030823,,,D*79
$GPGGA,213613.500,4308.2995,N,07726.2700,W,2,06,1.61,149.1,M,-34.4,M,0000,0000*56
$GPRMC,213613.750,A,4308.2996,N,07726.2700,W,0.01,291.40,030823,,,D*70
$GPGGA,213614.000,4308.2996,N,07726.2701,W,2,06,1.61,149.2,M,-34.4,M,0000,0000*55
$GPRMC,213614.250,A,4308.2997,N,07726.2702,W,0.02,303.53,030823,,,D*7A
$GPGGA,213614.500,4308.2997,N,07726.2703,W,2,06,1.61,149.2,M,-34.4,M,0000,0000*53
$GPRMC,213614.750,A,4308.2998,N,07726.2704,W,0.03,339.27,030823,,,D*7D
$GPGGA,213615.000,4308.2999,N,07726.2704,W,2,06,1.61,149.2,M,-34.4,M,0000,0000*5E
$GPRMC,213615.250,A,4308.2999,N,07726.2705,W,0.02,321.52,030823,,,D*73
$GPGGA,213615.500,4308.3000,N,07726.2706,W,2,06,1.61,149.3,M,-34.4,M,0000,0000*50
$GPRMC,213615.750,A,4308.3000,N,07726.2706,W,0.01,300.49,030823,,,D*77
$GPGGA,213616.000,4308.3000,N,07726.2707,W,2,06,1.61,149.3,M,-34.4,M,0000,0000*57
$GPRMC,213616.250,A,4308.3001,N,07726.2707,W,0.01,333.00,030823,,,D*7C
$GPGGA,213616.500,4308.3002,N,07726.2708,W,2,06,1.61,149.3,M,-34.4,M,0000,0000*5F
$GPRMC,213616.750,A,4308.3002,N,07726.2708,W,0.01,328.80,030823,,,D*77
$GPGGA,213617.000,4308.3002,N,07726.2709,W,2,06,1.61,149.3,M,-34.4,M,0000,0000*5A
$GPRMC,213617.250,A,4308.3003,N,07726.2709,W,0.02,334.01,030823,,,D*74
$GPGGA,213617.500,4308.3003,N,07726.2710,W,2,06,1.61,149.3,M,-34.4,M,0000,0000*56
$GPRMC,213617.750,A,4308.3004,N,07726.2711,W,0.01,314.06,030823,,,D*79
$GPGGA,213618.000,4308.3004,N,07726.2711,W,2,06,1.61,149.4,M,-34.4,M,0000,0000*5D
$GPRMC,213618.250,A,4308.3004,N,07726.2712,W,0.01,292.05,030823,,,D*7C
$GPGGA,213618.500,4308.3005,N,07726.2712,W,2,06,1.61,149.4,M,-34.4,M,0000,0000*5A
$GPRMC,213618.750,A,4308.3005,N,07726.2713,W,0.02,327.59,030823,,,D*7C
$GPGGA,213619.000,4308.3005,N,07726.2713,W,2,06,1.61,149.4,M,-34.4,M,0000,0000*5F
$GPRMC,213619.250,A,4308.3005,N,07726.2714,W,0.01,277.15,030823,,,D*70
$GPGGA,213619.500,4308.3006,N,07726.2715,W,2,06,1.61,149.4,M,-34.4,M,0000,0000*5F
$GPRMC,213619.750,A,4308.3006,N,07726.2715,W,0.01,258.36,030823,,,D*7B
$GPGGA,213620.000,4308.3006,N,07726.2716,W,2,06,1.61,149.4,M,-34.4,M,0000,0000*53
$GPRMC,213620.250,A,4308.3006,N,07726.2716,W,0.01,226.66,030823,,,D*7B
$GPGGA,213620.500,4308.3006,N,07726.2717,W,2,06,1.61,149.3,M,-34.4,M,0000,0000*50
$GPRMC,213620.750,A,4308.3006,N,07726.2717,W,0.02,337.54,030823,,,D*7C
$GPGGA,213621.000,4308.3006,N,07726.2718,W,2,06,1.61,149.3,M,-34.4,M,0000,0000*5B
$GPRMC,213621.250,A,4308.3006,N,07726.2718,W,0.00,251.81,030823,,,D*7C
$GPGGA,213621.500,4308.3006,N,07726.2719,W,2,06,1.61,149.3,M,-34.4,M,0000,0000*5F
$GPRMC,213621.750,A,4308.3007,N,07726.2719,W,0.02,296.07,030823,,,D*7E
$GPGGA,213622.000,4308.3006,N,07726.2720,W,2,06,1.61,149.3,M,-34.4,M,0000,0000*53
$GPRMC,213622.250,A,4308.3006,N,07726.2720,W,0.01,260.09,030823,,,D*77
$GPGGA,213622.500,4308.3006,N,07726.2721,W,2,06,1.61,149.2,M,-34.4,M,0000,0000*56
$GPRMC,213622.750,A,4308.3006,N,07726.2720,W,0.01,139.27,030823,,,D*71
$GPGGA,213623.000,4308.3006,N,07726.2720,W,2,06,1.61,149.2,M,-34.4,M,0000,0000*53
$GPRMC,213623.250,A,4308.3005,N,07726.2720,W,0.01,116.19,030823,,,D*76
$GPGGA,213623.500,4308.3005,N,07726.2720,W,2,06,1.61,149.1,M,-34.4,M,0000,0000*56
$GPRMC,213623.750,A,4308.3005,N,07726.2720,W,0.01,217.99,030823,,,D*79
$GPGGA,213624.000,4308.3004,N,07726.2720,W,2,06,1.61,149.1,M,-34.4,M,0000,0000*55
$GPRMC,213624.250,A,4308.3003,N,07726.2720,W,0.02,189.24,030823,,,D*7C
$GPGGA,213624.500,4308.3002,N,07726.2720,W,2,06,1.61,149.0,M,-34.4,M,0000,0000*57
$GPRMC,213624.750,A,4308.3002,N,07726.2719,W,0.01,154.12,030823,,,D*74
$GPGGA,213625.000,4308.3002,N,07726.2719,W,2,06,1.61,149.0,M,-34.4,M,0000,0000*59
$GPRMC,213625.250,A,4308.3002,N,07726.2719,W,0.01,174.26,030823,,,D*75
$GPGGA,213625.500,4308.3001,N,07726.2719,W,2,06,1.61,148.9,M,-34.4,M,0000,0000*57
$GPRMC,213625.750,A,4308.3002,N,07726.2718,W,0.01,77.96,030823,,,D*48
$GPGGA,213626.000,4308.3002,N,07726.2718,W,2,06,1.61,149.0,M,-34.4,M,0000,0000*5B
$GPRMC,213626.250,A,4308.3003,N,07726.2717,W,0.02,43.93,030823,,,D*41
$GPGGA,213626.500,4308.3003,N,07726.2716,W,2,06,1.61,149.0,M,-34.4,M,0000,0000*51
$GPRMC,213626.750,A,4308.3004,N,07726.2715,W,0.01,42.60,030823,,,D*4F
$GPGGA,213627.000,4308.3004,N,07726.2715,W,2,06,1.61,149.1,M,-34.4,M,0000,0000*50
$GPRMC,213627.250,A,4308.3004,N,07726.2715,W,0.01,321.35,030823,,,D*7D
$GPGGA,213627.500,4308.3004,N,07726.2715,W,2,06,1.61,149.0,M,-34.4,M,0000,0000*54
$GPRMC,213627.750,A,4308.3004,N,07726.2714,W,0.01,148.46,030823,,,D*70
$GPGGA,213628.000,4308.3003,N,07726.2714,W,2,06,1.61,149.0,M,-34.4,M,0000,0000*58
$GPRMC,213628.250,A,4308.3003,N,07726.2714,W,0.01,309.63,030823,,,D*7D
$GPGGA,213628.500,4308.3003,N,07726.2715,W,2,06,1.61,148.9,M,-34.4,M,0000,0000*54
$GPRMC,213628.750,A,4308.3004,N,07726.2713,W,0.01,35.31,030823,,,D*43
$GPGGA,213629.000,4308.3003,N,07726.2713,W,2,06,1.61,148.9,M,-34.4,M,0000,0000*56
$GPRMC,213629.250,A,4308.3003,N,07726.2713,W,0.01,168.50,030823,,,D*7E
$GPGGA,213629.500,4308.3002,N,07726.2713,W,2,06,1.61,148.9,M,-34.4,M,0000,0000*52
$GPRMC,213629.750,A,4308.3002,N,07726.2713,W,0.01,66.88,030823,,,D*40
$GPGGA,213630.000,4308.3002,N,07726.2713,W,2,06,1.61,148.9,M,-34.4,M,0000,0000*5F
$GPRMC,213630.250,A,4308.3002,N,07726.2713,W,0.00,237.93,030823,,,D*70
$GPGGA,213630.500,4308.3002,N,07726.2712,W,2,06,1.61,148.9,M,-34.4,M,0000,0000*5B
$GPRMC,213630.750,A,4308.3002,N,07726.2712,W,0.00,69.06,030823,,,D*41
$GPGGA,213631.000,4308.3002,N,07726.2712,W,2,06,1.61,148.9,M,-34.4,M,0000,0000*5F
$GPRMC,213631.250,A,4308.3002,N,07726.2712,W,0.00,107.04,030823,,,D*7E
$GPGGA,213631.500,4308.3002,N,07726.2712,W,2,06,1.61,148.9,M,-34.4,M,0000,0000*5A
$GPRMC,213631.750,A,4308.3002,N,07726.2712,W,0.02,69.72,030823,,,D*41
$GPGGA,213632.000,4308.3002,N,07726.2712,W,2,06,1.61,148.9,M,-34.4,M,0000,0000*5C
$GPRMC,213632.250,A,4308.3002,N,07726.2712,W,0.01,80.25,030823,,,D*41
$GPGGA,213632.500,4308.3002,N,07726.2712,W,2,06,1.61,148.9,M,-34.4,M,0000,0000*59
$GPRMC,213632.750,A,4308.3002,N,07726.2712,W,0.01,71.48,030823,,,D*41
$GPGGA,213633.000,4308.3002,N,07726.2712,W,2,06,1.61,148.9,M,-34.4,M,0000,0000*5D
$GPRMC,213633.250,A,4308.3002,N,07726.2712,W,0.01,159.94,030823,,,D*7F
$GPGGA,213633.500,4308.3002,N,07726.2712,W,2,06,1.61,148.9,M,-34.4,M,0000,0000*58
$GPRMC,213633.750,A,4308.3002,N,07726.2712,W,0.02,110.97,030823,,,D*77
$GPGGA,213634.000,4308.3002,N,07726.2712,W,2,06,1.61,148.9,M,-34.4,M,0000,0000*5A
$GPRMC,213634.250,A,4308.3002,N,07726.2712,W,0.01,176.68,030823,,,D*76
$GPGGA,213634.500,4308.3002,N,07726.2712,W,2,06,1.61,148.9,M,-34.4,M,0000,0000*5F
$GPRMC,213634.750,A,4308.3002,N,07726.2712,W,0.01,321.59,030823,,,D*71
$GPGGA,213635.000,4308.3002,N,07726.2712,W,2,06,1.61,148.9,M,-34.4,M,0000,0000*5B
$GPRMC,213635.250,A,4308.3002,N,07726.2712,W,0.01,154.23,030823,,,D*78
$GPGGA,213635.500,4308.3002,N,07726.2712,W,2,06,1.61,148.9,M,-34.4,M,0000,0000*5E
$GPRMC,213635.750,A,4308.3003,N,07726.2711,W,0.01,74.42,030823,,,D*4B
$GPGGA,213636.000,4308.3002,N,07726.2710,W,2,06,1.61,148.8,M,-34.4,M,0000,0000*5B
$GPRMC,213636.250,A,4308.3002,N,07726.2710,W,0.01,146.14,030823,,,D*7E
$GPGGA,213636.500,4308.3002,N,07726.2709,W,2,06,1.61,148.8,M,-34.4,M,0000,0000*56
$GPRMC,213636.750,A,4308.3002,N,07726.2709,W,0.02,134.79,030823,,,D*7E
$GPGGA,213637.000,4308.3002,N,07726.2709,W,2,06,1.61,148.8,M,-34.4,M,0000,0000*52
$GPRMC,213637.250,A,4308.3002,N,07726.2709,W,0.01,181.31,030823,,,D*7B
$GPGGA,213637.500,4308.3002,N,07726.2709,W,2,06,1.61,148.8,M,-34.4,M,0000,0000*57
$GPRMC,213637.750,A,4308.3002,N,07726.2709,W,0.01,59.76,030823,,,D*49
$GPGGA,213638.000,4308.3002,N,07726.2709,W,2,06,1.61,148.8,M,-34.4,M,0000,0000*5D
$GPRMC,213638.250,A,4308.3002,N,07726.2709,W,0.01,72.58,030823,,,D*46
$GPGGA,213638.500,4308.3002,N,07726.2709,W,2,06,1.61,148.8,M,-34.4,M,0000,0000*58
$GPRMC,213638.750,A,4308.3002,N,07726.2709,W,0.01,104.71,030823,,,D*78
$GPGGA,213639.000,4308.3002,N,07726.2709,W,2,06,1.61,148.8,M,-34.4,M,0000,0000*5C
$GPRMC,213639.250,A,4308.3002,N,07726.2709,W,0.00,105.53,030823,,,D*7C
$GPGGA,213639.500,4308.3002,N,07726.2709,W,2,06,1.61,148.8,M,-34.4,M,0000,0000*59
$GPRMC,213639.750,A,4308.3002,N,07726.2709,W,0.01,54.97,030823,,,D*45
$GPGGA,213640.000,4308.3002,N,07726.2709,W,2,06,1.61,148.8,M,-34.4,M,0000,0000*52
$GPRMC,213640.250,A,4308.3002,N,07726.2709,W,0.00,93.49,030823,,,D*47
$GPGGA,213640.500,4308.3002,N,07726.2709,W,2,06,1.61,148.8,M,-34.4,M,0000,0000*57
$GPRMC,213640.750,A,4308.3002,N,07726.2709,W,0.01,82.94,030823,,,D*43
$GPGGA,213641.000,4308.3002,N,07726.2709,W,2,06,1.61,148.8,M,-34.4,M,0000,0000*53
$GPRMC,213641.250,A,4308.3002,N,07726.2709,W,0.01,31.14,030823,,,D*47
$GPGGA,213641.500,4308.3002,N,07726.2709,W,2,06,1.61,148.8,M,-34.4,M,0000,0000*56
$GPRMC,213641.750,A,4308.3002,N,07726.2709,W,0.02,71.03,030823,,,D*43
$GPGGA,213642.000,4308.3002,N,07726.2709,W,2,06,1.61,148.8,M,-34.4,M,0000,0000*50
$GPRMC,213642.250,A,4308.3002,N,07726.2709,W,0.01,68.97,030823,,,D*43
$GPGGA,213642.500,4308.3002,N,07726.2709,W,2,06,1.61,148.8,M,-34.4,M,0000,0000*55
$GPRMC,213642.750,A,4308.3002,N,07726.2709,W,0.01,353.92,030823,,,D*78
$GPGGA,213643.000,4308.3002,N,07726.2709,W,2,06,1.61,148.8,M,-34.4,M,0000,0000*51
$GPRMC,213643.250,A,4308.3002,N,07726.2708,W,0.01,21.28,030823,,,D*4A
$GPGGA,213643.500,4308.3002,N,07726.2708,W,2,06,1.61,148.8,M,-34.4,M,0000,0000*55
$GPRMC,213643.750,A,4308.3002,N,07726.2708,W,0.01,13.19,030823,,,D*4C
$GPGGA,213644.000,4308.3002,N,07726.2708,W,2,06,1.61,148.8,M,-34.4,M,0000,0000*57
$GPRMC,213644.250,A,4308.3002,N,07726.2708,W,0.01,90.45,030823,,,D*4C
$GPGGA,213644.500,4308.3002,N,07726.2708,W,2,06,1.61,148.8,M,-34.4,M,0000,0000*52
$GPRMC,213644.750,A,4308.3002,N,07726.2708,W,0.02,92.30,030823,,,D*4A
$GPGGA,213645.000,4308.3002,N,07726.2708,W,2,06,1.61,148.8,M,-34.4,M,0000,0000*56
$GPRMC,213645.250,A,4308.3002,N,07726.2708,W,0.00,76.52,030823,,,D*42
$GPGGA,213645.500,4308.3003,N,07726.2708,W,2,06,1.61,148.8,M,-34.4,M,0000,0000*52
$GPRMC,213645.750,A,4308.3003,N,07726.2708,W,0.01,83.87,030823,,,D*45
$GPGGA,213646.000,4308.3003,N,07726.2708,W,2,06,1.61,148.8,M,-34.4,M,0000,0000*54
$GPRMC,213646.250,A,4308.3003,N,07726.2708,W,0.01,75.45,030823,,,D*44
$GPGGA,213646.500,4308.3003,N,07726.2708,W,2,06,1.61,148.8,M,-34.4,M,0000,0000*51
$GPRMC,213646.750,A,4308.3003,N,07726.2708,W,0.01,140.98,030823,,,D*76
$GPGGA,213647.000,4308.3003,N,07726.2708,W,2,06,1.61,148.8,M,-34.4,M,0000,0000*55
$GPRMC,213647.250,A,4308.3003,N,07726.2708,W,0.02,69.53,030823,,,D*4C
$GPGGA,213647.500,4308.3003,N,07726.2708,W,2,06,1.61,148.8,M,-34.4,M,0000,0000*50
$GPRMC,213647.750,A,4308.3003,N,07726.2708,W,0.01,40.58,030823,,,D*4A
$GPGGA,213648.000,4308.3003,N,07726.2708,W,2,06,1.89,148.8,M,-34.4,M,0000,0000*5C
$GPRMC,213648.250,A,4308.3003,N,07726.2708,W,0.01,56.08,030823,,,D*42
$GPGGA,213648.500,4308.3003,N,07726.2708,W,2,06,1.89,148.8,M,-34.4,M,0000,0000*59
$GPRMC,213648.750,A,4308.3003,N,07726.2708,W,0.01,54.72,030823,,,D*48
$GPGGA,213649.000,4308.3003,N,07726.2708,W,2,06,1.90,148.8,M,-34.4,M,0000,0000*55
$GPRMC,213649.250,A,4308.3003,N,07726.2708,W,0.00,195.31,030823,,,D*76
$GPGGA,213649.500,4308.3003,N,07726.2708,W,2,06,1.89,148.8,M,-34.4,M,0000,0000*58
$GPRMC,213649.750,A,4308.3003,N,07726.2708,W,0.01,61.23,030823,,,D*4B
$GPGGA,213650.000,4308.3003,N,07726.2708,W,2,06,1.89,148.8,M,-34.4,M,0000,0000*55
$GPRMC,213650.250,A,4308.3003,N,07726.2708,W,0.01,53.75,030823,,,D*44
$GPGGA,213650.500,4308.3003,N,07726.2708,W,2,06,1.90,148.8,M,-34.4,M,0000,0000*58
$GPRMC,213650.750,A,4308.3003,N,07726.2708,W,0.02,46.28,030823,,,D*4E
$GPGGA,213651.000,4308.3003,N,07726.2708,W,2,06,1.90,148.8,M,-34.4,M,0000,0000*5C
$GPRMC,213651.250,A,4308.3003,N,07726.2708,W,0.00,113.16,030823,,,D*74
$GPGGA,213651.500,4308.3003,N,07726.2708,W,2,06,1.89,148.8,M,-34.4,M,0000,0000*51
$GPRMC,213651.750,A,4308.3003,N,07726.2708,W,0.01,33.99,030823,,,D*44
$GPGGA,213652.000,4308.3003,N,07726.2708,W,2,06,1.90,148.8,M,-34.4,M,0000,0000*5F
$GPRMC,213652.250,A,4308.3003,N,07726.2708,W,0.00,57.74,030823,,,D*42
$GPGGA,213652.500,4308.3003,N,07726.2708,W,2,06,1.90,148.8,M,-34.4,M,0000,0000*5A
$GPRMC,213652.750,A,4308.3003,N,07726.2708,W,0.01,357.83,030823,,,D*7D
$GPGGA,213653.000,4308.3003,N,07726.2708,W,2,06,1.90,148.8,M,-34.4,M,0000,0000*5E
$GPRMC,213653.250,A,4308.3003,N,07726.2708,W,0.00,22.03,030823,,,D*41
$GPGGA,213653.500,4308.3003,N,07726.2708,W,2,06,1.90,148.8,M,-34.4,M,0000,0000*5B
$GPRMC,213653.750,A,4308.3003,N,07726.2708,W,0.02,46.68,030823,,,D*49
$GPGGA,213654.000,4308.3003,N,07726.2708,W,2,06,1.90,148.8,M,-34.4,M,0000,0000*59
$GPRMC,213654.250,A,4308.3003,N,07726.2708,W,0.01,327.83,030823,,,D*79
$GPGGA,213654.500,4308.3003,N,07726.2708,W,2,06,1.90,148.8,M,-34.4,M,0000,0000*5C
$GPRMC,213654.750,A,4308.3003,N,07726.2708,W,0.02,66.41,030823,,,D*47
$GPGGA,213655.000,4308.3003,N,07726.2708,W,2,06,1.90,148.8,M,-34.4,M,0000,0000*58
$GPRMC,213655.250,A,4308.3003,N,07726.2708,W,0.01,38.34,030823,,,D*49
$GPGGA,213655.500,4308.3003,N,07726.2708,W,2,06,1.90,148.8,M,-34.4,M,0000,0000*5D
$GPRMC,213655.750,A,4308.3003,N,07726.2708,W,0.01,20.00,030823,,,D*42
$GPGGA,213656.000,4308.3003,N,07726.2708,W,2,06,1.90,148.8,M,-34.4,M,0000,0000*5B
$GPRMC,213656.250,A,4308.3003,N,07726.2707,W,0.02,58.81,030823,,,D*4E
$GPGGA,213656.500,4308.3003,N,07726.2707,W,2,06,1.90,148.8,M,-34.4,M,0000,0000*51
$GPRMC,213656.750,A,4308.3003,N,07726.2707,W,0.02,29.12,030823,,,D*47
$GPGGA,213657.000,4308.3003,N,07726.2707,W,2,06,1.90,148.8,M,-34.4,M,0000,0000*55
$GPRMC,213657.250,A,4308.3003,N,07726.2707,W,0.00,187.87,030823,,,D*78
$GPGGA,213657.500,4308.3003,N,07726.2707,W,2,06,1.90,148.8,M,-34.4,M,0000,0000*50
$GPRMC,213657.750,A,4308.3003,N,07726.2707,W,0.02,75.06,030823,,,D*4A
$GPGGA,213658.000,4308.3003,N,07726.2707,W,2,06,1.90,148.9,M,-34.4,M,0000,0000*5B
$GPRMC,213658.250,A,4308.3003,N,07726.2707,W,0.01,352.78,030823,,,D*7C
$GPGGA,213658.500,4308.3003,N,07726.2707,W,2,06,1.90,148.9,M,-34.4,M,0000,0000*5E
$GPRMC,213658.750,A,4308.3003,N,07726.2707,W,0.01,4.07,030823,,,D*71
$GPGGA,213659.000,4308.3003,N,07726.2707,W,2,06,1.90,148.9,M,-34.4,M,0000,0000*5A
$GPRMC,213659.250,A,4308.3003,N,07726.2707,W,0.01,31.72,030823,,,D*41
$GPGGA,213659.500,4308.3003,N,07726.2707,W,2,06,1.90,148.9,M,-34.4,M,0000,0000*5F
$GPRMC,213659.750,A,4308.3003,N,07726.2707,W,0.01,30.78,030823,,,D*4F
$GPGGA,213700.000,4308.3003,N,07726.2707,W,2,06,1.90,148.9,M,-34.4,M,0000,0000*57
$GPRMC,213700.250,A,4308.3003,N,07726.2707,W,0.01,19.63,030823,,,D*46
$GPGGA,213700.500,4308.3003,N,07726.2707,W,2,06,1.90,148.9,M,-34.4,M,0000,0000*52
$GPRMC,213700.750,A,4308.3003,N,07726.2707,W,0.01,252.20,030823,,,D*79
$GPGGA,213701.000,4308.3003,N,07726.2707,W,2,06,1.90,148.9,M,-34.4,M,0000,0000*56
$GPRMC,213701.250,A,4308.3003,N,07726.2707,W,0.00,3.59,030823,,,D*74
$GPGGA,213701.500,4308.3003,N,07726.2707,W,2,06,1.90,148.9,M,-34.4,M,0000,0000*53
$GPRMC,213701.750,A,4308.3003,N,07726.2707,W,0.02,64.73,030823,,,D*4A
$GPGGA,213702.000,4308.3003,N,07726.2707,W,2,06,1.90,148.9,M,-34.4,M,0000,0000*55
$GPRMC,213702.250,A,4308.3003,N,07726.2707,W,0.01,42.74,030823,,,D*4C
$GPGGA,213702.500,4308.3003,N,07726.2707,W,2,06,1.90,148.9,M,-34.4,M,0000,0000*50
$GPRMC,213702.750,A,4308.3003,N,07726.2707,W,0.01,61.97,030823,,,D*45
$GPGGA,213703.000,4308.3003,N,07726.2707,W,2,06,1.90,148.9,M,-34.4,M,0000,0000*54
$GPRMC,213703.250,A,4308.3003,N,07726.2707,W,0.01,22.04,030823,,,D*4C
$GPGGA,213703.500,4308.3004,N,07726.2707,W,2,06,1.90,148.9,M,-34.4,M,0000,0000*56
$GPRMC,213703.750,A,4308.3004,N,07726.2707,W,0.02,38.80,030823,,,D*4A
$GPGGA,213704.000,4308.3004,N,07726.2707,W,2,06,1.90,148.9,M,-34.4,M,0000,0000*54
$GPRMC,213704.250,A,4308.3004,N,07726.2707,W,0.01,359.83,030823,,,D*7C
$GPGGA,213704.500,4308.3004,N,07726.2707,W,2,06,1.90,148.9,M,-34.4,M,0000,0000*51
$GPRMC,213704.750,A,4308.3004,N,07726.2707,W,0.02,34.76,030823,,,D*48
$GPGGA,213705.000,4308.3004,N,07726.2707,W,2,06,1.90,148.9,M,-34.4,M,0000,0000*55
$GPRMC,213705.250,A,4308.3004,N,07726.2707,W,0.00,338.03,030823,,,D*73
$GPGGA,213705.500,4308.3004,N,07726.2707,W,2,06,1.90,148.9,M,-34.4,M,0000,0000*50
$GPRMC,213705.750,A,4308.3004,N,07726.2707,W,0.01,19.84,030823,,,D*48
$GPGGA,213706.000,4308.3004,N,07726.2707,W,2,06,1.90,148.9,M,-34.4,M,0000,0000*56
$GPRMC,213706.250,A,4308.3004,N,07726.2707,W,0.00,353.83,030823,,,D*75
$GPGGA,213706.500,4308.3004,N,07726.2707,W,2,06,1.90,148.9,M,-34.4,M,0000,0000*53
$GPRMC,213706.750,A,4308.3004,N,07726.2707,W,0.01,132.14,030823,,,D*7A
$GPGGA,213707.000,4308.3004,N,07726.2707,W,2,06,1.90,148.9,M,-34.4,M,0000,0000*57
$GPRMC,213707.250,A,4308.3004,N,07726.2707,W,0.02,28.17,030823,,,D*44
$GPGGA,213707.500,4308.3004,N,07726.2707,W,2,06,1.90,148.9,M,-34.4,M,0000,0000*52
$GPRMC,213707.750,A,4308.3004,N,07726.2707,W,0.01,40.75,030823,,,D*48
$GPGGA,213708.000,4308.3004,N,07726.2707,W,2,06,1.90,148.9,M,-34.4,M,0000,0000*58
$GPRMC,213708.250,A,4308.3004,N,07726.2707,W,0.01,353.43,030823,,,D*76
$GPGGA,213708.500,4308.3004,N,07726.2707,W,2,06,1.90,148.9,M,-34.4,M,0000,0000*5D
$GPRMC,213708.750,A,4308.3004,N,07726.2707,W,0.02,39.96,030823,,,D*47
$GPGGA,213709.000,4308.3004,N,07726.2707,W,2,06,1.90,148.9,M,-34.4,M,0000,0000*59
$GPRMC,213709.250,A,4308.3004,N,07726.2707,W,0.01,30.69,030823,,,D*49
$GPGGA,213709.500,4308.3004,N,07726.2707,W,2,06,1.90,148.9,M,-34.4,M,0000,0000*5C
$GPRMC,213709.750,A,4308.3004,N,07726.2707,W,0.01,45.20,030823,,,D*43
$GPGGA,213710.000,4308.3004,N,07726.2707,W,2,06,1.90,148.9,M,-34.4,M,0000,0000*51
$GPRMC,213710.250,A,4308.3004,N,07726.2707,W,0.01,353.56,030823,,,D*7B
$GPGGA,213710.500,4308.3004,N,07726.2707,W,2,06,1.90,148.9,M,-34.4,M,0000,0000*54
$GPRMC,213710.750,A,4308.3004,N,07726.2707,W,0.00,15.66,030823,,,D*4D
$GPGGA,213711.000,4308.3004,N,07726.2707,W,2,06,1.90,148.9,M,-34.4,M,0000,0000*50
$GPRMC,213711.250,A,4308.3004,N,07726.2707,W,0.01,356.01,030823,,,D*7D
$GPGGA,213711.500,4308.3004,N,07726.2707,W,2,06,1.90,148.9,M,-34.4,M,0000,0000*55
$GPRMC,213711.750,A,4308.3004,N,07726.2707,W,0.01,20.30,030823,,,D*48
$GPGGA,213712.000,4308.3004,N,07726.2707,W,2,06,1.90,148.9,M,-34.4,M,0000,0000*53
$GPRMC,213712.250,A,4308.3004,N,07726.2707,W,0.01,284.80,030823,,,D*79
$GPGGA,213712.500,4308.3004,N,07726.2707,W,2,06,1.90,148.9,M,-34.4,M,0000,0000*56
$GPRMC,213712.750,A,4308.3004,N,07726.2707,W,0.01,31.27,030823,,,D*4D
$GPGGA,213713.000,4308.3004,N,07726.2707,W,2,06,1.90,148.9,M,-34.4,M,0000,0000*52
$GPRMC,213713.250,A,4308.3004,N,07726.2707,W,0.01,356.60,030823,,,D*78
$GPGGA,213713.500,4308.3004,N,07726.2707,W,2,06,1.90,148.9,M,-34.4,M,0000,0000*57
$GPRMC,213713.750,A,4308.3004,N,07726.2707,W,0.01,287.89,030823,,,D*77
$GPGGA,213714.000,4308.3004,N,07726.2707,W,2,06,1.90,148.9,M,-34.4,M,0000,0000*55
$GPRMC,213714.250,A,4308.3004,N,07726.2707,W,0.01,0.80,030823,,,D*71
$GPGGA,213714.500,4308.3004,N,07726.2707,W,2,06,1.90,148.9,M,-34.4,M,0000,0000*50
$GPRMC,213714.750,A,4308.3004,N,07726.2707,W,0.01,33.95,030823,,,D*40
$GPGGA,213715.000,4308.3004,N,07726.2707,W,2,06,1.90,148.9,M,-34.4,M,0000,0000*54
$GPRMC,213715.250,A,4308.3004,N,07726.2707,W,0.01,14.83,030823,,,D*46
$GPGGA,213715.500,4308.3004,N,07726.2707,W,2,06,1.90,148.9,M,-34.4,M,0000,0000*51
$GPRMC,213715.750,A,4308.3004,N,07726.2707,W,0.03,37.14,030823,,,D*4E
$GPGGA,213716.000,4308.3004,N,07726.2707,W,2,06,1.90,148.9,M,-34.4,M,0000,0000*57
$GPRMC,213716.250,A,4308.3004,N,07726.2706,W,0.01,21.66,030823,,,D*49
$GPGGA,213716.500,4308.3004,N,07726.2706,W,2,06,1.90,148.9,M,-34.4,M,0000,0000*53
$GPRMC,213716.750,A,4308.3004,N,07726.2706,W,0.01,24.04,030823,,,D*4D
$GPGGA,213717.000,4308.3004,N,07726.2706,W,2,06,1.90,148.9,M,-34.4,M,0000,0000*57
$GPRMC,213717.250,A,4308.3005,N,07726.2706,W,0.01,335.99,030823,,,D*7F
$GPGGA,213717.500,4308.3005,N,07726.2706,W,2,06,1.90,148.9,M,-34.4,M,0000,0000*53
$GPRMC,213717.750,A,4308.3005,N,07726.2706,W,0.02,42.30,030823,,,D*49
$GPGGA,213718.000,4308.3005,N,07726.2706,W,2,06,1.90,148.9,M,-34.4,M,0000,0000*59
$GPRMC,213718.250,A,4308.3005,N,07726.2706,W,0.02,52.69,030823,,,D*4E
$GPGGA,213718.500,4308.3005,N,07726.2706,W,2,06,1.90,148.9,M,-34.4,M,0000,0000*5C
$GPRMC,213718.750,A,4308.3005,N,07726.2706,W,0.01,67.17,030823,,,D*47
$GPGGA,213719.000,4308.3005,N,07726.2706,W,2,06,1.90,148.9,M,-34.4,M,0000,0000*58
$GPRMC,213719.250,A,4308.3005,N,07726.2706,W,0.00,26.42,030823,,,D*47
$GPGGA,213719.500,4308.3005,N,07726.2706,W,2,06,1.90,148.9,M,-34.4,M,0000,0000*5D
$GPRMC,213719.750,A,4308.3005,N,07726.2706,W,0.03,49.14,030823,,,D*4B
$GPGGA,213720.000,4308.3005,N,07726.2706,W,2,06,1.90,148.9,M,-34.4,M,0000,0000*52
$GPRMC,213720.250,A,4308.3005,N,07726.2706,W,0.01,41.61,030823,,,D*4C
$GPGGA,213720.500,4308.3005,N,07726.2706,W,2,06,1.90,149.0,M,-34.4,M,0000,0000*5F
$GPRMC,213720.750,A,4308.3005,N,07726.2706,W,0.02,80.67,030823,,,D*41
$GPGGA,213721.000,4308.3005,N,07726.2706,W,2,06,1.90,149.0,M,-34.4,M,0000,0000*5B
$GPRMC,213721.250,A,4308.3005,N,07726.2706,W,0.02,70.19,030823,,,D*43
$GPGGA,213721.500,4308.3005,N,07726.2706,W,2,06,1.90,149.0,M,-34.4,M,0000,0000*5E
$GPRMC,213721.750,A,4308.3005,N,07726.2706,W,0.02,67.25,030823,,,D*4F
$GPGGA,213722.000,4308.3005,N,07726.2706,W,2,06,1.90,149.0,M,-34.4,M,0000,0000*58
$GPRMC,213722.250,A,4308.3005,N,07726.2706,W,0.01,54.12,030823,,,D*4E
$GPGGA,213722.500,4308.3005,N,07726.2706,W,2,06,1.90,149.0,M,-34.4,M,0000,0000*5D
$GPRMC,213722.750,A,4308.3005,N,07726.2706,W,0.02,60.12,030823,,,D*4F
$GPGGA,213723.000,4308.3005,N,07726.2706,W,2,06,1.90,149.0,M,-34.4,M,0000,0000*59
$GPRMC,213723.250,A,4308.3005,N,07726.2706,W,0.01,71.23,030823,,,D*4A
$GPGGA,213723.500,4308.3005,N,07726.2706,W,2,06,1.90,149.0,M,-34.4,M,0000,0000*5C
$GPRMC,213723.750,A,4308.3005,N,07726.2706,W,0.03,56.80,030823,,,D*41
$GPGGA,213724.000,4308.3005,N,07726.2706,W,2,06,1.90,149.0,M,-34.4,M,0000,0000*5E
$GPRMC,213724.250,A,4308.3005,N,07726.2705,W,0.02,57.08,030823,,,D*40
$GPGGA,213724.500,4308.3005,N,07726.2705,W,2,06,1.90,149.0,M,-34.4,M,0000,0000*58
$GPRMC,213724.750,A,4308.3005,N,07726.2705,W,0.02,47.90,030823,,,D*45
$GPGGA,213725.000,4308.3005,N,07726.2705,W,2,06,1.90,149.0,M,-34.4,M,0000,0000*5C
$GPRMC,213725.250,A,4308.3005,N,07726.2705,W,0.01,62.01,030823,,,D*4D
$GPGGA,213725.500,4308.3005,N,07726.2705,W,2,06,1.90,149.0,M,-34.4,M,0000,0000*59
$GPRMC,213725.750,A,4308.3005,N,07726.2705,W,0.01,77.64,030823,,,D*4F
$GPGGA,213726.000,4308.3005,N,07726.2705,W,2,06,1.90,149.0,M,-34.4,M,0000,0000*5F
$GPRMC,213726.250,A,4308.3005,N,07726.2705,W,0.01,40.84,030823,,,D*43
$GPGGA,213726.500,4308.3005,N,07726.2705,W,2,06,1.90,149.0,M,-34.4,M,0000,0000*5A
$GPRMC,213726.750,A,4308.3005,N,07726.2705,W,0.02,54.90,030823,,,D*45
$GPGGA,213727.000,4308.3005,N,07726.2705,W,2,06,1.90,149.0,M,-34.4,M,0000,0000*5E
$GPRMC,213727.250,A,4308.3005,N,07726.2705,W,0.02,47.26,030823,,,D*4E
$GPGGA,213727.500,4308.3005,N,07726.2705,W,2,06,1.90,149.0,M,-34.4,M,0000,0000*5B
$GPRMC,213727.750,A,4308.3005,N,07726.2705,W,0.02,28.50,030823,,,D*43
$GPGGA,213728.000,4308.3005,N,07726.2705,W,2,06,1.90,149.0,M,-34.4,M,0000,0000*51
$GPRMC,213728.250,A,4308.3005,N,07726.2705,W,0.01,5.52,030823,,,D*77
$GPGGA,213728.500,4308.3006,N,07726.2705,W,2,06,1.90,149.0,M,-34.4,M,0000,0000*57
$GPRMC,213728.750,A,4308.3006,N,07726.2705,W,0.02,65.85,030823,,,D*4E
$GPGGA,213729.000,4308.3006,N,07726.2705,W,2,06,1.90,149.0,M,-34.4,M,0000,0000*53
$GPRMC,213729.250,A,4308.3006,N,07726.2705,W,0.01,359.23,030823,,,D*79
$GPGGA,213729.500,4308.3006,N,07726.2705,W,2,06,1.90,149.0,M,-34.4,M,0000,0000*56
$GPRMC,213729.750,A,4308.3006,N,07726.2705,W,0.00,94.29,030823,,,D*45
$GPGGA,213730.000,4308.3006,N,07726.2705,W,2,06,1.90,149.0,M,-34.4,M,0000,0000*5B
$GPRMC,213730.250,A,4308.3006,N,07726.2705,W,0.01,331.16,030823,,,D*79
$GPGGA,213730.500,4308.3006,N,07726.2705,W,2,06,1.90,149.0,M,-34.4,M,0000,0000*5E
$GPRMC,213730.750,A,4308.3006,N,07726.2705,W,0.02,37.90,030823,,,D*44
$GPGGA,213731.000,4308.3006,N,07726.2705,W,2,06,1.90,149.0,M,-34.4,M,0000,0000*5A
$GPRMC,213731.250,A,4308.3006,N,07726.2705,W,0.01,20.96,030823,,,D*43
$GPGGA,213731.500,4308.3006,N,07726.2705,W,2,06,1.90,149.0,M,-34.4,M,0000,0000*5F
$GPRMC,213731.750,A,4308.3006,N,07726.2705,W,0.02,46.20,030823,,,D*48
$GPGGA,213732.000,4308.3006,N,07726.2705,W,2,06,1.90,149.1,M,-34.4,M,0000,0000*58
$GPRMC,213732.250,A,4308.3006,N,07726.2705,W,0.02,22.41,030823,,,D*4B
$GPGGA,213732.500,4308.3006,N,07726.2705,W,2,06,1.90,149.1,M,-34.4,M,0000,0000*5D
$GPRMC,213732.750,A,4308.3006,N,07726.2705,W,0.01,169.68,030823,,,D*78
$GPGGA,213733.000,4308.3006,N,07726.2705,W,2,06,1.90,149.1,M,-34.4,M,0000,0000*59
$GPRMC,213733.250,A,4308.3006,N,07726.2705,W,0.01,358.61,030823,,,D*75
$GPGGA,213733.500,4308.3006,N,07726.2705,W,2,06,1.90,149.1,M,-34.4,M,0000,0000*5C
$GPRMC,213733.750,A,4308.3006,N,07726.2705,W,0.01,18.41,030823,,,D*45
$GPGGA,213734.000,4308.3006,N,07726.2705,W,2,06,1.90,149.1,M,-34.4,M,0000,0000*5E
$GPRMC,213734.250,A,4308.3006,N,07726.2705,W,0.00,0.00,030823,,,D*7A
$GPGGA,213734.500,4308.3006,N,07726.2705,W,2,06,1.90,149.1,M,-34.4,M,0000,0000*5B
$GPRMC,213734.750,A,4308.3006,N,07726.2705,W,0.02,28.73,030823,,,D*43
$GPGGA,213735.000,4308.3006,N,07726.2705,W,2,06,1.90,149.1,M,-34.4,M,0000,0000*5F
$GPRMC,213735.250,A,4308.3006,N,07726.2705,W,0.01,348.20,030823,,,D*77
$GPGGA,213735.500,4308.3006,N,07726.2705,W,2,06,1.90,149.1,M,-34.4,M,0000,0000*5A
$GPRMC,213735.750,A,4308.3006,N,07726.2705,W,0.01,175.06,030823,,,D*7A
$GPGGA,213736.000,4308.3006,N,07726.2705,W,2,06,1.90,149.1,M,-34.4,M,0000,0000*5C
$GPRMC,213736.250,A,4308.3006,N,07726.2705,W,0.01,324.80,030823,,,D*74
$GPGGA,213736.500,4308.3006,N,07726.2705,W,2,06,1.90,149.1,M,-34.4,M,0000,0000*59
$GPRMC,213736.750,A,4308.3006,N,07726.2705,W,0.03,16.70,030823,,,D*4E
$GPGGA,213737.000,4308.3006,N,07726.2705,W,2,06,1.90,149.1,M,-34.4,M,0000,0000*5D
$GPRMC,213737.250,A,4308.3006,N,07726.2705,W,0.00,346.13,030823,,,D*7A
$GPGGA,213737.500,4308.3006,N,07726.2705,W,2,06,1.90,149.1,M,-34.4,M,0000,0000*58
$GPRMC,213737.750,A,4308.3006,N,07726.2705,W,0.00,105.73,030823,,,D*7C
$GPGGA,213738.000,4308.3006,N,07726.2705,W,2,06,1.90,149.1,M,-34.4,M,0000,0000*52
$GPRMC,213738.250,A,4308.3006,N,07726.2705,W,0.01,101.04,030823,,,D*73
$GPGGA,213738.500,4308.3006,N,07726.2705,W,2,06,1.90,149.1,M,-34.4,M,0000,0000*57
$GPRMC,213738.750,A,4308.3006,N,07726.2705,W,0.01,47.21,030823,,,D*42
$GPGGA,213739.000,4308.3006,N,07726.2705,W,2,06,1.90,149.1,M,-34.4,M,0000,0000*53
$GPRMC,213739.250,A,4308.3006,N,07726.2705,W,0.01,9.54,030823,,,D*7E
$GPGGA,213739.500,4308.3006,N,07726.2705,W,2,06,1.90,149.1,M,-34.4,M,0000,0000*56
$GPRMC,213739.750,A,4308.3006,N,07726.2705,W,0.00,339.27,030823,,,D*7E
$GPGGA,213740.000,4308.3006,N,07726.2705,W,2,06,1.90,149.1,M,-34.4,M,0000,0000*5D
$GPRMC,213740.250,A,4308.3006,N,07726.2705,W,0.00,308.16,030823,,,D*75
$GPGGA,213740.500,4308.3006,N,07726.2705,W,2,06,1.90,149.1,M,-34.4,M,0000,0000*58
$GPRMC,213740.750,A,4308.3006,N,07726.2705,W,0.01,201.24,030823,,,D*78
$GPGGA,213741.000,4308.3006,N,07726.2705,W,2,06,1.90,149.1,M,-34.4,M,0000,0000*5C
$GPRMC,213741.250,A,4308.3006,N,07726.2705,W,0.00,110.93,030823,,,D*72
$GPGGA,213741.500,4308.3006,N,07726.2705,W,2,06,1.90,149.1,M,-34.4,M,0000,0000*59
$GPRMC,213741.750,A,4308.3006,N,07726.2705,W,0.00,19.52,030823,,,D*42
$GPGGA,213742.000,4308.3006,N,07726.2705,W,2,06,1.90,149.0,M,-34.4,M,0000,0000*5E
$GPRMC,213742.250,A,4308.3006,N,07726.2705,W,0.00,285.90,030823,,,D*7D
