Vers 81
USE_SERIAL_FEEDBACK=true
DEVELOPMENT_MODE=false
USE_RMC_ONLY=false

$GPRMC,230427.500,A,4308.3060,N,07726.2617,W,0.05,221.56,230923,,,A*7B
$GPGGA,230427.750,4308.3062,N,07726.2617,W,1,04,2.57,158.6,M,-34.4,M,,*52
$GPRMC,230428.000,A,4308.3063,N,07726.2616,W,0.05,212.70,230923,,,A*77
$GPGGA,230428.250,4308.3063,N,07726.2616,W,1,04,2.57,158.8,M,-34.4,M,,*56
$GPRMC,230428.500,A,4308.3063,N,07726.2616,W,0.10,177.19,230923,,,A*79
$GPGGA,230428.750,4308.3063,N,07726.2615,W,1,04,2.57,159.1,M,-34.4,M,,*58
$GPRMC,230429.000,A,4308.3063,N,07726.2615,W,0.03,191.27,230923,,,A*79
$GPGGA,230429.250,4308.3063,N,07726.2615,W,1,04,2.57,159.5,M,-34.4,M,,*58
$GPRMC,230429.500,A,4308.3063,N,07726.2615,W,0.06,203.90,230923,,,A*7D
$GPGGA,230429.750,4308.3062,N,07726.2615,W,1,04,2.57,160.1,M,-34.4,M,,*52
$GPRMC,230430.000,A,4308.3062,N,07726.2615,W,0.02,108.69,230923,,,A*7B
$GPGGA,230430.250,4308.3063,N,07726.2615,W,1,04,2.57,160.5,M,-34.4,M,,*5A
$GPRMC,230430.500,A,4308.3063,N,07726.2615,W,0.05,122.04,230923,,,A*7B
$GPGGA,230430.750,4308.3063,N,07726.2615,W,1,04,2.57,160.8,M,-34.4,M,,*52
$GPRMC,230431.000,A,4308.3063,N,07726.2615,W,0.05,195.34,230923,,,A*70
$GPGGA,230431.250,4308.3063,N,07726.2615,W,1,04,2.57,161.3,M,-34.4,M,,*5C
$GPRMC,230431.500,A,4308.3063,N,07726.2616,W,0.02,155.15,230923,,,A*7E
$GPGGA,230431.750,4308.3063,N,07726.2616,W,1,04,2.57,161.8,M,-34.4,M,,*51
$GPRMC,230432.000,A,4308.3063,N,07726.2616,W,0.01,161.99,230923,,,A*78
$GPGGA,230432.250,4308.3070,N,07726.2616,W,1,06,1.79,161.4,M,-34.4,M,,*54
$GPRMC,230432.500,A,4308.3075,N,07726.2615,W,0.05,32.86,230923,,,A*44
$GPGGA,230432.750,4308.3079,N,07726.2615,W,1,06,1.79,160.5,M,-34.4,M,,*5B
$GPRMC,230433.000,A,4308.3084,N,07726.2615,W,0.03,147.65,230923,,,A*76
$GPGGA,230433.250,4308.3086,N,07726.2615,W,1,06,1.79,159.8,M,-34.4,M,,*58
$GPRMC,230433.500,A,4308.3088,N,07726.2615,W,0.03,85.45,230923,,,A*42
$GPGGA,230433.750,4308.3090,N,07726.2615,W,1,06,1.79,159.4,M,-34.4,M,,*56
$GPRMC,230434.000,A,4308.3092,N,07726.2615,W,0.02,48.37,230923,,,A*4E
$GPGGA,230434.250,4308.3094,N,07726.2616,W,1,06,1.79,159.4,M,-34.4,M,,*53
$GPRMC,230434.500,A,4308.3095,N,07726.2616,W,0.05,64.15,230923,,,A*46
$GPGGA,230434.750,4308.3096,N,07726.2616,W,1,06,1.79,159.4,M,-34.4,M,,*54
$GPRMC,230435.000,A,4308.3097,N,07726.2617,W,0.08,42.03,230923,,,A*4F
$GPGGA,230435.250,4308.3099,N,07726.2617,W,1,06,1.79,159.5,M,-34.4,M,,*5F
$GPRMC,230435.500,A,4308.3100,N,07726.2618,W,0.01,45.62,230923,,,A*43
$GPGGA,230435.750,4308.3101,N,07726.2618,W,1,06,1.79,159.7,M,-34.4,M,,*57
$GPRMC,230436.000,A,4308.3102,N,07726.2619,W,0.03,319.63,230923,,,A*7F
$GPGGA,230436.250,4308.3103,N,07726.2619,W,1,06,1.79,160.0,M,-34.4,M,,*5F
$GPRMC,230436.500,A,4308.3103,N,07726.2620,W,0.04,18.21,230923,,,A*42
$GPGGA,230436.750,4308.3104,N,07726.2620,W,1,06,1.79,160.5,M,-34.4,M,,*52
$GPRMC,230437.000,A,4308.3105,N,07726.2621,W,0.08,4.23,230923,,,A*72
$GPGGA,230437.250,4308.3106,N,07726.2621,W,1,06,2.19,160.9,M,-34.4,M,,*5C
$GPRMC,230437.500,A,4308.3107,N,07726.2622,W,0.08,355.74,230923,,,A*73
$GPGGA,230437.750,4308.3108,N,07726.2622,W,1,06,2.19,161.1,M,-34.4,M,,*5D
$GPRMC,230438.000,A,4308.3108,N,07726.2623,W,0.13,26.50,230923,,,A*4C
$GPGGA,230438.250,4308.3108,N,07726.2623,W,1,06,1.79,161.3,M,-34.4,M,,*51
$GPRMC,230438.500,A,4308.3108,N,07726.2623,W,0.11,12.89,230923,,,A*48
$GPGGA,230438.750,4308.3108,N,07726.2624,W,1,06,2.19,161.5,M,-34.4,M,,*50
$GPRMC,230439.000,A,4308.3108,N,07726.2624,W,0.10,349.47,230923,,,A*75
$GPGGA,230439.250,4308.3109,N,07726.2625,W,1,06,2.19,161.7,M,-34.4,M,,*56
$GPRMC,230439.500,A,4308.3108,N,07726.2625,W,0.06,320.62,230923,,,A*7E
$GPGGA,230439.750,4308.3108,N,07726.2626,W,1,06,1.79,161.9,M,-34.4,M,,*5A
$GPRMC,230440.000,A,4308.3108,N,07726.2626,W,0.08,284.92,230923,,,A*78
$GPGGA,230440.250,4308.3108,N,07726.2626,W,1,06,1.79,162.0,M,-34.4,M,,*5B
$GPRMC,230440.500,A,4308.3109,N,07726.2626,W,0.05,5.96,230923,,,A*7E
$GPGGA,230440.750,4308.3109,N,07726.2627,W,1,06,2.19,162.2,M,-34.4,M,,*59
$GPRMC,230441.000,A,4308.3109,N,07726.2627,W,0.06,1.33,230923,,,A*73
$GPGGA,230441.250,4308.3109,N,07726.2627,W,1,06,2.19,162.3,M,-34.4,M,,*5C
$GPRMC,230441.500,A,4308.3109,N,07726.2627,W,0.06,23.03,230923,,,A*45
$GPGGA,230441.750,4308.3109,N,07726.2627,W,1,06,1.79,162.3,M,-34.4,M,,*5C
$GPRMC,230442.000,A,4308.3108,N,07726.2627,W,0.08,15.80,230923,,,A*42
$GPGGA,230442.250,4308.3108,N,07726.2628,W,1,06,1.79,162.4,M,-34.4,M,,*53
$GPRMC,230442.500,A,4308.3108,N,07726.2628,W,0.08,22.61,230923,,,A*43
$GPGGA,230442.750,4308.3108,N,07726.2628,W,1,06,1.79,162.4,M,-34.4,M,,*56
$GPRMC,230443.000,A,4308.3108,N,07726.2628,W,0.10,50.73,230923,,,A*48
$GPGGA,230443.250,4308.3108,N,07726.2627,W,1,06,1.79,162.6,M,-34.4,M,,*5F
$GPRMC,230443.500,A,4308.3108,N,07726.2627,W,0.11,63.28,230923,,,A*4D
$GPGGA,230443.750,4308.3108,N,07726.2627,W,1,06,1.79,162.7,M,-34.4,M,,*5B
$GPRMC,230444.000,A,4308.3108,N,07726.2628,W,0.08,76.22,230923,,,A*46
$GPGGA,230444.250,4308.3108,N,07726.2628,W,1,06,1.79,162.8,M,-34.4,M,,*59
$GPRMC,230444.500,A,4308.3108,N,07726.2628,W,0.06,58.85,230923,,,A*4C
$GPGGA,230444.750,4308.3108,N,07726.2628,W,1,06,1.79,163.0,M,-34.4,M,,*55
$GPRMC,230445.000,A,4308.3108,N,07726.2628,W,0.02,95.52,230923,,,A*47
$GPGGA,230445.250,4308.3107,N,07726.2629,W,1,06,1.79,163.1,M,-34.4,M,,*5E
$GPRMC,230445.500,A,4308.3108,N,07726.2629,W,0.03,196.88,230923,,,A*77
$GPGGA,230445.750,4308.3108,N,07726.2630,W,1,06,1.79,163.3,M,-34.4,M,,*5E
$GPRMC,230446.000,A,4308.3107,N,07726.2630,W,0.14,250.46,230923,,,A*7B
$GPGGA,230446.250,4308.3107,N,07726.2630,W,1,06,1.79,163.4,M,-34.4,M,,*50
$GPRMC,230446.500,A,4308.3107,N,07726.2631,W,0.11,242.67,230923,,,A*7A
$GPGGA,230446.750,4308.3107,N,07726.2631,W,1,06,1.79,163.6,M,-34.4,M,,*56
$GPRMC,230447.000,A,4308.3107,N,07726.2631,W,0.09,238.70,230923,,,A*7C
$GPGGA,230447.250,4308.3108,N,07726.2631,W,1,06,1.79,163.7,M,-34.4,M,,*5C
$GPRMC,230447.500,A,4308.3108,N,07726.2631,W,0.05,230.01,230923,,,A*74
$GPGGA,230447.750,4308.3109,N,07726.2631,W,1,06,1.79,163.7,M,-34.4,M,,*58
$GPRMC,230448.000,A,4308.3109,N,07726.2631,W,0.06,43.09,230923,,,A*42
$GPGGA,230448.250,4308.3109,N,07726.2631,W,1,06,1.79,163.8,M,-34.4,M,,*5D
$GPRMC,230448.500,A,4308.3109,N,07726.2631,W,0.05,155.98,230923,,,A*7A
$GPGGA,230448.750,4308.3110,N,07726.2631,W,1,06,1.79,163.8,M,-34.4,M,,*50
$GPRMC,230449.000,A,4308.3110,N,07726.2631,W,0.02,161.06,230923,,,A*71
$GPGGA,230449.250,4308.3111,N,07726.2631,W,1,06,1.79,163.9,M,-34.4,M,,*54
$GPRMC,230449.500,A,4308.3112,N,07726.2631,W,0.03,75.63,230923,,,A*40
$GPGGA,230449.750,4308.3112,N,07726.2632,W,1,06,1.79,164.0,M,-34.4,M,,*5F
$GPRMC,230450.000,A,4308.3113,N,07726.2632,W,0.07,6.85,230923,,,A*77
$GPGGA,230450.250,4308.3111,N,07726.2632,W,1,07,1.30,163.8,M,-34.4,M,,*52
$GPRMC,230450.500,A,4308.3108,N,07726.2631,W,0.07,118.05,230923,,,A*7D
$GPGGA,230450.750,4308.3106,N,07726.2631,W,1,07,1.23,163.5,M,-34.4,M,,*5D
$GPRMC,230451.000,A,4308.3104,N,07726.2631,W,0.03,155.46,230923,,,A*7F
$GPGGA,230451.250,4308.3103,N,07726.2631,W,1,07,1.23,163.1,M,-34.4,M,,*58
$GPRMC,230451.500,A,4308.3101,N,07726.2631,W,0.04,302.85,230923,,,A*77
$GPGGA,230451.750,4308.3100,N,07726.2631,W,1,07,1.23,162.8,M,-34.4,M,,*56
$GPRMC,230452.000,A,4308.3099,N,07726.2631,W,0.08,299.28,230923,,,A*79
$GPGGA,230452.250,4308.3098,N,07726.2630,W,1,07,1.23,162.6,M,-34.4,M,,*5F
$GPRMC,230452.500,A,4308.3097,N,07726.2630,W,0.02,19.02,230923,,,A*4B
$GPGGA,230452.750,4308.3096,N,07726.2630,W,1,07,1.23,162.5,M,-34.4,M,,*57
$GPRMC,230453.000,A,4308.3095,N,07726.2630,W,0.04,17.39,230923,,,A*4D
$GPGGA,230453.250,4308.3094,N,07726.2630,W,1,07,1.23,162.4,M,-34.4,M,,*50
$GPRMC,230453.500,A,4308.3094,N,07726.2630,W,0.03,21.85,230923,,,A*4C
$GPGGA,230453.750,4308.3093,N,07726.2630,W,1,07,1.23,162.3,M,-34.4,M,,*55
$GPRMC,230454.000,A,4308.3092,N,07726.2630,W,0.08,208.92,230923,,,A*7C
$GPGGA,230454.250,4308.3091,N,07726.2630,W,1,07,1.23,162.2,M,-34.4,M,,*54
$GPRMC,230454.500,A,4308.3091,N,07726.2630,W,0.01,8.04,230923,,,A*7E
$GPGGA,230454.750,4308.3090,N,07726.2630,W,1,07,1.30,162.2,M,-34.4,M,,*52
$GPRMC,230455.000,A,4308.3090,N,07726.2630,W,0.01,20.18,230923,,,A*4C
$GPGGA,230455.250,4308.3089,N,07726.2630,W,1,07,1.23,162.2,M,-34.4,M,,*5C
$GPRMC,230455.500,A,4308.3089,N,07726.2630,W,0.04,247.06,230923,,,A*78
$GPGGA,230455.750,4308.3088,N,07726.2630,W,1,07,1.23,162.2,M,-34.4,M,,*58
$GPRMC,230456.000,A,4308.3088,N,07726.2630,W,0.00,34.23,230923,,,A*4A
$GPGGA,230456.250,4308.3087,N,07726.2630,W,1,07,1.23,162.2,M,-34.4,M,,*51
$GPRMC,230456.500,A,4308.3087,N,07726.2630,W,0.03,2.77,230923,,,A*77
$GPGGA,230456.750,4308.3087,N,07726.2630,W,1,07,1.30,162.2,M,-34.4,M,,*56
$GPRMC,230457.000,A,4308.3086,N,07726.2630,W,0.05,332.97,230923,,,A*7A
$GPGGA,230457.250,4308.3086,N,07726.2630,W,1,07,1.23,162.2,M,-34.4,M,,*51
$GPRMC,230457.500,A,4308.3085,N,07726.2630,W,0.02,216.37,230923,,,A*76
$GPGGA,230457.750,4308.3085,N,07726.2630,W,1,07,1.23,162.2,M,-34.4,M,,*57
$GPRMC,230458.000,A,4308.3084,N,07726.2631,W,0.03,329.19,230923,,,A*7C
$GPGGA,230458.250,4308.3084,N,07726.2630,W,1,07,1.23,162.3,M,-34.4,M,,*5D
$GPRMC,230458.500,A,4308.3083,N,07726.2630,W,0.00,270.51,230923,,,A*7D
$GPGGA,230458.750,4308.3083,N,07726.2630,W,1,07,1.23,162.3,M,-34.4,M,,*5F
$GPRMC,230459.000,A,4308.3083,N,07726.2630,W,0.01,109.21,230923,,,A*72
$GPGGA,230459.250,4308.3082,N,07726.2630,W,1,07,1.23,162.3,M,-34.4,M,,*5A
$GPRMC,230459.500,A,4308.3082,N,07726.2630,W,0.05,330.26,230923,,,A*7D
$GPGGA,230459.750,4308.3082,N,07726.2630,W,1,07,1.23,162.3,M,-34.4,M,,*5F
$GPRMC,230500.000,A,4308.3082,N,07726.2630,W,0.06,357.41,230923,,,A*76
$GPGGA,230500.250,4308.3082,N,07726.2630,W,1,07,1.30,162.3,M,-34.4,M,,*55
$GPRMC,230500.500,A,4308.3082,N,07726.2631,W,0.03,344.78,230923,,,A*7F
$GPGGA,230500.750,4308.3082,N,07726.2631,W,1,07,1.24,162.3,M,-34.4,M,,*54
$GPRMC,230501.000,A,4308.3082,N,07726.2631,W,0.05,336.52,230923,,,A*70
$GPGGA,230501.250,4308.3082,N,07726.2631,W,1,07,1.23,162.3,M,-34.4,M,,*57
$GPRMC,230501.500,A,4308.3082,N,07726.2631,W,0.03,270.46,230923,,,A*75
$GPGGA,230501.750,4308.3082,N,07726.2631,W,1,07,1.23,162.3,M,-34.4,M,,*52
$GPRMC,230502.000,A,4308.3082,N,07726.2631,W,0.01,27.09,230923,,,A*4A
$GPGGA,230502.250,4308.3082,N,07726.2631,W,1,07,1.23,162.3,M,-34.4,M,,*54
$GPRMC,230502.500,A,4308.3082,N,07726.2631,W,0.06,332.76,230923,,,A*77
$GPGGA,230502.750,4308.3082,N,07726.2631,W,1,07,1.23,162.3,M,-34.4,M,,*51
$GPRMC,230503.000,A,4308.3082,N,07726.2631,W,0.01,247.68,230923,,,A*78
$GPGGA,230503.250,4308.3082,N,07726.2631,W,1,07,1.23,162.3,M,-34.4,M,,*55
$GPRMC,230503.500,A,4308.3082,N,07726.2631,W,0.02,84.52,230923,,,A*4A
$GPGGA,230503.750,4308.3082,N,07726.2631,W,1,07,1.23,162.3,M,-34.4,M,,*50
$GPRMC,230504.000,A,4308.3082,N,07726.2631,W,0.04,348.62,230923,,,A*7E
$GPGGA,230504.250,4308.3082,N,07726.2631,W,1,07,1.30,162.3,M,-34.4,M,,*50
$GPRMC,230504.500,A,4308.3082,N,07726.2630,W,0.01,258.39,230923,,,A*71
$GPGGA,230504.750,4308.3082,N,07726.2630,W,1,07,1.24,162.3,M,-34.4,M,,*51
$GPRMC,230505.000,A,4308.3082,N,07726.2631,W,0.00,17.25,230923,,,A*41
$GPGGA,230505.250,4308.3082,N,07726.2631,W,1,07,1.23,162.3,M,-34.4,M,,*53
$GPRMC,230505.500,A,4308.3082,N,07726.2631,W,0.01,250.55,230923,,,A*73
$GPGGA,230505.750,4308.3082,N,07726.2631,W,1,07,1.24,162.3,M,-34.4,M,,*51
$GPRMC,230506.000,A,4308.3082,N,07726.2631,W,0.06,142.09,230923,,,A*7B
$GPGGA,230506.250,4308.3082,N,07726.2630,W,1,07,1.23,162.3,M,-34.4,M,,*51
$GPRMC,230506.500,A,4308.3082,N,07726.2631,W,0.05,197.77,230923,,,A*7C
$GPGGA,230506.750,4308.3082,N,07726.2631,W,1,07,1.23,162.3,M,-34.4,M,,*55
$GPRMC,230507.000,A,4308.3082,N,07726.2630,W,0.03,193.25,230923,,,A*7C
$GPGGA,230507.250,4308.3082,N,07726.2631,W,1,07,1.23,162.3,M,-34.4,M,,*51
$GPRMC,230507.500,A,4308.3082,N,07726.2630,W,0.02,61.40,230923,,,A*47
$GPGGA,230507.750,4308.3082,N,07726.2630,W,1,07,1.23,162.3,M,-34.4,M,,*55
$GPRMC,230508.000,A,4308.3082,N,07726.2630,W,0.00,127.36,230923,,,A*7D
$GPGGA,230508.250,4308.3082,N,07726.2630,W,1,07,1.23,162.3,M,-34.4,M,,*5F
$GPRMC,230508.500,A,4308.3082,N,07726.2630,W,0.01,189.05,230923,,,A*7D
$GPGGA,230508.750,4308.3082,N,07726.2630,W,1,07,1.30,162.3,M,-34.4,M,,*58
$GPRMC,230509.000,A,4308.3082,N,07726.2630,W,0.02,173.55,230923,,,A*7A
$GPGGA,230509.250,4308.3082,N,07726.2630,W,1,07,1.30,162.3,M,-34.4,M,,*5C
$GPRMC,230509.500,A,4308.3082,N,07726.2630,W,0.00,5.21,230923,,,A*7E
$GPGGA,230509.750,4308.3082,N,07726.2630,W,1,07,1.31,162.3,M,-34.4,M,,*58
$GPRMC,230510.000,A,4308.3082,N,07726.2630,W,0.00,174.29,230923,,,A*7C
$GPGGA,230510.250,4308.3082,N,07726.2630,W,1,07,1.31,162.3,M,-34.4,M,,*55
$GPRMC,230510.500,A,4308.3082,N,07726.2630,W,0.01,100.32,230923,,,A*71
$GPGGA,230510.750,4308.3082,N,07726.2630,W,1,07,1.31,162.3,M,-34.4,M,,*50
$GPRMC,230511.000,A,4308.3082,N,07726.2630,W,0.01,122.21,230923,,,A*77
$GPGGA,230511.250,4308.3082,N,07726.2630,W,1,07,1.30,162.3,M,-34.4,M,,*55
$GPRMC,230511.500,A,4308.3082,N,07726.2630,W,0.01,61.89,230923,,,A*46
$GPGGA,230511.750,4308.3082,N,07726.2630,W,1,07,1.31,162.3,M,-34.4,M,,*51
$GPRMC,230512.000,A,4308.3082,N,07726.2630,W,0.00,183.61,230923,,,A*7A
$GPGGA,230512.250,4308.3082,N,07726.2630,W,1,07,1.31,162.3,M,-34.4,M,,*57
$GPRMC,230512.500,A,4308.3082,N,07726.2630,W,0.00,0.00,230923,,,A*72
$GPGGA,230512.750,4308.3082,N,07726.2630,W,1,07,1.31,162.3,M,-34.4,M,,*52
$GPRMC,230513.000,A,4308.3082,N,07726.2630,W,0.01,274.51,230923,,,A*72
$GPGGA,230513.250,4308.3082,N,07726.2630,W,1,07,1.31,162.3,M,-34.4,M,,*56
$GPRMC,230513.500,A,4308.3082,N,07726.2630,W,0.01,172.87,230923,,,A*79
$GPGGA,230513.750,4308.3082,N,07726.2630,W,1,07,1.31,162.3,M,-34.4,M,,*53
$GPRMC,230514.000,A,4308.3082,N,07726.2630,W,0.01,96.57,230923,,,A*4D
$GPGGA,230514.250,4308.3082,N,07726.2630,W,1,07,1.31,162.3,M,-34.4,M,,*51
$GPRMC,230514.500,A,4308.3082,N,07726.2630,W,0.00,203.65,230923,,,A*76
$GPGGA,230514.750,4308.3082,N,07726.2630,W,1,07,1.31,162.3,M,-34.4,M,,*54
$GPRMC,230515.000,A,4308.3082,N,07726.2630,W,0.01,170.74,230923,,,A*74
$GPGGA,230515.250,4308.3082,N,07726.2630,W,1,07,1.31,162.3,M,-34.4,M,,*50
$GPRMC,230515.500,A,4308.3082,N,07726.2630,W,0.00,244.45,230923,,,A*76
$GPGGA,230515.750,4308.3082,N,07726.2630,W,1,07,1.31,162.3,M,-34.4,M,,*55
$GPRMC,230516.000,A,4308.3082,N,07726.2630,W,0.00,124.33,230923,,,A*74
$GPGGA,230516.250,4308.3082,N,07726.2630,W,1,07,1.31,162.3,M,-34.4,M,,*53
$GPRMC,230516.500,A,4308.3082,N,07726.2630,W,0.00,355.34,230923,,,A*72
$GPGGA,230516.750,4308.3082,N,07726.2630,W,1,07,1.31,162.3,M,-34.4,M,,*56
$GPRMC,230517.000,A,4308.3082,N,07726.2630,W,0.01,16.10,230923,,,A*45
$GPGGA,230517.250,4308.3082,N,07726.2630,W,1,07,1.31,162.3,M,-34.4,M,,*52
$GPRMC,230517.500,A,4308.3082,N,07726.2630,W,0.01,147.65,230923,,,A*77
$GPGGA,230517.750,4308.3082,N,07726.2630,W,1,07,1.31,162.3,M,-34.4,M,,*57
$GPRMC,230518.000,A,4308.3082,N,07726.2630,W,0.00,206.21,230923,,,A*7A
$GPGGA,230518.250,4308.3082,N,07726.2630,W,1,07,1.31,162.3,M,-34.4,M,,*5D
$GPRMC,230518.500,A,4308.3082,N,07726.2630,W,0.01,351.59,230923,,,A*72
$GPGGA,230518.750,4308.3082,N,07726.2630,W,1,07,1.31,162.3,M,-34.4,M,,*58
$GPRMC,230519.000,A,4308.3082,N,07726.2630,W,0.01,236.15,230923,,,A*7E
$GPGGA,230519.250,4308.3082,N,07726.2630,W,1,07,1.31,162.3,M,-34.4,M,,*5C
$GPRMC,230519.500,A,4308.3082,N,07726.2630,W,0.01,96.05,230923,,,A*42
$GPGGA,230519.750,4308.3082,N,07726.2630,W,1,07,1.31,162.3,M,-34.4,M,,*59
$GPRMC,230520.000,A,4308.3082,N,07726.2630,W,0.00,144.22,230923,,,A*77
$GPGGA,230520.250,4308.3082,N,07726.2630,W,1,07,1.31,162.3,M,-34.4,M,,*56
$GPRMC,230520.500,A,4308.3082,N,07726.2630,W,0.00,315.45,230923,,,A*75
$GPGGA,230520.750,4308.3082,N,07726.2630,W,1,07,1.31,162.3,M,-34.4,M,,*53
$GPRMC,230521.000,A,4308.3082,N,07726.2630,W,0.00,0.00,230923,,,A*77
$GPGGA,230521.250,4308.3082,N,07726.2630,W,1,07,1.31,162.3,M,-34.4,M,,*57
$GPRMC,230521.500,A,4308.3082,N,07726.2630,W,0.00,117.31,230923,,,A*77
$GPGGA,230521.750,4308.3082,N,07726.2630,W,1,07,1.31,162.3,M,-34.4,M,,*52
$GPRMC,230522.000,A,4308.3082,N,07726.2630,W,0.01,4.21,230923,,,A*72
$GPGGA,230522.250,4308.3082,N,07726.2630,W,1,07,1.31,162.3,M,-34.4,M,,*54
$GPRMC,230522.500,A,4308.3082,N,07726.2630,W,0.00,314.41,230923,,,A*72
$GPGGA,230522.750,4308.3082,N,07726.2630,W,1,07,1.31,162.3,M,-34.4,M,,*51
$GPRMC,230523.000,A,4308.3082,N,07726.2630,W,0.00,190.69,230923,,,A*72
$GPGGA,230523.250,4308.3082,N,07726.2630,W,1,07,1.31,162.3,M,-34.4,M,,*55
$GPRMC,230523.500,A,4308.3082,N,07726.2630,W,0.01,256.10,230923,,,A*71
$GPGGA,230523.750,4308.3082,N,07726.2630,W,1,07,1.31,162.3,M,-34.4,M,,*50
$GPRMC,230524.000,A,4308.3082,N,07726.2630,W,0.01,28.26,230923,,,A*4D
$GPGGA,230524.250,4308.3082,N,07726.2630,W,1,07,1.31,162.3,M,-34.4,M,,*52
$GPRMC,230524.500,A,4308.3082,N,07726.2630,W,0.00,32.19,230923,,,A*4E
$GPGGA,230524.750,4308.3082,N,07726.2630,W,1,07,1.31,162.3,M,-34.4,M,,*57
$GPRMC,230525.000,A,4308.3082,N,07726.2630,W,0.00,171.06,230923,,,A*72
$GPGGA,230525.250,4308.3082,N,07726.2630,W,1,07,1.31,162.3,M,-34.4,M,,*53
$GPRMC,230525.500,A,4308.3082,N,07726.2630,W,0.00,349.14,230923,,,A*7D
$GPGGA,230525.750,4308.3082,N,07726.2630,W,1,07,1.31,162.3,M,-34.4,M,,*56
$GPRMC,230526.000,A,4308.3082,N,07726.2630,W,0.00,63.88,230923,,,A*45
$GPGGA,230526.250,4308.3082,N,07726.2630,W,1,07,1.31,162.3,M,-34.4,M,,*50
$GPRMC,230526.500,A,4308.3081,N,07726.2630,W,0.00,231.75,230923,,,A*74
$GPGGA,230526.750,4308.3081,N,07726.2630,W,1,07,1.31,162.3,M,-34.4,M,,*56
$GPRMC,230527.000,A,4308.3081,N,07726.2630,W,0.01,31.52,230923,,,A*46
$GPGGA,230527.250,4308.3081,N,07726.2630,W,1,07,1.31,162.3,M,-34.4,M,,*52
$GPRMC,230527.500,A,4308.3081,N,07726.2630,W,0.01,280.62,230923,,,A*78
$GPGGA,230527.750,4308.3081,N,07726.2630,W,1,07,1.31,162.3,M,-34.4,M,,*57
$GPRMC,230528.000,A,4308.3081,N,07726.2630,W,0.00,242.44,230923,,,A*79
$GPGGA,230528.250,4308.3081,N,07726.2630,W,1,07,1.31,162.3,M,-34.4,M,,*5D
$GPRMC,230528.500,A,4308.3081,N,07726.2630,W,0.00,154.86,230923,,,A*76
$GPGGA,230528.750,4308.3081,N,07726.2630,W,1,07,1.31,162.3,M,-34.4,M,,*58
$GPRMC,230529.000,A,4308.3081,N,07726.2630,W,0.01,112.07,230923,,,A*78
$GPGGA,230529.250,4308.3081,N,07726.2630,W,1,07,1.31,162.3,M,-34.4,M,,*5C
$GPRMC,230529.500,A,4308.3081,N,07726.2630,W,0.01,253.79,230923,,,A*72
$GPGGA,230529.750,4308.3081,N,07726.2630,W,1,07,1.31,162.3,M,-34.4,M,,*59
$GPRMC,230530.000,A,4308.3081,N,07726.2630,W,0.00,223.73,230923,,,A*73
$GPGGA,230530.250,4308.3081,N,07726.2630,W,1,07,1.31,162.3,M,-34.4,M,,*54
$GPRMC,230530.500,A,4308.3081,N,07726.2630,W,0.01,342.93,230923,,,A*7F
$GPGGA,230530.750,4308.3081,N,07726.2630,W,1,07,1.31,162.3,M,-34.4,M,,*51
$GPRMC,230531.000,A,4308.3081,N,07726.2630,W,0.01,347.40,230923,,,A*70
$GPGGA,230531.250,4308.3081,N,07726.2630,W,1,07,1.31,162.3,M,-34.4,M,,*55
$GPRMC,230531.500,A,4308.3081,N,07726.2630,W,0.00,23.78,230923,,,A*4E
$GPGGA,230531.750,4308.3081,N,07726.2630,W,1,07,1.31,162.3,M,-34.4,M,,*50
$GPRMC,230532.000,A,4308.3081,N,07726.2630,W,0.00,160.12,230923,,,A*72
$GPGGA,230532.250,4308.3081,N,07726.2630,W,1,07,1.31,162.3,M,-34.4,M,,*56
$GPRMC,230532.500,A,4308.3081,N,07726.2630,W,0.01,336.57,230923,,,A*76
$GPGGA,230532.750,4308.3081,N,07726.2630,W,1,07,1.31,162.3,M,-34.4,M,,*53
$GPRMC,230533.000,A,4308.3081,N,07726.2630,W,0.01,15.81,230923,,,A*4B
$GPGGA,230533.250,4308.3081,N,07726.2630,W,1,07,1.31,162.3,M,-34.4,M,,*57
$GPRMC,230533.500,A,4308.3081,N,07726.2630,W,0.00,275.73,230923,,,A*76
$GPGGA,230533.750,4308.3081,N,07726.2630,W,1,07,1.31,162.3,M,-34.4,M,,*52
$GPRMC,230534.000,A,4308.3081,N,07726.2630,W,0.01,221.54,230923,,,A*71
$GPGGA,230534.250,4308.3081,N,07726.2630,W,1,07,1.31,162.3,M,-34.4,M,,*50
$GPRMC,230534.500,A,4308.3081,N,07726.2630,W,0.01,101.19,230923,,,A*7C
$GPGGA,230534.750,4308.3081,N,07726.2630,W,1,07,1.31,162.3,M,-34.4,M,,*55
$GPRMC,230535.000,A,4308.3081,N,07726.2630,W,0.00,319.06,230923,,,A*7C
$GPGGA,230535.250,4308.3081,N,07726.2630,W,1,07,1.31,162.3,M,-34.4,M,,*51
$GPRMC,230535.500,A,4308.3081,N,07726.2630,W,0.02,316.89,230923,,,A*73
$GPGGA,230535.750,4308.3081,N,07726.2630,W,1,07,1.31,162.3,M,-34.4,M,,*54
$GPRMC,230536.000,A,4308.3081,N,07726.2630,W,0.00,230.48,230923,,,A*7F
$GPGGA,230536.250,4308.3081,N,07726.2630,W,1,07,1.31,162.3,M,-34.4,M,,*52
$GPRMC,230536.500,A,4308.3081,N,07726.2630,W,0.00,259.43,230923,,,A*7E
$GPGGA,230536.750,4308.3081,N,07726.2630,W,1,07,1.31,162.3,M,-34.4,M,,*57
$GPRMC,230537.000,A,4308.3081,N,07726.2630,W,0.00,13.72,230923,,,A*44
$GPGGA,230537.250,4308.3081,N,07726.2630,W,1,07,1.31,162.3,M,-34.4,M,,*53
$GPRMC,230537.500,A,4308.3081,N,07726.2630,W,0.01,30.81,230923,,,A*4D
$GPGGA,230537.750,4308.3081,N,07726.2630,W,1,07,1.31,162.3,M,-34.4,M,,*56
$GPRMC,230538.000,A,4308.3081,N,07726.2630,W,0.01,246.32,230923,,,A*7C
$GPGGA,230538.250,4308.3081,N,07726.2630,W,1,07,1.31,162.3,M,-34.4,M,,*5C
$GPRMC,230538.500,A,4308.3081,N,07726.2630,W,0.01,40.86,230923,,,A*42
$GPGGA,230538.750,4308.3081,N,07726.2630,W,1,07,1.31,162.3,M,-34.4,M,,*59
$GPRMC,230539.000,A,4308.3081,N,07726.2630,W,0.00,275.47,230923,,,A*7E
$GPGGA,230539.250,4308.3081,N,07726.2630,W,1,07,1.31,162.3,M,-34.4,M,,*5D
$GPRMC,230539.500,A,4308.3081,N,07726.2630,W,0.00,190.76,230923,,,A*71
$GPGGA,230539.750,4308.3081,N,07726.2630,W,1,07,1.31,162.3,M,-34.4,M,,*58
$GPRMC,230540.000,A,4308.3081,N,07726.2630,W,0.00,202.46,230923,,,A*71
$GPGGA,230540.250,4308.3081,N,07726.2630,W,1,07,1.31,162.3,M,-34.4,M,,*53
$GPRMC,230540.500,A,4308.3081,N,07726.2630,W,0.00,181.59,230923,,,A*72
$GPGGA,230540.750,4308.3081,N,07726.2630,W,1,07,1.31,162.3,M,-34.4,M,,*56
$GPRMC,230541.000,A,4308.3081,N,07726.2630,W,0.01,275.94,230923,,,A*7E
$GPGGA,230541.250,4308.3081,N,07726.2630,W,1,07,1.31,162.3,M,-34.4,M,,*52
$GPRMC,230541.500,A,4308.3081,N,07726.2630,W,0.00,195.74,230923,,,A*79
$GPGGA,230541.750,4308.3081,N,07726.2630,W,1,07,1.31,162.3,M,-34.4,M,,*57
$GPRMC,230542.000,A,4308.3081,N,07726.2630,W,0.00,357.90,230923,,,A*79
$GPGGA,230542.250,4308.3081,N,07726.2630,W,1,07,1.31,162.3,M,-34.4,M,,*51
$GPRMC,230542.500,A,4308.3081,N,07726.2630,W,0.01,24.55,230923,,,A*43
$GPGGA,230542.750,4308.3081,N,07726.2630,W,1,07,1.31,162.3,M,-34.4,M,,*54
$GPRMC,230543.000,A,4308.3081,N,07726.2630,W,0.00,133.46,230923,,,A*73
$GPGGA,230543.250,4308.3081,N,07726.2630,W,1,07,1.31,162.3,M,-34.4,M,,*50
$GPRMC,230543.500,A,4308.3081,N,07726.2630,W,0.01,126.83,230923,,,A*7A
$GPGGA,230543.750,4308.3081,N,07726.2630,W,1,07,1.31,162.3,M,-34.4,M,,*55
$GPRMC,230544.000,A,4308.3081,N,07726.2630,W,0.00,358.33,230923,,,A*79
$GPGGA,230544.250,4308.3081,N,07726.2630,W,1,07,1.31,162.3,M,-34.4,M,,*57
$GPRMC,230544.500,A,4308.3081,N,07726.2630,W,0.01,301.73,230923,,,A*75
$GPGGA,230544.750,4308.3081,N,07726.2630,W,1,07,1.31,162.3,M,-34.4,M,,*52
$GPRMC,230545.000,A,4308.3081,N,07726.2630,W,0.00,302.03,230923,,,A*74
$GPGGA,230545.250,4308.3081,N,07726.2630,W,1,07,1.31,162.3,M,-34.4,M,,*56
$GPRMC,230545.500,A,4308.3081,N,07726.2630,W,0.00,314.30,230923,,,A*76
$GPGGA,230545.750,4308.3081,N,07726.2630,W,1,07,1.31,162.4,M,-34.4,M,,*54
$GPRMC,230546.000,A,4308.3081,N,07726.2630,W,0.01,99.82,230923,,,A*4E
$GPGGA,230546.250,4308.3081,N,07726.2630,W,1,07,1.31,162.4,M,-34.4,M,,*52
$GPRMC,230546.500,A,4308.3081,N,07726.2630,W,0.01,163.88,230923,,,A*75
$GPGGA,230546.750,4308.3081,N,07726.2630,W,1,07,1.31,162.4,M,-34.4,M,,*57
$GPRMC,230547.000,A,4308.3081,N,07726.2630,W,0.01,279.91,230923,,,A*71
$GPGGA,230547.250,4308.3081,N,07726.2630,W,1,07,1.31,162.4,M,-34.4,M,,*53
$GPRMC,230547.500,A,4308.3081,N,07726.2630,W,0.00,340.52,230923,,,A*71
$GPGGA,230547.750,4308.3081,N,07726.2630,W,1,07,1.31,162.4,M,-34.4,M,,*56
$GPRMC,230548.000,A,4308.3081,N,07726.2630,W,0.01,313.13,230923,,,A*79
$GPGGA,230548.250,4308.3081,N,07726.2630,W,1,07,1.31,162.4,M,-34.4,M,,*5C
$GPRMC,230548.500,A,4308.3081,N,07726.2630,W,0.01,52.00,230923,,,A*48
$GPGGA,230548.750,4308.3081,N,07726.2630,W,1,07,1.31,162.4,M,-34.4,M,,*59
$GPRMC,230549.000,A,4308.3081,N,07726.2630,W,0.00,282.72,230923,,,A*77
$GPGGA,230549.250,4308.3081,N,07726.2630,W,1,07,1.31,162.4,M,-34.4,M,,*5D
$GPRMC,230549.500,A,4308.3081,N,07726.2630,W,0.01,305.10,230923,,,A*79
$GPGGA,230549.750,4308.3081,N,07726.2630,W,1,07,1.31,162.4,M,-34.4,M,,*58
$GPRMC,230550.000,A,4308.3081,N,07726.2630,W,0.01,8.50,230923,,,A*7E
$GPGGA,230550.250,4308.3081,N,07726.2630,W,1,07,1.31,162.4,M,-34.4,M,,*55
$GPRMC,230550.500,A,4308.3081,N,07726.2630,W,0.01,130.85,230923,,,A*79
$GPGGA,230550.750,4308.3081,N,07726.2630,W,1,07,1.31,162.4,M,-34.4,M,,*50
$GPRMC,230551.000,A,4308.3081,N,07726.2630,W,0.01,294.24,230923,,,A*7B
$GPGGA,230551.250,4308.3081,N,07726.2630,W,1,07,1.31,162.4,M,-34.4,M,,*54
$GPRMC,230551.500,A,4308.3081,N,07726.2630,W,0.00,228.79,230923,,,A*70
$GPGGA,230551.750,4308.3081,N,07726.2630,W,1,07,1.31,162.4,M,-34.4,M,,*51
$GPRMC,230552.000,A,4308.3081,N,07726.2630,W,0.01,323.63,230923,,,A*76
$GPGGA,230552.250,4308.3081,N,07726.2630,W,1,07,1.31,162.4,M,-34.4,M,,*57
$GPRMC,230552.500,A,4308.3081,N,07726.2630,W,0.01,131.18,230923,,,A*7E
$GPGGA,230552.750,4308.3081,N,07726.2630,W,1,07,1.31,162.4,M,-34.4,M,,*52
$GPRMC,230553.000,A,4308.3081,N,07726.2630,W,0.00,300.60,230923,,,A*74
$GPGGA,230553.250,4308.3081,N,07726.2630,W,1,07,1.31,162.4,M,-34.4,M,,*56
$GPRMC,230553.500,A,4308.3081,N,07726.2630,W,0.01,286.54,230923,,,A*78
$GPGGA,230553.750,4308.3081,N,07726.2630,W,1,07,1.31,162.4,M,-34.4,M,,*53
$GPRMC,230554.000,A,4308.3081,N,07726.2630,W,0.01,133.64,230923,,,A*74
$GPGGA,230554.250,4308.3081,N,07726.2630,W,1,07,1.31,162.4,M,-34.4,M,,*51
$GPRMC,230554.500,A,4308.3081,N,07726.2630,W,0.00,306.46,230923,,,A*74
$GPGGA,230554.750,4308.3081,N,07726.2630,W,1,07,1.31,162.4,M,-34.4,M,,*54
$GPRMC,230555.000,A,4308.3081,N,07726.2630,W,0.01,310.17,230923,,,A*72
$GPGGA,230555.250,4308.3081,N,07726.2630,W,1,07,1.31,162.4,M,-34.4,M,,*50
$GPRMC,230555.500,A,4308.3081,N,07726.2630,W,0.06,27.72,230923,,,A*44
$GPGGA,230555.750,4308.3081,N,07726.2630,W,1,07,1.31,162.4,M,-34.4,M,,*55
$GPRMC,230556.000,A,4308.3081,N,07726.2630,W,0.15,23.94,230923,,,A*4C
$GPGGA,230556.250,4308.3081,N,07726.2630,W,1,07,1.31,162.4,M,-34.4,M,,*53
$GPRMC,230556.500,A,4308.3081,N,07726.2630,W,1.70,12.68,230923,,,A*4A
$GPGGA,230556.750,4308.3082,N,07726.2630,W,1,07,1.31,162.5,M,-34.4,M,,*54
$GPRMC,230557.000,A,4308.3084,N,07726.2629,W,2.92,1.42,230923,,,A*76
$GPGGA,230557.250,4308.3085,N,07726.2629,W,1,07,1.31,162.6,M,-34.4,M,,*5C
$GPRMC,230557.500,A,4308.3087,N,07726.2629,W,3.21,2.79,230923,,,A*72
$GPGGA,230557.750,4308.3089,N,07726.2628,W,1,07,1.31,162.7,M,-34.4,M,,*55
$GPRMC,230558.000,A,4308.3091,N,07726.2628,W,3.69,4.82,230923,,,A*70
$GPGGA,230558.250,4308.3094,N,07726.2627,W,1,07,1.31,162.8,M,-34.4,M,,*53
$GPRMC,230558.500,A,4308.3096,N,07726.2627,W,4.28,360.00,230923,,,A*74
$GPGGA,230558.750,4308.3099,N,07726.2627,W,1,07,1.31,163.0,M,-34.4,M,,*52
$GPRMC,230559.000,A,4308.3101,N,07726.2627,W,4.55,358.37,230923,,,A*7A
$GPGGA,230559.250,4308.3104,N,07726.2626,W,1,07,1.31,163.2,M,-34.4,M,,*50
$GPRMC,230559.500,A,4308.3107,N,07726.2626,W,4.55,1.90,230923,,,A*7A
$GPGGA,230559.750,4308.3110,N,07726.2626,W,1,07,1.31,163.3,M,-34.4,M,,*51
$GPRMC,230600.000,A,4308.3113,N,07726.2626,W,4.85,1.29,230923,,,A*7A
$GPGGA,230600.250,4308.3116,N,07726.2626,W,1,07,1.31,163.4,M,-34.4,M,,*5A
$GPRMC,230600.500,A,4308.3119,N,07726.2626,W,5.20,2.74,230923,,,A*70
$GPGGA,230600.750,4308.3122,N,07726.2625,W,1,07,1.31,163.5,M,-34.4,M,,*5A
$GPRMC,230601.000,A,4308.3125,N,07726.2625,W,4.89,2.21,230923,,,A*7A
$GPGGA,230601.250,4308.3128,N,07726.2625,W,1,07,1.31,163.6,M,-34.4,M,,*57
$GPRMC,230601.500,A,4308.3131,N,07726.2625,W,4.75,359.86,230923,,,A*79
$GPGGA,230601.750,4308.3134,N,07726.2625,W,1,07,1.31,163.6,M,-34.4,M,,*5F
$GPRMC,230602.000,A,4308.3137,N,07726.2625,W,4.08,359.46,230923,,,A*7F
$GPGGA,230602.250,4308.3139,N,07726.2625,W,1,06,1.81,163.7,M,-34.4,M,,*5F
$GPRMC,230602.500,A,4308.3142,N,07726.2625,W,3.74,0.10,230923,,,A*78
$GPGGA,230602.750,4308.3144,N,07726.2625,W,1,07,1.32,163.8,M,-34.4,M,,*56
$GPRMC,230603.000,A,4308.3146,N,07726.2625,W,3.50,355.99,230923,,,A*7C
$GPGGA,230603.250,4308.3147,N,07726.2625,W,1,07,1.31,163.8,M,-34.4,M,,*52
$GPRMC,230603.500,A,4308.3149,N,07726.2626,W,2.57,356.06,230923,,,A*76
$GPGGA,230603.750,4308.3150,N,07726.2625,W,1,07,1.32,163.8,M,-34.4,M,,*52
$GPRMC,230604.000,A,4308.3151,N,07726.2626,W,1.46,355.76,230923,,,A*7A
$GPGGA,230604.250,4308.3151,N,07726.2626,W,1,07,1.31,163.8,M,-34.4,M,,*51
$GPRMC,230604.500,A,4308.3152,N,07726.2626,W,1.11,355.07,230923,,,A*78
$GPGGA,230604.750,4308.3152,N,07726.2626,W,1,07,1.32,163.9,M,-34.4,M,,*55
$GPRMC,230605.000,A,4308.3152,N,07726.2626,W,0.66,356.16,230923,,,A*7E
$GPGGA,230605.250,4308.3153,N,07726.2626,W,1,07,1.32,163.9,M,-34.4,M,,*50
$GPRMC,230605.500,A,4308.3153,N,07726.2626,W,0.96,1.47,230923,,,A*70
$GPGGA,230605.750,4308.3154,N,07726.2626,W,1,07,1.31,163.9,M,-34.4,M,,*51
$GPRMC,230606.000,A,4308.3155,N,07726.2626,W,1.73,356.86,230923,,,A*76
$GPGGA,230606.250,4308.3156,N,07726.2626,W,1,07,1.32,163.9,M,-34.4,M,,*56
$GPRMC,230606.500,A,4308.3157,N,07726.2626,W,1.96,351.30,230923,,,A*70
$GPGGA,230606.750,4308.3159,N,07726.2627,W,1,07,1.31,163.8,M,-34.4,M,,*5F
$GPRMC,230607.000,A,4308.3160,N,07726.2627,W,2.39,355.50,230923,,,A*75
$GPGGA,230607.250,4308.3162,N,07726.2628,W,1,07,1.32,163.8,M,-34.4,M,,*5F
$GPRMC,230607.500,A,4308.3164,N,07726.2629,W,3.04,348.39,230923,,,A*76
$GPGGA,230607.750,4308.3167,N,07726.2630,W,1,07,1.32,163.7,M,-34.4,M,,*59
$GPRMC,230608.000,A,4308.3168,N,07726.2632,W,2.99,333.99,230923,,,A*79
$GPGGA,230608.250,4308.3170,N,07726.2633,W,1,07,1.24,163.6,M,-34.4,M,,*50
$GPRMC,230608.500,A,4308.3171,N,07726.2634,W,2.44,324.74,230923,,,A*77
$GPGGA,230608.750,4308.3172,N,07726.2635,W,1,07,1.24,163.5,M,-34.4,M,,*52
$GPRMC,230609.000,A,4308.3172,N,07726.2637,W,2.14,312.26,230923,,,A*74
$GPGGA,230609.250,4308.3173,N,07726.2638,W,1,07,1.24,163.3,M,-34.4,M,,*5C
$GPRMC,230609.500,A,4308.3173,N,07726.2641,W,2.25,295.41,230923,,,A*7C
$GPGGA,230609.750,4308.3174,N,07726.2643,W,1,07,1.24,163.2,M,-34.4,M,,*53
$GPRMC,230610.000,A,4308.3175,N,07726.2645,W,2.71,297.11,230923,,,A*75
$GPGGA,230610.250,4308.3175,N,07726.2647,W,1,07,1.24,163.1,M,-34.4,M,,*58
$GPRMC,230610.500,A,4308.3175,N,07726.2649,W,2.25,282.01,230923,,,A*78
$GPGGA,230610.750,4308.3175,N,07726.2651,W,1,07,1.24,163.1,M,-34.4,M,,*5A
$GPRMC,230611.000,A,4308.3176,N,07726.2652,W,1.88,283.71,230923,,,A*77
$GPGGA,230611.250,4308.3175,N,07726.2653,W,1,07,1.24,163.0,M,-34.4,M,,*5D
$GPRMC,230611.500,A,4308.3175,N,07726.2653,W,0.92,262.57,230923,,,A*71
$GPGGA,230611.750,4308.3175,N,07726.2652,W,1,07,1.24,162.9,M,-34.4,M,,*51
$GPRMC,230612.000,A,4308.3175,N,07726.2652,W,0.37,279.06,230923,,,A*77
$GPGGA,230612.250,4308.3175,N,07726.2650,W,1,07,1.24,162.9,M,-34.4,M,,*55
$GPRMC,230612.500,A,4308.3174,N,07726.2649,W,0.52,100.77,230923,,,A*71
$GPGGA,230612.750,4308.3174,N,07726.2646,W,1,07,1.24,162.9,M,-34.4,M,,*56
$GPRMC,230613.000,A,4308.3174,N,07726.2644,W,1.10,97.48,230923,,,A*4C
$GPGGA,230613.250,4308.3173,N,07726.2641,W,1,07,1.24,162.9,M,-34.4,M,,*52
$GPRMC,230613.500,A,4308.3173,N,07726.2638,W,1.72,98.35,230923,,,A*44
$GPGGA,230613.750,4308.3171,N,07726.2633,W,1,07,1.24,162.8,M,-34.4,M,,*51
$GPRMC,230614.000,A,4308.3171,N,07726.2628,W,4.45,97.12,230923,,,A*4E
$GPGGA,230614.250,4308.3170,N,07726.2622,W,1,07,1.32,162.8,M,-34.4,M,,*55
$GPRMC,230614.500,A,4308.3170,N,07726.2616,W,5.68,93.89,230923,,,A*4F
$GPGGA,230614.750,4308.3169,N,07726.2610,W,1,07,1.32,162.8,M,-34.4,M,,*59
$GPRMC,230615.000,A,4308.3168,N,07726.2603,W,6.48,94.71,230923,,,A*47
$GPGGA,230615.250,4308.3168,N,07726.2597,W,1,07,1.32,162.9,M,-34.4,M,,*51
$GPRMC,230615.500,A,4308.3168,N,07726.2590,W,7.01,90.25,230923,,,A*42
$GPGGA,230615.750,4308.3168,N,07726.2583,W,1,07,1.32,162.9,M,-34.4,M,,*51
$GPRMC,230616.000,A,4308.3168,N,07726.2575,W,7.52,91.41,230923,,,A*4A
$GPGGA,230616.250,4308.3168,N,07726.2568,W,1,07,1.32,162.9,M,-34.4,M,,*52
$GPRMC,230616.500,A,4308.3168,N,07726.2560,W,8.34,90.02,230923,,,A*42
$GPGGA,230616.750,4308.3168,N,07726.2551,W,1,07,1.32,162.9,M,-34.4,M,,*5D
$GPRMC,230617.000,A,4308.3168,N,07726.2543,W,8.98,88.46,230923,,,A*48
$GPGGA,230617.250,4308.3169,N,07726.2534,W,1,07,1.32,162.9,M,-34.4,M,,*5B
$GPRMC,230617.500,A,4308.3169,N,07726.2524,W,9.85,86.62,230923,,,A*48
$GPGGA,230617.750,4308.3169,N,07726.2514,W,1,07,1.32,162.9,M,-34.4,M,,*5C
$GPRMC,230618.000,A,4308.3169,N,07726.2504,W,10.35,86.48,230923,,,A*7B
$GPGGA,230618.250,4308.3169,N,07726.2493,W,1,07,1.32,162.9,M,-34.4,M,,*58
$GPRMC,230618.500,A,4308.3170,N,07726.2483,W,10.91,85.34,230923,,,A*7E
$GPGGA,230618.750,4308.3171,N,07726.2471,W,1,07,1.32,163.0,M,-34.4,M,,*50
$GPRMC,230619.000,A,4308.3172,N,07726.2460,W,11.34,84.90,230923,,,A*74
$GPGGA,230619.250,4308.3172,N,07726.2448,W,1,07,1.32,162.9,M,-34.4,M,,*55
$GPRMC,230619.500,A,4308.3173,N,07726.2435,W,11.96,85.31,230923,,,A*72
$GPGGA,230619.750,4308.3174,N,07726.2423,W,1,07,1.32,162.9,M,-34.4,M,,*5B
$GPRMC,230620.000,A,4308.3174,N,07726.2410,W,12.50,85.59,230923,,,A*7A
$GPGGA,230620.250,4308.3175,N,07726.2397,W,1,07,1.32,163.0,M,-34.4,M,,*55
$GPRMC,230620.500,A,4308.3175,N,07726.2384,W,13.08,85.57,230923,,,A*76
$GPGGA,230620.750,4308.3174,N,07726.2370,W,1,07,1.24,162.9,M,-34.4,M,,*57
$GPRMC,230621.000,A,4308.3174,N,07726.2357,W,13.54,87.54,230923,,,A*75
$GPGGA,230621.250,4308.3175,N,07726.2343,W,1,06,1.81,162.8,M,-34.4,M,,*5D
$GPRMC,230621.500,A,4308.3175,N,07726.2330,W,13.94,89.04,230923,,,A*77
$GPGGA,230621.750,4308.3175,N,07726.2316,W,1,07,1.32,162.8,M,-34.4,M,,*51
$GPRMC,230622.000,A,4308.3175,N,07726.2302,W,14.06,90.07,230923,,,A*77
$GPGGA,230622.250,4308.3174,N,07726.2288,W,1,07,1.32,162.8,M,-34.4,M,,*50
$GPRMC,230622.500,A,4308.3174,N,07726.2273,W,14.53,92.22,230923,,,A*71
$GPGGA,230622.750,4308.3173,N,07726.2258,W,1,07,1.32,162.8,M,-34.4,M,,*5F
$GPRMC,230623.000,A,4308.3172,N,07726.2243,W,14.74,92.53,230923,,,A*73
$GPGGA,230623.250,4308.3171,N,07726.2228,W,1,07,1.32,162.8,M,-34.4,M,,*5E
$GPRMC,230623.500,A,4308.3170,N,07726.2213,W,15.26,92.74,230923,,,A*72
$GPGGA,230623.750,4308.3170,N,07726.2199,W,1,07,1.32,162.7,M,-34.4,M,,*5C
$GPRMC,230624.000,A,4308.3170,N,07726.2184,W,15.55,92.52,230923,,,A*7D
$GPGGA,230624.250,4308.3170,N,07726.2169,W,1,07,1.32,162.7,M,-34.4,M,,*51
$GPRMC,230624.500,A,4308.3169,N,07726.2153,W,15.99,92.46,230923,,,A*7F
$GPGGA,230624.750,4308.3169,N,07726.2138,W,1,07,1.32,162.5,M,-34.4,M,,*5A
$GPRMC,230625.000,A,4308.3168,N,07726.2122,W,16.43,93.46,230923,,,A*79
$GPGGA,230625.250,4308.3168,N,07726.2106,W,1,07,1.32,162.4,M,-34.4,M,,*53
$GPRMC,230625.500,A,4308.3168,N,07726.2090,W,16.68,92.83,230923,,,A*75
$GPGGA,230625.750,4308.3169,N,07726.2073,W,1,07,1.32,162.4,M,-34.4,M,,*54
$GPRMC,230626.000,A,4308.3170,N,07726.2057,W,16.75,91.57,230923,,,A*77
$GPGGA,230626.250,4308.3170,N,07726.2041,W,1,07,1.32,162.4,M,-34.4,M,,*5B
$GPRMC,230626.500,A,4308.3169,N,07726.2025,W,17.19,93.17,230923,,,A*72
$GPGGA,230626.750,4308.3169,N,07726.2009,W,1,07,1.32,162.5,M,-34.4,M,,*5B
$GPRMC,230627.000,A,4308.3168,N,07726.1993,W,17.76,93.10,230923,,,A*7E
$GPGGA,230627.250,4308.3168,N,07726.1977,W,1,07,1.32,162.5,M,-34.4,M,,*5D
$GPRMC,230627.500,A,4308.3169,N,07726.1960,W,17.71,93.93,230923,,,A*7A
$GPGGA,230627.750,4308.3168,N,07726.1944,W,1,07,1.32,162.4,M,-34.4,M,,*59
$GPRMC,230628.000,A,4308.3168,N,07726.1927,W,17.90,95.84,230923,,,A*7D
$GPGGA,230628.250,4308.3167,N,07726.1909,W,1,07,1.32,162.3,M,-34.4,M,,*52
$GPRMC,230628.500,A,4308.3166,N,07726.1891,W,18.69,94.44,230923,,,A*7E
$GPGGA,230628.750,4308.3166,N,07726.1874,W,1,07,1.32,162.2,M,-34.4,M,,*5C
$GPRMC,230629.000,A,4308.3166,N,07726.1856,W,19.02,91.48,230923,,,A*74
$GPGGA,230629.250,4308.3165,N,07726.1838,W,1,07,1.32,162.1,M,-34.4,M,,*50
$GPRMC,230629.500,A,4308.3165,N,07726.1820,W,19.19,90.58,230923,,,A*79
$GPGGA,230629.750,4308.3166,N,07726.1802,W,1,07,1.32,162.1,M,-34.4,M,,*5F
$GPRMC,230630.000,A,4308.3166,N,07726.1784,W,19.05,90.62,230923,,,A*72
$GPGGA,230630.250,4308.3166,N,07726.1766,W,1,07,1.32,162.0,M,-34.4,M,,*5E
$GPRMC,230630.500,A,4308.3166,N,07726.1747,W,19.24,90.69,230923,,,A*70
$GPGGA,230630.750,4308.3166,N,07726.1729,W,1,07,1.32,161.9,M,-34.4,M,,*5A
$GPRMC,230631.000,A,4308.3167,N,07726.1711,W,19.60,90.49,230923,,,A*74
$GPGGA,230631.250,4308.3167,N,07726.1692,W,1,07,1.32,161.7,M,-34.4,M,,*50
$GPRMC,230631.500,A,4308.3167,N,07726.1674,W,19.87,90.49,230923,,,A*7A
$GPGGA,230631.750,4308.3168,N,07726.1655,W,1,07,1.32,161.7,M,-34.4,M,,*51
$GPRMC,230632.000,A,4308.3168,N,07726.1636,W,19.86,89.03,230923,,,A*72
$GPGGA,230632.250,4308.3169,N,07726.1617,W,1,07,1.32,161.7,M,-34.4,M,,*50
$GPRMC,230632.500,A,4308.3170,N,07726.1598,W,20.18,87.08,230923,,,A*71
$GPGGA,230632.750,4308.3171,N,07726.1579,W,1,07,1.32,161.7,M,-34.4,M,,*57
$GPRMC,230633.000,A,4308.3172,N,07726.1560,W,20.15,83.89,230923,,,A*70
$GPGGA,230633.250,4308.3173,N,07726.1541,W,1,07,1.32,161.8,M,-34.4,M,,*55
$GPRMC,230633.500,A,4308.3175,N,07726.1521,W,20.35,80.71,230923,,,A*71
$GPGGA,230633.750,4308.3177,N,07726.1502,W,1,07,1.32,161.8,M,-34.4,M,,*53
$GPRMC,230634.000,A,4308.3180,N,07726.1483,W,20.34,75.66,230923,,,A*7D
$GPGGA,230634.250,4308.3184,N,07726.1465,W,1,07,1.32,161.9,M,-34.4,M,,*5C
$GPRMC,230634.500,A,4308.3188,N,07726.1446,W,20.35,70.57,230923,,,A*7F
$GPGGA,230634.750,4308.3192,N,07726.1427,W,1,07,1.32,162.0,M,-34.4,M,,*52
$GPRMC,230635.000,A,4308.3197,N,07726.1409,W,21.31,67.85,230923,,,A*72
$GPGGA,230635.250,4308.3202,N,07726.1390,W,1,07,1.32,161.8,M,-34.4,M,,*5C
$GPRMC,230635.500,A,4308.3209,N,07726.1373,W,21.35,63.83,230923,,,A*7F
$GPGGA,230635.750,4308.3215,N,07726.1355,W,1,07,1.32,161.8,M,-34.4,M,,*56
$GPRMC,230636.000,A,4308.3222,N,07726.1338,W,21.58,59.49,230923,,,A*7B
$GPGGA,230636.250,4308.3231,N,07726.1323,W,1,07,1.32,162.1,M,-34.4,M,,*5D
$GPRMC,230636.500,A,4308.3239,N,07726.1307,W,21.34,53.69,230923,,,A*7A
$GPGGA,230636.750,4308.3249,N,07726.1291,W,1,07,1.32,162.3,M,-34.4,M,,*5D
$GPRMC,230637.000,A,4308.3258,N,07726.1275,W,21.43,50.03,230923,,,A*72
$GPGGA,230637.250,4308.3268,N,07726.1260,W,1,07,1.32,162.5,M,-34.4,M,,*52
$GPRMC,230637.500,A,4308.3278,N,07726.1245,W,21.33,48.86,230923,,,A*75
$GPGGA,230637.750,4308.3287,N,07726.1230,W,1,07,1.32,162.6,M,-34.4,M,,*50
$GPRMC,230638.000,A,4308.3297,N,07726.1215,W,21.07,47.94,230923,,,A*70
$GPGGA,230638.250,4308.3308,N,07726.1201,W,1,07,1.25,162.8,M,-34.4,M,,*56
$GPRMC,230638.500,A,4308.3319,N,07726.1187,W,20.80,45.04,230923,,,A*7F
$GPGGA,230638.750,4308.3331,N,07726.1175,W,1,07,1.32,163.0,M,-34.4,M,,*56
$GPRMC,230639.000,A,4308.3344,N,07726.1163,W,21.28,40.11,230923,,,A*7B
$GPGGA,230639.250,4308.3359,N,07726.1152,W,1,07,1.32,163.1,M,-34.4,M,,*58
$GPRMC,230639.500,A,4308.3373,N,07726.1143,W,21.99,32.01,230923,,,A*76
$GPGGA,230639.750,4308.3388,N,07726.1135,W,1,07,1.32,163.2,M,-34.4,M,,*53
$GPRMC,230640.000,A,4308.3403,N,07726.1127,W,22.18,26.38,230923,,,A*7A
$GPGGA,230640.250,4308.3418,N,07726.1121,W,1,07,1.32,163.3,M,-34.4,M,,*52
$GPRMC,230640.500,A,4308.3434,N,07726.1117,W,22.15,18.43,230923,,,A*74
$GPGGA,230640.750,4308.3450,N,07726.1113,W,1,07,1.32,163.2,M,-34.4,M,,*5B
$GPRMC,230641.000,A,4308.3466,N,07726.1109,W,22.51,13.49,230923,,,A*79
$GPGGA,230641.250,4308.3482,N,07726.1106,W,1,07,1.32,163.2,M,-34.4,M,,*54
$GPRMC,230641.500,A,4308.3498,N,07726.1104,W,22.74,8.79,230923,,,A*4E
$GPGGA,230641.750,4308.3514,N,07726.1102,W,1,07,1.32,163.3,M,-34.4,M,,*5A
$GPRMC,230642.000,A,4308.3530,N,07726.1100,W,22.91,6.30,230923,,,A*47
$GPGGA,230642.250,4308.3546,N,07726.1099,W,1,07,1.32,163.4,M,-34.4,M,,*5F
$GPRMC,230642.500,A,4308.3562,N,07726.1097,W,22.95,5.38,230923,,,A*45
$GPGGA,230642.750,4308.3578,N,07726.1096,W,1,07,1.32,163.6,M,-34.4,M,,*5A
$GPRMC,230643.000,A,4308.3594,N,07726.1094,W,22.90,5.06,230923,,,A*43
$GPGGA,230643.250,4308.3610,N,07726.1094,W,1,07,1.32,163.7,M,-34.4,M,,*50
$GPRMC,230643.500,A,4308.3627,N,07726.1094,W,23.34,2.99,230923,,,A*43
$GPGGA,230643.750,4308.3643,N,07726.1094,W,1,07,1.32,164.0,M,-34.4,M,,*53
$GPRMC,230644.000,A,4308.3660,N,07726.1095,W,23.97,1.74,230923,,,A*4A
$GPGGA,230644.250,4308.3677,N,07726.1095,W,1,07,1.32,164.2,M,-34.4,M,,*55
$GPRMC,230644.500,A,4308.3694,N,07726.1095,W,24.24,0.99,230923,,,A*49
$GPGGA,230644.750,4308.3711,N,07726.1096,W,1,07,1.32,164.3,M,-34.4,M,,*53
$GPRMC,230645.000,A,4308.3728,N,07726.1096,W,24.30,0.95,230923,,,A*41
$GPGGA,230645.250,4308.3745,N,07726.1096,W,1,07,1.32,164.4,M,-34.4,M,,*51
$GPRMC,230645.500,A,4308.3762,N,07726.1096,W,24.42,1.19,230923,,,A*4A
$GPGGA,230645.750,4308.3779,N,07726.1096,W,1,07,1.32,164.5,M,-34.4,M,,*5A
$GPRMC,230646.000,A,4308.3796,N,07726.1096,W,24.48,1.15,230923,,,A*41
$GPGGA,230646.250,4308.3813,N,07726.1096,W,1,07,1.32,164.5,M,-34.4,M,,*5F
$GPRMC,230646.500,A,4308.3830,N,07726.1096,W,24.58,0.23,230923,,,A*42
$GPGGA,230646.750,4308.3848,N,07726.1097,W,1,07,1.32,164.5,M,-34.4,M,,*55
$GPRMC,230647.000,A,4308.3865,N,07726.1098,W,24.79,0.18,230923,,,A*43
$GPGGA,230647.250,4308.3882,N,07726.1098,W,1,07,1.32,164.6,M,-34.4,M,,*5B
$GPRMC,230647.500,A,4308.3898,N,07726.1097,W,24.19,1.69,230923,,,A*4A
$GPGGA,230647.750,4308.3916,N,07726.1098,W,1,07,1.32,164.6,M,-34.4,M,,*52
$GPRMC,230648.000,A,4308.3933,N,07726.1097,W,24.63,1.76,230923,,,A*43
$GPGGA,230648.250,4308.3949,N,07726.1097,W,1,07,1.32,164.5,M,-34.4,M,,*5E
$GPRMC,230648.500,A,4308.3967,N,07726.1098,W,24.40,1.25,230923,,,A*4F
$GPGGA,230648.750,4308.3984,N,07726.1098,W,1,07,1.32,164.7,M,-34.4,M,,*57
$GPRMC,230649.000,A,4308.4000,N,07726.1098,W,23.58,359.90,230923,,,A*4A
$GPGGA,230649.250,4308.4017,N,07726.1098,W,1,07,1.32,164.8,M,-34.4,M,,*58
$GPRMC,230649.500,A,4308.4033,N,07726.1099,W,23.39,359.47,230923,,,A*43
$GPGGA,230649.750,4308.4049,N,07726.1099,W,1,07,1.32,164.4,M,-34.4,M,,*5B
$GPRMC,230650.000,A,4308.4065,N,07726.1100,W,22.70,359.63,230923,,,A*46
$GPGGA,230650.250,4308.4081,N,07726.1101,W,1,07,1.32,164.4,M,-34.4,M,,*52
$GPRMC,230650.500,A,4308.4096,N,07726.1102,W,22.36,359.11,230923,,,A*4A
$GPGGA,230650.750,4308.4112,N,07726.1102,W,1,07,1.32,164.3,M,-34.4,M,,*58
$GPRMC,230651.000,A,4308.4127,N,07726.1103,W,21.75,359.13,230923,,,A*42
$GPGGA,230651.250,4308.4142,N,07726.1103,W,1,07,1.32,164.3,M,-34.4,M,,*58
$GPRMC,230651.500,A,4308.4156,N,07726.1103,W,20.72,0.18,230923,,,A*43
$GPGGA,230651.750,4308.4171,N,07726.1103,W,1,07,1.32,163.9,M,-34.4,M,,*50
$GPRMC,230652.000,A,4308.4184,N,07726.1104,W,19.30,0.40,230923,,,A*4C
$GPGGA,230652.250,4308.4198,N,07726.1104,W,1,07,1.32,163.9,M,-34.4,M,,*56
$GPRMC,230652.500,A,4308.4210,N,07726.1104,W,17.41,0.11,230923,,,A*4B
$GPGGA,230652.750,4308.4222,N,07726.1105,W,1,07,1.32,164.0,M,-34.4,M,,*5E
$GPRMC,230653.000,A,4308.4233,N,07726.1106,W,15.28,0.18,230923,,,A*48
$GPGGA,230653.250,4308.4245,N,07726.1107,W,1,07,1.32,164.0,M,-34.4,M,,*59
$GPRMC,230653.500,A,4308.4255,N,07726.1108,W,13.41,0.17,230923,,,A*45
$GPGGA,230653.750,4308.4265,N,07726.1109,W,1,07,1.32,164.1,M,-34.4,M,,*51
$GPRMC,230654.000,A,4308.4273,N,07726.1109,W,11.45,0.45,230923,,,A*43
$GPGGA,230654.250,4308.4281,N,07726.1109,W,1,07,1.33,164.2,M,-34.4,M,,*5B
$GPRMC,230654.500,A,4308.4288,N,07726.1109,W,10.01,357.33,230923,,,A*43
$GPGGA,230654.750,4308.4295,N,07726.1110,W,1,07,1.33,164.2,M,-34.4,M,,*53
$GPRMC,230655.000,A,4308.4301,N,07726.1111,W,8.88,354.05,230923,,,A*70
$GPGGA,230655.250,4308.4306,N,07726.1111,W,1,07,1.32,164.1,M,-34.4,M,,*5F
$GPRMC,230655.500,A,4308.4312,N,07726.1111,W,8.37,358.65,230923,,,A*79
$GPGGA,230655.750,4308.4318,N,07726.1110,W,1,07,1.32,163.9,M,-34.4,M,,*5B
$GPRMC,230656.000,A,4308.4323,N,07726.1109,W,7.86,6.16,230923,,,A*7D
$GPGGA,230656.250,4308.4327,N,07726.1109,W,1,07,1.33,163.9,M,-34.4,M,,*58
$GPRMC,230656.500,A,4308.4332,N,07726.1107,W,7.55,12.65,230923,,,A*49
$GPGGA,230656.750,4308.4337,N,07726.1106,W,1,07,1.33,163.8,M,-34.4,M,,*52
$GPRMC,230657.000,A,4308.4342,N,07726.1103,W,7.85,17.59,230923,,,A*49
$GPGGA,230657.250,4308.4347,N,07726.1100,W,1,07,1.32,163.9,M,-34.4,M,,*57
$GPRMC,230657.500,A,4308.4351,N,07726.1096,W,8.31,29.96,230923,,,A*4D
$GPGGA,230657.750,4308.4356,N,07726.1091,W,1,07,1.32,163.9,M,-34.4,M,,*5B
$GPRMC,230658.000,A,4308.4360,N,07726.1086,W,8.86,37.04,230923,,,A*4C
$GPGGA,230658.250,4308.4364,N,07726.1078,W,1,07,1.33,163.9,M,-34.4,M,,*56
$GPRMC,230658.500,A,4308.4369,N,07726.1070,W,10.58,48.42,230923,,,A*79
$GPGGA,230658.750,4308.4372,N,07726.1060,W,1,07,1.33,164.1,M,-34.4,M,,*52
$GPRMC,230659.000,A,4308.4375,N,07726.1050,W,11.32,58.98,230923,,,A*79
$GPGGA,230659.250,4308.4378,N,07726.1040,W,1,07,1.32,164.1,M,-34.4,M,,*5F
$GPRMC,230659.500,A,4308.4380,N,07726.1028,W,12.10,68.42,230923,,,A*7E
$GPGGA,230659.750,4308.4381,N,07726.1017,W,1,07,1.33,164.2,M,-34.4,M,,*5C
$GPRMC,230700.000,A,4308.4383,N,07726.1004,W,13.17,73.64,230923,,,A*73
$GPGGA,230700.250,4308.4384,N,07726.0990,W,1,07,1.25,164.4,M,-34.4,M,,*57
$GPRMC,230700.500,A,4308.4385,N,07726.0976,W,14.77,78.00,230923,,,A*75
$GPGGA,230700.750,4308.4386,N,07726.0960,W,1,06,1.83,164.6,M,-34.4,M,,*50
$GPRMC,230701.000,A,4308.4389,N,07726.0941,W,16.19,78.74,230923,,,A*70
$GPGGA,230701.250,4308.4391,N,07726.0923,W,1,06,1.81,164.7,M,-34.4,M,,*56
$GPRMC,230701.500,A,4308.4393,N,07726.0904,W,17.51,77.65,230923,,,A*7D
$GPGGA,230701.750,4308.4395,N,07726.0884,W,1,07,1.33,164.8,M,-34.4,M,,*5C
$GPRMC,230702.000,A,4308.4396,N,07726.0865,W,17.99,78.73,230923,,,A*74
$GPGGA,230702.250,4308.4397,N,07726.0846,W,1,07,1.25,164.9,M,-34.4,M,,*50
$GPRMC,230702.500,A,4308.4398,N,07726.0827,W,18.77,79.14,230923,,,A*76
$GPGGA,230702.750,4308.4401,N,07726.0808,W,1,07,1.33,165.0,M,-34.4,M,,*58
$GPRMC,230703.000,A,4308.4403,N,07726.0789,W,19.53,78.35,230923,,,A*79
$GPGGA,230703.250,4308.4407,N,07726.0770,W,1,07,1.33,165.1,M,-34.4,M,,*5B
$GPRMC,230703.500,A,4308.4410,N,07726.0751,W,20.44,77.09,230923,,,A*77
$GPGGA,230703.750,4308.4414,N,07726.0732,W,1,07,1.33,165.1,M,-34.4,M,,*5A
$GPRMC,230704.000,A,4308.4418,N,07726.0712,W,21.28,75.70,230923,,,A*7D
$GPGGA,230704.250,4308.4422,N,07726.0692,W,1,07,1.33,165.1,M,-34.4,M,,*56
$GPRMC,230704.500,A,4308.4426,N,07726.0671,W,22.31,74.93,230923,,,A*76
$GPGGA,230704.750,4308.4430,N,07726.0649,W,1,07,1.33,165.1,M,-34.4,M,,*56
$GPRMC,230705.000,A,4308.4434,N,07726.0628,W,23.14,74.86,230923,,,A*7F
$GPGGA,230705.250,4308.4438,N,07726.0606,W,1,07,1.33,165.1,M,-34.4,M,,*51
$GPRMC,230705.500,A,4308.4441,N,07726.0584,W,24.26,74.82,230923,,,A*7F
$GPGGA,230705.750,4308.4446,N,07726.0561,W,1,07,1.33,165.2,M,-34.4,M,,*5C
$GPRMC,230706.000,A,4308.4451,N,07726.0539,W,24.69,73.07,230923,,,A*7F
$GPGGA,230706.250,4308.4456,N,07726.0516,W,1,07,1.33,165.3,M,-34.4,M,,*5A
$GPRMC,230706.500,A,4308.4461,N,07726.0492,W,25.07,73.20,230923,,,A*75
$GPGGA,230706.750,4308.4466,N,07726.0469,W,1,07,1.33,165.5,M,-34.4,M,,*53
$GPRMC,230707.000,A,4308.4471,N,07726.0445,W,25.68,72.98,230923,,,A*71
$GPGGA,230707.250,4308.4476,N,07726.0420,W,1,07,1.33,165.6,M,-34.4,M,,*58
$GPRMC,230707.500,A,4308.4480,N,07726.0396,W,26.14,73.37,230923,,,A*7F
$GPGGA,230707.750,4308.4485,N,07726.0372,W,1,07,1.25,165.8,M,-34.4,M,,*58
$GPRMC,230708.000,A,4308.4490,N,07726.0347,W,26.36,73.33,230923,,,A*7C
$GPGGA,230708.250,4308.4495,N,07726.0323,W,1,07,1.25,166.0,M,-34.4,M,,*5C
$GPRMC,230708.500,A,4308.4500,N,07726.0299,W,26.41,72.53,230923,,,A*74
$GPGGA,230708.750,4308.4505,N,07726.0275,W,1,07,1.33,166.0,M,-34.4,M,,*54
$GPRMC,230709.000,A,4308.4510,N,07726.0250,W,26.40,72.12,230923,,,A*70
$GPGGA,230709.250,4308.4515,N,07726.0226,W,1,07,1.33,166.2,M,-34.4,M,,*55
$GPRMC,230709.500,A,4308.4521,N,07726.0202,W,26.64,72.21,230923,,,A*76
$GPGGA,230709.750,4308.4527,N,07726.0178,W,1,07,1.33,166.4,M,-34.4,M,,*5F
$GPRMC,230710.000,A,4308.4533,N,07726.0153,W,26.61,71.74,230923,,,A*79
$GPGGA,230710.250,4308.4539,N,07726.0129,W,1,07,1.33,166.6,M,-34.4,M,,*5B
$GPRMC,230710.500,A,4308.4545,N,07726.0105,W,26.67,70.62,230923,,,A*7E
$GPGGA,230710.750,4308.4551,N,07726.0081,W,1,07,1.33,166.8,M,-34.4,M,,*5D
$GPRMC,230711.000,A,4308.4557,N,07726.0057,W,26.66,69.49,230923,,,A*7F
$GPGGA,230711.250,4308.4564,N,07726.0033,W,1,07,1.33,166.9,M,-34.4,M,,*57
$GPRMC,230711.500,A,4308.4571,N,07726.0010,W,26.86,67.23,230923,,,A*71
$GPGGA,230711.750,4308.4578,N,07725.9987,W,1,07,1.33,167.0,M,-34.4,M,,*5B
$GPRMC,230712.000,A,4308.4586,N,07725.9963,W,26.91,65.09,230923,,,A*74
$GPGGA,230712.250,4308.4596,N,07725.9941,W,1,07,1.25,167.1,M,-34.4,M,,*51
$GPRMC,230712.500,A,4308.4605,N,07725.9918,W,27.29,60.55,230923,,,A*7B
$GPGGA,230712.750,4308.4616,N,07725.9896,W,1,07,1.33,167.2,M,-34.4,M,,*50
$GPRMC,230713.000,A,4308.4626,N,07725.9874,W,27.37,57.36,230923,,,A*7B
$GPGGA,230713.250,4308.4638,N,07725.9853,W,1,07,1.25,167.3,M,-34.4,M,,*57
$GPRMC,230713.500,A,4308.4649,N,07725.9831,W,27.55,54.44,230923,,,A*74
$GPGGA,230713.750,4308.4662,N,07725.9811,W,1,07,1.33,167.4,M,-34.4,M,,*5B
$GPRMC,230714.000,A,4308.4675,N,07725.9790,W,27.70,51.72,230923,,,A*7A
$GPGGA,230714.250,4308.4689,N,07725.9769,W,1,07,1.33,167.5,M,-34.4,M,,*5D
$GPRMC,230714.500,A,4308.4703,N,07725.9748,W,29.33,49.94,230923,,,A*72
$GPGGA,230714.750,4308.4717,N,07725.9727,W,1,07,1.33,167.6,M,-34.4,M,,*57
$GPRMC,230715.000,A,4308.4732,N,07725.9705,W,29.49,48.88,230923,,,A*7C
$GPGGA,230715.250,4308.4747,N,07725.9685,W,1,07,1.33,167.6,M,-34.4,M,,*5F
$GPRMC,230715.500,A,4308.4762,N,07725.9664,W,30.30,47.42,230923,,,A*75
$GPGGA,230715.750,4308.4777,N,07725.9644,W,1,07,1.33,167.7,M,-34.4,M,,*55
$GPRMC,230716.000,A,4308.4793,N,07725.9623,W,30.38,46.60,230923,,,A*77
$GPGGA,230716.250,4308.4808,N,07725.9603,W,1,07,1.33,167.7,M,-34.4,M,,*57
$GPRMC,230716.500,A,4308.4824,N,07725.9582,W,30.68,45.85,230923,,,A*74
$GPGGA,230716.750,4308.4839,N,07725.9561,W,1,07,1.33,167.9,M,-34.4,M,,*59
$GPRMC,230717.000,A,4308.4854,N,07725.9540,W,30.82,46.22,230923,,,A*73
$GPGGA,230717.250,4308.4870,N,07725.9518,W,1,07,1.33,168.1,M,-34.4,M,,*59
$GPRMC,230717.500,A,4308.4885,N,07725.9496,W,31.05,46.65,230923,,,A*7D
$GPGGA,230717.750,4308.4901,N,07725.9474,W,1,07,1.33,168.2,M,-34.4,M,,*53
$GPRMC,230718.000,A,4308.4917,N,07725.9453,W,31.27,45.57,230923,,,A*76
$GPGGA,230718.250,4308.4933,N,07725.9432,W,1,07,1.33,168.4,M,-34.4,M,,*5C
$GPRMC,230718.500,A,4308.4949,N,07725.9410,W,31.54,45.37,230923,,,A*7D
$GPGGA,230718.750,4308.4965,N,07725.9388,W,1,07,1.33,168.5,M,-34.4,M,,*5D
$GPRMC,230719.000,A,4308.4981,N,07725.9366,W,31.80,46.06,230923,,,A*73
$GPGGA,230719.250,4308.4997,N,07725.9344,W,1,07,1.33,168.6,M,-34.4,M,,*57
$GPRMC,230719.500,A,4308.5013,N,07725.9322,W,32.89,46.03,230923,,,A*7A
$GPGGA,230719.750,4308.5029,N,07725.9299,W,1,07,1.25,168.6,M,-34.4,M,,*59
$GPRMC,230720.000,A,4308.5043,N,07725.9277,W,33.42,47.87,230923,,,A*7A
$GPGGA,230720.250,4308.5059,N,07725.9253,W,1,07,1.33,168.5,M,-34.4,M,,*53
$GPRMC,230720.500,A,4308.5075,N,07725.9230,W,33.66,47.34,230923,,,A*77
$GPGGA,230720.750,4308.5091,N,07725.9207,W,1,07,1.33,168.3,M,-34.4,M,,*55
$GPRMC,230721.000,A,4308.5107,N,07725.9184,W,34.01,46.70,230923,,,A*7C
$GPGGA,230721.250,4308.5123,N,07725.9160,W,1,07,1.33,168.4,M,-34.4,M,,*5C
$GPRMC,230721.500,A,4308.5140,N,07725.9137,W,34.38,46.32,230923,,,A*7E
$GPGGA,230721.750,4308.5157,N,07725.9113,W,1,07,1.33,168.4,M,-34.4,M,,*5E
$GPRMC,230722.000,A,4308.5174,N,07725.9090,W,34.52,46.62,230923,,,A*7A
$GPGGA,230722.250,4308.5190,N,07725.9066,W,1,07,1.33,168.3,M,-34.4,M,,*57
$GPRMC,230722.500,A,4308.5207,N,07725.9042,W,34.86,47.12,230923,,,A*78
$GPGGA,230722.750,4308.5224,N,07725.9018,W,1,07,1.33,168.3,M,-34.4,M,,*57
$GPRMC,230723.000,A,4308.5240,N,07725.8993,W,35.07,47.13,230923,,,A*72
$GPGGA,230723.250,4308.5257,N,07725.8969,W,1,07,1.33,168.1,M,-34.4,M,,*5B
$GPRMC,230723.500,A,4308.5274,N,07725.8945,W,35.81,46.46,230923,,,A*74
$GPGGA,230723.750,4308.5291,N,07725.8920,W,1,07,1.33,167.9,M,-34.4,M,,*5E
$GPRMC,230724.000,A,4308.5308,N,07725.8895,W,35.86,46.78,230923,,,A*7A
$GPGGA,230724.250,4308.5325,N,07725.8870,W,1,07,1.33,168.0,M,-34.4,M,,*50
$GPRMC,230724.500,A,4308.5342,N,07725.8845,W,35.73,46.38,230923,,,A*72
$GPGGA,230724.750,4308.5359,N,07725.8821,W,1,07,1.33,168.0,M,-34.4,M,,*5A
$GPRMC,230725.000,A,4308.5376,N,07725.8796,W,35.80,46.73,230923,,,A*73
$GPGGA,230725.250,4308.5393,N,07725.8771,W,1,07,1.33,168.1,M,-34.4,M,,*53
$GPRMC,230725.500,A,4308.5410,N,07725.8747,W,35.27,46.67,230923,,,A*75
$GPGGA,230725.750,4308.5427,N,07725.8723,W,1,07,1.33,168.3,M,-34.4,M,,*5B
$GPRMC,230726.000,A,4308.5444,N,07725.8699,W,34.88,46.57,230923,,,A*77
$GPGGA,230726.250,4308.5460,N,07725.8675,W,1,07,1.33,168.4,M,-34.4,M,,*5B
$GPRMC,230726.500,A,4308.5477,N,07725.8652,W,34.53,46.41,230923,,,A*74
$GPGGA,230726.750,4308.5493,N,07725.8628,W,1,07,1.33,168.6,M,-34.4,M,,*58
$GPRMC,230727.000,A,4308.5509,N,07725.8605,W,34.27,46.16,230923,,,A*7B
$GPGGA,230727.250,4308.5525,N,07725.8582,W,1,07,1.33,168.7,M,-34.4,M,,*52
$GPRMC,230727.500,A,4308.5541,N,07725.8559,W,33.63,46.63,230923,,,A*7D
$GPGGA,230727.750,4308.5557,N,07725.8535,W,1,07,1.33,168.8,M,-34.4,M,,*51
$GPRMC,230728.000,A,4308.5573,N,07725.8512,W,33.67,46.67,230923,,,A*79
$GPGGA,230728.250,4308.5589,N,07725.8489,W,1,07,1.33,168.9,M,-34.4,M,,*5F
$GPRMC,230728.500,A,4308.5605,N,07725.8466,W,33.62,46.18,230923,,,A*71
$GPGGA,230728.750,4308.5622,N,07725.8443,W,1,07,1.33,169.0,M,-34.4,M,,*56
$GPRMC,230729.000,A,4308.5637,N,07725.8420,W,33.24,46.99,230923,,,A*7D
$GPGGA,230729.250,4308.5653,N,07725.8397,W,1,07,1.33,169.1,M,-34.4,M,,*5B
$GPRMC,230729.500,A,4308.5669,N,07725.8375,W,33.21,46.73,230923,,,A*75
$GPGGA,230729.750,4308.5684,N,07725.8352,W,1,07,1.33,169.2,M,-34.4,M,,*5E
$GPRMC,230730.000,A,4308.5700,N,07725.8329,W,33.05,47.30,230923,,,A*7F
$GPGGA,230730.250,4308.5715,N,07725.8307,W,1,07,1.33,169.2,M,-34.4,M,,*5A
$GPRMC,230730.500,A,4308.5731,N,07725.8284,W,32.27,46.94,230923,,,A*70
$GPGGA,230730.750,4308.5746,N,07725.8262,W,1,07,1.33,169.2,M,-34.4,M,,*5B
$GPRMC,230731.000,A,4308.5761,N,07725.8241,W,31.87,46.52,230923,,,A*7B
$GPGGA,230731.250,4308.5777,N,07725.8219,W,1,07,1.33,169.1,M,-34.4,M,,*52
$GPRMC,230731.500,A,4308.5791,N,07725.8197,W,31.57,47.13,230923,,,A*70
$GPGGA,230731.750,4308.5807,N,07725.8175,W,1,07,1.33,169.2,M,-34.4,M,,*55
$GPRMC,230732.000,A,4308.5822,N,07725.8154,W,31.12,47.24,230923,,,A*7B
$GPGGA,230732.250,4308.5836,N,07725.8132,W,1,07,1.33,169.2,M,-34.4,M,,*52
$GPRMC,230732.500,A,4308.5851,N,07725.8111,W,31.00,45.97,230923,,,A*72
$GPGGA,230732.750,4308.5866,N,07725.8089,W,1,07,1.33,169.1,M,-34.4,M,,*50
$GPRMC,230733.000,A,4308.5881,N,07725.8068,W,30.96,46.28,230923,,,A*7D
$GPGGA,230733.250,4308.5896,N,07725.8047,W,1,07,1.33,169.0,M,-34.4,M,,*58
$GPRMC,230733.500,A,4308.5911,N,07725.8025,W,30.81,46.36,230923,,,A*70
$GPGGA,230733.750,4308.5926,N,07725.8004,W,1,07,1.33,168.9,M,-34.4,M,,*58
$GPRMC,230734.000,A,4308.5940,N,07725.7983,W,30.65,47.20,230923,,,A*70
$GPGGA,230734.250,4308.5955,N,07725.7961,W,1,07,1.33,168.7,M,-34.4,M,,*55
$GPRMC,230734.500,A,4308.5969,N,07725.7940,W,30.59,47.27,230923,,,A*79
$GPGGA,230734.750,4308.5983,N,07725.7919,W,1,07,1.33,168.6,M,-34.4,M,,*55
$GPRMC,230735.000,A,4308.5997,N,07725.7897,W,30.37,47.93,230923,,,A*70
$GPGGA,230735.250,4308.6012,N,07725.7876,W,1,07,1.33,168.5,M,-34.4,M,,*58
$GPRMC,230735.500,A,4308.6025,N,07725.7855,W,30.17,48.04,230923,,,A*7B
$GPGGA,230735.750,4308.6039,N,07725.7834,W,1,07,1.25,168.4,M,-34.4,M,,*54
$GPRMC,230736.000,A,4308.6053,N,07725.7812,W,30.08,48.54,230923,,,A*74
$GPGGA,230736.250,4308.6066,N,07725.7791,W,1,07,1.33,168.3,M,-34.4,M,,*58
$GPRMC,230736.500,A,4308.6079,N,07725.7770,W,29.92,49.91,230923,,,A*71
$GPGGA,230736.750,4308.6090,N,07725.7745,W,1,07,1.33,168.3,M,-34.4,M,,*5D
$GPRMC,230737.000,A,4308.6103,N,07725.7722,W,29.74,52.76,230923,,,A*75
$GPGGA,230737.250,4308.6114,N,07725.7697,W,1,07,1.25,168.2,M,-34.4,M,,*5C
$GPRMC,230737.500,A,4308.6126,N,07725.7672,W,30.21,55.20,230923,,,A*7F
$GPGGA,230737.750,4308.6137,N,07725.7648,W,1,07,1.33,168.3,M,-34.4,M,,*5C
$GPRMC,230738.000,A,4308.6147,N,07725.7623,W,30.39,57.58,230923,,,A*72
$GPGGA,230738.250,4308.6158,N,07725.7598,W,1,07,1.33,168.4,M,-34.4,M,,*56
$GPRMC,230738.500,A,4308.6167,N,07725.7572,W,30.70,60.74,230923,,,A*75
$GPGGA,230738.750,4308.6177,N,07725.7546,W,1,07,1.33,168.3,M,-34.4,M,,*5A
$GPRMC,230739.000,A,4308.6185,N,07725.7519,W,30.67,64.66,230923,,,A*71
$GPGGA,230739.250,4308.6193,N,07725.7492,W,1,07,1.25,168.3,M,-34.4,M,,*5B
$GPRMC,230739.500,A,4308.6199,N,07725.7464,W,30.91,70.46,230923,,,A*7C
$GPGGA,230739.750,4308.6204,N,07725.7434,W,1,07,1.33,168.1,M,-34.4,M,,*5A
$GPRMC,230740.000,A,4308.6208,N,07725.7406,W,30.81,75.69,230923,,,A*71
$GPGGA,230740.250,4308.6213,N,07725.7377,W,1,07,1.33,168.1,M,-34.4,M,,*57
$GPRMC,230740.500,A,4308.6217,N,07725.7347,W,31.05,78.27,230923,,,A*72
$GPGGA,230740.750,4308.6220,N,07725.7318,W,1,07,1.33,168.0,M,-34.4,M,,*5A
$GPRMC,230741.000,A,4308.6223,N,07725.7288,W,31.16,80.70,230923,,,A*74
$GPGGA,230741.250,4308.6225,N,07725.7258,W,1,07,1.25,167.8,M,-34.4,M,,*5E
$GPRMC,230741.500,A,4308.6227,N,07725.7228,W,31.25,83.90,230923,,,A*72
$GPGGA,230741.750,4308.6227,N,07725.7198,W,1,07,1.33,167.8,M,-34.4,M,,*51
$GPRMC,230742.000,A,4308.6228,N,07725.7167,W,31.30,87.05,230923,,,A*7F
$GPGGA,230742.250,4308.6228,N,07725.7137,W,1,07,1.33,167.8,M,-34.4,M,,*5D
$GPRMC,230742.500,A,4308.6228,N,07725.7106,W,31.33,87.94,230923,,,A*76
$GPGGA,230742.750,4308.6227,N,07725.7076,W,1,07,1.33,167.8,M,-34.4,M,,*53
$GPRMC,230743.000,A,4308.6226,N,07725.7046,W,31.38,89.48,230923,,,A*7D
$GPGGA,230743.250,4308.6226,N,07725.7016,W,1,07,1.33,167.9,M,-34.4,M,,*51
$GPRMC,230743.500,A,4308.6225,N,07725.6985,W,31.37,90.13,230923,,,A*75
$GPGGA,230743.750,4308.6225,N,07725.6955,W,1,07,1.33,168.0,M,-34.4,M,,*5E
$GPRMC,230744.000,A,4308.6225,N,07725.6925,W,31.22,89.71,230923,,,A*75
$GPGGA,230744.250,4308.6224,N,07725.6896,W,1,07,1.34,168.1,M,-34.4,M,,*55
$GPRMC,230744.500,A,4308.6223,N,07725.6866,W,30.67,90.36,230923,,,A*7B
$GPGGA,230744.750,4308.6223,N,07725.6837,W,1,07,1.33,168.1,M,-34.4,M,,*5B
$GPRMC,230745.000,A,4308.6223,N,07725.6808,W,30.45,90.30,230923,,,A*71
$GPGGA,230745.250,4308.6222,N,07725.6778,W,1,07,1.34,168.2,M,-34.4,M,,*5E
$GPRMC,230745.500,A,4308.6221,N,07725.6749,W,30.22,90.11,230923,,,A*7E
$GPGGA,230745.750,4308.6221,N,07725.6720,W,1,07,1.33,167.7,M,-34.4,M,,*58
$GPRMC,230746.000,A,4308.6220,N,07725.6691,W,29.90,89.92,230923,,,A*7F
$GPGGA,230746.250,4308.6220,N,07725.6662,W,1,07,1.33,167.3,M,-34.4,M,,*5C
$GPRMC,230746.500,A,4308.6220,N,07725.6634,W,29.65,90.15,230923,,,A*78
$GPGGA,230746.750,4308.6219,N,07725.6605,W,1,07,1.33,167.1,M,-34.4,M,,*50
$GPRMC,230747.000,A,4308.6219,N,07725.6577,W,29.36,90.13,230923,,,A*72
$GPGGA,230747.250,4308.6219,N,07725.6549,W,1,07,1.33,167.0,M,-34.4,M,,*5E
$GPRMC,230747.500,A,4308.6219,N,07725.6521,W,29.05,89.81,230923,,,A*77
$GPGGA,230747.750,4308.6219,N,07725.6494,W,1,07,1.33,166.8,M,-34.4,M,,*53
$GPRMC,230748.000,A,4308.6219,N,07725.6466,W,28.56,90.07,230923,,,A*7E
$GPGGA,230748.250,4308.6219,N,07725.6439,W,1,07,1.33,166.7,M,-34.4,M,,*51
$GPRMC,230748.500,A,4308.6219,N,07725.6412,W,28.35,90.58,230923,,,A*77
$GPGGA,230748.750,4308.6219,N,07725.6385,W,1,07,1.33,166.8,M,-34.4,M,,*5B
$GPRMC,230749.000,A,4308.6219,N,07725.6358,W,28.45,90.31,230923,,,A*72
$GPGGA,230749.250,4308.6219,N,07725.6330,W,1,07,1.33,166.8,M,-34.4,M,,*51
$GPRMC,230749.500,A,4308.6219,N,07725.6304,W,28.25,90.79,230923,,,A*74
$GPGGA,230749.750,4308.6219,N,07725.6277,W,1,07,1.33,166.9,M,-34.4,M,,*57
$GPRMC,230750.000,A,4308.6219,N,07725.6250,W,28.26,91.43,230923,,,A*72
$GPGGA,230750.250,4308.6219,N,07725.6224,W,1,07,1.34,167.1,M,-34.4,M,,*52
$GPRMC,230750.500,A,4308.6219,N,07725.6198,W,27.44,91.30,230923,,,A*7F
$GPGGA,230750.750,4308.6219,N,07725.6172,W,1,07,1.33,167.3,M,-34.4,M,,*52
$GPRMC,230751.000,A,4308.6219,N,07725.6146,W,27.18,89.14,230923,,,A*7E
$GPGGA,230751.250,4308.6219,N,07725.6121,W,1,07,1.33,167.4,M,-34.4,M,,*57
$GPRMC,230751.500,A,4308.6220,N,07725.6095,W,26.84,90.23,230923,,,A*76
$GPGGA,230751.750,4308.6219,N,07725.6070,W,1,07,1.33,167.5,M,-34.4,M,,*56
$GPRMC,230752.000,A,4308.6219,N,07725.6046,W,25.99,90.92,230923,,,A*71
$GPGGA,230752.250,4308.6219,N,07725.6021,W,1,07,1.33,167.6,M,-34.4,M,,*57
$GPRMC,230752.500,A,4308.6219,N,07725.5998,W,24.16,90.18,230923,,,A*79
$GPGGA,230752.750,4308.6219,N,07725.5975,W,1,07,1.34,167.7,M,-34.4,M,,*5F
$GPRMC,230753.000,A,4308.6219,N,07725.5952,W,23.70,90.99,230923,,,A*75
$GPGGA,230753.250,4308.6219,N,07725.5930,W,1,07,1.26,167.9,M,-34.4,M,,*57
$GPRMC,230753.500,A,4308.6219,N,07725.5910,W,21.91,90.72,230923,,,A*7E
$GPGGA,230753.750,4308.6219,N,07725.5890,W,1,07,1.34,168.0,M,-34.4,M,,*5C
$GPRMC,230754.000,A,4308.6219,N,07725.5871,W,20.01,92.03,230923,,,A*76
$GPGGA,230754.250,4308.6218,N,07725.5854,W,1,07,1.34,168.1,M,-34.4,M,,*56
