Vers 81
USE_SERIAL_FEEDBACK=true
DEVELOPMENT_MODE=false
USE_RMC_ONLY=false

$GPRMC,170334.750,A,4308.3067,N,07726.2649,W,0.56,297.03,120923,,,A*7B
$GPGGA,170335.000,4308.3068,N,07726.2650,W,1,06,1.69,165.0,M,-34.4,M,,*5E
$GPRMC,170335.250,A,4308.3068,N,07726.2650,W,0.61,296.87,120923,,,A*71
$GPGGA,170335.500,4308.3067,N,07726.2651,W,1,06,1.69,165.0,M,-34.4,M,,*55
$GPRMC,170335.750,A,4308.3068,N,07726.2651,W,0.34,319.26,120923,,,A*78
$GPGGA,170336.000,4308.3069,N,07726.2651,W,1,06,1.69,164.9,M,-34.4,M,,*55
$GPRMC,170336.250,A,4308.3069,N,07726.2651,W,0.30,344.89,120923,,,A*76
$GPGGA,170336.500,4308.3069,N,07726.2651,W,1,06,1.69,164.7,M,-34.4,M,,*5E
$GPRMC,170336.750,A,4308.3069,N,07726.2650,W,0.24,3.79,120923,,,A*78
$GPGGA,170337.000,4308.3070,N,07726.2650,W,1,06,1.70,164.6,M,-34.4,M,,*5A
$GPRMC,170337.250,A,4308.3071,N,07726.2649,W,0.16,356.24,120923,,,A*77
$GPGGA,170337.500,4308.3072,N,07726.2649,W,1,06,1.70,164.5,M,-34.4,M,,*56
$GPRMC,170337.750,A,4308.3073,N,07726.2649,W,0.10,8.28,120923,,,A*72
$GPGGA,170338.000,4308.3074,N,07726.2648,W,1,06,1.70,164.5,M,-34.4,M,,*5B
$GPRMC,170338.250,A,4308.3074,N,07726.2648,W,0.07,344.52,120923,,,A*7E
$GPGGA,170338.500,4308.3074,N,07726.2648,W,1,06,1.69,164.5,M,-34.4,M,,*56
$GPRMC,170338.750,A,4308.3074,N,07726.2648,W,0.03,214.70,120923,,,A*7B
$GPGGA,170339.000,4308.3074,N,07726.2648,W,1,06,1.69,164.5,M,-34.4,M,,*52
$GPRMC,170339.250,A,4308.3074,N,07726.2647,W,0.04,197.86,120923,,,A*76
$GPGGA,170339.500,4308.3074,N,07726.2647,W,1,06,1.69,164.6,M,-34.4,M,,*5B
$GPRMC,170339.750,A,4308.3074,N,07726.2647,W,0.16,194.04,120923,,,A*79
$GPGGA,170340.000,4308.3074,N,07726.2647,W,1,06,1.69,164.6,M,-34.4,M,,*50
$GPRMC,170340.250,A,4308.3075,N,07726.2646,W,0.10,178.31,120923,,,A*70
$GPGGA,170340.500,4308.3075,N,07726.2646,W,1,06,1.69,164.7,M,-34.4,M,,*54
$GPRMC,170340.750,A,4308.3075,N,07726.2646,W,0.08,123.41,120923,,,A*75
$GPGGA,170341.000,4308.3076,N,07726.2646,W,1,06,1.69,164.8,M,-34.4,M,,*5C
$GPRMC,170341.250,A,4308.3076,N,07726.2646,W,0.07,122.71,120923,,,A*7F
$GPGGA,170341.500,4308.3077,N,07726.2646,W,1,06,1.69,164.9,M,-34.4,M,,*59
$GPRMC,170341.750,A,4308.3077,N,07726.2646,W,0.15,211.58,120923,,,A*70
$GPGGA,170342.000,4308.3076,N,07726.2646,W,1,06,1.69,165.0,M,-34.4,M,,*56
$GPRMC,170342.250,A,4308.3075,N,07726.2647,W,1.25,239.08,120923,,,A*78
$GPGGA,170342.500,4308.3074,N,07726.2649,W,1,06,1.69,165.0,M,-34.4,M,,*5E
$GPRMC,170342.750,A,4308.3074,N,07726.2649,W,2.32,208.25,120923,,,A*7A
$GPGGA,170343.000,4308.3072,N,07726.2649,W,1,06,1.69,165.1,M,-34.4,M,,*5D
$GPRMC,170343.250,A,4308.3070,N,07726.2650,W,2.47,181.88,120923,,,A*75
$GPGGA,170343.500,4308.3069,N,07726.2650,W,1,06,1.69,165.1,M,-34.4,M,,*5A
$GPRMC,170343.750,A,4308.3069,N,07726.2651,W,1.82,220.91,120923,,,A*73
$GPGGA,170344.000,4308.3070,N,07726.2651,W,1,06,1.69,165.1,M,-34.4,M,,*51
$GPRMC,170344.250,A,4308.3071,N,07726.2651,W,0.56,207.24,120923,,,A*7B
$GPGGA,170344.500,4308.3071,N,07726.2651,W,1,06,1.69,165.1,M,-34.4,M,,*55
$GPRMC,170344.750,A,4308.3071,N,07726.2650,W,0.46,177.67,120923,,,A*7D
$GPGGA,170345.000,4308.3072,N,07726.2650,W,1,06,1.69,165.1,M,-34.4,M,,*53
$GPRMC,170345.250,A,4308.3072,N,07726.2650,W,0.25,159.84,120923,,,A*7E
$GPGGA,170345.500,4308.3072,N,07726.2650,W,1,06,1.69,165.1,M,-34.4,M,,*56
$GPRMC,170345.750,A,4308.3072,N,07726.2649,W,0.24,150.85,120923,,,A*7A
$GPGGA,170346.000,4308.3073,N,07726.2649,W,1,06,1.69,165.1,M,-34.4,M,,*59
$GPRMC,170346.250,A,4308.3074,N,07726.2649,W,0.06,92.77,120923,,,A*48
$GPGGA,170346.500,4308.3075,N,07726.2649,W,1,06,1.69,165.1,M,-34.4,M,,*5A
$GPRMC,170346.750,A,4308.3076,N,07726.2649,W,0.21,22.41,120923,,,A*44
$GPGGA,170347.000,4308.3077,N,07726.2648,W,1,06,1.69,165.1,M,-34.4,M,,*5D
$GPRMC,170347.250,A,4308.3077,N,07726.2648,W,0.20,25.24,120923,,,A*45
$GPGGA,170347.500,4308.3077,N,07726.2648,W,1,06,1.69,165.1,M,-34.4,M,,*58
$GPRMC,170347.750,A,4308.3077,N,07726.2648,W,0.11,23.14,120923,,,A*47
$GPGGA,170348.000,4308.3077,N,07726.2647,W,1,06,1.69,165.1,M,-34.4,M,,*5D
$GPRMC,170348.250,A,4308.3077,N,07726.2647,W,0.08,76.61,120923,,,A*48
$GPGGA,170348.500,4308.3077,N,07726.2647,W,1,06,1.69,165.1,M,-34.4,M,,*58
$GPRMC,170348.750,A,4308.3078,N,07726.2647,W,0.11,94.53,120923,,,A*47
$GPGGA,170349.000,4308.3077,N,07726.2648,W,1,06,1.69,165.0,M,-34.4,M,,*52
$GPRMC,170349.250,A,4308.3077,N,07726.2648,W,0.05,132.74,120923,,,A*7E
$GPGGA,170349.500,4308.3077,N,07726.2647,W,1,06,1.69,165.0,M,-34.4,M,,*58
$GPRMC,170349.750,A,4308.3077,N,07726.2647,W,0.19,115.71,120923,,,A*79
$GPGGA,170350.000,4308.3078,N,07726.2647,W,1,06,1.69,165.0,M,-34.4,M,,*5A
$GPRMC,170350.250,A,4308.3078,N,07726.2647,W,0.19,97.62,120923,,,A*42
$GPGGA,170350.500,4308.3078,N,07726.2647,W,1,06,1.69,165.0,M,-34.4,M,,*5F
$GPRMC,170350.750,A,4308.3078,N,07726.2647,W,0.18,101.43,120923,,,A*7B
$GPGGA,170351.000,4308.3078,N,07726.2648,W,1,06,1.69,165.0,M,-34.4,M,,*54
$GPRMC,170351.250,A,4308.3078,N,07726.2648,W,0.13,73.10,120923,,,A*49
$GPGGA,170351.500,4308.3078,N,07726.2648,W,1,06,1.69,165.0,M,-34.4,M,,*51
$GPRMC,170351.750,A,4308.3078,N,07726.2648,W,0.15,61.63,120923,,,A*4D
$GPGGA,170352.000,4308.3077,N,07726.2649,W,1,06,1.69,164.9,M,-34.4,M,,*51
$GPRMC,170352.250,A,4308.3076,N,07726.2650,W,0.06,155.90,120923,,,A*74
$GPGGA,170352.500,4308.3075,N,07726.2650,W,1,06,1.69,164.9,M,-34.4,M,,*5E
$GPRMC,170352.750,A,4308.3074,N,07726.2650,W,0.21,161.01,120923,,,A*79
$GPGGA,170353.000,4308.3074,N,07726.2650,W,1,06,1.69,164.9,M,-34.4,M,,*5B
$GPRMC,170353.250,A,4308.3073,N,07726.2651,W,0.21,158.17,120923,,,A*76
$GPGGA,170353.500,4308.3074,N,07726.2650,W,1,06,1.69,164.9,M,-34.4,M,,*5E
$GPRMC,170353.750,A,4308.3074,N,07726.2650,W,0.11,95.23,120923,,,A*41
$GPGGA,170354.000,4308.3074,N,07726.2650,W,1,06,1.69,164.9,M,-34.4,M,,*5C
$GPRMC,170354.250,A,4308.3073,N,07726.2651,W,0.08,124.52,120923,,,A*70
$GPGGA,170354.500,4308.3072,N,07726.2651,W,1,06,1.69,164.9,M,-34.4,M,,*5E
$GPRMC,170354.750,A,4308.3072,N,07726.2652,W,0.08,190.21,120923,,,A*7C
$GPGGA,170355.000,4308.3072,N,07726.2652,W,1,06,1.69,165.0,M,-34.4,M,,*51
$GPRMC,170355.250,A,4308.3071,N,07726.2653,W,0.09,229.49,120923,,,A*74
$GPGGA,170355.500,4308.3071,N,07726.2652,W,1,06,1.69,165.0,M,-34.4,M,,*57
$GPRMC,170355.750,A,4308.3071,N,07726.2652,W,0.05,191.99,120923,,,A*71
$GPGGA,170356.000,4308.3071,N,07726.2652,W,1,06,1.69,165.0,M,-34.4,M,,*51
$GPRMC,170356.250,A,4308.3071,N,07726.2652,W,0.09,144.36,120923,,,A*76
$GPGGA,170356.500,4308.3070,N,07726.2652,W,1,06,1.69,165.0,M,-34.4,M,,*55
$GPRMC,170356.750,A,4308.3069,N,07726.2653,W,0.13,168.43,120923,,,A*7C
$GPGGA,170357.000,4308.3069,N,07726.2653,W,1,06,1.69,165.1,M,-34.4,M,,*59
$GPRMC,170357.250,A,4308.3068,N,07726.2654,W,0.15,191.66,120923,,,A*79
$GPGGA,170357.500,4308.3068,N,07726.2654,W,1,06,1.69,165.2,M,-34.4,M,,*59
$GPRMC,170357.750,A,4308.3067,N,07726.2655,W,0.22,193.94,120923,,,A*79
$GPGGA,170358.000,4308.3066,N,07726.2656,W,1,06,1.69,165.2,M,-34.4,M,,*5F
$GPRMC,170358.250,A,4308.3066,N,07726.2657,W,0.27,221.81,120923,,,A*7B
$GPGGA,170358.500,4308.3065,N,07726.2657,W,1,06,1.69,165.3,M,-34.4,M,,*59
$GPRMC,170358.750,A,4308.3064,N,07726.2658,W,0.30,219.07,120923,,,A*70
$GPGGA,170359.000,4308.3064,N,07726.2658,W,1,06,1.69,165.4,M,-34.4,M,,*54
$GPRMC,170359.250,A,4308.3064,N,07726.2658,W,0.23,220.88,120923,,,A*7B
$GPGGA,170359.500,4308.3064,N,07726.2658,W,1,06,1.69,165.4,M,-34.4,M,,*51
$GPRMC,170359.750,A,4308.3064,N,07726.2658,W,0.23,224.88,120923,,,A*7A
$GPGGA,170400.000,4308.3064,N,07726.2658,W,1,06,1.69,165.4,M,-34.4,M,,*5F
$GPRMC,170400.250,A,4308.3064,N,07726.2659,W,0.27,223.12,120923,,,A*75
$GPGGA,170400.500,4308.3063,N,07726.2659,W,1,06,1.69,165.4,M,-34.4,M,,*5C
$GPRMC,170400.750,A,4308.3063,N,07726.2659,W,0.34,219.53,120923,,,A*79
$GPGGA,170401.000,4308.3063,N,07726.2659,W,1,06,1.69,165.4,M,-34.4,M,,*58
$GPRMC,170401.250,A,4308.3063,N,07726.2659,W,0.34,215.79,120923,,,A*79
$GPGGA,170401.500,4308.3062,N,07726.2659,W,1,06,1.69,165.4,M,-34.4,M,,*5C
$GPRMC,170401.750,A,4308.3062,N,07726.2659,W,0.35,212.64,120923,,,A*77
$GPGGA,170402.000,4308.3062,N,07726.2659,W,1,06,1.69,165.4,M,-34.4,M,,*5A
$GPRMC,170402.250,A,4308.3062,N,07726.2659,W,0.31,210.05,120923,,,A*70
$GPGGA,170402.500,4308.3062,N,07726.2659,W,1,06,1.69,165.4,M,-34.4,M,,*5F
$GPRMC,170402.750,A,4308.3061,N,07726.2660,W,0.33,207.35,120923,,,A*7B
$GPGGA,170403.000,4308.3061,N,07726.2660,W,1,06,1.69,165.4,M,-34.4,M,,*52
$GPRMC,170403.250,A,4308.3061,N,07726.2660,W,0.31,204.47,120923,,,A*7B
$GPGGA,170403.500,4308.3061,N,07726.2660,W,1,06,1.69,165.4,M,-34.4,M,,*57
$GPRMC,170403.750,A,4308.3060,N,07726.2660,W,0.22,203.50,120923,,,A*7C
$GPGGA,170404.000,4308.3060,N,07726.2660,W,1,06,1.69,165.4,M,-34.4,M,,*54
$GPRMC,170404.250,A,4308.3060,N,07726.2660,W,0.22,205.04,120923,,,A*79
$GPGGA,170404.500,4308.3060,N,07726.2660,W,1,06,1.69,165.4,M,-34.4,M,,*51
$GPRMC,170404.750,A,4308.3060,N,07726.2660,W,0.24,204.86,120923,,,A*71
$GPGGA,170405.000,4308.3060,N,07726.2660,W,1,06,1.69,165.4,M,-34.4,M,,*55
$GPRMC,170405.250,A,4308.3060,N,07726.2660,W,0.26,205.85,120923,,,A*75
$GPGGA,170405.500,4308.3059,N,07726.2660,W,1,06,1.69,165.4,M,-34.4,M,,*5A
$GPRMC,170405.750,A,4308.3059,N,07726.2661,W,0.28,207.69,120923,,,A*75
$GPGGA,170405.999,4308.3059,N,07726.2661,W,1,06,1.69,165.4,M,-34.4,M,,*57
$GPRMC,170406.250,A,4308.3059,N,07726.2661,W,0.14,207.97,120923,,,A*7D
$GPGGA,170406.500,4308.3059,N,07726.2661,W,1,06,1.69,165.4,M,-34.4,M,,*58
$GPRMC,170406.750,A,4308.3059,N,07726.2661,W,0.18,208.69,120923,,,A*7A
$GPGGA,170407.000,4308.3059,N,07726.2661,W,1,06,1.69,165.4,M,-34.4,M,,*5C
$GPRMC,170407.250,A,4308.3059,N,07726.2661,W,0.29,208.38,120923,,,A*78
$GPGGA,170407.500,4308.3058,N,07726.2661,W,1,06,1.69,165.4,M,-34.4,M,,*58
$GPRMC,170407.750,A,4308.3058,N,07726.2662,W,0.34,209.38,120923,,,A*72
$GPGGA,170408.000,4308.3058,N,07726.2662,W,1,06,1.69,165.5,M,-34.4,M,,*50
$GPRMC,170408.250,A,4308.3058,N,07726.2662,W,0.32,209.12,120923,,,A*76
$GPGGA,170408.500,4308.3058,N,07726.2662,W,1,06,1.69,165.5,M,-34.4,M,,*55
$GPRMC,170408.750,A,4308.3057,N,07726.2662,W,0.20,209.39,120923,,,A*76
$GPGGA,170409.000,4308.3057,N,07726.2662,W,1,06,1.69,165.5,M,-34.4,M,,*5E
$GPRMC,170409.250,A,4308.3057,N,07726.2662,W,0.14,211.40,120923,,,A*72
$GPGGA,170409.500,4308.3057,N,07726.2662,W,1,06,1.69,165.5,M,-34.4,M,,*5B
$GPRMC,170409.750,A,4308.3057,N,07726.2662,W,0.06,213.27,120923,,,A*77
$GPGGA,170410.000,4308.3057,N,07726.2663,W,1,06,1.69,165.5,M,-34.4,M,,*57
$GPRMC,170410.250,A,4308.3057,N,07726.2663,W,0.07,212.76,120923,,,A*7F
$GPGGA,170410.500,4308.3057,N,07726.2663,W,1,06,1.69,165.5,M,-34.4,M,,*52
$GPRMC,170410.750,A,4308.3057,N,07726.2663,W,0.11,211.28,120923,,,A*75
$GPGGA,170411.000,4308.3057,N,07726.2663,W,1,06,1.69,165.5,M,-34.4,M,,*56
$GPRMC,170411.250,A,4308.3057,N,07726.2663,W,0.11,313.02,120923,,,A*7A
$GPGGA,170411.500,4308.3057,N,07726.2663,W,1,06,1.69,165.5,M,-34.4,M,,*53
$GPRMC,170411.750,A,4308.3057,N,07726.2663,W,0.06,315.10,120923,,,A*7C
$GPGGA,170412.000,4308.3057,N,07726.2663,W,1,06,1.69,165.5,M,-34.4,M,,*55
$GPRMC,170412.250,A,4308.3057,N,07726.2663,W,0.08,51.82,120923,,,A*4C
$GPGGA,170412.500,4308.3057,N,07726.2663,W,1,06,1.69,165.5,M,-34.4,M,,*50
$GPRMC,170412.750,A,4308.3057,N,07726.2663,W,0.09,41.54,120923,,,A*42
$GPGGA,170413.000,4308.3057,N,07726.2663,W,1,06,1.69,165.5,M,-34.4,M,,*54
$GPRMC,170413.250,A,4308.3057,N,07726.2663,W,0.06,34.63,120923,,,A*4F
$GPGGA,170413.500,4308.3057,N,07726.2662,W,1,06,1.69,165.5,M,-34.4,M,,*50
$GPRMC,170413.750,A,4308.3057,N,07726.2662,W,0.03,79.86,120923,,,A*4C
$GPGGA,170414.000,4308.3057,N,07726.2662,W,1,06,1.69,165.5,M,-34.4,M,,*52
$GPRMC,170414.250,A,4308.3057,N,07726.2662,W,0.05,94.32,120923,,,A*44
$GPGGA,170414.500,4308.3057,N,07726.2662,W,1,06,1.69,165.5,M,-34.4,M,,*57
$GPRMC,170414.750,A,4308.3057,N,07726.2662,W,0.09,102.86,120923,,,A*7C
$GPGGA,170415.000,4308.3057,N,07726.2662,W,1,06,1.69,165.5,M,-34.4,M,,*53
$GPRMC,170415.250,A,4308.3057,N,07726.2662,W,0.08,108.32,120923,,,A*7C
$GPGGA,170415.500,4308.3057,N,07726.2662,W,1,06,1.69,165.5,M,-34.4,M,,*56
$GPRMC,170415.750,A,4308.3057,N,07726.2662,W,0.09,168.35,120923,,,A*79
$GPGGA,170416.000,4308.3057,N,07726.2662,W,1,06,1.69,165.5,M,-34.4,M,,*50
$GPRMC,170416.250,A,4308.3057,N,07726.2662,W,0.10,199.76,120923,,,A*7E
$GPGGA,170416.500,4308.3057,N,07726.2662,W,1,06,1.69,165.5,M,-34.4,M,,*55
$GPRMC,170416.750,A,4308.3057,N,07726.2662,W,0.10,209.15,120923,,,A*74
$GPGGA,170417.000,4308.3057,N,07726.2662,W,1,06,1.69,165.5,M,-34.4,M,,*51
$GPRMC,170417.250,A,4308.3057,N,07726.2662,W,0.06,168.40,120923,,,A*73
$GPGGA,170417.500,4308.3057,N,07726.2662,W,1,06,1.69,165.5,M,-34.4,M,,*54
$GPRMC,170417.750,A,4308.3057,N,07726.2662,W,0.11,150.47,120923,,,A*7C
$GPGGA,170418.000,4308.3057,N,07726.2662,W,1,06,1.69,165.5,M,-34.4,M,,*5E
$GPRMC,170418.250,A,4308.3057,N,07726.2662,W,0.12,110.71,120923,,,A*74
$GPGGA,170418.500,4308.3057,N,07726.2662,W,1,06,1.69,165.5,M,-34.4,M,,*5B
$GPRMC,170418.750,A,4308.3057,N,07726.2662,W,0.09,164.27,120923,,,A*7B
$GPGGA,170419.000,4308.3057,N,07726.2662,W,1,06,1.69,165.5,M,-34.4,M,,*5F
$GPRMC,170419.250,A,4308.3056,N,07726.2662,W,0.15,204.23,120923,,,A*72
$GPGGA,170419.500,4308.3056,N,07726.2662,W,1,06,1.69,165.5,M,-34.4,M,,*5B
$GPRMC,170419.750,A,4308.3056,N,07726.2662,W,0.11,203.18,120923,,,A*7C
$GPGGA,170420.000,4308.3056,N,07726.2662,W,1,06,1.69,165.5,M,-34.4,M,,*54
$GPRMC,170420.250,A,4308.3056,N,07726.2662,W,0.07,204.10,120923,,,A*7B
$GPGGA,170420.500,4308.3056,N,07726.2662,W,1,07,1.27,165.6,M,-34.4,M,,*59
$GPRMC,170420.750,A,4308.3056,N,07726.2662,W,0.07,199.84,120923,,,A*74
$GPGGA,170421.000,4308.3056,N,07726.2662,W,1,07,1.27,165.6,M,-34.4,M,,*5D
$GPRMC,170421.250,A,4308.3056,N,07726.2662,W,0.04,80.82,120923,,,A*4C
$GPGGA,170421.500,4308.3056,N,07726.2662,W,1,07,1.27,165.6,M,-34.4,M,,*58
$GPRMC,170421.750,A,4308.3056,N,07726.2662,W,0.09,177.23,120923,,,A*76
$GPGGA,170422.000,4308.3056,N,07726.2662,W,1,07,1.29,165.6,M,-34.4,M,,*50
$GPRMC,170422.250,A,4308.3056,N,07726.2662,W,0.10,187.28,120923,,,A*7C
$GPGGA,170422.500,4308.3056,N,07726.2662,W,1,07,1.29,165.6,M,-34.4,M,,*55
$GPRMC,170422.750,A,4308.3056,N,07726.2662,W,0.03,303.69,120923,,,A*70
$GPGGA,170423.000,4308.3056,N,07726.2662,W,1,07,1.29,165.6,M,-34.4,M,,*51
$GPRMC,170423.250,A,4308.3056,N,07726.2662,W,0.04,160.70,120923,,,A*7C
$GPGGA,170423.500,4308.3056,N,07726.2662,W,1,07,1.29,165.6,M,-34.4,M,,*54
$GPRMC,170423.750,A,4308.3056,N,07726.2662,W,0.02,140.37,120923,,,A*7E
$GPGGA,170424.000,4308.3056,N,07726.2662,W,1,07,1.29,165.6,M,-34.4,M,,*56
$GPRMC,170424.250,A,4308.3056,N,07726.2662,W,0.02,305.13,120923,,,A*79
$GPGGA,170424.500,4308.3056,N,07726.2662,W,1,07,1.29,165.6,M,-34.4,M,,*53
$GPRMC,170424.750,A,4308.3056,N,07726.2662,W,0.04,177.21,120923,,,A*7C
$GPGGA,170425.000,4308.3056,N,07726.2662,W,1,07,1.29,165.6,M,-34.4,M,,*57
$GPRMC,170425.250,A,4308.3056,N,07726.2662,W,0.03,188.21,120923,,,A*7F
$GPGGA,170425.500,4308.3056,N,07726.2662,W,1,07,1.29,165.6,M,-34.4,M,,*52
$GPRMC,170425.750,A,4308.3056,N,07726.2662,W,0.05,223.56,120923,,,A*7E
$GPGGA,170426.000,4308.3056,N,07726.2662,W,1,07,1.29,165.6,M,-34.4,M,,*54
$GPRMC,170426.250,A,4308.3056,N,07726.2662,W,0.01,357.75,120923,,,A*7F
$GPGGA,170426.500,4308.3056,N,07726.2662,W,1,08,1.24,165.6,M,-34.4,M,,*53
$GPRMC,170426.750,A,4308.3056,N,07726.2662,W,0.03,35.28,120923,,,A*47
$GPGGA,170427.000,4308.3056,N,07726.2662,W,1,08,1.24,165.6,M,-34.4,M,,*57
$GPRMC,170427.250,A,4308.3056,N,07726.2662,W,0.02,33.96,120923,,,A*41
$GPGGA,170427.500,4308.3056,N,07726.2662,W,1,08,1.23,165.6,M,-34.4,M,,*55
$GPRMC,170427.750,A,4308.3056,N,07726.2662,W,0.02,200.31,120923,,,A*7B
$GPGGA,170428.000,4308.3056,N,07726.2662,W,1,08,1.24,165.6,M,-34.4,M,,*58
$GPRMC,170428.250,A,4308.3056,N,07726.2662,W,0.01,161.26,120923,,,A*70
$GPGGA,170428.500,4308.3056,N,07726.2662,W,1,08,1.24,165.6,M,-34.4,M,,*5D
$GPRMC,170428.750,A,4308.3056,N,07726.2662,W,0.00,194.77,120923,,,A*7A
$GPGGA,170429.000,4308.3056,N,07726.2662,W,1,08,1.24,165.6,M,-34.4,M,,*59
$GPRMC,170429.250,A,4308.3056,N,07726.2662,W,0.01,175.44,120923,,,A*70
$GPGGA,170429.500,4308.3056,N,07726.2662,W,1,08,1.24,165.6,M,-34.4,M,,*5C
$GPRMC,170429.750,A,4308.3056,N,07726.2662,W,0.01,178.94,120923,,,A*75
$GPGGA,170430.000,4308.3056,N,07726.2662,W,1,08,1.24,165.6,M,-34.4,M,,*51
$GPRMC,170430.250,A,4308.3056,N,07726.2662,W,0.00,222.94,120923,,,A*75
$GPGGA,170430.500,4308.3056,N,07726.2662,W,1,08,1.24,165.6,M,-34.4,M,,*54
$GPRMC,170430.750,A,4308.3056,N,07726.2662,W,0.01,161.10,120923,,,A*79
$GPGGA,170431.000,4308.3056,N,07726.2662,W,1,08,1.24,165.6,M,-34.4,M,,*50
$GPRMC,170431.250,A,4308.3056,N,07726.2662,W,0.02,278.93,120923,,,A*7E
$GPGGA,170431.500,4308.3056,N,07726.2662,W,1,08,1.24,165.6,M,-34.4,M,,*55
$GPRMC,170431.750,A,4308.3056,N,07726.2662,W,0.00,249.92,120923,,,A*7A
$GPGGA,170432.000,4308.3056,N,07726.2662,W,1,08,1.24,165.6,M,-34.4,M,,*53
$GPRMC,170432.250,A,4308.3056,N,07726.2662,W,0.04,23.12,120923,,,A*4E
$GPGGA,170432.500,4308.3056,N,07726.2662,W,1,08,1.24,165.6,M,-34.4,M,,*56
$GPRMC,170432.750,A,4308.3056,N,07726.2662,W,0.00,59.72,120923,,,A*44
$GPGGA,170433.000,4308.3056,N,07726.2662,W,1,08,1.24,165.6,M,-34.4,M,,*52
$GPRMC,170433.250,A,4308.3056,N,07726.2662,W,0.01,116.19,120923,,,A*76
$GPGGA,170433.500,4308.3056,N,07726.2662,W,1,08,1.24,165.6,M,-34.4,M,,*57
$GPRMC,170433.750,A,4308.3056,N,07726.2662,W,0.01,24.75,120923,,,A*49
$GPGGA,170434.000,4308.3056,N,07726.2662,W,1,08,1.24,165.6,M,-34.4,M,,*55
$GPRMC,170434.250,A,4308.3056,N,07726.2662,W,0.00,287.34,120923,,,A*74
$GPGGA,170434.500,4308.3056,N,07726.2662,W,1,08,1.24,165.6,M,-34.4,M,,*50
$GPRMC,170434.750,A,4308.3056,N,07726.2662,W,0.01,18.08,120923,,,A*4B
$GPGGA,170435.000,4308.3056,N,07726.2662,W,1,08,1.24,165.5,M,-34.4,M,,*57
$GPRMC,170435.250,A,4308.3056,N,07726.2662,W,0.00,284.80,120923,,,A*79
$GPGGA,170435.500,4308.3056,N,07726.2662,W,1,08,1.24,165.5,M,-34.4,M,,*52
$GPRMC,170435.750,A,4308.3056,N,07726.2662,W,0.00,0.00,120923,,,A*7A
$GPGGA,170436.000,4308.3056,N,07726.2662,W,1,08,1.24,165.5,M,-34.4,M,,*54
$GPRMC,170436.250,A,4308.3056,N,07726.2662,W,0.01,238.77,120923,,,A*74
$GPGGA,170436.500,4308.3056,N,07726.2662,W,1,08,1.24,165.5,M,-34.4,M,,*51
$GPRMC,170436.750,A,4308.3056,N,07726.2662,W,0.01,335.45,120923,,,A*7C
$GPGGA,170437.000,4308.3056,N,07726.2662,W,1,08,1.24,165.5,M,-34.4,M,,*55
$GPRMC,170437.250,A,4308.3056,N,07726.2662,W,0.00,146.06,120923,,,A*78
$GPGGA,170437.500,4308.3056,N,07726.2662,W,1,08,1.24,165.5,M,-34.4,M,,*50
$GPRMC,170437.750,A,4308.3056,N,07726.2662,W,0.01,274.02,120923,,,A*7A
$GPGGA,170438.000,4308.3056,N,07726.2662,W,1,08,1.24,165.5,M,-34.4,M,,*5A
$GPRMC,170438.250,A,4308.3056,N,07726.2662,W,0.01,109.84,120923,,,A*77
$GPGGA,170438.500,4308.3056,N,07726.2662,W,1,08,1.24,165.5,M,-34.4,M,,*5F
$GPRMC,170438.750,A,4308.3056,N,07726.2662,W,0.01,301.44,120923,,,A*74
$GPGGA,170439.000,4308.3056,N,07726.2662,W,1,08,1.24,165.5,M,-34.4,M,,*5B
$GPRMC,170439.250,A,4308.3056,N,07726.2662,W,0.01,131.18,120923,,,A*78
$GPGGA,170439.500,4308.3056,N,07726.2662,W,1,08,1.24,165.5,M,-34.4,M,,*5E
$GPRMC,170439.750,A,4308.3056,N,07726.2662,W,0.01,67.60,120923,,,A*40
$GPGGA,170440.000,4308.3056,N,07726.2662,W,1,08,1.24,165.5,M,-34.4,M,,*55
$GPRMC,170440.250,A,4308.3056,N,07726.2662,W,0.00,312.84,120923,,,A*71
$GPGGA,170440.500,4308.3056,N,07726.2662,W,1,08,1.24,165.5,M,-34.4,M,,*50
$GPRMC,170440.750,A,4308.3056,N,07726.2662,W,0.01,239.95,120923,,,A*7D
$GPGGA,170441.000,4308.3056,N,07726.2662,W,1,08,1.24,165.5,M,-34.4,M,,*54
$GPRMC,170441.250,A,4308.3056,N,07726.2662,W,0.00,86.07,120923,,,A*45
$GPGGA,170441.500,4308.3056,N,07726.2662,W,1,08,1.24,165.5,M,-34.4,M,,*51
$GPRMC,170441.750,A,4308.3056,N,07726.2662,W,0.00,161.41,120923,,,A*7A
$GPGGA,170442.000,4308.3056,N,07726.2662,W,1,08,1.24,165.5,M,-34.4,M,,*57
$GPRMC,170442.250,A,4308.3056,N,07726.2662,W,0.01,355.29,120923,,,A*76
$GPGGA,170442.500,4308.3056,N,07726.2662,W,1,08,1.24,165.5,M,-34.4,M,,*52
$GPRMC,170442.750,A,4308.3056,N,07726.2662,W,0.01,38.59,120923,,,A*4C
$GPGGA,170443.000,4308.3056,N,07726.2662,W,1,08,1.24,165.5,M,-34.4,M,,*56
$GPRMC,170443.250,A,4308.3056,N,07726.2662,W,0.01,309.29,120923,,,A*7E
$GPGGA,170443.500,4308.3056,N,07726.2662,W,1,08,1.24,165.5,M,-34.4,M,,*53
$GPRMC,170443.750,A,4308.3056,N,07726.2662,W,0.01,136.26,120923,,,A*7A
$GPGGA,170444.000,4308.3056,N,07726.2662,W,1,08,1.24,165.5,M,-34.4,M,,*51
$GPRMC,170444.250,A,4308.3056,N,07726.2662,W,0.01,332.43,120923,,,A*7D
$GPGGA,170444.500,4308.3056,N,07726.2662,W,1,08,1.24,165.5,M,-34.4,M,,*54
$GPRMC,170444.750,A,4308.3056,N,07726.2662,W,0.01,153.39,120923,,,A*70
$GPGGA,170445.000,4308.3056,N,07726.2662,W,1,08,1.24,165.5,M,-34.4,M,,*50
$GPRMC,170445.250,A,4308.3056,N,07726.2662,W,0.00,46.61,120923,,,A*4D
$GPGGA,170445.500,4308.3056,N,07726.2662,W,1,08,1.24,165.5,M,-34.4,M,,*55
$GPRMC,170445.750,A,4308.3056,N,07726.2662,W,0.01,117.76,120923,,,A*7A
$GPGGA,170446.000,4308.3056,N,07726.2662,W,1,08,1.24,165.5,M,-34.4,M,,*53
$GPRMC,170446.250,A,4308.3056,N,07726.2662,W,0.01,272.88,120923,,,A*7D
$GPGGA,170446.500,4308.3056,N,07726.2662,W,1,08,1.24,165.5,M,-34.4,M,,*56
$GPRMC,170446.750,A,4308.3056,N,07726.2662,W,0.00,158.69,120923,,,A*7D
$GPGGA,170447.000,4308.3056,N,07726.2662,W,1,08,1.24,165.5,M,-34.4,M,,*52
$GPRMC,170447.250,A,4308.3056,N,07726.2662,W,0.01,350.29,120923,,,A*76
$GPGGA,170447.500,4308.3056,N,07726.2662,W,1,08,1.24,165.5,M,-34.4,M,,*57
$GPRMC,170447.750,A,4308.3056,N,07726.2662,W,0.00,31.70,120923,,,A*4A
$GPGGA,170448.000,4308.3056,N,07726.2662,W,1,08,1.24,165.5,M,-34.4,M,,*5D
$GPRMC,170448.250,A,4308.3056,N,07726.2662,W,0.00,105.79,120923,,,A*7F
$GPGGA,170448.500,4308.3056,N,07726.2662,W,1,08,1.24,165.5,M,-34.4,M,,*58
$GPRMC,170448.750,A,4308.3056,N,07726.2662,W,0.01,36.75,120923,,,A*46
$GPGGA,170449.000,4308.3056,N,07726.2662,W,1,08,1.24,165.5,M,-34.4,M,,*5C
$GPRMC,170449.250,A,4308.3056,N,07726.2662,W,0.00,0.00,120923,,,A*74
$GPGGA,170449.500,4308.3056,N,07726.2662,W,1,08,1.24,165.5,M,-34.4,M,,*59
$GPRMC,170449.750,A,4308.3056,N,07726.2662,W,0.01,116.49,120923,,,A*7B
$GPGGA,170450.000,4308.3056,N,07726.2662,W,1,08,1.24,165.5,M,-34.4,M,,*54
$GPRMC,170450.250,A,4308.3056,N,07726.2662,W,0.01,240.01,120923,,,A*7A
$GPGGA,170450.500,4308.3056,N,07726.2662,W,1,08,1.24,165.5,M,-34.4,M,,*51
$GPRMC,170450.750,A,4308.3056,N,07726.2662,W,0.00,212.28,120923,,,A*72
$GPGGA,170451.000,4308.3056,N,07726.2662,W,1,08,1.24,165.5,M,-34.4,M,,*55
$GPRMC,170451.250,A,4308.3056,N,07726.2662,W,0.00,0.00,120923,,,A*7D
$GPGGA,170451.500,4308.3056,N,07726.2662,W,1,08,1.24,165.5,M,-34.4,M,,*50
$GPRMC,170451.750,A,4308.3056,N,07726.2662,W,0.00,0.00,120923,,,A*78
$GPGGA,170452.000,4308.3056,N,07726.2662,W,1,08,1.24,165.5,M,-34.4,M,,*56
$GPRMC,170452.250,A,4308.3056,N,07726.2662,W,0.00,0.00,120923,,,A*7E
$GPGGA,170452.500,4308.3056,N,07726.2662,W,1,08,1.24,165.5,M,-34.4,M,,*53
$GPRMC,170452.750,A,4308.3056,N,07726.2662,W,0.00,120.85,120923,,,A*75
$GPGGA,170453.000,4308.3056,N,07726.2662,W,1,08,1.24,165.5,M,-34.4,M,,*57
$GPRMC,170453.250,A,4308.3056,N,07726.2662,W,0.00,0.00,120923,,,A*7F
$GPGGA,170453.500,4308.3056,N,07726.2662,W,1,08,1.24,165.5,M,-34.4,M,,*52
$GPRMC,170453.750,A,4308.3056,N,07726.2662,W,0.00,105.96,120923,,,A*71
$GPGGA,170454.000,4308.3056,N,07726.2662,W,1,08,1.24,165.5,M,-34.4,M,,*50
$GPRMC,170454.250,A,4308.3056,N,07726.2662,W,0.00,339.13,120923,,,A*73
$GPGGA,170454.500,4308.3056,N,07726.2662,W,1,08,1.24,165.5,M,-34.4,M,,*55
$GPRMC,170454.750,A,4308.3056,N,07726.2662,W,0.00,145.89,120923,,,A*7C
$GPGGA,170455.000,4308.3056,N,07726.2662,W,1,08,1.24,165.5,M,-34.4,M,,*51
$GPRMC,170455.250,A,4308.3056,N,07726.2662,W,0.00,90.31,120923,,,A*42
$GPGGA,170455.500,4308.3056,N,07726.2662,W,1,08,1.24,165.5,M,-34.4,M,,*54
$GPRMC,170455.750,A,4308.3056,N,07726.2662,W,0.00,0.00,120923,,,A*7C
$GPGGA,170456.000,4308.3056,N,07726.2662,W,1,08,1.24,165.6,M,-34.4,M,,*51
$GPRMC,170456.250,A,4308.3056,N,07726.2662,W,0.00,83.89,120923,,,A*40
$GPGGA,170456.500,4308.3056,N,07726.2662,W,1,08,1.24,165.6,M,-34.4,M,,*54
$GPRMC,170456.750,A,4308.3056,N,07726.2662,W,0.00,0.00,120923,,,A*7F
$GPGGA,170457.000,4308.3056,N,07726.2662,W,1,08,1.24,165.6,M,-34.4,M,,*50
$GPRMC,170457.250,A,4308.3056,N,07726.2662,W,0.00,312.57,120923,,,A*79
$GPGGA,170457.500,4308.3056,N,07726.2662,W,1,08,1.24,165.6,M,-34.4,M,,*55
$GPRMC,170457.750,A,4308.3056,N,07726.2662,W,0.01,116.99,120923,,,A*79
$GPGGA,170458.000,4308.3056,N,07726.2662,W,1,08,1.24,165.6,M,-34.4,M,,*5F
$GPRMC,170458.250,A,4308.3056,N,07726.2662,W,0.00,350.35,120923,,,A*74
$GPGGA,170458.500,4308.3056,N,07726.2662,W,1,08,1.24,165.6,M,-34.4,M,,*5A
$GPRMC,170458.750,A,4308.3056,N,07726.2662,W,0.00,196.55,120923,,,A*7F
$GPGGA,170459.000,4308.3056,N,07726.2662,W,1,08,1.24,165.6,M,-34.4,M,,*5E
$GPRMC,170459.250,A,4308.3056,N,07726.2662,W,0.01,117.50,120923,,,A*76
$GPGGA,170459.500,4308.3056,N,07726.2662,W,1,08,1.24,165.6,M,-34.4,M,,*5B
$GPRMC,170459.750,A,4308.3056,N,07726.2662,W,0.00,204.92,120923,,,A*7D
$GPGGA,170500.000,4308.3056,N,07726.2662,W,1,08,1.24,165.6,M,-34.4,M,,*53
$GPRMC,170500.250,A,4308.3056,N,07726.2662,W,0.00,220.12,120923,,,A*7B
$GPGGA,170500.500,4308.3056,N,07726.2662,W,1,08,1.24,165.6,M,-34.4,M,,*56
$GPRMC,170500.750,A,4308.3056,N,07726.2662,W,0.01,185.24,120923,,,A*76
$GPGGA,170501.000,4308.3056,N,07726.2662,W,1,08,1.24,165.6,M,-34.4,M,,*52
$GPRMC,170501.250,A,4308.3056,N,07726.2662,W,0.01,70.53,120923,,,A*49
$GPGGA,170501.500,4308.3056,N,07726.2662,W,1,08,1.24,165.6,M,-34.4,M,,*57
$GPRMC,170501.750,A,4308.3056,N,07726.2662,W,0.02,342.54,120923,,,A*7A
$GPGGA,170502.000,4308.3056,N,07726.2662,W,1,08,1.24,165.6,M,-34.4,M,,*51
$GPRMC,170502.250,A,4308.3056,N,07726.2662,W,0.10,338.72,120923,,,A*76
$GPGGA,170502.500,4308.3056,N,07726.2662,W,1,08,1.20,165.6,M,-34.4,M,,*50
$GPRMC,170502.750,A,4308.3056,N,07726.2662,W,0.33,336.93,120923,,,A*73
$GPGGA,170503.000,4308.3056,N,07726.2662,W,1,08,1.20,165.5,M,-34.4,M,,*57
$GPRMC,170503.250,A,4308.3057,N,07726.2662,W,0.82,334.60,120923,,,A*72
$GPGGA,170503.500,4308.3058,N,07726.2663,W,1,08,1.20,165.5,M,-34.4,M,,*5D
$GPRMC,170503.750,A,4308.3059,N,07726.2663,W,1.19,334.52,120923,,,A*7A
$GPGGA,170504.000,4308.3061,N,07726.2663,W,1,08,1.20,165.4,M,-34.4,M,,*54
$GPRMC,170504.250,A,4308.3063,N,07726.2664,W,2.07,343.93,120923,,,A*77
$GPGGA,170504.500,4308.3065,N,07726.2664,W,1,08,1.20,165.3,M,-34.4,M,,*55
$GPRMC,170504.750,A,4308.3068,N,07726.2663,W,3.47,359.35,120923,,,A*7C
$GPGGA,170505.000,4308.3072,N,07726.2662,W,1,08,1.24,165.4,M,-34.4,M,,*52
$GPRMC,170505.250,A,4308.3076,N,07726.2660,W,4.72,3.31,120923,,,A*7D
$GPGGA,170505.500,4308.3079,N,07726.2660,W,1,08,1.24,165.3,M,-34.4,M,,*59
$GPRMC,170505.750,A,4308.3083,N,07726.2659,W,5.27,2.85,120923,,,A*77
$GPGGA,170506.000,4308.3088,N,07726.2658,W,1,08,1.24,165.3,M,-34.4,M,,*5A
$GPRMC,170506.250,A,4308.3092,N,07726.2657,W,5.68,5.10,120923,,,A*7F
$GPGGA,170506.500,4308.3096,N,07726.2656,W,1,08,1.24,165.2,M,-34.4,M,,*5F
$GPRMC,170506.750,A,4308.3100,N,07726.2655,W,5.52,3.41,120923,,,A*79
$GPGGA,170507.000,4308.3104,N,07726.2654,W,1,08,1.24,165.2,M,-34.4,M,,*53
$GPRMC,170507.250,A,4308.3108,N,07726.2653,W,5.16,359.02,120923,,,A*78
$GPGGA,170507.500,4308.3112,N,07726.2653,W,1,08,1.24,165.2,M,-34.4,M,,*56
$GPRMC,170507.750,A,4308.3115,N,07726.2652,W,4.96,3.46,120923,,,A*75
$GPGGA,170508.000,4308.3119,N,07726.2651,W,1,08,1.24,165.1,M,-34.4,M,,*56
$GPRMC,170508.250,A,4308.3123,N,07726.2650,W,5.24,8.97,120923,,,A*77
$GPGGA,170508.500,4308.3127,N,07726.2649,W,1,08,1.24,165.1,M,-34.4,M,,*57
$GPRMC,170508.750,A,4308.3131,N,07726.2647,W,5.37,13.84,120923,,,A*4D
$GPGGA,170509.000,4308.3135,N,07726.2645,W,1,08,1.24,165.0,M,-34.4,M,,*5D
$GPRMC,170509.250,A,4308.3138,N,07726.2643,W,5.13,22.23,120923,,,A*4D
$GPGGA,170509.500,4308.3141,N,07726.2640,W,1,08,1.24,164.9,M,-34.4,M,,*56
$GPRMC,170509.750,A,4308.3144,N,07726.2637,W,4.73,35.43,120923,,,A*47
$GPGGA,170510.000,4308.3145,N,07726.2634,W,1,08,1.24,164.8,M,-34.4,M,,*5D
$GPRMC,170510.250,A,4308.3147,N,07726.2631,W,4.16,51.16,120923,,,A*4E
$GPGGA,170510.500,4308.3149,N,07726.2628,W,1,08,1.24,164.7,M,-34.4,M,,*56
$GPRMC,170510.750,A,4308.3151,N,07726.2624,W,4.08,52.43,120923,,,A*44
$GPGGA,170511.000,4308.3153,N,07726.2622,W,1,08,1.24,164.6,M,-34.4,M,,*52
$GPRMC,170511.250,A,4308.3154,N,07726.2619,W,3.50,65.51,120923,,,A*46
$GPGGA,170511.500,4308.3155,N,07726.2616,W,1,08,1.20,164.5,M,-34.4,M,,*51
$GPRMC,170511.750,A,4308.3156,N,07726.2613,W,3.32,66.14,120923,,,A*4D
$GPGGA,170512.000,4308.3157,N,07726.2610,W,1,08,1.20,164.4,M,-34.4,M,,*52
$GPRMC,170512.250,A,4308.3158,N,07726.2608,W,2.29,68.18,120923,,,A*46
$GPGGA,170512.500,4308.3159,N,07726.2606,W,1,08,1.20,164.3,M,-34.4,M,,*59
$GPRMC,170512.750,A,4308.3159,N,07726.2605,W,1.60,73.78,120923,,,A*4D
$GPGGA,170513.000,4308.3160,N,07726.2604,W,1,08,1.20,164.2,M,-34.4,M,,*54
$GPRMC,170513.250,A,4308.3160,N,07726.2604,W,0.56,45.75,120923,,,A*4E
$GPGGA,170513.500,4308.3161,N,07726.2605,W,1,08,1.20,164.2,M,-34.4,M,,*51
$GPRMC,170513.750,A,4308.3161,N,07726.2607,W,0.64,278.03,120923,,,A*75
$GPGGA,170514.000,4308.3160,N,07726.2612,W,1,08,1.20,164.1,M,-34.4,M,,*57
$GPRMC,170514.250,A,4308.3160,N,07726.2616,W,2.19,258.59,120923,,,A*73
$GPGGA,170514.500,4308.3160,N,07726.2620,W,1,08,1.20,164.1,M,-34.4,M,,*53
$GPRMC,170514.750,A,4308.3160,N,07726.2624,W,3.98,267.95,120923,,,A*73
$GPGGA,170515.000,4308.3160,N,07726.2629,W,1,08,1.24,164.1,M,-34.4,M,,*5A
$GPRMC,170515.250,A,4308.3161,N,07726.2636,W,6.35,274.45,120923,,,A*78
$GPGGA,170515.500,4308.3161,N,07726.2644,W,1,08,1.24,164.1,M,-34.4,M,,*55
$GPRMC,170515.750,A,4308.3161,N,07726.2654,W,8.79,271.84,120923,,,A*77
$GPGGA,170516.000,4308.3161,N,07726.2664,W,1,08,1.24,164.2,M,-34.4,M,,*52
$GPRMC,170516.250,A,4308.3161,N,07726.2676,W,11.33,272.24,120923,,,A*4E
$GPGGA,170516.500,4308.3162,N,07726.2687,W,1,08,1.24,164.1,M,-34.4,M,,*5A
$GPRMC,170516.750,A,4308.3162,N,07726.2699,W,12.13,272.51,120923,,,A*4A
$GPGGA,170517.000,4308.3163,N,07726.2711,W,1,08,1.24,164.1,M,-34.4,M,,*51
$GPRMC,170517.250,A,4308.3164,N,07726.2723,W,13.20,276.03,120923,,,A*4A
$GPGGA,170517.500,4308.3165,N,07726.2736,W,1,08,1.24,164.1,M,-34.4,M,,*57
$GPRMC,170517.750,A,4308.3167,N,07726.2750,W,13.95,278.22,120923,,,A*4B
$GPGGA,170518.000,4308.3168,N,07726.2763,W,1,08,1.24,164.1,M,-34.4,M,,*50
$GPRMC,170518.250,A,4308.3170,N,07726.2777,W,14.56,280.02,120923,,,A*4F
$GPGGA,170518.500,4308.3173,N,07726.2790,W,1,08,1.24,164.1,M,-34.4,M,,*53
$GPRMC,170518.750,A,4308.3176,N,07726.2805,W,15.14,282.18,120923,,,A*48
$GPGGA,170519.000,4308.3179,N,07726.2820,W,1,08,1.24,164.1,M,-34.4,M,,*59
$GPRMC,170519.250,A,4308.3182,N,07726.2835,W,15.96,283.80,120923,,,A*4E
$GPGGA,170519.500,4308.3186,N,07726.2850,W,1,08,1.24,164.1,M,-34.4,M,,*5B
$GPRMC,170519.750,A,4308.3189,N,07726.2866,W,16.80,285.62,120923,,,A*48
$GPGGA,170520.000,4308.3194,N,07726.2882,W,1,08,1.24,164.0,M,-34.4,M,,*59
$GPRMC,170520.250,A,4308.3199,N,07726.2899,W,17.91,289.08,120923,,,A*47
$GPGGA,170520.500,4308.3205,N,07726.2915,W,1,08,1.24,164.0,M,-34.4,M,,*58
$GPRMC,170520.750,A,4308.3211,N,07726.2931,W,18.45,292.74,120923,,,A*45
$GPGGA,170521.000,4308.3218,N,07726.2946,W,1,08,1.24,164.0,M,-34.4,M,,*56
$GPRMC,170521.250,A,4308.3225,N,07726.2963,W,19.00,295.39,120923,,,A*4F
$GPGGA,170521.500,4308.3232,N,07726.2979,W,1,08,1.24,164.0,M,-34.4,M,,*57
$GPRMC,170521.750,A,4308.3240,N,07726.2996,W,19.55,297.98,120923,,,A*4A
$GPGGA,170522.000,4308.3249,N,07726.3013,W,1,08,1.24,164.0,M,-34.4,M,,*59
$GPRMC,170522.250,A,4308.3258,N,07726.3030,W,20.30,301.25,120923,,,A*40
$GPGGA,170522.500,4308.3266,N,07726.3047,W,1,08,1.24,163.9,M,-34.4,M,,*5E
$GPRMC,170522.750,A,4308.3275,N,07726.3064,W,20.70,301.67,120923,,,A*49
$GPGGA,170523.000,4308.3284,N,07726.3082,W,1,08,1.24,163.8,M,-34.4,M,,*5E
$GPRMC,170523.250,A,4308.3293,N,07726.3099,W,20.93,302.21,120923,,,A*4B
$GPGGA,170523.500,4308.3302,N,07726.3116,W,1,08,1.24,163.7,M,-34.4,M,,*57
$GPRMC,170523.750,A,4308.3311,N,07726.3134,W,21.49,302.28,120923,,,A*4C
$GPGGA,170524.000,4308.3320,N,07726.3152,W,1,08,1.24,163.7,M,-34.4,M,,*55
$GPRMC,170524.250,A,4308.3329,N,07726.3170,W,22.31,301.76,120923,,,A*41
$GPGGA,170524.500,4308.3338,N,07726.3189,W,1,08,1.24,163.7,M,-34.4,M,,*5F
$GPRMC,170524.750,A,4308.3348,N,07726.3207,W,22.94,301.05,120923,,,A*4B
$GPGGA,170525.000,4308.3357,N,07726.3226,W,1,08,1.24,163.8,M,-34.4,M,,*5B
$GPRMC,170525.250,A,4308.3367,N,07726.3245,W,23.53,301.35,120923,,,A*4D
$GPGGA,170525.500,4308.3376,N,07726.3264,W,1,08,1.24,163.9,M,-34.4,M,,*5A
$GPRMC,170525.750,A,4308.3386,N,07726.3283,W,23.74,302.90,120923,,,A*44
$GPGGA,170526.000,4308.3396,N,07726.3302,W,1,08,1.24,163.9,M,-34.4,M,,*53
$GPRMC,170526.250,A,4308.3407,N,07726.3320,W,24.02,304.33,120923,,,A*4D
$GPGGA,170526.500,4308.3416,N,07726.3339,W,1,08,1.24,163.9,M,-34.4,M,,*51
$GPRMC,170526.750,A,4308.3427,N,07726.3358,W,24.29,304.76,120923,,,A*4D
$GPGGA,170527.000,4308.3437,N,07726.3378,W,1,08,1.24,163.9,M,-34.4,M,,*53
$GPRMC,170527.250,A,4308.3447,N,07726.3397,W,24.51,304.65,120923,,,A*41
$GPGGA,170527.500,4308.3457,N,07726.3416,W,1,08,1.24,164.0,M,-34.4,M,,*51
$GPRMC,170527.750,A,4308.3467,N,07726.3435,W,24.63,304.23,120923,,,A*4A
$GPGGA,170528.000,4308.3477,N,07726.3455,W,1,08,1.24,164.4,M,-34.4,M,,*5A
$GPRMC,170528.250,A,4308.3488,N,07726.3473,W,25.08,304.85,120923,,,A*43
$GPGGA,170528.500,4308.3499,N,07726.3491,W,1,08,1.24,165.5,M,-34.4,M,,*57
$GPRMC,170528.750,A,4308.3510,N,07726.3511,W,24.99,305.69,120923,,,A*49
$GPGGA,170529.000,4308.3520,N,07726.3530,W,1,08,1.24,165.6,M,-34.4,M,,*59
$GPRMC,170529.250,A,4308.3530,N,07726.3549,W,25.27,308.24,120923,,,A*42
$GPGGA,170529.500,4308.3542,N,07726.3568,W,1,08,1.24,165.6,M,-34.4,M,,*55
$GPRMC,170529.750,A,4308.3554,N,07726.3586,W,25.24,313.28,120923,,,A*43
$GPGGA,170530.000,4308.3567,N,07726.3603,W,1,08,1.24,165.9,M,-34.4,M,,*5E
$GPRMC,170530.250,A,4308.3580,N,07726.3619,W,25.54,319.19,120923,,,A*4D
$GPGGA,170530.500,4308.3595,N,07726.3634,W,1,08,1.24,166.1,M,-34.4,M,,*59
$GPRMC,170530.750,A,4308.3610,N,07726.3648,W,25.76,324.78,120923,,,A*4F
$GPGGA,170531.000,4308.3625,N,07726.3662,W,1,08,1.24,166.2,M,-34.4,M,,*55
$GPRMC,170531.250,A,4308.3640,N,07726.3675,W,25.54,328.98,120923,,,A*42
$GPGGA,170531.500,4308.3656,N,07726.3687,W,1,08,1.24,166.2,M,-34.4,M,,*5F
$GPRMC,170531.750,A,4308.3672,N,07726.3698,W,25.54,334.05,120923,,,A*4C
$GPGGA,170532.000,4308.3689,N,07726.3708,W,1,08,1.24,166.3,M,-34.4,M,,*5C
$GPRMC,170532.250,A,4308.3706,N,07726.3718,W,25.78,338.36,120923,,,A*43
$GPGGA,170532.500,4308.3723,N,07726.3726,W,1,08,1.24,166.3,M,-34.4,M,,*54
$GPRMC,170532.750,A,4308.3740,N,07726.3734,W,25.93,342.35,120923,,,A*41
$GPGGA,170533.000,4308.3758,N,07726.3741,W,1,08,1.24,166.6,M,-34.4,M,,*58
$GPRMC,170533.250,A,4308.3776,N,07726.3747,W,26.01,346.71,120923,,,A*48
$GPGGA,170533.500,4308.3794,N,07726.3752,W,1,08,1.24,166.6,M,-34.4,M,,*5F
$GPRMC,170533.750,A,4308.3813,N,07726.3756,W,26.24,350.59,120923,,,A*4B
$GPGGA,170534.000,4308.3831,N,07726.3760,W,1,08,1.24,166.7,M,-34.4,M,,*5D
$GPRMC,170534.250,A,4308.3850,N,07726.3764,W,26.51,351.75,120923,,,A*42
$GPGGA,170534.500,4308.3869,N,07726.3767,W,1,08,1.20,166.9,M,-34.4,M,,*58
$GPRMC,170534.750,A,4308.3887,N,07726.3770,W,26.49,353.90,120923,,,A*48
$GPGGA,170535.000,4308.3906,N,07726.3771,W,1,08,1.24,167.1,M,-34.4,M,,*5E
$GPRMC,170535.250,A,4308.3925,N,07726.3772,W,26.74,358.36,120923,,,A*4E
$GPGGA,170535.500,4308.3944,N,07726.3772,W,1,08,1.24,167.3,M,-34.4,M,,*5C
$GPRMC,170535.750,A,4308.3962,N,07726.3771,W,26.93,1.06,120923,,,A*4E
$GPGGA,170536.000,4308.3982,N,07726.3769,W,1,08,1.20,167.4,M,-34.4,M,,*59
$GPRMC,170536.250,A,4308.4001,N,07726.3766,W,27.10,6.08,120923,,,A*46
$GPGGA,170536.500,4308.4020,N,07726.3761,W,1,08,1.20,167.6,M,-34.4,M,,*50
$GPRMC,170536.750,A,4308.4040,N,07726.3757,W,27.25,9.35,120923,,,A*43
$GPGGA,170537.000,4308.4060,N,07726.3751,W,1,08,1.24,167.7,M,-34.4,M,,*56
$GPRMC,170537.250,A,4308.4080,N,07726.3746,W,29.23,11.28,120923,,,A*76
$GPGGA,170537.500,4308.4100,N,07726.3739,W,1,08,1.20,167.9,M,-34.4,M,,*50
$GPRMC,170537.750,A,4308.4120,N,07726.3733,W,28.98,12.61,120923,,,A*75
$GPGGA,170538.000,4308.4140,N,07726.3726,W,1,08,1.24,168.1,M,-34.4,M,,*53
$GPRMC,170538.250,A,4308.4159,N,07726.3719,W,29.17,12.95,120923,,,A*74
$GPGGA,170538.500,4308.4178,N,07726.3713,W,1,08,1.24,168.3,M,-34.4,M,,*59
$GPRMC,170538.750,A,4308.4197,N,07726.3707,W,27.17,12.67,120923,,,A*7F
$GPGGA,170539.000,4308.4215,N,07726.3701,W,1,08,1.24,168.6,M,-34.4,M,,*53
$GPRMC,170539.250,A,4308.4232,N,07726.3695,W,26.15,11.73,120923,,,A*78
$GPGGA,170539.500,4308.4250,N,07726.3690,W,1,08,1.24,168.8,M,-34.4,M,,*50
$GPRMC,170539.750,A,4308.4267,N,07726.3685,W,25.29,9.84,120923,,,A*41
$GPGGA,170540.000,4308.4285,N,07726.3680,W,1,08,1.24,169.0,M,-34.4,M,,*5B
$GPRMC,170540.250,A,4308.4302,N,07726.3676,W,25.00,9.70,120923,,,A*44
$GPGGA,170540.500,4308.4319,N,07726.3672,W,1,08,1.24,169.2,M,-34.4,M,,*55
$GPRMC,170540.750,A,4308.4336,N,07726.3668,W,24.61,9.18,120923,,,A*41
$GPGGA,170541.000,4308.4353,N,07726.3664,W,1,08,1.24,169.3,M,-34.4,M,,*59
$GPRMC,170541.250,A,4308.4370,N,07726.3660,W,23.98,9.04,120923,,,A*43
$GPGGA,170541.500,4308.4386,N,07726.3656,W,1,08,1.24,169.5,M,-34.4,M,,*53
$GPRMC,170541.750,A,4308.4402,N,07726.3652,W,23.13,9.20,120923,,,A*40
$GPGGA,170542.000,4308.4417,N,07726.3649,W,1,08,1.24,169.5,M,-34.4,M,,*54
$GPRMC,170542.250,A,4308.4431,N,07726.3646,W,21.44,8.84,120923,,,A*4C
$GPGGA,170542.500,4308.4446,N,07726.3642,W,1,08,1.24,169.9,M,-34.4,M,,*52
$GPRMC,170542.750,A,4308.4460,N,07726.3639,W,19.61,9.17,120923,,,A*42
$GPGGA,170543.000,4308.4473,N,07726.3635,W,1,08,1.24,170.1,M,-34.4,M,,*50
$GPRMC,170543.250,A,4308.4485,N,07726.3632,W,17.62,9.60,120923,,,A*4B
$GPGGA,170543.500,4308.4497,N,07726.3629,W,1,08,1.24,170.2,M,-34.4,M,,*51
$GPRMC,170543.750,A,4308.4508,N,07726.3626,W,15.37,9.91,120923,,,A*43
$GPGGA,170544.000,4308.4519,N,07726.3622,W,1,08,1.24,170.5,M,-34.4,M,,*58
$GPRMC,170544.250,A,4308.4528,N,07726.3618,W,12.76,9.99,120923,,,A*44
$GPGGA,170544.500,4308.4537,N,07726.3614,W,1,08,1.24,170.8,M,-34.4,M,,*59
$GPRMC,170544.750,A,4308.4544,N,07726.3611,W,10.63,9.49,120923,,,A*49
$GPGGA,170545.000,4308.4551,N,07726.3608,W,1,08,1.24,170.7,M,-34.4,M,,*5F
$GPRMC,170545.250,A,4308.4557,N,07726.3606,W,9.34,8.30,120923,,,A*7C
$GPGGA,170545.500,4308.4563,N,07726.3604,W,1,08,1.24,170.8,M,-34.4,M,,*58
$GPRMC,170545.750,A,4308.4569,N,07726.3601,W,8.99,9.77,120923,,,A*77
$GPGGA,170546.000,4308.4574,N,07726.3599,W,1,08,1.24,170.7,M,-34.4,M,,*50
$GPRMC,170546.250,A,4308.4580,N,07726.3597,W,8.24,9.01,120923,,,A*7D
$GPGGA,170546.500,4308.4586,N,07726.3595,W,1,08,1.24,170.8,M,-34.4,M,,*5B
$GPRMC,170546.750,A,4308.4591,N,07726.3594,W,8.12,6.18,120923,,,A*79
$GPGGA,170547.000,4308.4597,N,07726.3593,W,1,08,1.24,170.8,M,-34.4,M,,*59
$GPRMC,170547.250,A,4308.4603,N,07726.3594,W,8.17,356.77,120923,,,A*7F
$GPGGA,170547.500,4308.4610,N,07726.3596,W,1,08,1.24,171.0,M,-34.4,M,,*5C
$GPRMC,170547.750,A,4308.4616,N,07726.3598,W,8.58,347.18,120923,,,A*70
$GPGGA,170548.000,4308.4623,N,07726.3602,W,1,08,1.24,171.2,M,-34.4,M,,*5A
$GPRMC,170548.250,A,4308.4629,N,07726.3606,W,9.64,334.21,120923,,,A*72
$GPGGA,170548.500,4308.4636,N,07726.3611,W,1,08,1.24,171.5,M,-34.4,M,,*5E
$GPRMC,170548.750,A,4308.4642,N,07726.3617,W,10.83,325.58,120923,,,A*45
$GPGGA,170549.000,4308.4648,N,07726.3626,W,1,08,1.24,171.8,M,-34.4,M,,*5A
$GPRMC,170549.250,A,4308.4653,N,07726.3635,W,12.07,309.88,120923,,,A*4C
$GPGGA,170549.500,4308.4658,N,07726.3645,W,1,08,1.24,171.7,M,-34.4,M,,*54
$GPRMC,170549.750,A,4308.4662,N,07726.3656,W,13.29,302.62,120923,,,A*4C
$GPGGA,170550.000,4308.4666,N,07726.3668,W,1,08,1.24,171.5,M,-34.4,M,,*59
$GPRMC,170550.250,A,4308.4670,N,07726.3681,W,14.23,295.36,120923,,,A*4B
$GPGGA,170550.500,4308.4673,N,07726.3694,W,1,08,1.24,171.5,M,-34.4,M,,*5B
$GPRMC,170550.750,A,4308.4677,N,07726.3708,W,15.23,291.22,120923,,,A*49
$GPGGA,170551.000,4308.4680,N,07726.3723,W,1,08,1.24,171.6,M,-34.4,M,,*5D
$GPRMC,170551.250,A,4308.4684,N,07726.3737,W,16.15,288.74,120923,,,A*40
$GPGGA,170551.500,4308.4687,N,07726.3753,W,1,08,1.20,171.6,M,-34.4,M,,*5C
$GPRMC,170551.750,A,4308.4690,N,07726.3769,W,16.94,286.62,120923,,,A*4B
$GPGGA,170552.000,4308.4693,N,07726.3785,W,1,08,1.24,171.6,M,-34.4,M,,*50
$GPRMC,170552.250,A,4308.4695,N,07726.3803,W,18.02,284.47,120923,,,A*4F
$GPGGA,170552.500,4308.4698,N,07726.3820,W,1,08,1.20,171.6,M,-34.4,M,,*5A
$GPRMC,170552.750,A,4308.4700,N,07726.3838,W,18.84,282.72,120923,,,A*41
$GPGGA,170553.000,4308.4702,N,07726.3857,W,1,08,1.24,171.5,M,-34.4,M,,*5B
$GPRMC,170553.250,A,4308.4704,N,07726.3876,W,19.76,281.12,120923,,,A*42
$GPGGA,170553.500,4308.4706,N,07726.3895,W,1,08,1.24,171.4,M,-34.4,M,,*55
$GPRMC,170553.750,A,4308.4708,N,07726.3915,W,20.24,280.82,120923,,,A*4A
$GPGGA,170554.000,4308.4710,N,07726.3934,W,1,08,1.24,171.2,M,-34.4,M,,*5C
$GPRMC,170554.250,A,4308.4712,N,07726.3954,W,20.33,281.54,120923,,,A*4A
$GPGGA,170554.500,4308.4714,N,07726.3973,W,1,08,1.20,171.1,M,-34.4,M,,*59
$GPRMC,170554.750,A,4308.4716,N,07726.3993,W,20.35,281.11,120923,,,A*47
$GPGGA,170555.000,4308.4717,N,07726.4013,W,1,08,1.24,170.9,M,-34.4,M,,*5B
$GPRMC,170555.250,A,4308.4718,N,07726.4033,W,20.31,280.22,120923,,,A*4C
$GPGGA,170555.500,4308.4720,N,07726.4053,W,1,08,1.24,170.7,M,-34.4,M,,*50
$GPRMC,170555.750,A,4308.4721,N,07726.4072,W,19.86,280.06,120923,,,A*46
$GPGGA,170556.000,4308.4722,N,07726.4091,W,1,08,1.24,170.5,M,-34.4,M,,*58
$GPRMC,170556.250,A,4308.4723,N,07726.4110,W,19.30,279.03,120923,,,A*49
$GPGGA,170556.500,4308.4724,N,07726.4128,W,1,08,1.24,170.3,M,-34.4,M,,*5E
$GPRMC,170556.750,A,4308.4725,N,07726.4146,W,18.63,278.72,120923,,,A*49
$GPGGA,170557.000,4308.4726,N,07726.4163,W,1,08,1.24,170.0,M,-34.4,M,,*54
$GPRMC,170557.250,A,4308.4727,N,07726.4179,W,17.28,278.08,120923,,,A*4E
$GPGGA,170557.500,4308.4728,N,07726.4195,W,1,08,1.24,169.9,M,-34.4,M,,*57
$GPRMC,170557.750,A,4308.4727,N,07726.4210,W,15.70,277.53,120923,,,A*49
$GPGGA,170558.000,4308.4726,N,07726.4225,W,1,08,1.24,169.7,M,-34.4,M,,*55
$GPRMC,170558.250,A,4308.4725,N,07726.4240,W,13.75,275.60,120923,,,A*45
$GPGGA,170558.500,4308.4724,N,07726.4253,W,1,08,1.24,169.6,M,-34.4,M,,*52
$GPRMC,170558.750,A,4308.4723,N,07726.4265,W,12.16,275.38,120923,,,A*48
$GPGGA,170559.000,4308.4722,N,07726.4276,W,1,08,1.24,169.4,M,-34.4,M,,*55
$GPRMC,170559.250,A,4308.4722,N,07726.4287,W,10.47,276.95,120923,,,A*43
$GPGGA,170559.500,4308.4721,N,07726.4296,W,1,08,1.24,169.2,M,-34.4,M,,*5B
$GPRMC,170559.750,A,4308.4721,N,07726.4304,W,8.79,280.00,120923,,,A*7E
$GPGGA,170600.000,4308.4721,N,07726.4312,W,1,08,1.24,169.0,M,-34.4,M,,*5E
$GPRMC,170600.250,A,4308.4720,N,07726.4319,W,7.56,275.65,120923,,,A*72
$GPGGA,170600.500,4308.4719,N,07726.4325,W,1,08,1.24,168.8,M,-34.4,M,,*5D
$GPRMC,170600.750,A,4308.4719,N,07726.4331,W,6.49,271.16,120923,,,A*78
$GPGGA,170601.000,4308.4719,N,07726.4337,W,1,08,1.24,168.6,M,-34.4,M,,*54
$GPRMC,170601.250,A,4308.4718,N,07726.4342,W,5.80,266.31,120923,,,A*7C
$GPGGA,170601.500,4308.4717,N,07726.4347,W,1,08,1.20,168.5,M,-34.4,M,,*5F
$GPRMC,170601.750,A,4308.4716,N,07726.4352,W,5.23,264.14,120923,,,A*7A
$GPGGA,170602.000,4308.4716,N,07726.4357,W,1,08,1.24,168.4,M,-34.4,M,,*5C
$GPRMC,170602.250,A,4308.4716,N,07726.4361,W,4.54,265.19,120923,,,A*71
$GPGGA,170602.500,4308.4717,N,07726.4364,W,1,08,1.24,168.4,M,-34.4,M,,*58
$GPRMC,170602.750,A,4308.4717,N,07726.4366,W,3.26,270.74,120923,,,A*7F
$GPGGA,170603.000,4308.4718,N,07726.4368,W,1,08,1.20,168.5,M,-34.4,M,,*5A
$GPRMC,170603.250,A,4308.4718,N,07726.4370,W,2.23,270.74,120923,,,A*77
$GPGGA,170603.500,4308.4718,N,07726.4372,W,1,08,1.20,168.5,M,-34.4,M,,*54
$GPRMC,170603.750,A,4308.4718,N,07726.4373,W,1.27,270.74,120923,,,A*76
$GPGGA,170604.000,4308.4718,N,07726.4374,W,1,08,1.20,168.5,M,-34.4,M,,*50
$GPRMC,170604.250,A,4308.4718,N,07726.4374,W,0.65,270.74,120923,,,A*74
$GPGGA,170604.500,4308.4719,N,07726.4375,W,1,08,1.21,168.4,M,-34.4,M,,*55
$GPRMC,170604.750,A,4308.4719,N,07726.4375,W,0.44,270.74,120923,,,A*72
$GPGGA,170605.000,4308.4719,N,07726.4375,W,1,08,1.20,168.7,M,-34.4,M,,*53
$GPRMC,170605.250,A,4308.4719,N,07726.4376,W,0.32,270.74,120923,,,A*74
$GPGGA,170605.500,4308.4718,N,07726.4376,W,1,08,1.21,168.8,M,-34.4,M,,*5A
$GPRMC,170605.750,A,4308.4718,N,07726.4376,W,0.26,270.74,120923,,,A*75
$GPGGA,170606.000,4308.4718,N,07726.4376,W,1,08,1.20,168.9,M,-34.4,M,,*5C
$GPRMC,170606.250,A,4308.4718,N,07726.4376,W,0.20,270.74,120923,,,A*75
$GPGGA,170606.500,4308.4718,N,07726.4377,W,1,08,1.20,169.0,M,-34.4,M,,*50
$GPRMC,170606.750,A,4308.4718,N,07726.4377,W,0.16,270.74,120923,,,A*74
$GPGGA,170607.000,4308.4718,N,07726.4377,W,1,08,1.20,169.0,M,-34.4,M,,*54
$GPRMC,170607.250,A,4308.4718,N,07726.4377,W,0.14,270.74,120923,,,A*72
$GPGGA,170607.500,4308.4718,N,07726.4377,W,1,08,1.20,168.9,M,-34.4,M,,*59
$GPRMC,170607.750,A,4308.4718,N,07726.4377,W,0.14,270.74,120923,,,A*77
$GPGGA,170608.000,4308.4718,N,07726.4378,W,1,08,1.20,168.9,M,-34.4,M,,*5C
$GPRMC,170608.250,A,4308.4718,N,07726.4378,W,0.22,218.21,120923,,,A*79
$GPGGA,170608.500,4308.4718,N,07726.4378,W,1,08,1.20,168.9,M,-34.4,M,,*59
$GPRMC,170608.750,A,4308.4717,N,07726.4378,W,0.22,213.81,120923,,,A*72
$GPGGA,170609.000,4308.4717,N,07726.4378,W,1,08,1.20,168.9,M,-34.4,M,,*52
$GPRMC,170609.250,A,4308.4717,N,07726.4378,W,0.27,220.63,120923,,,A*7F
$GPGGA,170609.500,4308.4717,N,07726.4378,W,1,08,1.20,168.9,M,-34.4,M,,*57
$GPRMC,170609.750,A,4308.4717,N,07726.4379,W,0.28,221.58,120923,,,A*7D
$GPGGA,170610.000,4308.4717,N,07726.4379,W,1,08,1.20,168.9,M,-34.4,M,,*5B
$GPRMC,170610.250,A,4308.4717,N,07726.4379,W,0.26,222.43,120923,,,A*77
$GPGGA,170610.500,4308.4716,N,07726.4379,W,1,08,1.20,168.9,M,-34.4,M,,*5F
$GPRMC,170610.750,A,4308.4716,N,07726.4379,W,0.26,222.66,120923,,,A*74
$GPGGA,170611.000,4308.4716,N,07726.4380,W,1,08,1.20,168.9,M,-34.4,M,,*5D
$GPRMC,170611.250,A,4308.4716,N,07726.4380,W,0.26,220.95,120923,,,A*78
$GPGGA,170611.500,4308.4716,N,07726.4380,W,1,08,1.21,168.9,M,-34.4,M,,*59
$GPRMC,170611.750,A,4308.4716,N,07726.4380,W,0.26,217.97,120923,,,A*7B
$GPGGA,170612.000,4308.4715,N,07726.4380,W,1,08,1.20,168.9,M,-34.4,M,,*5D
$GPRMC,170612.250,A,4308.4715,N,07726.4380,W,0.26,213.82,120923,,,A*7E
$GPGGA,170612.500,4308.4715,N,07726.4380,W,1,08,1.20,168.9,M,-34.4,M,,*58
$GPRMC,170612.750,A,4308.4715,N,07726.4380,W,0.25,209.06,120923,,,A*7F
$GPGGA,170613.000,4308.4715,N,07726.4380,W,1,08,1.20,168.9,M,-34.4,M,,*5C
$GPRMC,170613.250,A,4308.4715,N,07726.4380,W,0.23,204.89,120923,,,A*77
$GPGGA,170613.500,4308.4714,N,07726.4380,W,1,08,1.21,168.8,M,-34.4,M,,*58
$GPRMC,170613.750,A,4308.4714,N,07726.4380,W,0.19,201.82,120923,,,A*74
$GPGGA,170614.000,4308.4714,N,07726.4380,W,1,08,1.20,168.8,M,-34.4,M,,*5B
$GPRMC,170614.250,A,4308.4714,N,07726.4380,W,0.17,199.12,120923,,,A*73
$GPGGA,170614.500,4308.4714,N,07726.4380,W,1,08,1.20,168.8,M,-34.4,M,,*5E
$GPRMC,170614.750,A,4308.4714,N,07726.4380,W,0.12,197.77,120923,,,A*7E
$GPGGA,170615.000,4308.4714,N,07726.4380,W,1,08,1.20,168.8,M,-34.4,M,,*5A
$GPRMC,170615.250,A,4308.4714,N,07726.4380,W,0.09,197.98,120923,,,A*71
$GPGGA,170615.500,4308.4714,N,07726.4380,W,1,08,1.20,168.8,M,-34.4,M,,*5F
$GPRMC,170615.750,A,4308.4714,N,07726.4380,W,0.09,199.67,120923,,,A*7A
$GPGGA,170616.000,4308.4714,N,07726.4380,W,1,08,1.20,168.8,M,-34.4,M,,*59
$GPRMC,170616.250,A,4308.4714,N,07726.4380,W,0.12,199.67,120923,,,A*76
$GPGGA,170616.500,4308.4714,N,07726.4380,W,1,08,1.20,168.8,M,-34.4,M,,*5C
$GPRMC,170616.750,A,4308.4714,N,07726.4380,W,0.12,199.67,120923,,,A*73
$GPGGA,170617.000,4308.4714,N,07726.4381,W,1,08,1.20,168.8,M,-34.4,M,,*59
$GPRMC,170617.250,A,4308.4714,N,07726.4381,W,0.09,199.67,120923,,,A*7C
$GPGGA,170617.500,4308.4714,N,07726.4381,W,1,08,1.20,168.8,M,-34.4,M,,*5C
$GPRMC,170617.750,A,4308.4714,N,07726.4381,W,0.07,199.67,120923,,,A*77
$GPGGA,170618.000,4308.4714,N,07726.4381,W,1,08,1.21,168.8,M,-34.4,M,,*57
$GPRMC,170618.250,A,4308.4714,N,07726.4381,W,0.05,199.67,120923,,,A*7F
$GPGGA,170618.500,4308.4714,N,07726.4381,W,1,08,1.20,168.8,M,-34.4,M,,*53
$GPRMC,170618.750,A,4308.4714,N,07726.4381,W,0.04,199.67,120923,,,A*7B
$GPGGA,170619.000,4308.4714,N,07726.4381,W,1,08,1.20,168.8,M,-34.4,M,,*57
$GPRMC,170619.250,A,4308.4714,N,07726.4381,W,0.12,199.67,120923,,,A*78
$GPGGA,170619.500,4308.4714,N,07726.4381,W,1,08,1.24,168.8,M,-34.4,M,,*56
$GPRMC,170619.750,A,4308.4714,N,07726.4381,W,0.16,199.67,120923,,,A*79
$GPGGA,170620.000,4308.4714,N,07726.4381,W,1,08,1.24,168.8,M,-34.4,M,,*59
$GPRMC,170620.250,A,4308.4714,N,07726.4381,W,0.16,199.67,120923,,,A*76
$GPGGA,170620.500,4308.4714,N,07726.4381,W,1,08,1.24,168.8,M,-34.4,M,,*5C
$GPRMC,170620.750,A,4308.4714,N,07726.4381,W,0.18,199.67,120923,,,A*7D
$GPGGA,170621.000,4308.4715,N,07726.4381,W,1,08,1.24,168.8,M,-34.4,M,,*59
$GPRMC,170621.250,A,4308.4715,N,07726.4381,W,0.23,199.67,120923,,,A*70
$GPGGA,170621.500,4308.4715,N,07726.4381,W,1,08,1.24,168.8,M,-34.4,M,,*5C
$GPRMC,170621.750,A,4308.4715,N,07726.4381,W,0.19,199.67,120923,,,A*7C
$GPGGA,170622.000,4308.4715,N,07726.4381,W,1,08,1.20,168.8,M,-34.4,M,,*5E
$GPRMC,170622.250,A,4308.4715,N,07726.4381,W,0.15,199.67,120923,,,A*76
$GPGGA,170622.500,4308.4715,N,07726.4381,W,1,08,1.21,168.8,M,-34.4,M,,*5A
$GPRMC,170622.750,A,4308.4716,N,07726.4380,W,0.04,199.67,120923,,,A*71
$GPGGA,170623.000,4308.4716,N,07726.4380,W,1,08,1.21,168.8,M,-34.4,M,,*5C
$GPRMC,170623.250,A,4308.4716,N,07726.4380,W,0.07,199.67,120923,,,A*76
$GPGGA,170623.500,4308.4716,N,07726.4380,W,1,08,1.24,168.8,M,-34.4,M,,*5C
$GPRMC,170623.750,A,4308.4716,N,07726.4380,W,0.08,199.67,120923,,,A*7C
$GPGGA,170624.000,4308.4716,N,07726.4380,W,1,08,1.21,168.8,M,-34.4,M,,*5B
$GPRMC,170624.250,A,4308.4716,N,07726.4380,W,0.04,199.67,120923,,,A*72
$GPGGA,170624.500,4308.4716,N,07726.4380,W,1,08,1.20,168.7,M,-34.4,M,,*50
$GPRMC,170624.750,A,4308.4716,N,07726.4380,W,0.05,199.67,120923,,,A*76
$GPGGA,170625.000,4308.4716,N,07726.4380,W,1,08,1.21,168.7,M,-34.4,M,,*55
$GPRMC,170625.250,A,4308.4716,N,07726.4380,W,0.03,199.67,120923,,,A*74
$GPGGA,170625.500,4308.4716,N,07726.4380,W,1,08,1.24,168.7,M,-34.4,M,,*55
$GPRMC,170625.750,A,4308.4716,N,07726.4380,W,0.02,199.67,120923,,,A*70
$GPGGA,170626.000,4308.4716,N,07726.4380,W,1,08,1.20,168.7,M,-34.4,M,,*57
$GPRMC,170626.250,A,4308.4716,N,07726.4380,W,0.01,199.67,120923,,,A*75
$GPGGA,170626.500,4308.4716,N,07726.4380,W,1,08,1.20,168.7,M,-34.4,M,,*52
$GPRMC,170626.750,A,4308.4716,N,07726.4380,W,0.03,199.67,120923,,,A*72
$GPGGA,170627.000,4308.4716,N,07726.4380,W,1,08,1.21,168.7,M,-34.4,M,,*57
$GPRMC,170627.250,A,4308.4716,N,07726.4380,W,0.05,199.67,120923,,,A*70
$GPGGA,170627.500,4308.4716,N,07726.4380,W,1,08,1.24,168.7,M,-34.4,M,,*57
$GPRMC,170627.750,A,4308.4716,N,07726.4380,W,0.01,199.67,120923,,,A*71
$GPGGA,170628.000,4308.4716,N,07726.4380,W,1,08,1.24,168.7,M,-34.4,M,,*5D
$GPRMC,170628.250,A,4308.4716,N,07726.4380,W,0.02,199.67,120923,,,A*78
$GPGGA,170628.500,4308.4716,N,07726.4380,W,1,08,1.24,168.7,M,-34.4,M,,*58
$GPRMC,170628.750,A,4308.4716,N,07726.4380,W,0.01,199.67,120923,,,A*7E
$GPGGA,170629.000,4308.4716,N,07726.4380,W,1,08,1.24,168.7,M,-34.4,M,,*5C
$GPRMC,170629.250,A,4308.4716,N,07726.4380,W,0.01,199.67,120923,,,A*7A
$GPGGA,170629.500,4308.4716,N,07726.4380,W,1,08,1.24,168.7,M,-34.4,M,,*59
$GPRMC,170629.750,A,4308.4716,N,07726.4380,W,0.01,199.67,120923,,,A*7F
$GPGGA,170630.000,4308.4716,N,07726.4380,W,1,08,1.24,168.7,M,-34.4,M,,*54
$GPRMC,170630.250,A,4308.4716,N,07726.4380,W,0.00,199.67,120923,,,A*73
$GPGGA,170630.500,4308.4716,N,07726.4380,W,1,08,1.24,168.7,M,-34.4,M,,*51
$GPRMC,170630.750,A,4308.4716,N,07726.4380,W,0.00,199.67,120923,,,A*76
$GPGGA,170631.000,4308.4716,N,07726.4380,W,1,08,1.24,168.7,M,-34.4,M,,*55
$GPRMC,170631.250,A,4308.4716,N,07726.4380,W,0.00,199.67,120923,,,A*72
$GPGGA,170631.500,4308.4716,N,07726.4380,W,1,08,1.24,168.7,M,-34.4,M,,*50
$GPRMC,170631.750,A,4308.4716,N,07726.4380,W,0.07,199.67,120923,,,A*70
$GPGGA,170632.000,4308.4716,N,07726.4380,W,1,08,1.24,168.7,M,-34.4,M,,*56
$GPRMC,170632.250,A,4308.4716,N,07726.4380,W,0.14,199.67,120923,,,A*74
$GPGGA,170632.500,4308.4716,N,07726.4380,W,1,08,1.21,168.8,M,-34.4,M,,*59
$GPRMC,170632.750,A,4308.4716,N,07726.4381,W,0.29,199.67,120923,,,A*7E
$GPGGA,170633.000,4308.4716,N,07726.4381,W,1,08,1.21,168.8,M,-34.4,M,,*5C
$GPRMC,170633.250,A,4308.4716,N,07726.4381,W,0.73,199.67,120923,,,A*75
$GPGGA,170633.500,4308.4716,N,07726.4382,W,1,08,1.21,168.8,M,-34.4,M,,*5A
$GPRMC,170633.750,A,4308.4716,N,07726.4383,W,1.20,288.15,120923,,,A*73
$GPGGA,170634.000,4308.4717,N,07726.4384,W,1,08,1.21,168.8,M,-34.4,M,,*5F
$GPRMC,170634.250,A,4308.4717,N,07726.4389,W,4.30,280.04,120923,,,A*76
$GPGGA,170634.500,4308.4718,N,07726.4394,W,1,08,1.24,168.8,M,-34.4,M,,*51
$GPRMC,170634.750,A,4308.4719,N,07726.4402,W,7.20,283.73,120923,,,A*78
$GPGGA,170635.000,4308.4721,N,07726.4410,W,1,08,1.24,168.9,M,-34.4,M,,*55
$GPRMC,170635.250,A,4308.4722,N,07726.4419,W,8.69,283.11,120923,,,A*78
$GPGGA,170635.500,4308.4723,N,07726.4428,W,1,08,1.24,169.0,M,-34.4,M,,*51
$GPRMC,170635.750,A,4308.4724,N,07726.4437,W,9.43,278.34,120923,,,A*7D
$GPGGA,170636.000,4308.4724,N,07726.4447,W,1,08,1.24,169.2,M,-34.4,M,,*5B
$GPRMC,170636.250,A,4308.4723,N,07726.4457,W,9.99,271.04,120923,,,A*77
$GPGGA,170636.500,4308.4722,N,07726.4468,W,1,08,1.24,169.3,M,-34.4,M,,*54
$GPRMC,170636.750,A,4308.4720,N,07726.4479,W,10.72,262.56,120923,,,A*45
$GPGGA,170637.000,4308.4717,N,07726.4490,W,1,08,1.24,169.5,M,-34.4,M,,*57
$GPRMC,170637.250,A,4308.4714,N,07726.4501,W,11.34,250.73,120923,,,A*4D
$GPGGA,170637.500,4308.4711,N,07726.4511,W,1,08,1.24,169.8,M,-34.4,M,,*51
$GPRMC,170637.750,A,4308.4706,N,07726.4522,W,11.84,241.71,120923,,,A*43
$GPGGA,170638.000,4308.4699,N,07726.4533,W,1,08,1.24,169.9,M,-34.4,M,,*5B
$GPRMC,170638.250,A,4308.4692,N,07726.4544,W,13.56,227.79,120923,,,A*40
$GPGGA,170638.500,4308.4684,N,07726.4554,W,1,08,1.24,170.0,M,-34.4,M,,*52
$GPRMC,170638.750,A,4308.4675,N,07726.4563,W,14.45,219.09,120923,,,A*46
$GPGGA,170639.000,4308.4667,N,07726.4571,W,1,08,1.24,170.1,M,-34.4,M,,*5D
$GPRMC,170639.250,A,4308.4657,N,07726.4580,W,15.19,212.81,120923,,,A*4C
$GPGGA,170639.500,4308.4647,N,07726.4588,W,1,08,1.24,170.2,M,-34.4,M,,*5F
$GPRMC,170639.750,A,4308.4635,N,07726.4595,W,16.57,208.04,120923,,,A*46
$GPGGA,170640.000,4308.4623,N,07726.4604,W,1,08,1.24,170.2,M,-34.4,M,,*51
$GPRMC,170640.250,A,4308.4609,N,07726.4612,W,18.30,203.76,120923,,,A*4F
$GPGGA,170640.500,4308.4596,N,07726.4620,W,1,08,1.24,170.2,M,-34.4,M,,*5F
$GPRMC,170640.750,A,4308.4582,N,07726.4627,W,19.50,200.94,120923,,,A*44
$GPGGA,170641.000,4308.4567,N,07726.4635,W,1,08,1.24,170.2,M,-34.4,M,,*51
$GPRMC,170641.250,A,4308.4552,N,07726.4643,W,21.10,199.17,120923,,,A*48
$GPGGA,170641.500,4308.4536,N,07726.4651,W,1,08,1.24,170.3,M,-34.4,M,,*53
$GPRMC,170641.750,A,4308.4520,N,07726.4660,W,22.74,198.46,120923,,,A*4D
$GPGGA,170642.000,4308.4502,N,07726.4669,W,1,08,1.24,170.2,M,-34.4,M,,*58
$GPRMC,170642.250,A,4308.4485,N,07726.4676,W,24.24,197.92,120923,,,A*47
$GPGGA,170642.500,4308.4468,N,07726.4685,W,1,08,1.24,170.1,M,-34.4,M,,*51
$GPRMC,170642.750,A,4308.4450,N,07726.4694,W,25.67,197.91,120923,,,A*43
$GPGGA,170643.000,4308.4432,N,07726.4703,W,1,08,1.24,170.1,M,-34.4,M,,*55
$GPRMC,170643.250,A,4308.4413,N,07726.4712,W,27.28,197.65,120923,,,A*4D
$GPGGA,170643.500,4308.4394,N,07726.4721,W,1,08,1.21,170.0,M,-34.4,M,,*5F
$GPRMC,170643.750,A,4308.4375,N,07726.4730,W,28.31,199.04,120923,,,A*41
$GPGGA,170644.000,4308.4355,N,07726.4740,W,1,08,1.24,169.9,M,-34.4,M,,*53
$GPRMC,170644.250,A,4308.4335,N,07726.4750,W,28.77,199.31,120923,,,A*45
$GPGGA,170644.500,4308.4315,N,07726.4760,W,1,08,1.24,169.8,M,-34.4,M,,*51
$GPRMC,170644.750,A,4308.4295,N,07726.4770,W,29.15,199.71,120923,,,A*48
$GPGGA,170645.000,4308.4273,N,07726.4781,W,1,08,1.24,169.6,M,-34.4,M,,*55
$GPRMC,170645.250,A,4308.4252,N,07726.4791,W,30.75,199.57,120923,,,A*42
$GPGGA,170645.500,4308.4231,N,07726.4802,W,1,08,1.24,169.4,M,-34.4,M,,*50
$GPRMC,170645.750,A,4308.4209,N,07726.4811,W,31.71,199.24,120923,,,A*4F
$GPGGA,170646.000,4308.4186,N,07726.4822,W,1,08,1.24,169.2,M,-34.4,M,,*5D
$GPRMC,170646.250,A,4308.4163,N,07726.4832,W,33.19,199.00,120923,,,A*4D
$GPGGA,170646.500,4308.4140,N,07726.4843,W,1,08,1.24,169.0,M,-34.4,M,,*57
$GPRMC,170646.750,A,4308.4117,N,07726.4853,W,33.87,198.41,120923,,,A*4F
$GPGGA,170647.000,4308.4094,N,07726.4863,W,1,08,1.24,168.9,M,-34.4,M,,*51
$GPRMC,170647.250,A,4308.4070,N,07726.4873,W,34.22,197.71,120923,,,A*4D
$GPGGA,170647.500,4308.4046,N,07726.4883,W,1,08,1.24,168.8,M,-34.4,M,,*54
$GPRMC,170647.750,A,4308.4022,N,07726.4893,W,34.91,197.31,120923,,,A*4D
$GPGGA,170648.000,4308.3998,N,07726.4904,W,1,08,1.24,168.6,M,-34.4,M,,*53
$GPRMC,170648.250,A,4308.3974,N,07726.4914,W,35.46,196.70,120923,,,A*4B
$GPGGA,170648.500,4308.3949,N,07726.4924,W,1,08,1.24,168.5,M,-34.4,M,,*5B
$GPRMC,170648.750,A,4308.3923,N,07726.4934,W,36.22,195.33,120923,,,A*4B
$GPGGA,170649.000,4308.3898,N,07726.4944,W,1,08,1.24,168.4,M,-34.4,M,,*55
$GPRMC,170649.250,A,4308.3872,N,07726.4954,W,36.96,194.43,120923,,,A*45
$GPGGA,170649.500,4308.3847,N,07726.4963,W,1,08,1.24,168.3,M,-34.4,M,,*50
$GPRMC,170649.750,A,4308.3821,N,07726.4972,W,37.23,194.20,120923,,,A*48
$GPGGA,170650.000,4308.3795,N,07726.4981,W,1,08,1.24,168.2,M,-34.4,M,,*50
$GPRMC,170650.250,A,4308.3769,N,07726.4989,W,37.40,193.35,120923,,,A*44
$GPGGA,170650.500,4308.3742,N,07726.4997,W,1,08,1.24,168.0,M,-34.4,M,,*5A
$GPRMC,170650.750,A,4308.3716,N,07726.5004,W,37.54,192.21,120923,,,A*45
$GPGGA,170651.000,4308.3689,N,07726.5011,W,1,08,1.24,168.0,M,-34.4,M,,*5E
$GPRMC,170651.250,A,4308.3662,N,07726.5018,W,37.71,190.83,120923,,,A*43
$GPGGA,170651.500,4308.3636,N,07726.5024,W,1,08,1.24,167.9,M,-34.4,M,,*5F
$GPRMC,170651.750,A,4308.3609,N,07726.5030,W,37.87,189.33,120923,,,A*4B
$GPGGA,170652.000,4308.3582,N,07726.5035,W,1,08,1.24,167.8,M,-34.4,M,,*54
$GPRMC,170652.250,A,4308.3554,N,07726.5041,W,38.04,188.72,120923,,,A*40
$GPGGA,170652.500,4308.3527,N,07726.5046,W,1,08,1.24,167.5,M,-34.4,M,,*57
$GPRMC,170652.750,A,4308.3499,N,07726.5051,W,39.34,187.93,120923,,,A*46
$GPGGA,170653.000,4308.3471,N,07726.5057,W,1,08,1.24,167.2,M,-34.4,M,,*56
$GPRMC,170653.250,A,4308.3443,N,07726.5062,W,39.71,187.07,120923,,,A*49
$GPGGA,170653.500,4308.3415,N,07726.5065,W,1,08,1.24,167.1,M,-34.4,M,,*53
$GPRMC,170653.750,A,4308.3386,N,07726.5069,W,40.13,186.03,120923,,,A*46
$GPGGA,170654.000,4308.3358,N,07726.5072,W,1,08,1.24,167.1,M,-34.4,M,,*59
$GPRMC,170654.250,A,4308.3329,N,07726.5076,W,40.43,185.65,120923,,,A*49
$GPGGA,170654.500,4308.3301,N,07726.5079,W,1,08,1.21,167.0,M,-34.4,M,,*5F
$GPRMC,170654.750,A,4308.3273,N,07726.5082,W,39.96,185.12,120923,,,A*4F
$GPGGA,170655.000,4308.3245,N,07726.5086,W,1,08,1.24,167.0,M,-34.4,M,,*5F
$GPRMC,170655.250,A,4308.3217,N,07726.5089,W,39.70,184.64,120923,,,A*4A
$GPGGA,170655.500,4308.3189,N,07726.5091,W,1,08,1.24,167.0,M,-34.4,M,,*5F
$GPRMC,170655.750,A,4308.3162,N,07726.5094,W,39.09,184.19,120923,,,A*46
$GPGGA,170656.000,4308.3135,N,07726.5096,W,1,08,1.24,167.1,M,-34.4,M,,*58
$GPRMC,170656.250,A,4308.3109,N,07726.5097,W,37.98,183.33,120923,,,A*47
$GPGGA,170656.500,4308.3083,N,07726.5099,W,1,08,1.24,167.4,M,-34.4,M,,*5B
$GPRMC,170656.750,A,4308.3057,N,07726.5100,W,37.59,183.17,120923,,,A*4C
$GPGGA,170657.000,4308.3031,N,07726.5101,W,1,08,1.24,167.7,M,-34.4,M,,*55
$GPRMC,170657.250,A,4308.3005,N,07726.5102,W,36.83,183.23,120923,,,A*4C
$GPGGA,170657.500,4308.2980,N,07726.5104,W,1,08,1.25,167.9,M,-34.4,M,,*58
$GPRMC,170657.750,A,4308.2954,N,07726.5105,W,36.77,182.71,120923,,,A*4F
$GPGGA,170658.000,4308.2929,N,07726.5106,W,1,08,1.25,167.9,M,-34.4,M,,*53
$GPRMC,170658.250,A,4308.2904,N,07726.5108,W,36.48,182.26,120923,,,A*43
$GPGGA,170658.500,4308.2878,N,07726.5109,W,1,08,1.21,167.9,M,-34.4,M,,*58
$GPRMC,170658.750,A,4308.2853,N,07726.5109,W,35.90,181.99,120923,,,A*45
$GPGGA,170659.000,4308.2829,N,07726.5110,W,1,08,1.24,168.0,M,-34.4,M,,*53
$GPRMC,170659.250,A,4308.2804,N,07726.5110,W,35.89,180.66,120923,,,A*42
$GPGGA,170659.500,4308.2779,N,07726.5111,W,1,08,1.25,168.1,M,-34.4,M,,*5D
$GPRMC,170659.750,A,4308.2753,N,07726.5111,W,35.87,180.70,120923,,,A*42
$GPGGA,170700.000,4308.2728,N,07726.5112,W,1,08,1.24,168.0,M,-34.4,M,,*52
$GPRMC,170700.250,A,4308.2702,N,07726.5113,W,36.28,180.56,120923,,,A*4E
$GPGGA,170700.500,4308.2677,N,07726.5113,W,1,08,1.21,168.0,M,-34.4,M,,*58
$GPRMC,170700.750,A,4308.2652,N,07726.5114,W,36.48,180.96,120923,,,A*42
$GPGGA,170701.000,4308.2627,N,07726.5114,W,1,08,1.25,168.0,M,-34.4,M,,*5A
