Vers 81
USE_SERIAL_FEEDBACK=true
DEVELOPMENT_MODE=false
USE_RMC_ONLY=false

$GPRMC,171540.500,A,4308.3092,N,07726.2662,W,0.03,170.03,171023,,,A*7C
$GPGGA,171540.750,4308.3094,N,07726.2662,W,1,04,2.55,163.9,M,-34.4,M,,*5A
$GPRMC,171541.000,A,4308.3093,N,07726.2662,W,0.04,174.02,171023,,,A*7B
$GPGGA,171541.250,4308.3095,N,07726.2663,W,1,04,2.55,164.0,M,-34.4,M,,*50
$GPRMC,171541.500,A,4308.3097,N,07726.2664,W,0.01,307.79,171023,,,A*73
$GPGGA,171541.750,4308.3098,N,07726.2664,W,1,04,2.55,164.3,M,-34.4,M,,*5C
$GPRMC,171542.000,A,4308.3102,N,07726.2665,W,0.04,326.17,171023,,,A*77
$GPGGA,171542.250,4308.3104,N,07726.2666,W,1,04,2.54,165.0,M,-34.4,M,,*5F
$GPRMC,171542.500,A,4308.3106,N,07726.2666,W,0.05,48.40,171023,,,A*4D
$GPGGA,171542.750,4308.3107,N,07726.2667,W,1,04,2.54,165.4,M,-34.4,M,,*5C
$GPRMC,171543.000,A,4308.3107,N,07726.2667,W,0.06,347.52,171023,,,A*75
$GPGGA,171543.250,4308.3109,N,07726.2667,W,1,04,17.15,165.4,M,-34.4,M,,*67
$GPRMC,171543.500,A,4308.3110,N,07726.2668,W,0.06,16.67,171023,,,A*48
$GPGGA,171543.750,4308.3113,N,07726.2668,W,1,04,2.55,166.0,M,-34.4,M,,*51
$GPRMC,171544.000,A,4308.3114,N,07726.2669,W,0.06,19.94,171023,,,A*4C
$GPGGA,171544.250,4308.3116,N,07726.2669,W,1,04,2.54,166.4,M,-34.4,M,,*52
$GPRMC,171544.500,A,4308.3118,N,07726.2670,W,0.05,9.27,171023,,,A*77
$GPGGA,171544.750,4308.3121,N,07726.2670,W,1,04,17.22,167.0,M,-34.4,M,,*6B
$GPRMC,171545.000,A,4308.3122,N,07726.2671,W,0.09,272.16,171023,,,A*7B
$GPGGA,171545.250,4308.3124,N,07726.2672,W,1,04,2.54,167.3,M,-34.4,M,,*5E
$GPRMC,171545.500,A,4308.3125,N,07726.2672,W,0.14,276.14,171023,,,A*70
$GPGGA,171545.750,4308.3126,N,07726.2672,W,1,04,2.54,167.6,M,-34.4,M,,*5C
$GPRMC,171546.000,A,4308.3127,N,07726.2672,W,0.03,112.24,171023,,,A*70
$GPGGA,171546.250,4308.3128,N,07726.2672,W,1,04,2.55,167.8,M,-34.4,M,,*5B
$GPRMC,171546.500,A,4308.3128,N,07726.2672,W,0.07,145.75,171023,,,A*78
$GPGGA,171546.750,4308.3129,N,07726.2672,W,1,04,2.54,168.0,M,-34.4,M,,*59
$GPRMC,171547.000,A,4308.3130,N,07726.2672,W,0.08,112.51,171023,,,A*7E
$GPGGA,171547.250,4308.3131,N,07726.2672,W,1,04,2.55,168.2,M,-34.4,M,,*57
$GPRMC,171547.500,A,4308.3132,N,07726.2673,W,0.07,120.10,171023,,,A*73
$GPGGA,171547.750,4308.3134,N,07726.2673,W,1,04,2.55,168.6,M,-34.4,M,,*52
$GPRMC,171548.000,A,4308.3135,N,07726.2673,W,0.05,116.10,171023,,,A*79
$GPGGA,171548.250,4308.3135,N,07726.2673,W,1,04,2.54,168.9,M,-34.4,M,,*57
$GPRMC,171548.500,A,4308.3135,N,07726.2673,W,0.07,124.03,171023,,,A*7D
$GPGGA,171548.750,4308.3136,N,07726.2673,W,1,04,2.54,169.0,M,-34.4,M,,*59
$GPRMC,171549.000,A,4308.3136,N,07726.2673,W,0.02,105.56,171023,,,A*7C
$GPGGA,171549.250,4308.3140,N,07726.2674,W,1,04,2.54,169.5,M,-34.4,M,,*5E
$GPRMC,171549.500,A,4308.3140,N,07726.2674,W,0.14,20.87,171023,,,A*42
$GPGGA,171549.750,4308.3142,N,07726.2674,W,1,04,2.54,169.5,M,-34.4,M,,*59
$GPRMC,171550.000,A,4308.3143,N,07726.2674,W,0.32,18.36,171023,,,A*49
$GPGGA,171550.250,4308.3091,N,07726.2666,W,1,05,1.63,160.8,M,-34.4,M,,*5A
$GPRMC,171550.500,A,4308.3068,N,07726.2663,W,0.33,20.15,171023,,,A*49
$GPGGA,171550.750,4308.3057,N,07726.2662,W,1,05,1.63,154.9,M,-34.4,M,,*57
$GPRMC,171551.000,A,4308.3050,N,07726.2661,W,0.43,11.67,171023,,,A*44
$GPGGA,171551.250,4308.3044,N,07726.2660,W,1,05,2.12,152.5,M,-34.4,M,,*5C
$GPRMC,171551.500,A,4308.3042,N,07726.2659,W,0.53,12.40,171023,,,A*4E
$GPGGA,171551.750,4308.3041,N,07726.2659,W,1,05,2.12,151.8,M,-34.4,M,,*58
$GPRMC,171552.000,A,4308.3040,N,07726.2659,W,0.73,10.30,171023,,,A*4D
$GPGGA,171552.250,4308.3039,N,07726.2658,W,1,05,2.12,151.2,M,-34.4,M,,*5A
$GPRMC,171552.500,A,4308.3039,N,07726.2658,W,0.93,6.28,171023,,,A*77
$GPGGA,171552.750,4308.3039,N,07726.2658,W,1,05,2.12,150.8,M,-34.4,M,,*54
$GPRMC,171553.000,A,4308.3040,N,07726.2657,W,1.15,12.09,171023,,,A*4B
$GPGGA,171553.250,4308.3041,N,07726.2656,W,1,05,2.12,150.8,M,-34.4,M,,*51
$GPRMC,171553.500,A,4308.3042,N,07726.2656,W,1.36,13.61,171023,,,A*43
$GPGGA,171553.750,4308.3042,N,07726.2655,W,1,05,2.12,150.6,M,-34.4,M,,*5A
$GPRMC,171554.000,A,4308.3043,N,07726.2655,W,1.58,10.49,171023,,,A*42
$GPGGA,171554.250,4308.3045,N,07726.2655,W,1,05,2.12,150.6,M,-34.4,M,,*5F
$GPRMC,171554.500,A,4308.3046,N,07726.2654,W,2.06,7.81,171023,,,A*79
$GPGGA,171554.750,4308.3048,N,07726.2654,W,1,05,2.12,150.6,M,-34.4,M,,*56
$GPRMC,171555.000,A,4308.3050,N,07726.2654,W,2.52,5.14,171023,,,A*75
$GPGGA,171555.250,4308.3053,N,07726.2654,W,1,05,2.12,150.7,M,-34.4,M,,*59
$GPRMC,171555.500,A,4308.3055,N,07726.2653,W,3.33,1.55,171023,,,A*75
$GPGGA,171555.750,4308.3058,N,07726.2653,W,1,05,2.12,150.7,M,-34.4,M,,*50
$GPRMC,171556.000,A,4308.3061,N,07726.2653,W,3.53,358.43,171023,,,A*7A
$GPGGA,171556.250,4308.3064,N,07726.2654,W,1,05,2.12,150.9,M,-34.4,M,,*50
$GPRMC,171556.500,A,4308.3066,N,07726.2654,W,3.70,355.93,171023,,,A*7E
$GPGGA,171556.750,4308.3069,N,07726.2654,W,1,05,2.12,151.0,M,-34.4,M,,*50
$GPRMC,171557.000,A,4308.3073,N,07726.2655,W,4.17,354.07,171023,,,A*75
$GPGGA,171557.250,4308.3077,N,07726.2655,W,1,05,2.12,151.1,M,-34.4,M,,*5B
$GPRMC,171557.500,A,4308.3079,N,07726.2655,W,4.54,354.32,171023,,,A*7B
$GPGGA,171557.750,4308.3081,N,07726.2655,W,1,05,2.12,150.9,M,-34.4,M,,*5E
$GPRMC,171558.000,A,4308.3083,N,07726.2655,W,4.42,2.33,171023,,,A*72
$GPGGA,171558.250,4308.3086,N,07726.2654,W,1,05,2.12,150.7,M,-34.4,M,,*5C
$GPRMC,171558.500,A,4308.3089,N,07726.2654,W,4.40,358.42,171023,,,A*74
$GPGGA,171558.750,4308.3092,N,07726.2654,W,1,05,2.12,150.7,M,-34.4,M,,*5C
$GPRMC,171559.000,A,4308.3094,N,07726.2654,W,3.95,359.98,171023,,,A*75
$GPGGA,171559.250,4308.3096,N,07726.2653,W,1,05,2.12,150.8,M,-34.4,M,,*54
$GPRMC,171559.500,A,4308.3098,N,07726.2653,W,3.08,3.50,171023,,,A*77
$GPGGA,171559.750,4308.3100,N,07726.2653,W,1,05,2.12,150.8,M,-34.4,M,,*5F
$GPRMC,171600.000,A,4308.3103,N,07726.2652,W,3.38,6.22,171023,,,A*7C
$GPGGA,171600.250,4308.3105,N,07726.2652,W,1,05,2.12,150.7,M,-34.4,M,,*5E
$GPRMC,171600.500,A,4308.3107,N,07726.2651,W,3.37,9.42,171023,,,A*78
$GPGGA,171600.750,4308.3109,N,07726.2650,W,1,05,2.12,150.5,M,-34.4,M,,*57
$GPRMC,171601.000,A,4308.3111,N,07726.2649,W,3.76,18.96,171023,,,A*4E
$GPGGA,171601.250,4308.3114,N,07726.2647,W,1,05,1.62,150.6,M,-34.4,M,,*5E
$GPRMC,171601.500,A,4308.3116,N,07726.2645,W,3.86,30.28,171023,,,A*40
$GPGGA,171601.750,4308.3117,N,07726.2643,W,1,05,1.62,150.5,M,-34.4,M,,*5F
$GPRMC,171602.000,A,4308.3118,N,07726.2641,W,3.42,42.20,171023,,,A*49
$GPGGA,171602.250,4308.3120,N,07726.2638,W,1,06,1.55,150.4,M,-34.4,M,,*57
$GPRMC,171602.500,A,4308.3121,N,07726.2635,W,3.48,53.12,171023,,,A*4E
$GPGGA,171602.750,4308.3121,N,07726.2632,W,1,06,1.55,150.3,M,-34.4,M,,*5E
$GPRMC,171603.000,A,4308.3121,N,07726.2630,W,2.95,71.76,171023,,,A*4C
$GPGGA,171603.250,4308.3122,N,07726.2627,W,1,06,1.55,150.3,M,-34.4,M,,*5D
$GPRMC,171603.500,A,4308.3122,N,07726.2624,W,3.02,76.22,171023,,,A*46
$GPGGA,171603.750,4308.3123,N,07726.2621,W,1,06,1.55,150.2,M,-34.4,M,,*5E
$GPRMC,171604.000,A,4308.3123,N,07726.2618,W,2.88,77.89,171023,,,A*49
$GPGGA,171604.250,4308.3123,N,07726.2616,W,1,06,1.55,150.1,M,-34.4,M,,*5B
$GPRMC,171604.500,A,4308.3123,N,07726.2613,W,2.40,81.92,171023,,,A*40
$GPGGA,171604.750,4308.3123,N,07726.2612,W,1,06,1.55,150.1,M,-34.4,M,,*5A
$GPRMC,171605.000,A,4308.3122,N,07726.2611,W,1.17,91.11,171023,,,A*4C
$GPGGA,171605.250,4308.3122,N,07726.2611,W,1,06,1.55,150.0,M,-34.4,M,,*5D
$GPRMC,171605.500,A,4308.3122,N,07726.2611,W,0.28,125.72,171023,,,A*7F
$GPGGA,171605.750,4308.3121,N,07726.2612,W,1,06,1.54,149.9,M,-34.4,M,,*58
$GPRMC,171606.000,A,4308.3121,N,07726.2614,W,0.84,238.94,171023,,,A*7E
$GPGGA,171606.250,4308.3120,N,07726.2617,W,1,06,1.55,149.9,M,-34.4,M,,*5B
$GPRMC,171606.500,A,4308.3120,N,07726.2619,W,1.75,258.19,171023,,,A*7B
$GPGGA,171606.750,4308.3121,N,07726.2623,W,1,06,1.55,149.9,M,-34.4,M,,*58
$GPRMC,171607.000,A,4308.3121,N,07726.2627,W,4.41,270.26,171023,,,A*77
$GPGGA,171607.250,4308.3121,N,07726.2632,W,1,06,1.80,150.0,M,-34.4,M,,*55
$GPRMC,171607.500,A,4308.3121,N,07726.2637,W,5.81,268.47,171023,,,A*70
$GPGGA,171607.750,4308.3122,N,07726.2643,W,1,06,1.80,150.1,M,-34.4,M,,*54
$GPRMC,171608.000,A,4308.3123,N,07726.2650,W,6.86,273.59,171023,,,A*78
$GPGGA,171608.250,4308.3124,N,07726.2656,W,1,06,1.80,150.2,M,-34.4,M,,*5F
$GPRMC,171608.500,A,4308.3125,N,07726.2663,W,7.64,276.43,171023,,,A*78
$GPGGA,171608.750,4308.3126,N,07726.2670,W,1,06,1.80,150.3,M,-34.4,M,,*5D
$GPRMC,171609.000,A,4308.3127,N,07726.2678,W,8.68,276.57,171023,,,A*72
$GPGGA,171609.250,4308.3129,N,07726.2687,W,1,06,1.80,150.4,M,-34.4,M,,*59
$GPRMC,171609.500,A,4308.3131,N,07726.2695,W,9.57,278.57,171023,,,A*70
$GPGGA,171609.750,4308.3133,N,07726.2705,W,1,06,1.80,150.5,M,-34.4,M,,*5D
$GPRMC,171610.000,A,4308.3134,N,07726.2714,W,10.61,279.97,171023,,,A*40
$GPGGA,171610.250,4308.3136,N,07726.2724,W,1,06,1.80,150.7,M,-34.4,M,,*54
$GPRMC,171610.500,A,4308.3138,N,07726.2735,W,11.32,280.92,171023,,,A*4E
$GPGGA,171610.750,4308.3141,N,07726.2745,W,1,06,1.55,150.8,M,-34.4,M,,*51
$GPRMC,171611.000,A,4308.3143,N,07726.2756,W,12.17,280.66,171023,,,A*4C
$GPGGA,171611.250,4308.3145,N,07726.2768,W,1,06,1.55,151.0,M,-34.4,M,,*57
$GPRMC,171611.500,A,4308.3148,N,07726.2779,W,12.84,283.07,171023,,,A*41
$GPGGA,171611.750,4308.3150,N,07726.2791,W,1,06,1.54,151.3,M,-34.4,M,,*52
$GPRMC,171612.000,A,4308.3153,N,07726.2803,W,13.61,284.15,171023,,,A*41
$GPGGA,171612.250,4308.3156,N,07726.2816,W,1,06,1.80,151.5,M,-34.4,M,,*5D
$GPRMC,171612.500,A,4308.3159,N,07726.2829,W,14.37,285.98,171023,,,A*46
$GPGGA,171612.750,4308.3161,N,07726.2842,W,1,06,1.55,151.6,M,-34.4,M,,*56
$GPRMC,171613.000,A,4308.3165,N,07726.2855,W,14.91,286.54,171023,,,A*49
$GPGGA,171613.250,4308.3168,N,07726.2869,W,1,06,1.80,151.7,M,-34.4,M,,*5B
$GPRMC,171613.500,A,4308.3171,N,07726.2882,W,14.97,287.37,171023,,,A*41
$GPGGA,171613.750,4308.3175,N,07726.2896,W,1,06,1.55,151.9,M,-34.4,M,,*54
$GPRMC,171614.000,A,4308.3179,N,07726.2910,W,15.35,288.77,171023,,,A*43
$GPGGA,171614.250,4308.3184,N,07726.2924,W,1,06,1.80,152.1,M,-34.4,M,,*53
$GPRMC,171614.500,A,4308.3189,N,07726.2938,W,16.09,291.24,171023,,,A*41
$GPGGA,171614.750,4308.3194,N,07726.2952,W,1,06,1.54,152.3,M,-34.4,M,,*5D
$GPRMC,171615.000,A,4308.3199,N,07726.2967,W,16.59,292.87,171023,,,A*41
$GPGGA,171615.250,4308.3205,N,07726.2981,W,1,06,1.80,152.4,M,-34.4,M,,*52
$GPRMC,171615.500,A,4308.3211,N,07726.2996,W,17.29,295.36,171023,,,A*42
$GPGGA,171615.750,4308.3216,N,07726.3011,W,1,06,1.54,152.6,M,-34.4,M,,*5F
$GPRMC,171616.000,A,4308.3222,N,07726.3026,W,17.71,296.13,171023,,,A*4E
$GPGGA,171616.250,4308.3227,N,07726.3042,W,1,06,1.55,152.7,M,-34.4,M,,*5D
$GPRMC,171616.500,A,4308.3233,N,07726.3057,W,18.00,296.23,171023,,,A*47
$GPGGA,171616.750,4308.3240,N,07726.3073,W,1,06,1.55,152.9,M,-34.4,M,,*55
$GPRMC,171617.000,A,4308.3247,N,07726.3088,W,18.58,298.36,171023,,,A*45
$GPGGA,171617.250,4308.3255,N,07726.3104,W,1,06,1.54,153.0,M,-34.4,M,,*5D
$GPRMC,171617.500,A,4308.3262,N,07726.3120,W,19.30,299.92,171023,,,A*44
$GPGGA,171617.750,4308.3270,N,07726.3136,W,1,06,1.54,153.2,M,-34.4,M,,*5C
$GPRMC,171618.000,A,4308.3278,N,07726.3152,W,20.25,301.26,171023,,,A*41
$GPGGA,171618.250,4308.3287,N,07726.3169,W,1,06,1.55,153.3,M,-34.4,M,,*54
$GPRMC,171618.500,A,4308.3296,N,07726.3186,W,21.07,302.04,171023,,,A*4F
$GPGGA,171618.750,4308.3304,N,07726.3204,W,1,06,1.54,153.4,M,-34.4,M,,*55
$GPRMC,171619.000,A,4308.3313,N,07726.3221,W,21.81,302.10,171023,,,A*42
$GPGGA,171619.250,4308.3322,N,07726.3239,W,1,06,1.80,153.6,M,-34.4,M,,*50
$GPRMC,171619.500,A,4308.3330,N,07726.3257,W,22.33,302.10,171023,,,A*4D
$GPGGA,171619.750,4308.3339,N,07726.3275,W,1,06,1.54,153.7,M,-34.4,M,,*5F
$GPRMC,171620.000,A,4308.3348,N,07726.3294,W,22.99,302.35,171023,,,A*45
$GPGGA,171620.250,4308.3358,N,07726.3313,W,1,06,1.80,153.8,M,-34.4,M,,*50
$GPRMC,171620.500,A,4308.3367,N,07726.3332,W,23.48,302.59,171023,,,A*47
$GPGGA,171620.750,4308.3376,N,07726.3351,W,1,06,1.55,154.0,M,-34.4,M,,*58
$GPRMC,171621.000,A,4308.3386,N,07726.3370,W,23.93,303.04,171023,,,A*45
$GPGGA,171621.250,4308.3395,N,07726.3390,W,1,06,1.54,154.1,M,-34.4,M,,*5C
$GPRMC,171621.500,A,4308.3405,N,07726.3409,W,24.35,303.48,171023,,,A*46
$GPGGA,171621.750,4308.3415,N,07726.3429,W,1,06,1.54,154.3,M,-34.4,M,,*51
$GPRMC,171622.000,A,4308.3424,N,07726.3448,W,24.16,304.50,171023,,,A*49
$GPGGA,171622.250,4308.3434,N,07726.3466,W,1,06,1.80,154.5,M,-34.4,M,,*50
$GPRMC,171622.500,A,4308.3444,N,07726.3485,W,23.87,305.28,171023,,,A*4A
$GPGGA,171622.750,4308.3454,N,07726.3503,W,1,06,1.54,154.7,M,-34.4,M,,*5A
$GPRMC,171623.000,A,4308.3465,N,07726.3521,W,23.87,307.18,171023,,,A*43
$GPGGA,171623.250,4308.3476,N,07726.3539,W,1,06,1.80,154.9,M,-34.4,M,,*50
$GPRMC,171623.500,A,4308.3487,N,07726.3557,W,23.92,309.41,171023,,,A*4D
$GPGGA,171623.750,4308.3498,N,07726.3574,W,1,06,1.80,155.0,M,-34.4,M,,*54
$GPRMC,171624.000,A,4308.3510,N,07726.3591,W,24.15,311.72,171023,,,A*4B
$GPGGA,171624.250,4308.3523,N,07726.3607,W,1,06,1.80,155.2,M,-34.4,M,,*52
$GPRMC,171624.500,A,4308.3536,N,07726.3623,W,24.40,315.99,171023,,,A*41
$GPGGA,171624.750,4308.3550,N,07726.3638,W,1,06,1.80,155.5,M,-34.4,M,,*58
$GPRMC,171625.000,A,4308.3563,N,07726.3653,W,24.64,321.26,171023,,,A*47
$GPGGA,171625.250,4308.3577,N,07726.3667,W,1,06,1.80,155.6,M,-34.4,M,,*50
$GPRMC,171625.500,A,4308.3592,N,07726.3680,W,24.64,326.16,171023,,,A*46
$GPGGA,171625.750,4308.3606,N,07726.3692,W,1,06,1.80,155.8,M,-34.4,M,,*54
$GPRMC,171626.000,A,4308.3621,N,07726.3704,W,24.54,327.89,171023,,,A*42
$GPGGA,171626.250,4308.3636,N,07726.3716,W,1,06,1.80,155.8,M,-34.4,M,,*5C
$GPRMC,171626.500,A,4308.3651,N,07726.3727,W,24.46,330.49,171023,,,A*48
$GPGGA,171626.750,4308.3666,N,07726.3737,W,1,06,1.54,155.9,M,-34.4,M,,*57
$GPRMC,171627.000,A,4308.3682,N,07726.3747,W,24.62,334.11,171023,,,A*4B
$GPGGA,171627.250,4308.3697,N,07726.3757,W,1,06,1.54,156.1,M,-34.4,M,,*50
$GPRMC,171627.500,A,4308.3713,N,07726.3766,W,24.38,336.27,171023,,,A*4C
$GPGGA,171627.750,4308.3730,N,07726.3772,W,1,06,1.54,156.3,M,-34.4,M,,*5C
$GPRMC,171628.000,A,4308.3747,N,07726.3778,W,24.80,342.69,171023,,,A*42
$GPGGA,171628.250,4308.3764,N,07726.3784,W,1,06,1.54,156.4,M,-34.4,M,,*59
$GPRMC,171628.500,A,4308.3780,N,07726.3788,W,24.33,346.93,171023,,,A*4A
$GPGGA,171628.750,4308.3797,N,07726.3792,W,1,06,1.80,156.6,M,-34.4,M,,*5C
$GPRMC,171629.000,A,4308.3815,N,07726.3793,W,24.33,352.71,171023,,,A*4E
$GPGGA,171629.250,4308.3832,N,07726.3794,W,1,06,1.80,156.9,M,-34.4,M,,*51
$GPRMC,171629.500,A,4308.3850,N,07726.3795,W,24.93,356.96,171023,,,A*4B
$GPGGA,171629.750,4308.3868,N,07726.3794,W,1,06,1.80,157.0,M,-34.4,M,,*53
$GPRMC,171630.000,A,4308.3886,N,07726.3793,W,25.34,1.80,171023,,,A*41
$GPGGA,171630.250,4308.3904,N,07726.3790,W,1,06,1.54,157.3,M,-34.4,M,,*5B
$GPRMC,171630.500,A,4308.3923,N,07726.3788,W,26.27,4.77,171023,,,A*4C
$GPGGA,171630.750,4308.3941,N,07726.3785,W,1,06,1.54,157.5,M,-34.4,M,,*5D
$GPRMC,171631.000,A,4308.3960,N,07726.3781,W,26.81,7.40,171023,,,A*4D
$GPGGA,171631.250,4308.3979,N,07726.3777,W,1,06,1.54,157.6,M,-34.4,M,,*5C
$GPRMC,171631.500,A,4308.3998,N,07726.3772,W,27.80,9.42,171023,,,A*4F
$GPGGA,171631.750,4308.4017,N,07726.3767,W,1,06,1.54,157.8,M,-34.4,M,,*50
$GPRMC,171632.000,A,4308.4037,N,07726.3761,W,28.01,11.05,171023,,,A*7C
$GPGGA,171632.250,4308.4056,N,07726.3755,W,1,06,1.80,157.9,M,-34.4,M,,*5A
$GPRMC,171632.500,A,4308.4075,N,07726.3749,W,28.05,11.61,171023,,,A*73
$GPGGA,171632.750,4308.4094,N,07726.3743,W,1,06,1.54,158.0,M,-34.4,M,,*59
$GPRMC,171633.000,A,4308.4112,N,07726.3738,W,27.38,11.78,171023,,,A*78
$GPGGA,171633.250,4308.4131,N,07726.3732,W,1,06,1.80,158.1,M,-34.4,M,,*5D
$GPRMC,171633.500,A,4308.4149,N,07726.3726,W,26.64,11.81,171023,,,A*72
$GPGGA,171633.750,4308.4167,N,07726.3721,W,1,06,1.54,158.1,M,-34.4,M,,*50
$GPRMC,171634.000,A,4308.4184,N,07726.3716,W,25.15,10.92,171023,,,A*74
$GPGGA,171634.250,4308.4201,N,07726.3712,W,1,06,1.80,158.3,M,-34.4,M,,*5A
$GPRMC,171634.500,A,4308.4218,N,07726.3707,W,24.95,10.55,171023,,,A*75
$GPGGA,171634.750,4308.4235,N,07726.3702,W,1,06,1.80,158.4,M,-34.4,M,,*5E
$GPRMC,171635.000,A,4308.4252,N,07726.3698,W,24.69,10.54,171023,,,A*7A
$GPGGA,171635.250,4308.4268,N,07726.3693,W,1,06,1.80,158.5,M,-34.4,M,,*5A
$GPRMC,171635.500,A,4308.4285,N,07726.3689,W,24.57,10.29,171023,,,A*72
$GPGGA,171635.750,4308.4302,N,07726.3685,W,1,06,1.80,158.6,M,-34.4,M,,*56
$GPRMC,171636.000,A,4308.4318,N,07726.3681,W,24.14,9.87,171023,,,A*42
$GPGGA,171636.250,4308.4334,N,07726.3677,W,1,06,1.80,158.7,M,-34.4,M,,*59
$GPRMC,171636.500,A,4308.4351,N,07726.3673,W,23.71,9.49,171023,,,A*41
$GPGGA,171636.750,4308.4366,N,07726.3669,W,1,06,1.80,158.7,M,-34.4,M,,*54
$GPRMC,171637.000,A,4308.4382,N,07726.3665,W,22.79,10.00,171023,,,A*70
$GPGGA,171637.250,4308.4397,N,07726.3661,W,1,06,1.81,158.7,M,-34.4,M,,*57
$GPRMC,171637.500,A,4308.4412,N,07726.3657,W,21.99,10.25,171023,,,A*70
$GPGGA,171637.750,4308.4426,N,07726.3653,W,1,06,1.80,158.7,M,-34.4,M,,*5F
$GPRMC,171638.000,A,4308.4439,N,07726.3650,W,20.67,9.97,171023,,,A*45
$GPGGA,171638.250,4308.4453,N,07726.3646,W,1,06,1.80,158.8,M,-34.4,M,,*5C
$GPRMC,171638.500,A,4308.4466,N,07726.3643,W,19.17,9.76,171023,,,A*4A
$GPGGA,171638.750,4308.4477,N,07726.3640,W,1,06,1.80,158.9,M,-34.4,M,,*58
$GPRMC,171639.000,A,4308.4488,N,07726.3637,W,16.27,9.68,171023,,,A*4E
$GPGGA,171639.250,4308.4497,N,07726.3634,W,1,06,1.80,159.1,M,-34.4,M,,*58
$GPRMC,171639.500,A,4308.4505,N,07726.3632,W,13.30,9.62,171023,,,A*43
$GPGGA,171639.750,4308.4512,N,07726.3630,W,1,06,1.80,159.2,M,-34.4,M,,*56
$GPRMC,171640.000,A,4308.4518,N,07726.3628,W,9.57,9.50,171023,,,A*74
$GPGGA,171640.250,4308.4523,N,07726.3627,W,1,06,1.80,159.3,M,-34.4,M,,*58
$GPRMC,171640.500,A,4308.4528,N,07726.3625,W,7.80,10.39,171023,,,A*4C
$GPGGA,171640.750,4308.4532,N,07726.3624,W,1,06,1.80,159.4,M,-34.4,M,,*59
$GPRMC,171641.000,A,4308.4536,N,07726.3623,W,6.46,9.14,171023,,,A*7D
$GPGGA,171641.250,4308.4540,N,07726.3621,W,1,06,1.80,159.5,M,-34.4,M,,*5C
$GPRMC,171641.500,A,4308.4543,N,07726.3621,W,5.40,8.10,171023,,,A*78
$GPGGA,171641.750,4308.4545,N,07726.3620,W,1,06,1.80,159.5,M,-34.4,M,,*5D
$GPRMC,171642.000,A,4308.4548,N,07726.3619,W,4.50,4.03,171023,,,A*70
$GPGGA,171642.250,4308.4551,N,07726.3619,W,1,06,1.80,159.6,M,-34.4,M,,*57
$GPRMC,171642.500,A,4308.4554,N,07726.3619,W,4.73,359.05,171023,,,A*74
$GPGGA,171642.750,4308.4558,N,07726.3619,W,1,06,1.80,159.6,M,-34.4,M,,*5B
$GPRMC,171643.000,A,4308.4562,N,07726.3619,W,6.18,354.63,171023,,,A*77
$GPGGA,171643.250,4308.4567,N,07726.3620,W,1,06,1.80,159.8,M,-34.4,M,,*57
$GPRMC,171643.500,A,4308.4572,N,07726.3621,W,7.27,347.05,171023,,,A*77
$GPGGA,171643.750,4308.4577,N,07726.3624,W,1,06,1.80,160.0,M,-34.4,M,,*55
$GPRMC,171644.000,A,4308.4583,N,07726.3629,W,9.45,330.93,171023,,,A*76
$GPGGA,171644.250,4308.4589,N,07726.3635,W,1,06,1.80,159.9,M,-34.4,M,,*55
$GPRMC,171644.500,A,4308.4594,N,07726.3641,W,11.15,319.05,171023,,,A*43
$GPGGA,171644.750,4308.4599,N,07726.3650,W,1,06,1.54,159.9,M,-34.4,M,,*5B
$GPRMC,171645.000,A,4308.4604,N,07726.3660,W,13.29,305.73,171023,,,A*4F
$GPGGA,171645.250,4308.4608,N,07726.3672,W,1,06,1.80,159.7,M,-34.4,M,,*53
$GPRMC,171645.500,A,4308.4612,N,07726.3685,W,14.49,296.24,171023,,,A*4E
$GPGGA,171645.750,4308.4616,N,07726.3698,W,1,06,1.54,159.6,M,-34.4,M,,*55
$GPRMC,171646.000,A,4308.4620,N,07726.3713,W,16.22,293.47,171023,,,A*48
$GPGGA,171646.250,4308.4623,N,07726.3729,W,1,06,1.80,159.3,M,-34.4,M,,*52
$GPRMC,171646.500,A,4308.4626,N,07726.3745,W,17.24,288.25,171023,,,A*41
$GPGGA,171646.750,4308.4627,N,07726.3763,W,1,06,1.54,159.2,M,-34.4,M,,*55
$GPRMC,171647.000,A,4308.4627,N,07726.3781,W,18.78,279.85,171023,,,A*4E
$GPGGA,171647.250,4308.4624,N,07726.3802,W,1,06,1.80,159.0,M,-34.4,M,,*51
$GPRMC,171647.500,A,4308.4624,N,07726.3822,W,20.13,273.10,171023,,,A*4E
$GPGGA,171647.750,4308.4624,N,07726.3842,W,1,06,1.81,158.9,M,-34.4,M,,*59
$GPRMC,171648.000,A,4308.4625,N,07726.3862,W,20.63,272.83,171023,,,A*4D
$GPGGA,171648.250,4308.4626,N,07726.3882,W,1,06,1.80,158.8,M,-34.4,M,,*5D
$GPRMC,171648.500,A,4308.4627,N,07726.3902,W,20.73,273.14,171023,,,A*43
$GPGGA,171648.750,4308.4627,N,07726.3923,W,1,06,1.54,158.7,M,-34.4,M,,*55
$GPRMC,171649.000,A,4308.4628,N,07726.3942,W,20.32,273.03,171023,,,A*4F
$GPGGA,171649.250,4308.4629,N,07726.3962,W,1,06,1.80,158.5,M,-34.4,M,,*51
$GPRMC,171649.500,A,4308.4630,N,07726.3980,W,19.50,274.00,171023,,,A*47
$GPGGA,171649.750,4308.4632,N,07726.3999,W,1,06,1.54,158.5,M,-34.4,M,,*53
$GPRMC,171650.000,A,4308.4634,N,07726.4017,W,19.00,276.15,171023,,,A*4D
$GPGGA,171650.250,4308.4636,N,07726.4035,W,1,06,1.81,158.5,M,-34.4,M,,*5A
$GPRMC,171650.500,A,4308.4638,N,07726.4052,W,18.25,277.55,171023,,,A*46
$GPGGA,171650.750,4308.4640,N,07726.4070,W,1,06,1.54,158.4,M,-34.4,M,,*56
$GPRMC,171651.000,A,4308.4641,N,07726.4086,W,17.47,278.25,171023,,,A*46
$GPGGA,171651.250,4308.4643,N,07726.4102,W,1,06,1.80,158.4,M,-34.4,M,,*5C
$GPRMC,171651.500,A,4308.4644,N,07726.4118,W,16.27,277.65,171023,,,A*4C
$GPGGA,171651.750,4308.4646,N,07726.4134,W,1,06,1.80,158.2,M,-34.4,M,,*5F
$GPRMC,171652.000,A,4308.4647,N,07726.4148,W,15.15,277.66,171023,,,A*4D
$GPGGA,171652.250,4308.4649,N,07726.4163,W,1,06,1.80,158.1,M,-34.4,M,,*57
$GPRMC,171652.500,A,4308.4650,N,07726.4177,W,14.09,277.03,171023,,,A*4D
$GPGGA,171652.750,4308.4652,N,07726.4190,W,1,06,1.54,158.1,M,-34.4,M,,*5D
$GPRMC,171653.000,A,4308.4653,N,07726.4202,W,13.03,276.96,171023,,,A*4B
$GPGGA,171653.250,4308.4654,N,07726.4214,W,1,06,1.80,158.0,M,-34.4,M,,*58
$GPRMC,171653.500,A,4308.4656,N,07726.4226,W,11.61,276.41,171023,,,A*41
$GPGGA,171653.750,4308.4657,N,07726.4237,W,1,06,1.80,158.1,M,-34.4,M,,*5E
$GPRMC,171654.000,A,4308.4657,N,07726.4246,W,9.76,274.98,171023,,,A*7D
$GPGGA,171654.250,4308.4658,N,07726.4255,W,1,06,1.81,158.1,M,-34.4,M,,*56
$GPRMC,171654.500,A,4308.4659,N,07726.4262,W,7.45,273.53,171023,,,A*7E
$GPGGA,171654.750,4308.4659,N,07726.4268,W,1,06,1.81,158.0,M,-34.4,M,,*5D
$GPRMC,171655.000,A,4308.4660,N,07726.4273,W,4.95,275.96,171023,,,A*71
$GPGGA,171655.250,4308.4661,N,07726.4277,W,1,06,1.81,158.0,M,-34.4,M,,*5C
$GPRMC,171655.500,A,4308.4661,N,07726.4281,W,3.30,278.73,171023,,,A*76
$GPGGA,171655.750,4308.4662,N,07726.4284,W,1,06,1.54,158.0,M,-34.4,M,,*5E
$GPRMC,171656.000,A,4308.4662,N,07726.4286,W,1.86,278.73,171023,,,A*7B
$GPGGA,171656.250,4308.4663,N,07726.4287,W,1,06,1.54,158.0,M,-34.4,M,,*5A
$GPRMC,171656.500,A,4308.4663,N,07726.4288,W,0.95,278.73,171023,,,A*72
$GPGGA,171656.750,4308.4663,N,07726.4289,W,1,06,1.54,158.1,M,-34.4,M,,*50
$GPRMC,171657.000,A,4308.4663,N,07726.4289,W,0.47,278.73,171023,,,A*78
$GPGGA,171657.250,4308.4663,N,07726.4289,W,1,06,1.54,158.1,M,-34.4,M,,*54
$GPRMC,171657.500,A,4308.4663,N,07726.4289,W,0.13,278.73,171023,,,A*7C
$GPGGA,171657.750,4308.4663,N,07726.4289,W,1,06,1.54,158.2,M,-34.4,M,,*52
$GPRMC,171658.000,A,4308.4663,N,07726.4289,W,0.05,278.73,171023,,,A*71
$GPGGA,171658.250,4308.4663,N,07726.4290,W,1,06,1.54,158.2,M,-34.4,M,,*50
$GPRMC,171658.500,A,4308.4663,N,07726.4290,W,0.03,278.73,171023,,,A*7A
$GPGGA,171658.750,4308.4662,N,07726.4289,W,1,06,1.54,158.2,M,-34.4,M,,*5C
$GPRMC,171659.000,A,4308.4662,N,07726.4289,W,0.03,278.73,171023,,,A*77
$GPGGA,171659.250,4308.4662,N,07726.4289,W,1,06,1.54,158.3,M,-34.4,M,,*59
$GPRMC,171659.500,A,4308.4662,N,07726.4289,W,0.01,278.73,171023,,,A*70
$GPGGA,171659.750,4308.4662,N,07726.4289,W,1,06,1.54,158.3,M,-34.4,M,,*5C
$GPRMC,171700.000,A,4308.4662,N,07726.4289,W,0.04,278.73,171023,,,A*7D
$GPGGA,171700.250,4308.4662,N,07726.4289,W,1,06,1.54,158.3,M,-34.4,M,,*54
$GPRMC,171700.500,A,4308.4662,N,07726.4289,W,0.02,278.73,171023,,,A*7E
$GPGGA,171700.750,4308.4662,N,07726.4289,W,1,06,1.54,158.3,M,-34.4,M,,*51
$GPRMC,171701.000,A,4308.4662,N,07726.4289,W,0.01,278.73,171023,,,A*79
$GPGGA,171701.250,4308.4662,N,07726.4289,W,1,06,1.54,158.3,M,-34.4,M,,*55
$GPRMC,171701.500,A,4308.4662,N,07726.4289,W,0.04,278.73,171023,,,A*79
$GPGGA,171701.750,4308.4662,N,07726.4289,W,1,06,1.54,158.3,M,-34.4,M,,*50
$GPRMC,171702.000,A,4308.4662,N,07726.4289,W,0.02,278.73,171023,,,A*79
$GPGGA,171702.250,4308.4662,N,07726.4289,W,1,06,1.54,158.3,M,-34.4,M,,*56
$GPRMC,171702.500,A,4308.4662,N,07726.4289,W,0.03,278.73,171023,,,A*7D
$GPGGA,171702.750,4308.4662,N,07726.4289,W,1,06,1.54,158.3,M,-34.4,M,,*53
$GPRMC,171703.000,A,4308.4662,N,07726.4289,W,0.15,278.73,171023,,,A*7E
$GPGGA,171703.250,4308.4662,N,07726.4290,W,1,06,1.54,158.3,M,-34.4,M,,*5F
$GPRMC,171703.500,A,4308.4662,N,07726.4290,W,0.65,278.73,171023,,,A*74
$GPGGA,171703.750,4308.4663,N,07726.4290,W,1,06,1.54,158.3,M,-34.4,M,,*5B
$GPRMC,171704.000,A,4308.4663,N,07726.4292,W,1.50,278.73,171023,,,A*72
$GPGGA,171704.250,4308.4663,N,07726.4293,W,1,06,1.54,158.3,M,-34.4,M,,*5A
$GPRMC,171704.500,A,4308.4663,N,07726.4295,W,1.99,278.73,171023,,,A*75
$GPGGA,171704.750,4308.4663,N,07726.4296,W,1,06,1.54,158.3,M,-34.4,M,,*5A
$GPRMC,171705.000,A,4308.4663,N,07726.4298,W,2.06,281.56,171023,,,A*78
$GPGGA,171705.250,4308.4663,N,07726.4301,W,1,06,1.54,158.4,M,-34.4,M,,*56
$GPRMC,171705.500,A,4308.4664,N,07726.4303,W,2.41,281.42,171023,,,A*7F
$GPGGA,171705.750,4308.4664,N,07726.4305,W,1,06,1.54,158.4,M,-34.4,M,,*50
$GPRMC,171706.000,A,4308.4664,N,07726.4308,W,2.61,283.11,171023,,,A*74
$GPGGA,171706.250,4308.4665,N,07726.4310,W,1,06,1.54,158.5,M,-34.4,M,,*52
$GPRMC,171706.500,A,4308.4665,N,07726.4313,W,2.48,279.56,171023,,,A*77
$GPGGA,171706.750,4308.4666,N,07726.4315,W,1,06,1.54,158.5,M,-34.4,M,,*51
$GPRMC,171707.000,A,4308.4666,N,07726.4317,W,1.67,282.49,171023,,,A*70
$GPGGA,171707.250,4308.4666,N,07726.4318,W,1,06,1.54,158.5,M,-34.4,M,,*58
$GPRMC,171707.500,A,4308.4666,N,07726.4319,W,1.04,276.62,171023,,,A*7C
$GPGGA,171707.750,4308.4667,N,07726.4320,W,1,06,1.54,158.5,M,-34.4,M,,*57
$GPRMC,171708.000,A,4308.4667,N,07726.4321,W,0.35,275.99,171023,,,A*78
$GPGGA,171708.250,4308.4667,N,07726.4321,W,1,06,1.54,158.5,M,-34.4,M,,*5C
$GPRMC,171708.500,A,4308.4667,N,07726.4321,W,0.10,275.99,171023,,,A*7A
$GPGGA,171708.750,4308.4667,N,07726.4321,W,1,06,1.54,158.6,M,-34.4,M,,*5A
$GPRMC,171709.000,A,4308.4667,N,07726.4320,W,0.06,275.99,171023,,,A*78
$GPGGA,171709.250,4308.4667,N,07726.4320,W,1,06,1.81,158.6,M,-34.4,M,,*57
$GPRMC,171709.500,A,4308.4668,N,07726.4320,W,0.13,275.99,171023,,,A*76
$GPGGA,171709.750,4308.4668,N,07726.4321,W,1,06,1.54,158.6,M,-34.4,M,,*54
$GPRMC,171710.000,A,4308.4668,N,07726.4321,W,1.24,281.15,171023,,,A*70
$GPGGA,171710.250,4308.4669,N,07726.4323,W,1,06,1.54,158.7,M,-34.4,M,,*5B
$GPRMC,171710.500,A,4308.4669,N,07726.4325,W,2.63,278.15,171023,,,A*76
$GPGGA,171710.750,4308.4670,N,07726.4327,W,1,06,1.54,158.7,M,-34.4,M,,*52
$GPRMC,171711.000,A,4308.4670,N,07726.4331,W,4.03,277.21,171023,,,A*77
$GPGGA,171711.250,4308.4671,N,07726.4335,W,1,06,1.81,158.6,M,-34.4,M,,*5D
$GPRMC,171711.500,A,4308.4671,N,07726.4340,W,5.36,278.03,171023,,,A*7D
$GPGGA,171711.750,4308.4672,N,07726.4345,W,1,06,1.81,158.6,M,-34.4,M,,*5C
$GPRMC,171712.000,A,4308.4673,N,07726.4351,W,6.48,280.47,171023,,,A*74
$GPGGA,171712.250,4308.4674,N,07726.4358,W,1,06,1.81,158.6,M,-34.4,M,,*50
$GPRMC,171712.500,A,4308.4674,N,07726.4365,W,8.10,276.55,171023,,,A*78
$GPGGA,171712.750,4308.4675,N,07726.4373,W,1,06,1.81,158.6,M,-34.4,M,,*5D
$GPRMC,171713.000,A,4308.4677,N,07726.4382,W,9.51,280.87,171023,,,A*74
$GPGGA,171713.250,4308.4678,N,07726.4391,W,1,06,1.81,158.6,M,-34.4,M,,*58
$GPRMC,171713.500,A,4308.4679,N,07726.4401,W,10.89,281.87,171023,,,A*4F
$GPGGA,171713.750,4308.4680,N,07726.4412,W,1,06,1.81,158.6,M,-34.4,M,,*56
$GPRMC,171714.000,A,4308.4682,N,07726.4423,W,12.22,279.41,171023,,,A*47
$GPGGA,171714.250,4308.4683,N,07726.4435,W,1,06,1.81,158.5,M,-34.4,M,,*51
$GPRMC,171714.500,A,4308.4685,N,07726.4448,W,13.31,279.99,171023,,,A*4E
$GPGGA,171714.750,4308.4687,N,07726.4460,W,1,06,1.81,158.5,M,-34.4,M,,*50
$GPRMC,171715.000,A,4308.4688,N,07726.4474,W,14.68,280.52,171023,,,A*42
$GPGGA,171715.250,4308.4691,N,07726.4488,W,1,06,1.81,158.5,M,-34.4,M,,*55
$GPRMC,171715.500,A,4308.4693,N,07726.4502,W,15.59,280.92,171023,,,A*42
$GPGGA,171715.750,4308.4695,N,07726.4517,W,1,06,1.81,158.6,M,-34.4,M,,*50
$GPRMC,171716.000,A,4308.4696,N,07726.4533,W,17.21,281.03,171023,,,A*47
$GPGGA,171716.250,4308.4699,N,07726.4549,W,1,06,1.81,158.7,M,-34.4,M,,*50
$GPRMC,171716.500,A,4308.4700,N,07726.4566,W,17.81,276.79,171023,,,A*43
$GPGGA,171716.750,4308.4703,N,07726.4584,W,1,06,1.81,158.6,M,-34.4,M,,*57
$GPRMC,171717.000,A,4308.4704,N,07726.4602,W,19.53,277.77,171023,,,A*4C
$GPGGA,171717.250,4308.4706,N,07726.4621,W,1,06,1.81,158.6,M,-34.4,M,,*5A
$GPRMC,171717.500,A,4308.4708,N,07726.4640,W,20.95,277.67,171023,,,A*42
$GPGGA,171717.750,4308.4709,N,07726.4660,W,1,06,1.81,158.6,M,-34.4,M,,*55
$GPRMC,171718.000,A,4308.4711,N,07726.4681,W,21.90,278.44,171023,,,A*47
$GPGGA,171718.250,4308.4712,N,07726.4702,W,1,06,1.81,158.6,M,-34.4,M,,*50
$GPRMC,171718.500,A,4308.4713,N,07726.4724,W,23.18,277.11,171023,,,A*43
$GPGGA,171718.750,4308.4715,N,07726.4746,W,1,06,1.81,158.7,M,-34.4,M,,*53
$GPRMC,171719.000,A,4308.4717,N,07726.4768,W,24.32,276.47,171023,,,A*46
$GPGGA,171719.250,4308.4719,N,07726.4792,W,1,06,1.81,159.0,M,-34.4,M,,*54
$GPRMC,171719.500,A,4308.4721,N,07726.4816,W,25.41,276.28,171023,,,A*4C
$GPGGA,171719.750,4308.4723,N,07726.4840,W,1,06,1.81,159.1,M,-34.4,M,,*59
$GPRMC,171720.000,A,4308.4725,N,07726.4865,W,26.26,276.43,171023,,,A*4C
$GPGGA,171720.250,4308.4727,N,07726.4890,W,1,06,1.81,159.3,M,-34.4,M,,*5D
$GPRMC,171720.500,A,4308.4729,N,07726.4915,W,26.59,275.62,171023,,,A*4B
$GPGGA,171720.750,4308.4731,N,07726.4941,W,1,06,1.81,159.4,M,-34.4,M,,*55
$GPRMC,171721.000,A,4308.4732,N,07726.4967,W,27.42,275.22,171023,,,A*4F
$GPGGA,171721.250,4308.4734,N,07726.4993,W,1,06,1.81,159.6,M,-34.4,M,,*59
$GPRMC,171721.500,A,4308.4736,N,07726.5020,W,27.99,274.81,171023,,,A*4B
$GPGGA,171721.750,4308.4737,N,07726.5046,W,1,06,1.81,159.7,M,-34.4,M,,*5E
$GPRMC,171722.000,A,4308.4739,N,07726.5073,W,28.38,275.02,171023,,,A*4A
$GPGGA,171722.250,4308.4740,N,07726.5101,W,1,06,1.81,159.9,M,-34.4,M,,*54
$GPRMC,171722.500,A,4308.4742,N,07726.5128,W,28.63,274.81,171023,,,A*48
$GPGGA,171722.750,4308.4744,N,07726.5155,W,1,06,1.81,159.9,M,-34.4,M,,*54
$GPRMC,171723.000,A,4308.4745,N,07726.5182,W,28.84,274.91,171023,,,A*43
$GPGGA,171723.250,4308.4747,N,07726.5210,W,1,06,1.81,160.0,M,-34.4,M,,*52
$GPRMC,171723.500,A,4308.4749,N,07726.5238,W,29.00,274.13,171023,,,A*4F
$GPGGA,171723.750,4308.4750,N,07726.5266,W,1,06,1.81,160.0,M,-34.4,M,,*50
$GPRMC,171724.000,A,4308.4752,N,07726.5294,W,29.18,274.27,171023,,,A*4F
$GPGGA,171724.250,4308.4753,N,07726.5322,W,1,06,1.81,160.0,M,-34.4,M,,*50
$GPRMC,171724.500,A,4308.4754,N,07726.5351,W,29.74,273.70,171023,,,A*4B
$GPGGA,171724.750,4308.4756,N,07726.5379,W,1,06,1.81,160.0,M,-34.4,M,,*5E
$GPRMC,171725.000,A,4308.4757,N,07726.5407,W,29.87,273.25,171023,,,A*44
$GPGGA,171725.250,4308.4758,N,07726.5436,W,1,06,1.81,160.1,M,-34.4,M,,*59
$GPRMC,171725.500,A,4308.4759,N,07726.5465,W,30.00,273.33,171023,,,A*4B
$GPGGA,171725.750,4308.4760,N,07726.5493,W,1,06,1.81,160.1,M,-34.4,M,,*58
$GPRMC,171726.000,A,4308.4762,N,07726.5522,W,30.44,273.72,171023,,,A*42
$GPGGA,171726.250,4308.4763,N,07726.5551,W,1,06,1.81,160.2,M,-34.4,M,,*51
$GPRMC,171726.500,A,4308.4764,N,07726.5580,W,30.67,273.56,171023,,,A*4E
$GPGGA,171726.750,4308.4766,N,07726.5609,W,1,06,1.81,160.2,M,-34.4,M,,*5F
$GPRMC,171727.000,A,4308.4767,N,07726.5638,W,30.54,273.53,171023,,,A*4C
$GPGGA,171727.250,4308.4768,N,07726.5667,W,1,06,1.81,160.2,M,-34.4,M,,*5D
$GPRMC,171727.500,A,4308.4770,N,07726.5697,W,30.45,273.37,171023,,,A*48
$GPGGA,171727.750,4308.4771,N,07726.5726,W,1,06,1.81,160.2,M,-34.4,M,,*54
$GPRMC,171728.000,A,4308.4772,N,07726.5755,W,30.24,273.62,171023,,,A*48
$GPGGA,171728.250,4308.4774,N,07726.5784,W,1,06,1.81,160.1,M,-34.4,M,,*50
$GPRMC,171728.500,A,4308.4775,N,07726.5813,W,30.22,273.38,171023,,,A*4E
$GPGGA,171728.750,4308.4776,N,07726.5842,W,1,06,1.81,160.2,M,-34.4,M,,*51
$GPRMC,171729.000,A,4308.4777,N,07726.5870,W,29.96,273.01,171023,,,A*40
$GPGGA,171729.250,4308.4778,N,07726.5899,W,1,06,1.81,160.3,M,-34.4,M,,*5C
$GPRMC,171729.500,A,4308.4779,N,07726.5927,W,29.61,272.03,171023,,,A*43
$GPGGA,171729.750,4308.4780,N,07726.5955,W,1,06,1.81,160.3,M,-34.4,M,,*5F
$GPRMC,171730.000,A,4308.4780,N,07726.5983,W,29.34,271.24,171023,,,A*40
$GPGGA,171730.250,4308.4780,N,07726.6011,W,1,06,1.81,160.4,M,-34.4,M,,*5F
$GPRMC,171730.500,A,4308.4781,N,07726.6039,W,29.09,270.86,171023,,,A*48
$GPGGA,171730.750,4308.4781,N,07726.6067,W,1,06,1.54,160.5,M,-34.4,M,,*53
$GPRMC,171731.000,A,4308.4781,N,07726.6095,W,28.90,270.19,171023,,,A*4D
$GPGGA,171731.250,4308.4781,N,07726.6122,W,1,06,1.81,160.6,M,-34.4,M,,*5C
$GPRMC,171731.500,A,4308.4780,N,07726.6149,W,28.76,270.22,171023,,,A*49
$GPGGA,171731.750,4308.4780,N,07726.6176,W,1,06,1.54,160.8,M,-34.4,M,,*5F
$GPRMC,171732.000,A,4308.4780,N,07726.6203,W,28.07,270.28,171023,,,A*4E
$GPGGA,171732.250,4308.4780,N,07726.6230,W,1,06,1.81,161.1,M,-34.4,M,,*58
$GPRMC,171732.500,A,4308.4780,N,07726.6256,W,27.74,270.55,171023,,,A*4A
$GPGGA,171732.750,4308.4780,N,07726.6283,W,1,06,1.54,161.4,M,-34.4,M,,*58
$GPRMC,171733.000,A,4308.4780,N,07726.6309,W,27.46,270.74,171023,,,A*47
$GPGGA,171733.250,4308.4781,N,07726.6335,W,1,06,1.54,161.6,M,-34.4,M,,*53
$GPRMC,171733.500,A,4308.4781,N,07726.6361,W,27.16,271.28,171023,,,A*40
$GPGGA,171733.750,4308.4782,N,07726.6387,W,1,06,1.54,161.8,M,-34.4,M,,*52
$GPRMC,171734.000,A,4308.4782,N,07726.6413,W,26.99,271.34,171023,,,A*48
$GPGGA,171734.250,4308.4783,N,07726.6438,W,1,06,1.81,162.1,M,-34.4,M,,*50
$GPRMC,171734.500,A,4308.4784,N,07726.6464,W,27.20,271.52,171023,,,A*48
$GPGGA,171734.750,4308.4783,N,07726.6491,W,1,06,1.81,162.4,M,-34.4,M,,*53
$GPRMC,171735.000,A,4308.4783,N,07726.6518,W,27.92,269.89,171023,,,A*47
$GPGGA,171735.250,4308.4783,N,07726.6545,W,1,06,1.81,162.6,M,-34.4,M,,*5D
$GPRMC,171735.500,A,4308.4782,N,07726.6572,W,28.44,268.51,171023,,,A*4F
$GPGGA,171735.750,4308.4781,N,07726.6599,W,1,06,1.81,162.8,M,-34.4,M,,*55
$GPRMC,171736.000,A,4308.4780,N,07726.6627,W,29.04,267.10,171023,,,A*47
$GPGGA,171736.250,4308.4778,N,07726.6655,W,1,06,1.81,163.0,M,-34.4,M,,*5F
$GPRMC,171736.500,A,4308.4777,N,07726.6683,W,29.70,266.10,171023,,,A*46
$GPGGA,171736.750,4308.4776,N,07726.6712,W,1,06,1.81,163.2,M,-34.4,M,,*54
$GPRMC,171737.000,A,4308.4774,N,07726.6740,W,30.21,265.55,171023,,,A*41
$GPGGA,171737.250,4308.4773,N,07726.6769,W,1,06,1.81,163.4,M,-34.4,M,,*5F
$GPRMC,171737.500,A,4308.4772,N,07726.6799,W,30.77,265.98,171023,,,A*44
$GPGGA,171737.750,4308.4771,N,07726.6828,W,1,06,1.81,163.5,M,-34.4,M,,*53
$GPRMC,171738.000,A,4308.4770,N,07726.6857,W,30.88,266.85,171023,,,A*4E
$GPGGA,171738.250,4308.4769,N,07726.6887,W,1,06,1.81,163.6,M,-34.4,M,,*56
$GPRMC,171738.500,A,4308.4768,N,07726.6916,W,31.03,266.48,171023,,,A*45
$GPGGA,171738.750,4308.4766,N,07726.6946,W,1,06,1.81,163.7,M,-34.4,M,,*51
$GPRMC,171739.000,A,4308.4765,N,07726.6975,W,31.23,267.13,171023,,,A*44
$GPGGA,171739.250,4308.4764,N,07726.7005,W,1,06,1.81,163.9,M,-34.4,M,,*56
$GPRMC,171739.500,A,4308.4762,N,07726.7035,W,31.25,267.10,171023,,,A*4F
$GPGGA,171739.750,4308.4760,N,07726.7065,W,1,06,1.54,164.2,M,-34.4,M,,*55
$GPRMC,171740.000,A,4308.4759,N,07726.7095,W,31.20,267.00,171023,,,A*42
$GPGGA,171740.250,4308.4757,N,07726.7126,W,1,06,1.81,163.9,M,-34.4,M,,*58
$GPRMC,171740.500,A,4308.4755,N,07726.7156,W,31.41,267.05,171023,,,A*47
$GPGGA,171740.750,4308.4753,N,07726.7187,W,1,06,1.81,163.9,M,-34.4,M,,*52
$GPRMC,171741.000,A,4308.4751,N,07726.7217,W,31.65,266.24,171023,,,A*45
$GPGGA,171741.250,4308.4749,N,07726.7248,W,1,06,1.81,163.9,M,-34.4,M,,*5D
$GPRMC,171741.500,A,4308.4747,N,07726.7278,W,31.91,265.71,171023,,,A*46
$GPGGA,171741.750,4308.4745,N,07726.7309,W,1,06,1.81,164.0,M,-34.4,M,,*5E
$GPRMC,171742.000,A,4308.4743,N,07726.7339,W,31.84,266.13,171023,,,A*43
$GPGGA,171742.250,4308.4742,N,07726.7369,W,1,06,1.81,164.2,M,-34.4,M,,*5B
$GPRMC,171742.500,A,4308.4740,N,07726.7399,W,31.82,265.77,171023,,,A*48
$GPGGA,171742.750,4308.4738,N,07726.7430,W,1,06,1.54,164.4,M,-34.4,M,,*56
$GPRMC,171743.000,A,4308.4736,N,07726.7460,W,32.05,265.54,171023,,,A*41
$GPGGA,171743.250,4308.4734,N,07726.7491,W,1,06,1.81,164.7,M,-34.4,M,,*5E
$GPRMC,171743.500,A,4308.4732,N,07726.7521,W,32.13,265.16,171023,,,A*45
$GPGGA,171743.750,4308.4730,N,07726.7552,W,1,06,1.54,164.9,M,-34.4,M,,*57
$GPRMC,171744.000,A,4308.4728,N,07726.7582,W,32.07,264.77,171023,,,A*46
$GPGGA,171744.250,4308.4726,N,07726.7612,W,1,06,1.81,165.2,M,-34.4,M,,*57
$GPRMC,171744.500,A,4308.4725,N,07726.7642,W,31.61,265.11,171023,,,A*43
$GPGGA,171744.750,4308.4723,N,07726.7672,W,1,06,1.54,165.4,M,-34.4,M,,*5F
$GPRMC,171745.000,A,4308.4721,N,07726.7701,W,31.57,264.47,171023,,,A*42
$GPGGA,171745.250,4308.4720,N,07726.7730,W,1,06,1.81,165.6,M,-34.4,M,,*55
$GPRMC,171745.500,A,4308.4719,N,07726.7759,W,30.81,265.16,171023,,,A*4E
$GPGGA,171745.750,4308.4717,N,07726.7787,W,1,06,1.81,165.8,M,-34.4,M,,*56
$GPRMC,171746.000,A,4308.4716,N,07726.7816,W,30.70,264.61,171023,,,A*4C
$GPGGA,171746.250,4308.4714,N,07726.7846,W,1,06,1.81,165.8,M,-34.4,M,,*51
$GPRMC,171746.500,A,4308.4713,N,07726.7875,W,31.02,264.90,171023,,,A*43
$GPGGA,171746.750,4308.4712,N,07726.7904,W,1,06,1.54,165.7,M,-34.4,M,,*52
$GPRMC,171747.000,A,4308.4710,N,07726.7934,W,31.15,265.09,171023,,,A*47
$GPGGA,171747.250,4308.4708,N,07726.7965,W,1,06,1.81,165.6,M,-34.4,M,,*53
$GPRMC,171747.500,A,4308.4706,N,07726.7995,W,31.46,265.05,171023,,,A*44
$GPGGA,171747.750,4308.4703,N,07726.8026,W,1,06,1.81,165.5,M,-34.4,M,,*5F
$GPRMC,171748.000,A,4308.4702,N,07726.8057,W,32.54,265.38,171023,,,A*4C
$GPGGA,171748.250,4308.4701,N,07726.8087,W,1,06,1.81,165.4,M,-34.4,M,,*5D
$GPRMC,171748.500,A,4308.4699,N,07726.8119,W,32.61,266.25,171023,,,A*48
$GPGGA,171748.750,4308.4698,N,07726.8150,W,1,06,1.81,165.2,M,-34.4,M,,*54
$GPRMC,171749.000,A,4308.4696,N,07726.8181,W,32.73,266.07,171023,,,A*41
$GPGGA,171749.250,4308.4694,N,07726.8212,W,1,06,1.81,165.2,M,-34.4,M,,*59
$GPRMC,171749.500,A,4308.4692,N,07726.8243,W,32.54,265.56,171023,,,A*4F
$GPGGA,171749.750,4308.4690,N,07726.8274,W,1,06,1.81,165.1,M,-34.4,M,,*5B
$GPRMC,171750.000,A,4308.4688,N,07726.8305,W,32.46,264.92,171023,,,A*40
$GPGGA,171750.250,4308.4685,N,07726.8336,W,1,06,1.81,165.0,M,-34.4,M,,*54
$GPRMC,171750.500,A,4308.4683,N,07726.8366,W,32.45,263.79,171023,,,A*4A
$GPGGA,171750.750,4308.4681,N,07726.8397,W,1,06,1.81,165.0,M,-34.4,M,,*5E
$GPRMC,171751.000,A,4308.4679,N,07726.8427,W,32.10,265.37,171023,,,A*45
$GPGGA,171751.250,4308.4678,N,07726.8457,W,1,06,1.81,165.0,M,-34.4,M,,*57
$GPRMC,171751.500,A,4308.4676,N,07726.8487,W,31.84,266.07,171023,,,A*4B
$GPGGA,171751.750,4308.4674,N,07726.8518,W,1,06,1.81,164.9,M,-34.4,M,,*5C
$GPRMC,171752.000,A,4308.4673,N,07726.8548,W,32.39,265.70,171023,,,A*4C
$GPGGA,171752.250,4308.4671,N,07726.8579,W,1,06,1.81,164.9,M,-34.4,M,,*58
$GPRMC,171752.500,A,4308.4670,N,07726.8609,W,32.28,265.32,171023,,,A*4A
$GPGGA,171752.750,4308.4668,N,07726.8640,W,1,06,1.81,164.7,M,-34.4,M,,*52
$GPRMC,171753.000,A,4308.4666,N,07726.8671,W,32.14,265.18,171023,,,A*41
$GPGGA,171753.250,4308.4664,N,07726.8701,W,1,06,1.81,164.4,M,-34.4,M,,*5D
$GPRMC,171753.500,A,4308.4662,N,07726.8731,W,31.87,265.12,171023,,,A*46
$GPGGA,171753.750,4308.4660,N,07726.8762,W,1,06,1.81,164.2,M,-34.4,M,,*5F
$GPRMC,171754.000,A,4308.4658,N,07726.8792,W,31.65,264.81,171023,,,A*43
$GPGGA,171754.250,4308.4656,N,07726.8821,W,1,06,1.81,164.0,M,-34.4,M,,*52
$GPRMC,171754.500,A,4308.4654,N,07726.8851,W,31.40,265.06,171023,,,A*43
$GPGGA,171754.750,4308.4653,N,07726.8881,W,1,06,1.81,163.7,M,-34.4,M,,*58
$GPRMC,171755.000,A,4308.4651,N,07726.8911,W,31.16,265.05,171023,,,A*47
$GPGGA,171755.250,4308.4649,N,07726.8940,W,1,06,1.81,163.5,M,-34.4,M,,*59
$GPRMC,171755.500,A,4308.4647,N,07726.8970,W,30.96,264.95,171023,,,A*43
$GPGGA,171755.750,4308.4645,N,07726.8999,W,1,06,1.81,163.4,M,-34.4,M,,*55
$GPRMC,171756.000,A,4308.4643,N,07726.9029,W,31.23,264.60,171023,,,A*40
$GPGGA,171756.250,4308.4641,N,07726.9058,W,1,06,1.81,163.3,M,-34.4,M,,*55
$GPRMC,171756.500,A,4308.4640,N,07726.9087,W,31.29,264.75,171023,,,A*4C
$GPGGA,171756.750,4308.4638,N,07726.9117,W,1,06,1.81,163.2,M,-34.4,M,,*55
$GPRMC,171757.000,A,4308.4635,N,07726.9147,W,31.78,263.99,171023,,,A*46
$GPGGA,171757.250,4308.4633,N,07726.9177,W,1,06,1.81,163.0,M,-34.4,M,,*5E
$GPRMC,171757.500,A,4308.4631,N,07726.9207,W,31.54,264.49,171023,,,A*44
$GPGGA,171757.750,4308.4629,N,07726.9236,W,1,06,1.81,162.9,M,-34.4,M,,*5E
$GPRMC,171758.000,A,4308.4627,N,07726.9266,W,31.76,264.38,171023,,,A*48
$GPGGA,171758.250,4308.4625,N,07726.9296,W,1,06,1.81,162.7,M,-34.4,M,,*5C
$GPRMC,171758.500,A,4308.4623,N,07726.9326,W,31.61,264.88,171023,,,A*41
$GPGGA,171758.750,4308.4621,N,07726.9356,W,1,06,1.81,162.4,M,-34.4,M,,*53
$GPRMC,171759.000,A,4308.4619,N,07726.9386,W,31.55,264.98,171023,,,A*40
$GPGGA,171759.250,4308.4618,N,07726.9416,W,1,06,1.81,162.1,M,-34.4,M,,*5B
$GPRMC,171759.500,A,4308.4616,N,07726.9446,W,31.74,265.17,171023,,,A*44
$GPGGA,171759.750,4308.4614,N,07726.9476,W,1,06,1.81,161.8,M,-34.4,M,,*5E
$GPRMC,171800.000,A,4308.4612,N,07726.9506,W,32.01,264.88,171023,,,A*45
$GPGGA,171800.250,4308.4610,N,07726.9536,W,1,06,1.81,161.6,M,-34.4,M,,*57
$GPRMC,171800.500,A,4308.4609,N,07726.9567,W,32.02,265.84,171023,,,A*43
$GPGGA,171800.750,4308.4607,N,07726.9597,W,1,06,1.81,161.3,M,-34.4,M,,*5A
$GPRMC,171801.000,A,4308.4605,N,07726.9628,W,32.15,265.45,171023,,,A*48
$GPGGA,171801.250,4308.4603,N,07726.9659,W,1,06,1.81,161.1,M,-34.4,M,,*59
$GPRMC,171801.500,A,4308.4601,N,07726.9690,W,32.27,265.33,171023,,,A*4A
$GPGGA,171801.750,4308.4599,N,07726.9721,W,1,06,1.81,160.9,M,-34.4,M,,*5B
$GPRMC,171802.000,A,4308.4597,N,07726.9752,W,33.38,265.12,171023,,,A*43
$GPGGA,171802.250,4308.4595,N,07726.9784,W,1,06,1.81,160.8,M,-34.4,M,,*5F
$GPRMC,171802.500,A,4308.4593,N,07726.9815,W,33.66,265.45,171023,,,A*47
$GPGGA,171802.750,4308.4591,N,07726.9847,W,1,06,1.81,160.6,M,-34.4,M,,*50
$GPRMC,171803.000,A,4308.4589,N,07726.9879,W,33.97,265.51,171023,,,A*49
$GPGGA,171803.250,4308.4587,N,07726.9911,W,1,06,1.81,160.5,M,-34.4,M,,*52
$GPRMC,171803.500,A,4308.4584,N,07726.9943,W,34.42,264.89,171023,,,A*42
$GPGGA,171803.750,4308.4582,N,07726.9976,W,1,06,1.81,160.3,M,-34.4,M,,*55
$GPRMC,171804.000,A,4308.4580,N,07727.0008,W,34.86,264.04,171023,,,A*47
$GPGGA,171804.250,4308.4579,N,07727.0041,W,1,06,1.81,160.2,M,-34.4,M,,*57
$GPRMC,171804.500,A,4308.4577,N,07727.0074,W,35.01,264.91,171023,,,A*43
$GPGGA,171804.750,4308.4575,N,07727.0107,W,1,06,1.81,160.1,M,-34.4,M,,*5E
$GPRMC,171805.000,A,4308.4573,N,07727.0140,W,35.16,265.55,171023,,,A*4A
$GPGGA,171805.250,4308.4571,N,07727.0173,W,1,06,1.81,159.9,M,-34.4,M,,*5F
$GPRMC,171805.500,A,4308.4569,N,07727.0206,W,35.45,265.91,171023,,,A*4B
$GPGGA,171805.750,4308.4567,N,07727.0240,W,1,06,1.81,159.8,M,-34.4,M,,*5F
$GPRMC,171806.000,A,4308.4566,N,07727.0273,W,35.47,266.29,171023,,,A*42
$GPGGA,171806.250,4308.4564,N,07727.0307,W,1,06,1.81,159.6,M,-34.4,M,,*56
$GPRMC,171806.500,A,4308.4563,N,07727.0340,W,35.19,267.27,171023,,,A*47
$GPGGA,171806.750,4308.4562,N,07727.0373,W,1,06,1.81,159.5,M,-34.4,M,,*55
$GPRMC,171807.000,A,4308.4562,N,07727.0406,W,34.73,268.03,171023,,,A*43
$GPGGA,171807.250,4308.4561,N,07727.0438,W,1,06,1.81,159.4,M,-34.4,M,,*5B
$GPRMC,171807.500,A,4308.4561,N,07727.0471,W,34.84,268.99,171023,,,A*4E
$GPGGA,171807.750,4308.4562,N,07727.0504,W,1,06,1.81,159.2,M,-34.4,M,,*55
$GPRMC,171808.000,A,4308.4562,N,07727.0537,W,34.80,271.05,171023,,,A*4D
$GPGGA,171808.250,4308.4562,N,07727.0569,W,1,06,1.81,159.0,M,-34.4,M,,*56
$GPRMC,171808.500,A,4308.4563,N,07727.0601,W,34.12,271.72,171023,,,A*44
$GPGGA,171808.750,4308.4563,N,07727.0634,W,1,06,1.81,159.0,M,-34.4,M,,*59
$GPRMC,171809.000,A,4308.4564,N,07727.0666,W,33.90,271.13,171023,,,A*4C
$GPGGA,171809.250,4308.4564,N,07727.0697,W,1,06,1.81,159.0,M,-34.4,M,,*53
$GPRMC,171809.500,A,4308.4565,N,07727.0729,W,33.33,271.87,171023,,,A*46
$GPGGA,171809.750,4308.4566,N,07727.0759,W,1,06,1.81,158.9,M,-34.4,M,,*5F
$GPRMC,171810.000,A,4308.4568,N,07727.0789,W,31.81,272.87,171023,,,A*44
$GPGGA,171810.250,4308.4569,N,07727.0819,W,1,06,1.81,158.9,M,-34.4,M,,*56
$GPRMC,171810.500,A,4308.4570,N,07727.0848,W,30.68,273.63,171023,,,A*47
$GPGGA,171810.750,4308.4572,N,07727.0876,W,1,06,1.81,158.8,M,-34.4,M,,*51
$GPRMC,171811.000,A,4308.4574,N,07727.0904,W,29.37,274.65,171023,,,A*4D
$GPGGA,171811.250,4308.4576,N,07727.0931,W,1,06,1.81,158.7,M,-34.4,M,,*5C
$GPRMC,171811.500,A,4308.4578,N,07727.0958,W,28.57,274.85,171023,,,A*44
$GPGGA,171811.750,4308.4580,N,07727.0985,W,1,06,1.81,158.7,M,-34.4,M,,*5F
$GPRMC,171812.000,A,4308.4582,N,07727.1011,W,27.72,276.89,171023,,,A*44
$GPGGA,171812.250,4308.4585,N,07727.1037,W,1,06,1.81,158.6,M,-34.4,M,,*5C
$GPRMC,171812.500,A,4308.4589,N,07727.1062,W,27.47,278.95,171023,,,A*4B
$GPGGA,171812.750,4308.4591,N,07727.1088,W,1,06,1.81,158.7,M,-34.4,M,,*59
$GPRMC,171813.000,A,4308.4594,N,07727.1114,W,27.44,278.24,171023,,,A*4A
$GPGGA,171813.250,4308.4598,N,07727.1139,W,1,06,1.81,158.7,M,-34.4,M,,*5F
$GPRMC,171813.500,A,4308.4601,N,07727.1165,W,27.10,278.61,171023,,,A*46
$GPGGA,171813.750,4308.4604,N,07727.1190,W,1,06,1.81,158.7,M,-34.4,M,,*5F
$GPRMC,171814.000,A,4308.4607,N,07727.1216,W,27.12,279.77,171023,,,A*41
$GPGGA,171814.250,4308.4610,N,07727.1241,W,1,06,1.81,158.8,M,-34.4,M,,*58
$GPRMC,171814.500,A,4308.4614,N,07727.1266,W,27.21,279.51,171023,,,A*45
$GPGGA,171814.750,4308.4617,N,07727.1292,W,1,06,1.81,158.7,M,-34.4,M,,*5B
$GPRMC,171815.000,A,4308.4620,N,07727.1317,W,27.39,278.96,171023,,,A*42
$GPGGA,171815.250,4308.4623,N,07727.1343,W,1,06,1.54,158.8,M,-34.4,M,,*52
$GPRMC,171815.500,A,4308.4626,N,07727.1369,W,27.59,278.86,171023,,,A*4F
$GPGGA,171815.750,4308.4629,N,07727.1395,W,1,06,1.53,158.6,M,-34.4,M,,*5F
$GPRMC,171816.000,A,4308.4632,N,07727.1422,W,27.88,278.63,171023,,,A*43
$GPGGA,171816.250,4308.4635,N,07727.1448,W,1,06,1.81,158.5,M,-34.4,M,,*5F
$GPRMC,171816.500,A,4308.4638,N,07727.1475,W,28.30,278.70,171023,,,A*40
$GPGGA,171816.750,4308.4641,N,07727.1502,W,1,06,1.81,158.5,M,-34.4,M,,*56
$GPRMC,171817.000,A,4308.4644,N,07727.1529,W,28.40,278.83,171023,,,A*4C
$GPGGA,171817.250,4308.4647,N,07727.1556,W,1,06,1.81,158.5,M,-34.4,M,,*55
$GPRMC,171817.500,A,4308.4651,N,07727.1583,W,28.60,279.11,171023,,,A*45
$GPGGA,171817.750,4308.4654,N,07727.1611,W,1,06,1.81,158.4,M,-34.4,M,,*53
$GPRMC,171818.000,A,4308.4657,N,07727.1638,W,28.77,279.19,171023,,,A*44
$GPGGA,171818.250,4308.4661,N,07727.1666,W,1,06,1.81,158.4,M,-34.4,M,,*5F
$GPRMC,171818.500,A,4308.4664,N,07727.1694,W,29.71,279.79,171023,,,A*46
$GPGGA,171818.750,4308.4668,N,07727.1722,W,1,06,1.81,158.4,M,-34.4,M,,*52
$GPRMC,171819.000,A,4308.4671,N,07727.1750,W,29.82,279.35,171023,,,A*4B
$GPGGA,171819.250,4308.4675,N,07727.1778,W,1,06,1.81,158.4,M,-34.4,M,,*55
$GPRMC,171819.500,A,4308.4678,N,07727.1807,W,30.18,279.22,171023,,,A*47
$GPGGA,171819.750,4308.4680,N,07727.1836,W,1,06,1.81,158.5,M,-34.4,M,,*5E
$GPRMC,171820.000,A,4308.4684,N,07727.1864,W,30.27,278.67,171023,,,A*42
$GPGGA,171820.250,4308.4687,N,07727.1893,W,1,06,1.81,158.6,M,-34.4,M,,*5A
$GPRMC,171820.500,A,4308.4691,N,07727.1921,W,30.48,280.06,171023,,,A*4A
$GPGGA,171820.750,4308.4695,N,07727.1950,W,1,06,1.81,158.7,M,-34.4,M,,*53
$GPRMC,171821.000,A,4308.4699,N,07727.1979,W,30.92,280.15,171023,,,A*4E
$GPGGA,171821.250,4308.4703,N,07727.2008,W,1,06,1.81,158.8,M,-34.4,M,,*51
$GPRMC,171821.500,A,4308.4706,N,07727.2038,W,31.26,279.51,171023,,,A*4B
$GPGGA,171821.750,4308.4710,N,07727.2067,W,1,06,1.53,158.9,M,-34.4,M,,*51
$GPRMC,171822.000,A,4308.4713,N,07727.2097,W,31.67,279.34,171023,,,A*4A
$GPGGA,171822.250,4308.4717,N,07727.2127,W,1,06,1.81,159.1,M,-34.4,M,,*53
$GPRMC,171822.500,A,4308.4721,N,07727.2157,W,31.77,279.68,171023,,,A*4B
$GPGGA,171822.750,4308.4724,N,07727.2187,W,1,06,1.81,159.3,M,-34.4,M,,*5E
$GPRMC,171823.000,A,4308.4728,N,07727.2216,W,31.92,280.00,171023,,,A*43
$GPGGA,171823.250,4308.4732,N,07727.2247,W,1,06,1.81,159.5,M,-34.4,M,,*54
$GPRMC,171823.500,A,4308.4736,N,07727.2277,W,32.12,280.36,171023,,,A*40
$GPGGA,171823.750,4308.4740,N,07727.2307,W,1,06,1.81,159.7,M,-34.4,M,,*53
$GPRMC,171824.000,A,4308.4744,N,07727.2337,W,32.05,281.00,171023,,,A*40
$GPGGA,171824.250,4308.4748,N,07727.2366,W,1,06,1.81,160.0,M,-34.4,M,,*53
$GPRMC,171824.500,A,4308.4752,N,07727.2396,W,32.07,281.17,171023,,,A*4D
$GPGGA,171824.750,4308.4756,N,07727.2425,W,1,06,1.81,160.3,M,-34.4,M,,*5A
$GPRMC,171825.000,A,4308.4760,N,07727.2453,W,31.03,281.47,171023,,,A*44
$GPGGA,171825.250,4308.4764,N,07727.2482,W,1,06,1.81,160.5,M,-34.4,M,,*54
$GPRMC,171825.500,A,4308.4768,N,07727.2512,W,31.21,280.20,171023,,,A*4D
$GPGGA,171825.750,4308.4772,N,07727.2541,W,1,06,1.81,160.7,M,-34.4,M,,*5A
$GPRMC,171826.000,A,4308.4775,N,07727.2571,W,31.57,279.74,171023,,,A*44
$GPGGA,171826.250,4308.4780,N,07727.2600,W,1,06,1.81,160.9,M,-34.4,M,,*59
$GPRMC,171826.500,A,4308.4783,N,07727.2630,W,31.64,278.94,171023,,,A*41
$GPGGA,171826.750,4308.4787,N,07727.2660,W,1,06,1.81,161.0,M,-34.4,M,,*55
$GPRMC,171827.000,A,4308.4791,N,07727.2689,W,31.31,278.87,171023,,,A*46
$GPGGA,171827.250,4308.4794,N,07727.2718,W,1,06,1.81,161.0,M,-34.4,M,,*5D
$GPRMC,171827.500,A,4308.4797,N,07727.2747,W,31.16,279.18,171023,,,A*44
$GPGGA,171827.750,4308.4801,N,07727.2776,W,1,06,1.81,161.0,M,-34.4,M,,*53
$GPRMC,171828.000,A,4308.4805,N,07727.2805,W,30.98,280.11,171023,,,A*4B
$GPGGA,171828.250,4308.4809,N,07727.2833,W,1,06,1.81,161.1,M,-34.4,M,,*5E
$GPRMC,171828.500,A,4308.4813,N,07727.2861,W,30.19,279.98,171023,,,A*45
$GPGGA,171828.750,4308.4817,N,07727.2890,W,1,06,1.81,161.0,M,-34.4,M,,*5C
$GPRMC,171829.000,A,4308.4820,N,07727.2918,W,29.90,279.27,171023,,,A*43
$GPGGA,171829.250,4308.4824,N,07727.2946,W,1,06,1.81,161.0,M,-34.4,M,,*52
$GPRMC,171829.500,A,4308.4827,N,07727.2974,W,29.71,279.33,171023,,,A*41
$GPGGA,171829.750,4308.4830,N,07727.3002,W,1,06,1.81,160.7,M,-34.4,M,,*5C
$GPRMC,171830.000,A,4308.4833,N,07727.3029,W,29.54,279.33,171023,,,A*4E
$GPGGA,171830.250,4308.4836,N,07727.3056,W,1,06,1.81,160.7,M,-34.4,M,,*56
$GPRMC,171830.500,A,4308.4840,N,07727.3084,W,29.27,279.36,171023,,,A*49
$GPGGA,171830.750,4308.4843,N,07727.3111,W,1,06,1.81,160.8,M,-34.4,M,,*5C
$GPRMC,171831.000,A,4308.4847,N,07727.3139,W,29.21,279.39,171023,,,A*44
$GPGGA,171831.250,4308.4850,N,07727.3167,W,1,06,1.81,160.7,M,-34.4,M,,*54
$GPRMC,171831.500,A,4308.4854,N,07727.3195,W,29.26,279.52,171023,,,A*4F
$GPGGA,171831.750,4308.4857,N,07727.3223,W,1,06,1.81,160.7,M,-34.4,M,,*55
$GPRMC,171832.000,A,4308.4860,N,07727.3251,W,29.80,279.07,171023,,,A*49
$GPGGA,171832.250,4308.4864,N,07727.3279,W,1,06,1.81,160.8,M,-34.4,M,,*53
$GPRMC,171832.500,A,4308.4867,N,07727.3306,W,29.57,279.18,171023,,,A*4C
$GPGGA,171832.750,4308.4870,N,07727.3334,W,1,06,1.81,160.7,M,-34.4,M,,*54
$GPRMC,171833.000,A,4308.4874,N,07727.3361,W,29.41,279.03,171023,,,A*46
$GPGGA,171833.250,4308.4877,N,07727.3389,W,1,06,1.81,160.6,M,-34.4,M,,*50
$GPRMC,171833.500,A,4308.4880,N,07727.3416,W,29.09,279.32,171023,,,A*41
$GPGGA,171833.750,4308.4884,N,07727.3443,W,1,06,1.81,160.6,M,-34.4,M,,*58
$GPRMC,171834.000,A,4308.4887,N,07727.3470,W,28.87,279.38,171023,,,A*49
$GPGGA,171834.250,4308.4890,N,07727.3497,W,1,06,1.81,160.5,M,-34.4,M,,*55
$GPRMC,171834.500,A,4308.4894,N,07727.3524,W,28.65,279.54,171023,,,A*48
$GPGGA,171834.750,4308.4897,N,07727.3551,W,1,06,1.81,160.4,M,-34.4,M,,*5D
$GPRMC,171835.000,A,4308.4900,N,07727.3578,W,28.38,279.25,171023,,,A*47
$GPGGA,171835.250,4308.4903,N,07727.3604,W,1,06,1.81,160.3,M,-34.4,M,,*51
$GPRMC,171835.500,A,4308.4907,N,07727.3631,W,28.42,279.71,171023,,,A*47
$GPGGA,171835.750,4308.4910,N,07727.3657,W,1,06,1.81,160.3,M,-34.4,M,,*50
$GPRMC,171836.000,A,4308.4913,N,07727.3684,W,28.20,279.73,171023,,,A*4C
$GPGGA,171836.250,4308.4916,N,07727.3710,W,1,06,1.81,160.3,M,-34.4,M,,*52
$GPRMC,171836.500,A,4308.4920,N,07727.3736,W,27.75,279.33,171023,,,A*4A
$GPGGA,171836.750,4308.4923,N,07727.3762,W,1,06,1.81,160.2,M,-34.4,M,,*55
$GPRMC,171837.000,A,4308.4926,N,07727.3788,W,27.51,279.37,171023,,,A*4F
$GPGGA,171837.250,4308.4929,N,07727.3814,W,1,06,1.81,160.2,M,-34.4,M,,*55
$GPRMC,171837.500,A,4308.4932,N,07727.3840,W,27.40,279.00,171023,,,A*40
$GPGGA,171837.750,4308.4935,N,07727.3865,W,1,06,1.81,160.2,M,-34.4,M,,*5B
$GPRMC,171838.000,A,4308.4938,N,07727.3891,W,27.26,279.74,171023,,,A*4F
$GPGGA,171838.250,4308.4941,N,07727.3916,W,1,06,1.81,160.1,M,-34.4,M,,*54
$GPRMC,171838.500,A,4308.4944,N,07727.3942,W,27.47,279.65,171023,,,A*49
$GPGGA,171838.750,4308.4947,N,07727.3968,W,1,06,1.81,160.1,M,-34.4,M,,*5E
$GPRMC,171839.000,A,4308.4950,N,07727.3993,W,27.55,279.53,171023,,,A*42
$GPGGA,171839.250,4308.4953,N,07727.4019,W,1,06,1.81,160.1,M,-34.4,M,,*57
$GPRMC,171839.500,A,4308.4957,N,07727.4045,W,27.83,280.45,171023,,,A*4F
$GPGGA,171839.750,4308.4960,N,07727.4071,W,1,06,1.81,160.1,M,-34.4,M,,*5C
$GPRMC,171840.000,A,4308.4963,N,07727.4097,W,27.91,280.59,171023,,,A*42
$GPGGA,171840.250,4308.4966,N,07727.4124,W,1,06,1.81,160.1,M,-34.4,M,,*50
$GPRMC,171840.500,A,4308.4969,N,07727.4150,W,28.04,279.87,171023,,,A*41
$GPGGA,171840.750,4308.4972,N,07727.4177,W,1,06,1.81,160.2,M,-34.4,M,,*55
$GPRMC,171841.000,A,4308.4975,N,07727.4203,W,28.15,279.41,171023,,,A*47
$GPGGA,171841.250,4308.4979,N,07727.4230,W,1,06,1.81,160.3,M,-34.4,M,,*5B
$GPRMC,171841.500,A,4308.4982,N,07727.4258,W,28.28,279.69,171023,,,A*40
$GPGGA,171841.750,4308.4985,N,07727.4285,W,1,06,1.81,160.4,M,-34.4,M,,*54
$GPRMC,171842.000,A,4308.4988,N,07727.4312,W,29.31,279.07,171023,,,A*42
$GPGGA,171842.250,4308.4991,N,07727.4340,W,1,06,1.81,160.4,M,-34.4,M,,*5F
$GPRMC,171842.500,A,4308.4995,N,07727.4368,W,29.42,279.32,171023,,,A*44
$GPGGA,171842.750,4308.4998,N,07727.4397,W,1,06,1.81,160.5,M,-34.4,M,,*58
$GPRMC,171843.000,A,4308.5001,N,07727.4425,W,29.81,279.23,171023,,,A*44
$GPGGA,171843.250,4308.5004,N,07727.4453,W,1,06,1.81,160.7,M,-34.4,M,,*5C
$GPRMC,171843.500,A,4308.5008,N,07727.4480,W,29.30,280.22,171023,,,A*4A
$GPGGA,171843.750,4308.5011,N,07727.4508,W,1,06,1.81,160.9,M,-34.4,M,,*5C
$GPRMC,171844.000,A,4308.5014,N,07727.4535,W,29.31,279.83,171023,,,A*46
$GPGGA,171844.250,4308.5017,N,07727.4562,W,1,06,1.53,160.9,M,-34.4,M,,*5B
$GPRMC,171844.500,A,4308.5021,N,07727.4589,W,29.06,280.48,171023,,,A*47
$GPGGA,171844.750,4308.5025,N,07727.4616,W,1,06,1.81,161.1,M,-34.4,M,,*59
$GPRMC,171845.000,A,4308.5029,N,07727.4643,W,28.60,281.72,171023,,,A*47
$GPGGA,171845.250,4308.5033,N,07727.4669,W,1,06,1.81,161.3,M,-34.4,M,,*50
$GPRMC,171845.500,A,4308.5037,N,07727.4695,W,28.07,281.88,171023,,,A*42
$GPGGA,171845.750,4308.5040,N,07727.4721,W,1,06,1.81,161.5,M,-34.4,M,,*5A
$GPRMC,171846.000,A,4308.5043,N,07727.4748,W,27.83,280.47,171023,,,A*47
$GPGGA,171846.250,4308.5047,N,07727.4774,W,1,06,1.81,161.7,M,-34.4,M,,*59
$GPRMC,171846.500,A,4308.5050,N,07727.4800,W,27.72,279.77,171023,,,A*48
$GPGGA,171846.750,4308.5054,N,07727.4825,W,1,06,1.81,162.0,M,-34.4,M,,*51
$GPRMC,171847.000,A,4308.5057,N,07727.4851,W,27.46,279.62,171023,,,A*4C
$GPGGA,171847.250,4308.5060,N,07727.4877,W,1,06,1.81,162.1,M,-34.4,M,,*54
$GPRMC,171847.500,A,4308.5063,N,07727.4903,W,27.49,279.74,171023,,,A*40
$GPGGA,171847.750,4308.5066,N,07727.4929,W,1,06,1.81,162.2,M,-34.4,M,,*5E
$GPRMC,171848.000,A,4308.5069,N,07727.4955,W,27.37,279.76,171023,,,A*48
$GPGGA,171848.250,4308.5072,N,07727.4980,W,1,06,1.81,162.2,M,-34.4,M,,*52
$GPRMC,171848.500,A,4308.5075,N,07727.5006,W,27.31,279.50,171023,,,A*4C
$GPGGA,171848.750,4308.5078,N,07727.5032,W,1,06,1.81,162.1,M,-34.4,M,,*5F
$GPRMC,171849.000,A,4308.5081,N,07727.5057,W,27.22,279.47,171023,,,A*43
$GPGGA,171849.250,4308.5084,N,07727.5083,W,1,06,1.81,162.0,M,-34.4,M,,*53
$GPRMC,171849.500,A,4308.5087,N,07727.5108,W,27.00,279.71,171023,,,A*4E
$GPGGA,171849.750,4308.5090,N,07727.5134,W,1,06,1.81,162.1,M,-34.4,M,,*5F
$GPRMC,171850.000,A,4308.5094,N,07727.5159,W,27.12,280.02,171023,,,A*44
$GPGGA,171850.250,4308.5097,N,07727.5185,W,1,06,1.81,162.0,M,-34.4,M,,*5E
$GPRMC,171850.500,A,4308.5101,N,07727.5211,W,27.44,280.84,171023,,,A*4E
$GPGGA,171850.750,4308.5104,N,07727.5237,W,1,06,1.81,161.9,M,-34.4,M,,*50
$GPRMC,171851.000,A,4308.5108,N,07727.5263,W,27.93,280.99,171023,,,A*40
$GPGGA,171851.250,4308.5112,N,07727.5289,W,1,06,1.81,161.8,M,-34.4,M,,*57
$GPRMC,171851.500,A,4308.5115,N,07727.5316,W,28.03,280.68,171023,,,A*42
$GPGGA,171851.750,4308.5119,N,07727.5343,W,1,06,1.81,161.7,M,-34.4,M,,*51
$GPRMC,171852.000,A,4308.5122,N,07727.5370,W,28.54,280.36,171023,,,A*49
$GPGGA,171852.250,4308.5126,N,07727.5397,W,1,06,1.81,161.6,M,-34.4,M,,*53
$GPRMC,171852.500,A,4308.5130,N,07727.5425,W,29.36,280.13,171023,,,A*4A
$GPGGA,171852.750,4308.5133,N,07727.5452,W,1,06,1.81,161.5,M,-34.4,M,,*5F
$GPRMC,171853.000,A,4308.5137,N,07727.5480,W,29.66,280.14,171023,,,A*44
$GPGGA,171853.250,4308.5141,N,07727.5508,W,1,06,1.81,161.4,M,-34.4,M,,*51
$GPRMC,171853.500,A,4308.5145,N,07727.5536,W,29.98,280.20,171023,,,A*4E
$GPGGA,171853.750,4308.5149,N,07727.5564,W,1,06,1.81,161.2,M,-34.4,M,,*50
$GPRMC,171854.000,A,4308.5152,N,07727.5593,W,30.25,280.29,171023,,,A*42
$GPGGA,171854.250,4308.5156,N,07727.5621,W,1,06,1.81,161.1,M,-34.4,M,,*5D
$GPRMC,171854.500,A,4308.5160,N,07727.5649,W,30.29,280.35,171023,,,A*43
$GPGGA,171854.750,4308.5164,N,07727.5678,W,1,06,1.81,161.1,M,-34.4,M,,*55
$GPRMC,171855.000,A,4308.5168,N,07727.5706,W,30.15,280.49,171023,,,A*41
$GPGGA,171855.250,4308.5172,N,07727.5734,W,1,06,1.81,161.0,M,-34.4,M,,*5E
$GPRMC,171855.500,A,4308.5176,N,07727.5762,W,29.70,280.66,171023,,,A*4F
$GPGGA,171855.750,4308.5180,N,07727.5789,W,1,06,1.53,160.9,M,-34.4,M,,*57
$GPRMC,171856.000,A,4308.5184,N,07727.5817,W,29.37,280.49,171023,,,A*47
$GPGGA,171856.250,4308.5187,N,07727.5844,W,1,06,1.81,160.7,M,-34.4,M,,*59
$GPRMC,171856.500,A,4308.5191,N,07727.5872,W,28.94,280.22,171023,,,A*40
$GPGGA,171856.750,4308.5195,N,07727.5899,W,1,06,1.81,160.6,M,-34.4,M,,*5E
$GPRMC,171857.000,A,4308.5198,N,07727.5926,W,28.80,280.67,171023,,,A*49
$GPGGA,171857.250,4308.5202,N,07727.5953,W,1,06,1.81,160.5,M,-34.4,M,,*53
$GPRMC,171857.500,A,4308.5205,N,07727.5979,W,28.31,280.45,171023,,,A*4B
$GPGGA,171857.750,4308.5208,N,07727.6006,W,1,06,1.81,160.5,M,-34.4,M,,*56
$GPRMC,171858.000,A,4308.5211,N,07727.6033,W,28.16,279.79,171023,,,A*4C
$GPGGA,171858.250,4308.5214,N,07727.6059,W,1,06,1.81,160.5,M,-34.4,M,,*5B
$GPRMC,171858.500,A,4308.5217,N,07727.6086,W,28.12,279.90,171023,,,A*42
$GPGGA,171858.750,4308.5221,N,07727.6112,W,1,06,1.82,160.6,M,-34.4,M,,*56
$GPRMC,171859.000,A,4308.5224,N,07727.6138,W,27.89,279.67,171023,,,A*47
$GPGGA,171859.250,4308.5227,N,07727.6165,W,1,06,1.81,160.6,M,-34.4,M,,*57
$GPRMC,171859.500,A,4308.5231,N,07727.6191,W,27.90,279.29,171023,,,A*47
$GPGGA,171859.750,4308.5233,N,07727.6217,W,1,06,1.81,160.5,M,-34.4,M,,*52
$GPRMC,171900.000,A,4308.5236,N,07727.6244,W,27.79,278.64,171023,,,A*4C
$GPGGA,171900.250,4308.5238,N,07727.6270,W,1,06,1.81,160.3,M,-34.4,M,,*56
$GPRMC,171900.500,A,4308.5241,N,07727.6296,W,27.46,277.99,171023,,,A*47
$GPGGA,171900.750,4308.5244,N,07727.6322,W,1,06,1.82,160.3,M,-34.4,M,,*5D
$GPRMC,171901.000,A,4308.5247,N,07727.6347,W,27.38,277.82,171023,,,A*4B
$GPGGA,171901.250,4308.5250,N,07727.6372,W,1,06,1.81,160.2,M,-34.4,M,,*5B
$GPRMC,171901.500,A,4308.5253,N,07727.6398,W,27.03,278.04,171023,,,A*40
$GPGGA,171901.750,4308.5256,N,07727.6423,W,1,06,1.81,160.1,M,-34.4,M,,*58
$GPRMC,171902.000,A,4308.5259,N,07727.6448,W,26.93,277.72,171023,,,A*40
$GPGGA,171902.250,4308.5262,N,07727.6472,W,1,06,1.81,160.1,M,-34.4,M,,*5D
$GPRMC,171902.500,A,4308.5264,N,07727.6497,W,26.80,277.41,171023,,,A*4B
$GPGGA,171902.750,4308.5267,N,07727.6522,W,1,06,1.81,160.1,M,-34.4,M,,*59
$GPRMC,171903.000,A,4308.5269,N,07727.6547,W,26.44,277.35,171023,,,A*45
$GPGGA,171903.250,4308.5272,N,07727.6572,W,1,06,1.81,160.1,M,-34.4,M,,*5C
$GPRMC,171903.500,A,4308.5274,N,07727.6596,W,25.83,277.30,171023,,,A*4D
$GPGGA,171903.750,4308.5276,N,07727.6620,W,1,06,1.81,160.1,M,-34.4,M,,*59
$GPRMC,171904.000,A,4308.5278,N,07727.6644,W,25.27,277.46,171023,,,A*40
$GPGGA,171904.250,4308.5279,N,07727.6668,W,1,06,1.81,160.1,M,-34.4,M,,*58
$GPRMC,171904.500,A,4308.5281,N,07727.6692,W,25.16,276.89,171023,,,A*48
$GPGGA,171904.750,4308.5283,N,07727.6716,W,1,06,1.81,160.1,M,-34.4,M,,*50
$GPRMC,171905.000,A,4308.5285,N,07727.6739,W,24.84,277.06,171023,,,A*44
$GPGGA,171905.250,4308.5286,N,07727.6763,W,1,06,1.81,160.1,M,-34.4,M,,*53
$GPRMC,171905.500,A,4308.5288,N,07727.6787,W,24.71,277.39,171023,,,A*4F
$GPGGA,171905.750,4308.5290,N,07727.6811,W,1,06,1.81,160.1,M,-34.4,M,,*5B
$GPRMC,171906.000,A,4308.5291,N,07727.6835,W,24.93,276.63,171023,,,A*45
