Vers 81
USE_SERIAL_FEEDBACK=true
DEVELOPMENT_MODE=false
USE_RMC_ONLY=false

$GPRMC,183644.000,A,4304.7681,N,07726.4934,W,0.00,265.29,020823,,,D*71
$GPGGA,183644.250,4304.7681,N,07726.4934,W,2,09,0.94,167.9,M,-34.3,M,0000,0000*57
$GPRMC,183644.500,A,4304.7681,N,07726.4934,W,0.00,265.29,020823,,,D*74
$GPGGA,183644.750,4304.7681,N,07726.4934,W,2,09,0.94,167.9,M,-34.3,M,0000,0000*52
$GPRMC,183645.000,A,4304.7681,N,07726.4934,W,0.00,265.29,020823,,,D*70
$GPGGA,183645.250,4304.7681,N,07726.4934,W,2,09,0.94,167.9,M,-34.3,M,0000,0000*56
$GPRMC,183645.500,A,4304.7681,N,07726.4934,W,0.00,265.29,020823,,,D*75
$GPGGA,183645.750,4304.7681,N,07726.4934,W,2,09,0.94,167.9,M,-34.3,M,0000,0000*53
$GPRMC,183646.000,A,4304.7681,N,07726.4934,W,0.00,265.29,020823,,,D*73
$GPGGA,183646.250,4304.7681,N,07726.4934,W,2,09,0.94,167.9,M,-34.3,M,0000,0000*55
$GPRMC,183646.500,A,4304.7681,N,07726.4934,W,0.00,265.29,020823,,,D*76
$GPGGA,183646.750,4304.7681,N,07726.4934,W,2,09,0.94,167.9,M,-34.3,M,0000,0000*50
$GPRMC,183647.000,A,4304.7681,N,07726.4934,W,0.00,265.29,020823,,,D*72
$GPGGA,183647.250,4304.7681,N,07726.4934,W,2,09,0.94,167.9,M,-34.3,M,0000,0000*54
$GPRMC,183647.500,A,4304.7681,N,07726.4934,W,0.01,265.29,020823,,,D*76
$GPGGA,183647.750,4304.7681,N,07726.4934,W,2,09,0.94,167.9,M,-34.3,M,0000,0000*51
$GPRMC,183648.000,A,4304.7681,N,07726.4934,W,0.00,265.29,020823,,,D*7D
$GPGGA,183648.250,4304.7681,N,07726.4934,W,2,09,0.94,167.9,M,-34.3,M,0000,0000*5B
$GPRMC,183648.500,A,4304.7681,N,07726.4934,W,0.00,265.29,020823,,,D*78
$GPGGA,183648.750,4304.7681,N,07726.4934,W,2,09,0.94,167.9,M,-34.3,M,0000,0000*5E
$GPRMC,183649.000,A,4304.7681,N,07726.4934,W,0.00,265.29,020823,,,D*7C
$GPGGA,183649.250,4304.7681,N,07726.4934,W,2,09,0.94,167.9,M,-34.3,M,0000,0000*5A
$GPRMC,183649.500,A,4304.7681,N,07726.4934,W,0.00,265.29,020823,,,D*79
$GPGGA,183649.750,4304.7681,N,07726.4934,W,2,09,0.94,167.9,M,-34.3,M,0000,0000*5F
$GPRMC,183650.000,A,4304.7681,N,07726.4934,W,0.01,265.29,020823,,,D*75
$GPGGA,183650.250,4304.7681,N,07726.4934,W,2,09,0.94,167.9,M,-34.3,M,0000,0000*52
$GPRMC,183650.500,A,4304.7681,N,07726.4934,W,0.01,265.29,020823,,,D*70
$GPGGA,183650.750,4304.7681,N,07726.4934,W,2,09,0.94,167.9,M,-34.3,M,0000,0000*57
$GPRMC,183651.000,A,4304.7681,N,07726.4934,W,0.00,265.29,020823,,,D*75
$GPGGA,183651.250,4304.7681,N,07726.4934,W,2,09,0.94,167.9,M,-34.3,M,0000,0000*53
$GPRMC,183651.500,A,4304.7681,N,07726.4934,W,0.00,265.29,020823,,,D*70
$GPGGA,183651.750,4304.7681,N,07726.4934,W,2,09,0.94,167.9,M,-34.3,M,0000,0000*56
$GPRMC,183652.000,A,4304.7681,N,07726.4934,W,0.01,265.29,020823,,,D*77
$GPGGA,183652.250,4304.7681,N,07726.4934,W,2,09,0.94,167.9,M,-34.3,M,0000,0000*50
$GPRMC,183652.500,A,4304.7681,N,07726.4934,W,0.00,265.29,020823,,,D*73
$GPGGA,183652.750,4304.7681,N,07726.4934,W,2,09,0.94,167.9,M,-34.3,M,0000,0000*55
$GPRMC,183653.000,A,4304.7681,N,07726.4934,W,0.00,265.29,020823,,,D*77
$GPGGA,183653.250,4304.7681,N,07726.4934,W,2,09,0.94,167.9,M,-34.3,M,0000,0000*51
$GPRMC,183653.500,A,4304.7681,N,07726.4934,W,0.00,265.29,020823,,,D*72
$GPGGA,183653.750,4304.7681,N,07726.4934,W,2,09,0.94,167.9,M,-34.3,M,0000,0000*54
$GPRMC,183654.000,A,4304.7681,N,07726.4934,W,0.00,265.29,020823,,,D*70
$GPGGA,183654.250,4304.7681,N,07726.4934,W,2,09,0.94,167.9,M,-34.3,M,0000,0000*56
$GPRMC,183654.500,A,4304.7681,N,07726.4934,W,0.00,265.29,020823,,,D*75
$GPGGA,183654.750,4304.7681,N,07726.4934,W,2,09,0.94,167.9,M,-34.3,M,0000,0000*53
$GPRMC,183655.000,A,4304.7681,N,07726.4934,W,0.00,265.29,020823,,,D*71
$GPGGA,183655.250,4304.7681,N,07726.4934,W,2,09,0.94,167.9,M,-34.3,M,0000,0000*57
$GPRMC,183655.500,A,4304.7681,N,07726.4934,W,0.00,265.29,020823,,,D*74
$GPGGA,183655.750,4304.7681,N,07726.4934,W,2,09,0.94,167.9,M,-34.3,M,0000,0000*52
$GPRMC,183656.000,A,4304.7681,N,07726.4934,W,0.00,265.29,020823,,,D*72
$GPGGA,183656.250,4304.7681,N,07726.4934,W,2,09,0.94,167.9,M,-34.3,M,0000,0000*54
$GPRMC,183656.500,A,4304.7681,N,07726.4934,W,0.00,265.29,020823,,,D*77
$GPGGA,183656.750,4304.7681,N,07726.4934,W,2,09,0.94,167.9,M,-34.3,M,0000,0000*51
$GPRMC,183657.000,A,4304.7681,N,07726.4934,W,0.00,265.29,020823,,,D*73
$GPGGA,183657.250,4304.7681,N,07726.4934,W,2,09,0.94,167.9,M,-34.3,M,0000,0000*55
$GPRMC,183657.500,A,4304.7681,N,07726.4934,W,0.00,265.29,020823,,,D*76
$GPGGA,183657.750,4304.7681,N,07726.4934,W,2,09,0.94,167.9,M,-34.3,M,0000,0000*50
$GPRMC,183658.000,A,4304.7681,N,07726.4934,W,0.00,265.29,020823,,,D*7C
$GPGGA,183658.250,4304.7681,N,07726.4934,W,2,09,0.94,167.9,M,-34.3,M,0000,0000*5A
$GPRMC,183658.500,A,4304.7681,N,07726.4934,W,0.00,265.29,020823,,,D*79
$GPGGA,183658.750,4304.7681,N,07726.4934,W,2,09,0.94,167.9,M,-34.3,M,0000,0000*5F
$GPRMC,183659.000,A,4304.7681,N,07726.4934,W,0.00,265.29,020823,,,D*7D
$GPGGA,183659.250,4304.7681,N,07726.4934,W,2,09,0.94,167.9,M,-34.3,M,0000,0000*5B
$GPRMC,183659.500,A,4304.7681,N,07726.4934,W,0.01,265.29,020823,,,D*79
$GPGGA,183659.750,4304.7681,N,07726.4934,W,2,09,0.94,167.9,M,-34.3,M,0000,0000*5E
$GPRMC,183700.000,A,4304.7681,N,07726.4934,W,0.00,265.29,020823,,,D*70
$GPGGA,183700.250,4304.7681,N,07726.4934,W,2,09,0.94,167.9,M,-34.3,M,0000,0000*56
$GPRMC,183700.500,A,4304.7681,N,07726.4934,W,0.01,265.29,020823,,,D*74
$GPGGA,183700.750,4304.7681,N,07726.4934,W,2,09,0.94,167.9,M,-34.3,M,0000,0000*53
$GPRMC,183701.000,A,4304.7681,N,07726.4934,W,0.00,265.29,020823,,,D*71
$GPGGA,183701.250,4304.7681,N,07726.4934,W,2,09,0.94,167.9,M,-34.3,M,0000,0000*57
$GPRMC,183701.500,A,4304.7681,N,07726.4934,W,0.00,265.29,020823,,,D*74
$GPGGA,183701.750,4304.7681,N,07726.4934,W,2,09,0.94,167.9,M,-34.3,M,0000,0000*52
$GPRMC,183702.000,A,4304.7681,N,07726.4934,W,0.01,265.29,020823,,,D*73
$GPGGA,183702.250,4304.7681,N,07726.4934,W,2,09,0.94,167.9,M,-34.3,M,0000,0000*54
$GPRMC,183702.500,A,4304.7681,N,07726.4934,W,0.00,265.29,020823,,,D*77
$GPGGA,183702.750,4304.7681,N,07726.4934,W,2,09,0.94,167.9,M,-34.3,M,0000,0000*51
$GPRMC,183703.000,A,4304.7681,N,07726.4934,W,0.01,265.29,020823,,,D*72
$GPGGA,183703.250,4304.7681,N,07726.4934,W,2,09,0.94,167.9,M,-34.3,M,0000,0000*55
$GPRMC,183703.500,A,4304.7681,N,07726.4934,W,0.01,265.29,020823,,,D*77
$GPGGA,183703.750,4304.7681,N,07726.4934,W,2,09,0.94,167.9,M,-34.3,M,0000,0000*50
$GPRMC,183704.000,A,4304.7681,N,07726.4934,W,0.00,265.29,020823,,,D*74
$GPGGA,183704.250,4304.7681,N,07726.4934,W,2,09,0.94,168.0,M,-34.3,M,0000,0000*54
$GPRMC,183704.500,A,4304.7681,N,07726.4934,W,0.00,265.29,020823,,,D*71
$GPGGA,183704.750,4304.7681,N,07726.4934,W,2,09,0.94,168.0,M,-34.3,M,0000,0000*51
$GPRMC,183705.000,A,4304.7681,N,07726.4934,W,0.00,265.29,020823,,,D*75
$GPGGA,183705.250,4304.7681,N,07726.4934,W,2,09,0.94,168.0,M,-34.3,M,0000,0000*55
$GPRMC,183705.500,A,4304.7681,N,07726.4934,W,0.00,265.29,020823,,,D*70
$GPGGA,183705.750,4304.7681,N,07726.4934,W,2,09,0.94,168.0,M,-34.3,M,0000,0000*50
$GPRMC,183706.000,A,4304.7681,N,07726.4934,W,0.00,265.29,020823,,,D*76
$GPGGA,183706.250,4304.7681,N,07726.4934,W,2,09,0.94,168.0,M,-34.3,M,0000,0000*56
$GPRMC,183706.500,A,4304.7681,N,07726.4934,W,0.00,265.29,020823,,,D*73
$GPGGA,183706.750,4304.7681,N,07726.4934,W,2,09,0.94,168.0,M,-34.3,M,0000,0000*53
$GPRMC,183707.000,A,4304.7681,N,07726.4934,W,0.00,265.29,020823,,,D*77
$GPGGA,183707.250,4304.7681,N,07726.4934,W,2,09,0.94,168.0,M,-34.3,M,0000,0000*57
$GPRMC,183707.500,A,4304.7681,N,07726.4934,W,0.00,265.29,020823,,,D*72
$GPGGA,183707.750,4304.7681,N,07726.4934,W,2,09,0.94,168.0,M,-34.3,M,0000,0000*52
$GPRMC,183708.000,A,4304.7681,N,07726.4934,W,0.00,265.29,020823,,,D*78
$GPGGA,183708.250,4304.7681,N,07726.4934,W,2,09,0.94,168.0,M,-34.3,M,0000,0000*58
$GPRMC,183708.500,A,4304.7681,N,07726.4934,W,0.00,265.29,020823,,,D*7D
$GPGGA,183708.750,4304.7681,N,07726.4934,W,2,09,0.94,168.0,M,-34.3,M,0000,0000*5D
$GPRMC,183709.000,A,4304.7681,N,07726.4934,W,0.01,265.29,020823,,,D*78
$GPGGA,183709.250,4304.7681,N,07726.4934,W,2,09,0.94,168.0,M,-34.3,M,0000,0000*59
$GPRMC,183709.500,A,4304.7681,N,07726.4934,W,0.01,265.29,020823,,,D*7D
$GPGGA,183709.750,4304.7681,N,07726.4934,W,2,09,0.94,168.0,M,-34.3,M,0000,0000*5C
$GPRMC,183710.000,A,4304.7681,N,07726.4934,W,0.01,265.29,020823,,,D*70
$GPGGA,183710.250,4304.7681,N,07726.4934,W,2,09,0.94,168.0,M,-34.3,M,0000,0000*51
$GPRMC,183710.500,A,4304.7681,N,07726.4934,W,0.01,265.29,020823,,,D*75
$GPGGA,183710.750,4304.7681,N,07726.4934,W,2,09,0.94,168.0,M,-34.3,M,0000,0000*54
$GPRMC,183711.000,A,4304.7681,N,07726.4934,W,0.01,265.29,020823,,,D*71
$GPGGA,183711.250,4304.7681,N,07726.4934,W,2,09,0.94,168.0,M,-34.3,M,0000,0000*50
$GPRMC,183711.500,A,4304.7681,N,07726.4934,W,0.00,265.29,020823,,,D*75
$GPGGA,183711.750,4304.7681,N,07726.4934,W,2,09,0.94,168.0,M,-34.3,M,0000,0000*55
$GPRMC,183712.000,A,4304.7681,N,07726.4934,W,0.00,265.29,020823,,,D*73
$GPGGA,183712.250,4304.7681,N,07726.4934,W,2,09,0.94,168.0,M,-34.3,M,0000,0000*53
$GPRMC,183712.500,A,4304.7681,N,07726.4934,W,0.00,265.29,020823,,,D*76
$GPGGA,183712.750,4304.7681,N,07726.4934,W,2,09,0.94,168.0,M,-34.3,M,0000,0000*56
$GPRMC,183713.000,A,4304.7681,N,07726.4934,W,0.00,265.29,020823,,,D*72
$GPGGA,183713.250,4304.7681,N,07726.4934,W,2,09,0.94,168.0,M,-34.3,M,0000,0000*52
$GPRMC,183713.500,A,4304.7681,N,07726.4934,W,0.00,265.29,020823,,,D*77
$GPGGA,183713.750,4304.7681,N,07726.4934,W,2,09,0.94,168.0,M,-34.3,M,0000,0000*57
$GPRMC,183714.000,A,4304.7681,N,07726.4934,W,0.00,265.29,020823,,,D*75
$GPGGA,183714.250,4304.7681,N,07726.4934,W,2,09,0.94,168.0,M,-34.3,M,0000,0000*55
$GPRMC,183714.500,A,4304.7681,N,07726.4934,W,0.00,265.29,020823,,,D*70
$GPGGA,183714.750,4304.7681,N,07726.4934,W,2,09,0.94,168.0,M,-34.3,M,0000,0000*50
$GPRMC,183715.000,A,4304.7681,N,07726.4934,W,0.00,265.29,020823,,,D*74
$GPGGA,183715.250,4304.7681,N,07726.4934,W,2,09,0.94,168.0,M,-34.3,M,0000,0000*54
$GPRMC,183715.500,A,4304.7681,N,07726.4934,W,0.01,265.29,020823,,,D*70
$GPGGA,183715.750,4304.7681,N,07726.4934,W,2,09,0.94,168.0,M,-34.3,M,0000,0000*51
$GPRMC,183716.000,A,4304.7681,N,07726.4934,W,0.01,265.29,020823,,,D*76
$GPGGA,183716.250,4304.7681,N,07726.4934,W,2,09,0.94,168.0,M,-34.3,M,0000,0000*57
$GPRMC,183716.500,A,4304.7681,N,07726.4934,W,0.00,265.29,020823,,,D*72
$GPGGA,183716.750,4304.7681,N,07726.4934,W,2,09,0.94,168.0,M,-34.3,M,0000,0000*52
$GPRMC,183717.000,A,4304.7681,N,07726.4934,W,0.01,265.29,020823,,,D*77
$GPGGA,183717.250,4304.7681,N,07726.4934,W,2,09,0.94,168.0,M,-34.3,M,0000,0000*56
$GPRMC,183717.500,A,4304.7681,N,07726.4934,W,0.01,265.29,020823,,,D*72
$GPGGA,183717.750,4304.7681,N,07726.4934,W,2,09,0.94,168.0,M,-34.3,M,0000,0000*53
$GPRMC,183718.000,A,4304.7681,N,07726.4934,W,0.01,265.29,020823,,,D*78
$GPGGA,183718.250,4304.7681,N,07726.4934,W,2,09,0.94,168.0,M,-34.3,M,0000,0000*59
$GPRMC,183718.500,A,4304.7681,N,07726.4934,W,0.00,265.29,020823,,,D*7C
$GPGGA,183718.750,4304.7681,N,07726.4934,W,2,09,0.94,168.0,M,-34.3,M,0000,0000*5C
$GPRMC,183719.000,A,4304.7681,N,07726.4934,W,0.01,265.29,020823,,,D*79
$GPGGA,183719.250,4304.7681,N,07726.4934,W,2,09,0.94,168.0,M,-34.3,M,0000,0000*58
$GPRMC,183719.500,A,4304.7681,N,07726.4934,W,0.00,265.29,020823,,,D*7D
$GPGGA,183719.750,4304.7681,N,07726.4934,W,2,09,0.94,168.0,M,-34.3,M,0000,0000*5D
$GPRMC,183720.000,A,4304.7681,N,07726.4934,W,0.00,265.29,020823,,,D*72
$GPGGA,183720.250,4304.7681,N,07726.4934,W,2,09,0.94,168.0,M,-34.3,M,0000,0000*52
$GPRMC,183720.500,A,4304.7681,N,07726.4934,W,0.00,265.29,020823,,,D*77
$GPGGA,183720.750,4304.7681,N,07726.4934,W,2,09,0.94,168.0,M,-34.3,M,0000,0000*57
$GPRMC,183721.000,A,4304.7681,N,07726.4934,W,0.00,265.29,020823,,,D*73
$GPGGA,183721.250,4304.7681,N,07726.4934,W,2,09,0.94,168.0,M,-34.3,M,0000,0000*53
$GPRMC,183721.500,A,4304.7681,N,07726.4934,W,0.01,265.29,020823,,,D*77
$GPGGA,183721.750,4304.7681,N,07726.4934,W,2,09,0.94,168.0,M,-34.3,M,0000,0000*56
$GPRMC,183722.000,A,4304.7681,N,07726.4934,W,0.00,265.29,020823,,,D*70
$GPGGA,183722.250,4304.7680,N,07726.4934,W,2,09,0.94,168.0,M,-34.3,M,0000,0000*51
$GPRMC,183722.500,A,4304.7680,N,07726.4934,W,0.00,265.29,020823,,,D*74
$GPGGA,183722.750,4304.7680,N,07726.4934,W,2,09,0.94,168.0,M,-34.3,M,0000,0000*54
$GPRMC,183723.000,A,4304.7680,N,07726.4934,W,0.01,265.29,020823,,,D*71
$GPGGA,183723.250,4304.7680,N,07726.4934,W,2,09,0.94,168.0,M,-34.3,M,0000,0000*50
$GPRMC,183723.500,A,4304.7680,N,07726.4934,W,0.00,265.29,020823,,,D*75
$GPGGA,183723.750,4304.7680,N,07726.4934,W,2,09,0.94,168.0,M,-34.3,M,0000,0000*55
$GPRMC,183724.000,A,4304.7680,N,07726.4934,W,0.01,265.29,020823,,,D*76
$GPGGA,183724.250,4304.7680,N,07726.4934,W,2,09,0.94,168.0,M,-34.3,M,0000,0000*57
$GPRMC,183724.500,A,4304.7680,N,07726.4934,W,0.01,265.29,020823,,,D*73
$GPGGA,183724.750,4304.7680,N,07726.4934,W,2,09,0.94,168.0,M,-34.3,M,0000,0000*52
$GPRMC,183725.000,A,4304.7680,N,07726.4934,W,0.01,265.29,020823,,,D*77
$GPGGA,183725.250,4304.7680,N,07726.4934,W,2,09,0.94,168.0,M,-34.3,M,0000,0000*56
$GPRMC,183725.500,A,4304.7680,N,07726.4934,W,0.01,265.29,020823,,,D*72
$GPGGA,183725.750,4304.7680,N,07726.4934,W,2,09,0.94,168.0,M,-34.3,M,0000,0000*53
$GPRMC,183726.000,A,4304.7680,N,07726.4934,W,0.01,265.29,020823,,,D*74
$GPGGA,183726.250,4304.7680,N,07726.4934,W,2,09,0.94,168.0,M,-34.3,M,0000,0000*55
$GPRMC,183726.500,A,4304.7680,N,07726.4934,W,0.01,265.29,020823,,,D*71
$GPGGA,183726.750,4304.7680,N,07726.4934,W,2,09,0.94,168.0,M,-34.3,M,0000,0000*50
$GPRMC,183727.000,A,4304.7680,N,07726.4934,W,0.01,265.29,020823,,,D*75
$GPGGA,183727.250,4304.7680,N,07726.4934,W,2,09,0.94,168.0,M,-34.3,M,0000,0000*54
$GPRMC,183727.500,A,4304.7680,N,07726.4934,W,0.01,265.29,020823,,,D*70
$GPGGA,183727.750,4304.7680,N,07726.4934,W,2,09,0.94,168.0,M,-34.3,M,0000,0000*51
$GPRMC,183728.000,A,4304.7680,N,07726.4934,W,0.00,265.29,020823,,,D*7B
$GPGGA,183728.250,4304.7680,N,07726.4934,W,2,09,0.94,168.0,M,-34.3,M,0000,0000*5B
$GPRMC,183728.500,A,4304.7680,N,07726.4934,W,0.00,265.29,020823,,,D*7E
$GPGGA,183728.750,4304.7680,N,07726.4934,W,2,09,0.94,168.0,M,-34.3,M,0000,0000*5E
$GPRMC,183729.000,A,4304.7680,N,07726.4934,W,0.00,265.29,020823,,,D*7A
$GPGGA,183729.250,4304.7680,N,07726.4934,W,2,09,0.94,167.9,M,-34.3,M,0000,0000*5C
$GPRMC,183729.500,A,4304.7680,N,07726.4934,W,0.00,265.29,020823,,,D*7F
$GPGGA,183729.750,4304.7680,N,07726.4934,W,2,09,0.94,167.9,M,-34.3,M,0000,0000*59
$GPRMC,183730.000,A,4304.7680,N,07726.4934,W,0.00,265.29,020823,,,D*72
$GPGGA,183730.250,4304.7680,N,07726.4934,W,2,09,0.94,167.9,M,-34.3,M,0000,0000*54
$GPRMC,183730.500,A,4304.7680,N,07726.4934,W,0.01,265.29,020823,,,D*76
$GPGGA,183730.750,4304.7680,N,07726.4934,W,2,09,0.94,167.9,M,-34.3,M,0000,0000*51
$GPRMC,183731.000,A,4304.7680,N,07726.4934,W,0.00,265.29,020823,,,D*73
$GPGGA,183731.250,4304.7680,N,07726.4934,W,2,09,0.94,167.9,M,-34.3,M,0000,0000*55
$GPRMC,183731.500,A,4304.7680,N,07726.4934,W,0.00,265.29,020823,,,D*76
$GPGGA,183731.750,4304.7680,N,07726.4934,W,2,09,0.94,167.9,M,-34.3,M,0000,0000*50
$GPRMC,183732.000,A,4304.7680,N,07726.4934,W,0.01,265.29,020823,,,D*71
$GPGGA,183732.250,4304.7680,N,07726.4934,W,2,09,0.94,167.9,M,-34.3,M,0000,0000*56
$GPRMC,183732.500,A,4304.7680,N,07726.4934,W,0.00,265.29,020823,,,D*75
$GPGGA,183732.750,4304.7680,N,07726.4934,W,2,09,0.94,167.9,M,-34.3,M,0000,0000*53
$GPRMC,183733.000,A,4304.7680,N,07726.4934,W,0.00,265.29,020823,,,D*71
$GPGGA,183733.250,4304.7680,N,07726.4934,W,2,09,0.94,167.9,M,-34.3,M,0000,0000*57
$GPRMC,183733.500,A,4304.7680,N,07726.4934,W,0.00,265.29,020823,,,D*74
$GPGGA,183733.750,4304.7680,N,07726.4934,W,2,09,0.94,167.9,M,-34.3,M,0000,0000*52
$GPRMC,183734.000,A,4304.7680,N,07726.4934,W,0.01,265.29,020823,,,D*77
$GPGGA,183734.250,4304.7680,N,07726.4934,W,2,09,0.94,167.9,M,-34.3,M,0000,0000*50
$GPRMC,183734.500,A,4304.7680,N,07726.4934,W,0.00,265.29,020823,,,D*73
$GPGGA,183734.750,4304.7680,N,07726.4934,W,2,09,0.94,167.9,M,-34.3,M,0000,0000*55
$GPRMC,183735.000,A,4304.7680,N,07726.4934,W,0.00,265.29,020823,,,D*77
$GPGGA,183735.250,4304.7680,N,07726.4934,W,2,09,0.94,167.9,M,-34.3,M,0000,0000*51
$GPRMC,183735.500,A,4304.7680,N,07726.4934,W,0.00,265.29,020823,,,D*72
$GPGGA,183735.750,4304.7680,N,07726.4934,W,2,09,0.94,167.9,M,-34.3,M,0000,0000*54
$GPRMC,183736.000,A,4304.7680,N,07726.4934,W,0.00,265.29,020823,,,D*74
$GPGGA,183736.250,4304.7680,N,07726.4934,W,2,09,0.94,167.9,M,-34.3,M,0000,0000*52
$GPRMC,183736.500,A,4304.7680,N,07726.4934,W,0.00,265.29,020823,,,D*71
$GPGGA,183736.750,4304.7680,N,07726.4934,W,2,09,0.94,167.9,M,-34.3,M,0000,0000*57
$GPRMC,183737.000,A,4304.7680,N,07726.4934,W,0.00,265.29,020823,,,D*75
$GPGGA,183737.250,4304.7680,N,07726.4934,W,2,09,0.94,167.9,M,-34.3,M,0000,0000*53
$GPRMC,183737.500,A,4304.7680,N,07726.4934,W,0.00,265.29,020823,,,D*70
$GPGGA,183737.750,4304.7680,N,07726.4934,W,2,09,0.94,167.9,M,-34.3,M,0000,0000*56
$GPRMC,183738.000,A,4304.7680,N,07726.4934,W,0.01,265.29,020823,,,D*7B
$GPGGA,183738.250,4304.7680,N,07726.4934,W,2,09,0.94,167.9,M,-34.3,M,0000,0000*5C
$GPRMC,183738.500,A,4304.7680,N,07726.4934,W,0.01,265.29,020823,,,D*7E
$GPGGA,183738.750,4304.7680,N,07726.4934,W,2,09,0.94,167.9,M,-34.3,M,0000,0000*59
$GPRMC,183739.000,A,4304.7680,N,07726.4934,W,0.01,265.29,020823,,,D*7A
$GPGGA,183739.250,4304.7680,N,07726.4934,W,2,09,0.94,167.9,M,-34.3,M,0000,0000*5D
$GPRMC,183739.500,A,4304.7680,N,07726.4934,W,0.00,265.29,020823,,,D*7E
$GPGGA,183739.750,4304.7680,N,07726.4934,W,2,09,0.94,167.9,M,-34.3,M,0000,0000*58
$GPRMC,183740.000,A,4304.7680,N,07726.4934,W,0.00,265.29,020823,,,D*75
$GPGGA,183740.250,4304.7680,N,07726.4934,W,2,09,0.94,167.9,M,-34.3,M,0000,0000*53
$GPRMC,183740.500,A,4304.7680,N,07726.4934,W,0.00,265.29,020823,,,D*70
$GPGGA,183740.750,4304.7680,N,07726.4934,W,2,09,0.94,167.9,M,-34.3,M,0000,0000*56
$GPRMC,183741.000,A,4304.7680,N,07726.4934,W,0.00,265.29,020823,,,D*74
$GPGGA,183741.250,4304.7680,N,07726.4934,W,2,09,0.94,167.9,M,-34.3,M,0000,0000*52
$GPRMC,183741.500,A,4304.7680,N,07726.4934,W,0.02,265.29,020823,,,D*73
$GPGGA,183741.750,4304.7680,N,07726.4934,W,2,09,0.94,167.9,M,-34.3,M,0000,0000*57
$GPRMC,183742.000,A,4304.7680,N,07726.4934,W,0.03,265.29,020823,,,D*74
$GPGGA,183742.250,4304.7680,N,07726.4934,W,2,09,0.94,167.9,M,-34.3,M,0000,0000*51
$GPRMC,183742.500,A,4304.7680,N,07726.4934,W,0.02,265.29,020823,,,D*70
$GPGGA,183742.750,4304.7680,N,07726.4934,W,2,09,0.94,167.9,M,-34.3,M,0000,0000*54
$GPRMC,183743.000,A,4304.7680,N,07726.4934,W,0.05,265.29,020823,,,D*73
$GPGGA,183743.250,4304.7680,N,07726.4934,W,2,09,0.92,167.9,M,-34.3,M,0000,0000*56
$GPRMC,183743.500,A,4304.7680,N,07726.4934,W,0.05,265.29,020823,,,D*76
$GPGGA,183743.750,4304.7680,N,07726.4934,W,2,09,0.94,167.9,M,-34.3,M,0000,0000*55
$GPRMC,183744.000,A,4304.7680,N,07726.4934,W,0.16,265.29,020823,,,D*76
$GPGGA,183744.250,4304.7680,N,07726.4934,W,2,09,0.92,167.9,M,-34.3,M,0000,0000*51
$GPRMC,183744.500,A,4304.7680,N,07726.4935,W,0.31,255.15,020823,,,D*7B
$GPGGA,183744.750,4304.7680,N,07726.4935,W,2,09,0.92,168.0,M,-34.3,M,0000,0000*53
$GPRMC,183745.000,A,4304.7680,N,07726.4935,W,0.66,237.19,020823,,,D*75
$GPGGA,183745.250,4304.7679,N,07726.4937,W,2,09,0.92,168.0,M,-34.3,M,0000,0000*53
$GPRMC,183745.500,A,4304.7679,N,07726.4938,W,0.75,236.82,020823,,,D*7A
$GPGGA,183745.750,4304.7678,N,07726.4940,W,2,09,0.92,168.1,M,-34.3,M,0000,0000*56
$GPRMC,183746.000,A,4304.7677,N,07726.4942,W,1.13,231.78,020823,,,D*7C
$GPGGA,183746.250,4304.7676,N,07726.4944,W,2,09,0.92,168.2,M,-34.3,M,0000,0000*59
$GPRMC,183746.500,A,4304.7674,N,07726.4946,W,1.43,227.23,020823,,,D*72
$GPGGA,183746.750,4304.7673,N,07726.4947,W,2,09,0.92,168.3,M,-34.3,M,0000,0000*5B
$GPRMC,183747.000,A,4304.7672,N,07726.4949,W,2.11,214.10,020823,,,D*7B
$GPGGA,183747.250,4304.7670,N,07726.4950,W,2,09,0.92,168.3,M,-34.3,M,0000,0000*5A
$GPRMC,183747.500,A,4304.7667,N,07726.4954,W,2.43,201.23,020823,,,D*75
$GPGGA,183747.750,4304.7665,N,07726.4957,W,2,09,0.92,168.4,M,-34.3,M,0000,0000*5B
$GPRMC,183748.000,A,4304.7664,N,07726.4958,W,2.57,188.34,020823,,,D*71
$GPGGA,183748.250,4304.7662,N,07726.4959,W,2,09,0.92,168.5,M,-34.3,M,0000,0000*59
$GPRMC,183748.500,A,4304.7661,N,07726.4959,W,2.81,164.34,020823,,,D*79
$GPGGA,183748.750,4304.7659,N,07726.4959,W,2,09,0.92,168.6,M,-34.3,M,0000,0000*57
$GPRMC,183749.000,A,4304.7657,N,07726.4959,W,2.66,157.61,020823,,,D*71
$GPGGA,183749.250,4304.7655,N,07726.4960,W,2,09,0.92,168.6,M,-34.3,M,0000,0000*55
$GPRMC,183749.500,A,4304.7653,N,07726.4959,W,2.89,144.19,020823,,,D*7C
$GPGGA,183749.750,4304.7651,N,07726.4958,W,2,09,0.92,168.7,M,-34.3,M,0000,0000*5E
$GPRMC,183750.000,A,4304.7647,N,07726.4958,W,3.03,140.45,020823,,,D*7B
$GPGGA,183750.250,4304.7646,N,07726.4956,W,2,09,0.92,168.8,M,-34.3,M,0000,0000*54
$GPRMC,183750.500,A,4304.7644,N,07726.4955,W,3.09,131.48,020823,,,D*71
$GPGGA,183750.750,4304.7644,N,07726.4953,W,2,09,0.92,168.9,M,-34.3,M,0000,0000*57
$GPRMC,183751.000,A,4304.7643,N,07726.4950,W,3.11,113.00,020823,,,D*72
$GPGGA,183751.250,4304.7643,N,07726.4947,W,2,09,0.92,168.9,M,-34.3,M,0000,0000*51
$GPRMC,183751.500,A,4304.7643,N,07726.4945,W,3.17,102.28,020823,,,D*7F
$GPGGA,183751.750,4304.7642,N,07726.4943,W,2,09,0.92,169.0,M,-34.3,M,0000,0000*59
$GPRMC,183752.000,A,4304.7642,N,07726.4940,W,3.44,94.24,020823,,,D*49
$GPGGA,183752.250,4304.7642,N,07726.4937,W,2,09,0.92,169.0,M,-34.3,M,0000,0000*5C
$GPRMC,183752.500,A,4304.7642,N,07726.4933,W,3.48,93.05,020823,,,D*40
$GPGGA,183752.750,4304.7642,N,07726.4930,W,2,09,0.92,169.1,M,-34.3,M,0000,0000*5F
$GPRMC,183753.000,A,4304.7642,N,07726.4927,W,3.80,85.84,020823,,,D*4B
$GPGGA,183753.250,4304.7642,N,07726.4924,W,2,09,0.92,169.1,M,-34.3,M,0000,0000*5E
$GPRMC,183753.500,A,4304.7641,N,07726.4919,W,4.20,82.33,020823,,,D*46
$GPGGA,183753.750,4304.7641,N,07726.4915,W,2,09,0.94,169.2,M,-34.3,M,0000,0000*5F
$GPRMC,183754.000,A,4304.7642,N,07726.4910,W,4.55,78.97,020823,,,D*47
$GPGGA,183754.250,4304.7642,N,07726.4905,W,2,09,0.94,169.3,M,-34.3,M,0000,0000*5E
$GPRMC,183754.500,A,4304.7643,N,07726.4900,W,4.79,75.42,020823,,,D*49
$GPGGA,183754.750,4304.7644,N,07726.4896,W,2,09,0.94,169.4,M,-34.3,M,0000,0000*51
$GPRMC,183755.000,A,4304.7645,N,07726.4891,W,4.85,74.88,020823,,,D*46
$GPGGA,183755.250,4304.7646,N,07726.4885,W,2,09,0.94,169.4,M,-34.3,M,0000,0000*55
$GPRMC,183755.500,A,4304.7647,N,07726.4880,W,5.21,81.63,020823,,,D*41
$GPGGA,183755.750,4304.7646,N,07726.4872,W,2,09,0.94,169.4,M,-34.3,M,0000,0000*58
$GPRMC,183756.000,A,4304.7644,N,07726.4865,W,5.58,85.28,020823,,,D*4A
$GPGGA,183756.250,4304.7643,N,07726.4857,W,2,09,0.94,169.3,M,-34.3,M,0000,0000*5B
$GPRMC,183756.500,A,4304.7643,N,07726.4852,W,5.21,88.39,020823,,,D*4F
$GPGGA,183756.750,4304.7643,N,07726.4848,W,2,09,0.94,169.4,M,-34.3,M,0000,0000*57
$GPRMC,183757.000,A,4304.7641,N,07726.4842,W,4.92,90.83,020823,,,D*49
$GPGGA,183757.250,4304.7640,N,07726.4837,W,2,09,0.94,169.4,M,-34.3,M,0000,0000*58
$GPRMC,183757.500,A,4304.7639,N,07726.4833,W,4.78,97.24,020823,,,D*4B
$GPGGA,183757.750,4304.7637,N,07726.4828,W,2,09,0.94,169.4,M,-34.3,M,0000,0000*53
$GPRMC,183758.000,A,4304.7634,N,07726.4823,W,4.83,107.77,020823,,,D*77
$GPGGA,183758.250,4304.7632,N,07726.4818,W,2,09,0.94,169.3,M,-34.3,M,0000,0000*58
$GPRMC,183758.500,A,4304.7629,N,07726.4813,W,5.03,116.19,020823,,,D*7C
$GPGGA,183758.750,4304.7627,N,07726.4809,W,2,09,0.94,169.1,M,-34.3,M,0000,0000*5B
$GPRMC,183759.000,A,4304.7625,N,07726.4805,W,4.95,121.40,020823,,,D*75
$GPGGA,183759.250,4304.7623,N,07726.4801,W,2,09,0.94,169.0,M,-34.3,M,0000,0000*52
$GPRMC,183759.500,A,4304.7621,N,07726.4797,W,4.99,124.78,020823,,,D*72
$GPGGA,183759.750,4304.7619,N,07726.4793,W,2,09,0.94,168.9,M,-34.3,M,0000,0000*52
$GPRMC,183800.000,A,4304.7616,N,07726.4788,W,5.51,126.08,020823,,,D*7E
$GPGGA,183800.250,4304.7614,N,07726.4784,W,2,09,0.94,168.8,M,-34.3,M,0000,0000*5E
$GPRMC,183800.500,A,4304.7612,N,07726.4780,W,5.47,129.17,020823,,,D*71
$GPGGA,183800.750,4304.7609,N,07726.4776,W,2,09,0.94,168.7,M,-34.3,M,0000,0000*55
$GPRMC,183801.000,A,4304.7603,N,07726.4774,W,5.22,136.86,020823,,,D*7B
$GPGGA,183801.250,4304.7601,N,07726.4770,W,2,09,0.94,168.7,M,-34.3,M,0000,0000*5F
$GPRMC,183801.500,A,4304.7598,N,07726.4768,W,4.84,144.40,020823,,,D*70
$GPGGA,183801.750,4304.7595,N,07726.4766,W,2,09,0.94,168.7,M,-34.3,M,0000,0000*53
$GPRMC,183802.000,A,4304.7591,N,07726.4764,W,4.60,151.36,020823,,,D*7C
$GPGGA,183802.250,4304.7587,N,07726.4760,W,2,09,0.94,168.7,M,-34.3,M,0000,0000*50
$GPRMC,183802.500,A,4304.7584,N,07726.4757,W,4.62,151.23,020823,,,D*7B
$GPGGA,183802.750,4304.7580,N,07726.4754,W,2,09,0.94,168.7,M,-34.3,M,0000,0000*55
$GPRMC,183803.000,A,4304.7574,N,07726.4753,W,4.51,153.53,020823,,,D*71
$GPGGA,183803.250,4304.7571,N,07726.4752,W,2,09,0.94,168.6,M,-34.3,M,0000,0000*58
$GPRMC,183803.500,A,4304.7568,N,07726.4750,W,4.08,159.84,020823,,,D*76
$GPGGA,183803.750,4304.7566,N,07726.4747,W,2,09,0.94,168.5,M,-34.3,M,0000,0000*5C
$GPRMC,183804.000,A,4304.7562,N,07726.4744,W,3.55,162.30,020823,,,D*73
$GPGGA,183804.250,4304.7559,N,07726.4742,W,2,09,0.92,168.4,M,-34.3,M,0000,0000*50
$GPRMC,183804.500,A,4304.7556,N,07726.4740,W,3.31,164.24,020823,,,D*74
$GPGGA,183804.750,4304.7554,N,07726.4738,W,2,09,0.92,168.4,M,-34.3,M,0000,0000*55
$GPRMC,183805.000,A,4304.7552,N,07726.4736,W,3.16,170.31,020823,,,D*71
$GPGGA,183805.250,4304.7550,N,07726.4736,W,2,09,0.92,168.3,M,-34.3,M,0000,0000*5C
$GPRMC,183805.500,A,4304.7548,N,07726.4736,W,2.88,176.63,020823,,,D*78
$GPGGA,183805.750,4304.7546,N,07726.4736,W,2,09,0.92,168.1,M,-34.3,M,0000,0000*5C
$GPRMC,183806.000,A,4304.7543,N,07726.4736,W,2.91,177.76,020823,,,D*78
$GPGGA,183806.250,4304.7542,N,07726.4736,W,2,09,0.92,168.0,M,-34.3,M,0000,0000*5F
$GPRMC,183806.500,A,4304.7540,N,07726.4737,W,3.35,181.49,020823,,,D*75
$GPGGA,183806.750,4304.7538,N,07726.4737,W,2,09,0.92,167.9,M,-34.3,M,0000,0000*50
$GPRMC,183807.000,A,4304.7536,N,07726.4738,W,3.46,181.67,020823,,,D*77
$GPGGA,183807.250,4304.7534,N,07726.4738,W,2,09,0.92,167.8,M,-34.3,M,0000,0000*56
$GPRMC,183807.500,A,4304.7531,N,07726.4738,W,3.71,181.41,020823,,,D*75
$GPGGA,183807.750,4304.7529,N,07726.4739,W,2,09,0.92,167.7,M,-34.3,M,0000,0000*51
$GPRMC,183808.000,A,4304.7527,N,07726.4739,W,3.75,185.13,020823,,,D*7E
$GPGGA,183808.250,4304.7524,N,07726.4740,W,2,09,0.92,167.5,M,-34.3,M,0000,0000*5A
$GPRMC,183808.500,A,4304.7521,N,07726.4741,W,3.80,196.95,020823,,,D*74
$GPGGA,183808.750,4304.7519,N,07726.4743,W,2,09,0.92,167.4,M,-34.3,M,0000,0000*53
$GPRMC,183809.000,A,4304.7517,N,07726.4745,W,4.17,204.11,020823,,,D*7C
$GPGGA,183809.250,4304.7515,N,07726.4747,W,2,09,0.94,167.3,M,-34.3,M,0000,0000*5E
$GPRMC,183809.500,A,4304.7513,N,07726.4750,W,4.46,216.37,020823,,,D*7A
$GPGGA,183809.750,4304.7512,N,07726.4754,W,2,09,0.94,167.2,M,-34.3,M,0000,0000*5F
$GPRMC,183810.000,A,4304.7510,N,07726.4758,W,4.96,225.51,020823,,,D*71
$GPGGA,183810.250,4304.7508,N,07726.4762,W,2,09,0.94,167.2,M,-34.3,M,0000,0000*5C
$GPRMC,183810.500,A,4304.7507,N,07726.4766,W,5.19,229.45,020823,,,D*70
$GPGGA,183810.750,4304.7505,N,07726.4771,W,2,09,0.94,167.2,M,-34.3,M,0000,0000*56
$GPRMC,183811.000,A,4304.7502,N,07726.4777,W,5.77,233.44,020823,,,D*73
$GPGGA,183811.250,4304.7500,N,07726.4782,W,2,09,0.94,167.3,M,-34.3,M,0000,0000*5A
$GPRMC,183811.500,A,4304.7499,N,07726.4789,W,6.25,239.84,020823,,,D*76
$GPGGA,183811.750,4304.7498,N,07726.4795,W,2,09,0.94,167.3,M,-34.3,M,0000,0000*59
$GPRMC,183812.000,A,4304.7496,N,07726.4802,W,6.51,246.70,020823,,,D*73
$GPGGA,183812.250,4304.7495,N,07726.4809,W,2,09,0.94,167.3,M,-34.3,M,0000,0000*58
$GPRMC,183812.500,A,4304.7494,N,07726.4816,W,6.87,253.92,020823,,,D*72
$GPGGA,183812.750,4304.7493,N,07726.4824,W,2,09,0.94,167.4,M,-34.3,M,0000,0000*53
$GPRMC,183813.000,A,4304.7493,N,07726.4832,W,7.45,259.30,020823,,,D*7A
$GPGGA,183813.250,4304.7492,N,07726.4839,W,2,09,0.94,167.4,M,-34.3,M,0000,0000*5A
$GPRMC,183813.500,A,4304.7492,N,07726.4848,W,7.86,264.08,020823,,,D*79
$GPGGA,183813.750,4304.7493,N,07726.4856,W,2,09,0.94,167.6,M,-34.3,M,0000,0000*55
$GPRMC,183814.000,A,4304.7493,N,07726.4863,W,7.72,268.37,020823,,,D*78
$GPGGA,183814.250,4304.7493,N,07726.4870,W,2,09,0.94,167.7,M,-34.3,M,0000,0000*52
$GPRMC,183814.500,A,4304.7493,N,07726.4878,W,7.66,270.64,020823,,,D*7D
$GPGGA,183814.750,4304.7493,N,07726.4885,W,2,09,0.94,168.0,M,-34.3,M,0000,0000*55
$GPRMC,183815.000,A,4304.7492,N,07726.4893,W,7.61,269.15,020823,,,D*74
$GPGGA,183815.250,4304.7492,N,07726.4900,W,2,09,0.94,168.3,M,-34.3,M,0000,0000*5F
$GPRMC,183815.500,A,4304.7492,N,07726.4908,W,7.55,267.54,020823,,,D*7E
$GPGGA,183815.750,4304.7492,N,07726.4915,W,2,09,0.94,168.5,M,-34.3,M,0000,0000*58
$GPRMC,183816.000,A,4304.7492,N,07726.4922,W,7.13,267.79,020823,,,D*7D
$GPGGA,183816.250,4304.7492,N,07726.4929,W,2,09,0.94,168.8,M,-34.3,M,0000,0000*5C
$GPRMC,183816.500,A,4304.7492,N,07726.4936,W,6.72,266.80,020823,,,D*7C
$GPGGA,183816.750,4304.7492,N,07726.4942,W,2,09,0.94,169.0,M,-34.3,M,0000,0000*5D
$GPRMC,183817.000,A,4304.7491,N,07726.4949,W,6.50,266.03,020823,,,D*78
$GPGGA,183817.250,4304.7491,N,07726.4955,W,2,09,0.94,169.2,M,-34.3,M,0000,0000*5E
$GPRMC,183817.500,A,4304.7491,N,07726.4962,W,6.21,266.30,020823,,,D*72
$GPGGA,183817.750,4304.7491,N,07726.4968,W,2,09,0.94,169.5,M,-34.3,M,0000,0000*52
$GPRMC,183818.000,A,4304.7491,N,07726.4974,W,5.83,267.30,020823,,,D*75
$GPGGA,183818.250,4304.7491,N,07726.4979,W,2,09,0.94,169.7,M,-34.3,M,0000,0000*5A
$GPRMC,183818.500,A,4304.7492,N,07726.4985,W,5.46,269.22,020823,,,D*79
$GPGGA,183818.750,4304.7494,N,07726.4991,W,2,09,0.94,169.9,M,-34.3,M,0000,0000*52
$GPRMC,183819.000,A,4304.7495,N,07726.4995,W,4.62,270.12,020823,,,D*77
$GPGGA,183819.250,4304.7496,N,07726.4999,W,2,09,0.94,170.1,M,-34.3,M,0000,0000*5C
$GPRMC,183819.500,A,4304.7497,N,07726.5003,W,3.91,275.91,020823,,,D*72
$GPGGA,183819.750,4304.7498,N,07726.5006,W,2,09,0.94,170.2,M,-34.3,M,0000,0000*5A
$GPRMC,183820.000,A,4304.7499,N,07726.5007,W,3.10,279.88,020823,,,D*7A
$GPGGA,183820.250,4304.7500,N,07726.5009,W,2,09,0.92,170.4,M,-34.3,M,0000,0000*5A
$GPRMC,183820.500,A,4304.7501,N,07726.5010,W,2.42,279.88,020823,,,D*7F
$GPGGA,183820.750,4304.7502,N,07726.5012,W,2,09,0.92,170.6,M,-34.3,M,0000,0000*55
$GPRMC,183821.000,A,4304.7502,N,07726.5011,W,1.09,279.88,020823,,,D*75
$GPGGA,183821.250,4304.7502,N,07726.5011,W,2,09,0.92,170.7,M,-34.3,M,0000,0000*53
$GPRMC,183821.500,A,4304.7502,N,07726.5010,W,0.54,279.88,020823,,,D*78
$GPGGA,183821.750,4304.7503,N,07726.5009,W,2,09,0.92,170.2,M,-34.3,M,0000,0000*5B
$GPRMC,183822.000,A,4304.7503,N,07726.5009,W,0.38,279.88,020823,,,D*7D
$GPGGA,183822.250,4304.7504,N,07726.5009,W,2,09,0.92,169.5,M,-34.3,M,0000,0000*55
$GPRMC,183822.500,A,4304.7504,N,07726.5010,W,0.33,279.88,020823,,,D*7C
$GPGGA,183822.750,4304.7504,N,07726.5011,W,2,09,0.92,169.0,M,-34.3,M,0000,0000*5C
$GPRMC,183823.000,A,4304.7504,N,07726.5013,W,0.55,279.88,020823,,,D*7B
$GPGGA,183823.250,4304.7505,N,07726.5015,W,2,09,0.92,168.7,M,-34.3,M,0000,0000*5B
$GPRMC,183823.500,A,4304.7505,N,07726.5018,W,1.08,279.88,020823,,,D*7D
$GPGGA,183823.750,4304.7506,N,07726.5022,W,2,09,0.92,168.6,M,-34.3,M,0000,0000*58
$GPRMC,183824.000,A,4304.7507,N,07726.5025,W,1.80,279.88,020823,,,D*73
$GPGGA,183824.250,4304.7507,N,07726.5027,W,2,09,0.92,168.6,M,-34.3,M,0000,0000*5E
$GPRMC,183824.500,A,4304.7507,N,07726.5031,W,2.93,271.42,020823,,,D*7C
$GPGGA,183824.750,4304.7509,N,07726.5035,W,2,09,0.92,168.8,M,-34.3,M,0000,0000*58
$GPRMC,183825.000,A,4304.7510,N,07726.5039,W,5.11,277.93,020823,,,D*71
$GPGGA,183825.250,4304.7510,N,07726.5043,W,2,09,0.94,169.3,M,-34.3,M,0000,0000*59
$GPRMC,183825.500,A,4304.7510,N,07726.5047,W,6.03,279.53,020823,,,D*7F
$GPGGA,183825.750,4304.7510,N,07726.5051,W,2,09,0.94,169.6,M,-34.3,M,0000,0000*5A
$GPRMC,183826.000,A,4304.7511,N,07726.5056,W,6.40,283.99,020823,,,D*7C
$GPGGA,183826.250,4304.7510,N,07726.5056,W,2,09,0.94,169.9,M,-34.3,M,0000,0000*54
$GPRMC,183826.500,A,4304.7511,N,07726.5060,W,6.36,287.91,020823,,,D*71
$GPGGA,183826.750,4304.7513,N,07726.5064,W,2,09,0.94,170.2,M,-34.3,M,0000,0000*50
$GPRMC,183827.000,A,4304.7514,N,07726.5069,W,5.49,293.34,020823,,,D*78
$GPGGA,183827.250,4304.7514,N,07726.5074,W,2,09,0.94,170.3,M,-34.3,M,0000,0000*53
$GPRMC,183827.500,A,4304.7514,N,07726.5078,W,4.37,297.58,020823,,,D*7B
$GPGGA,183827.750,4304.7514,N,07726.5082,W,2,09,0.94,170.4,M,-34.3,M,0000,0000*58
$GPRMC,183828.000,A,4304.7514,N,07726.5084,W,3.10,300.44,020823,,,D*72
$GPGGA,183828.250,4304.7514,N,07726.5086,W,2,09,0.92,170.5,M,-34.3,M,0000,0000*51
$GPRMC,183828.500,A,4304.7516,N,07726.5087,W,1.92,319.11,020823,,,D*76
$GPGGA,183828.750,4304.7517,N,07726.5088,W,2,09,0.92,170.7,M,-34.3,M,0000,0000*5B
$GPRMC,183829.000,A,4304.7518,N,07726.5088,W,1.23,326.31,020823,,,D*77
$GPGGA,183829.250,4304.7519,N,07726.5089,W,2,09,0.92,170.9,M,-34.3,M,0000,0000*5E
$GPRMC,183829.500,A,4304.7521,N,07726.5090,W,1.22,324.65,020823,,,D*73
$GPGGA,183829.750,4304.7522,N,07726.5092,W,2,09,0.92,171.1,M,-34.3,M,0000,0000*50
$GPRMC,183830.000,A,4304.7523,N,07726.5093,W,1.31,319.51,020823,,,D*74
$GPGGA,183830.250,4304.7524,N,07726.5094,W,2,09,0.92,171.3,M,-34.3,M,0000,0000*5F
$GPRMC,183830.500,A,4304.7526,N,07726.5098,W,2.15,309.52,020823,,,D*78
$GPGGA,183830.750,4304.7528,N,07726.5103,W,2,09,0.92,171.3,M,-34.3,M,0000,0000*59
$GPRMC,183831.000,A,4304.7530,N,07726.5107,W,4.06,301.08,020823,,,D*7F
$GPGGA,183831.250,4304.7532,N,07726.5110,W,2,09,0.94,171.4,M,-34.3,M,0000,0000*55
$GPRMC,183831.500,A,4304.7534,N,07726.5114,W,5.31,301.91,020823,,,D*79
$GPGGA,183831.750,4304.7537,N,07726.5119,W,2,09,0.94,171.6,M,-34.3,M,0000,0000*5E
$GPRMC,183832.000,A,4304.7542,N,07726.5124,W,6.99,312.33,020823,,,D*76
$GPGGA,183832.250,4304.7546,N,07726.5129,W,2,09,0.94,171.6,M,-34.3,M,0000,0000*5D
$GPRMC,183832.500,A,4304.7552,N,07726.5135,W,8.00,319.39,020823,,,D*7D
$GPGGA,183832.750,4304.7557,N,07726.5139,W,2,09,0.94,171.7,M,-34.3,M,0000,0000*58
$GPRMC,183833.000,A,4304.7563,N,07726.5144,W,8.69,323.77,020823,,,D*71
$GPGGA,183833.250,4304.7569,N,07726.5149,W,2,09,0.94,171.7,M,-34.3,M,0000,0000*56
$GPRMC,183833.500,A,4304.7576,N,07726.5154,W,9.44,329.79,020823,,,D*7B
$GPGGA,183833.750,4304.7584,N,07726.5158,W,2,09,0.94,171.7,M,-34.3,M,0000,0000*50
$GPRMC,183834.000,A,4304.7593,N,07726.5162,W,10.46,336.70,020823,,,D*4A
$GPGGA,183834.250,4304.7601,N,07726.5166,W,2,09,0.94,171.7,M,-34.3,M,0000,0000*51
$GPRMC,183834.500,A,4304.7610,N,07726.5169,W,11.45,342.07,020823,,,D*4D
$GPGGA,183834.750,4304.7620,N,07726.5171,W,2,09,0.94,171.9,M,-34.3,M,0000,0000*5F
$GPRMC,183835.000,A,4304.7630,N,07726.5174,W,12.67,345.76,020823,,,D*45
$GPGGA,183835.250,4304.7642,N,07726.5179,W,2,09,0.94,171.9,M,-34.3,M,0000,0000*57
$GPRMC,183835.500,A,4304.7654,N,07726.5183,W,13.82,347.68,020823,,,D*4D
$GPGGA,183835.750,4304.7665,N,07726.5186,W,2,09,0.94,172.0,M,-34.3,M,0000,0000*5D
$GPRMC,183836.000,A,4304.7679,N,07726.5190,W,14.87,349.15,020823,,,D*40
$GPGGA,183836.250,4304.7692,N,07726.5194,W,2,09,0.94,172.0,M,-34.3,M,0000,0000*50
$GPRMC,183836.500,A,4304.7705,N,07726.5199,W,15.86,349.49,020823,,,D*4F
$GPGGA,183836.750,4304.7717,N,07726.5203,W,2,09,0.94,172.0,M,-34.3,M,0000,0000*54
$GPRMC,183837.000,A,4304.7731,N,07726.5207,W,16.60,349.67,020823,,,D*4F
$GPGGA,183837.250,4304.7744,N,07726.5211,W,2,09,0.94,172.1,M,-34.3,M,0000,0000*54
$GPRMC,183837.500,A,4304.7760,N,07726.5214,W,18.21,352.18,020823,,,D*45
$GPGGA,183837.750,4304.7772,N,07726.5217,W,2,09,0.94,172.2,M,-34.3,M,0000,0000*51
$GPRMC,183838.000,A,4304.7786,N,07726.5219,W,19.57,354.89,020823,,,D*44
$GPGGA,183838.250,4304.7799,N,07726.5220,W,2,09,0.94,172.4,M,-34.3,M,0000,0000*5C
$GPRMC,183838.500,A,4304.7813,N,07726.5221,W,20.57,357.06,020823,,,D*47
$GPGGA,183838.750,4304.7827,N,07726.5222,W,2,09,0.94,172.6,M,-34.3,M,0000,0000*53
$GPRMC,183839.000,A,4304.7841,N,07726.5222,W,21.76,359.14,020823,,,D*48
$GPGGA,183839.250,4304.7856,N,07726.5222,W,2,09,0.94,172.7,M,-34.3,M,0000,0000*50
$GPRMC,183839.500,A,4304.7872,N,07726.5222,W,22.26,0.93,020823,,,D*4B
$GPGGA,183839.750,4304.7888,N,07726.5221,W,2,09,0.94,172.9,M,-34.3,M,0000,0000*5B
$GPRMC,183840.000,A,4304.7904,N,07726.5220,W,22.96,1.77,020823,,,D*42
$GPGGA,183840.250,4304.7920,N,07726.5220,W,2,09,0.94,173.1,M,-34.3,M,0000,0000*5B
$GPRMC,183840.500,A,4304.7937,N,07726.5219,W,23.28,1.14,020823,,,D*4C
$GPGGA,183840.750,4304.7954,N,07726.5219,W,2,09,0.94,173.3,M,-34.3,M,0000,0000*55
$GPRMC,183841.000,A,4304.7972,N,07726.5218,W,23.72,1.38,020823,,,D*49
$GPGGA,183841.250,4304.7989,N,07726.5218,W,2,09,0.94,173.6,M,-34.3,M,0000,0000*55
$GPRMC,183841.500,A,4304.8006,N,07726.5218,W,23.97,0.85,020823,,,D*45
$GPGGA,183841.750,4304.8023,N,07726.5218,W,2,09,0.94,173.9,M,-34.3,M,0000,0000*59
$GPRMC,183842.000,A,4304.8040,N,07726.5219,W,24.26,0.42,020823,,,D*46
$GPGGA,183842.250,4304.8058,N,07726.5219,W,2,09,0.94,174.1,M,-34.3,M,0000,0000*5D
$GPRMC,183842.500,A,4304.8075,N,07726.5219,W,24.45,359.79,020823,,,D*47
$GPGGA,183842.750,4304.8093,N,07726.5220,W,2,09,0.94,174.4,M,-34.3,M,0000,0000*50
$GPRMC,183843.000,A,4304.8110,N,07726.5220,W,24.50,358.83,020823,,,D*4B
$GPGGA,183843.250,4304.8128,N,07726.5222,W,2,09,0.94,174.6,M,-34.3,M,0000,0000*55
$GPRMC,183843.500,A,4304.8145,N,07726.5223,W,24.54,358.27,020823,,,D*47
$GPGGA,183843.750,4304.8163,N,07726.5224,W,2,09,0.94,174.9,M,-34.3,M,0000,0000*56
$GPRMC,183844.000,A,4304.8181,N,07726.5225,W,24.62,359.14,020823,,,D*4F
$GPGGA,183844.250,4304.8198,N,07726.5226,W,2,09,0.94,175.2,M,-34.3,M,0000,0000*58
$GPRMC,183844.500,A,4304.8215,N,07726.5226,W,24.67,359.63,020823,,,D*42
$GPGGA,183844.750,4304.8233,N,07726.5227,W,2,09,0.94,175.6,M,-34.3,M,0000,0000*5A
$GPRMC,183845.000,A,4304.8251,N,07726.5228,W,25.01,359.80,020823,,,D*44
$GPGGA,183845.250,4304.8269,N,07726.5228,W,2,09,0.94,176.0,M,-34.3,M,0000,0000*5B
$GPRMC,183845.500,A,4304.8288,N,07726.5230,W,25.61,359.04,020823,,,D*46
$GPGGA,183845.750,4304.8306,N,07726.5232,W,2,09,0.94,176.5,M,-34.3,M,0000,0000*58
$GPRMC,183846.000,A,4304.8325,N,07726.5233,W,25.85,358.83,020823,,,D*41
$GPGGA,183846.250,4304.8344,N,07726.5233,W,2,09,0.92,176.9,M,-34.3,M,0000,0000*53
$GPRMC,183846.500,A,4304.8363,N,07726.5234,W,26.18,359.40,020823,,,D*48
$GPGGA,183846.750,4304.8380,N,07726.5234,W,2,09,0.94,177.4,M,-34.3,M,0000,0000*53
$GPRMC,183847.000,A,4304.8399,N,07726.5234,W,26.35,0.43,020823,,,D*4A
$GPGGA,183847.250,4304.8417,N,07726.5234,W,2,09,0.92,177.9,M,-34.3,M,0000,0000*55
$GPRMC,183847.500,A,4304.8435,N,07726.5234,W,26.75,0.26,020823,,,D*49
$GPGGA,183847.750,4304.8453,N,07726.5234,W,2,09,0.94,178.4,M,-34.3,M,0000,0000*54
$GPRMC,183848.000,A,4304.8471,N,07726.5234,W,26.38,359.90,020823,,,D*48
$GPGGA,183848.250,4304.8489,N,07726.5235,W,2,09,0.94,178.9,M,-34.3,M,0000,0000*55
$GPRMC,183848.500,A,4304.8507,N,07726.5235,W,26.15,359.61,020823,,,D*4D
$GPGGA,183848.750,4304.8525,N,07726.5235,W,2,09,0.94,179.5,M,-34.3,M,0000,0000*5A
$GPRMC,183849.000,A,4304.8543,N,07726.5236,W,26.39,359.89,020823,,,D*42
$GPGGA,183849.250,4304.8561,N,07726.5236,W,2,08,1.04,180.1,M,-34.3,M,0000,0000*56
$GPRMC,183849.500,A,4304.8579,N,07726.5236,W,26.50,0.46,020823,,,D*4D
$GPGGA,183849.750,4304.8597,N,07726.5237,W,2,09,0.94,180.7,M,-34.3,M,0000,0000*54
$GPRMC,183850.000,A,4304.8615,N,07726.5237,W,26.62,0.57,020823,,,D*49
$GPGGA,183850.250,4304.8633,N,07726.5237,W,2,08,1.04,181.2,M,-34.3,M,0000,0000*59
$GPRMC,183850.500,A,4304.8650,N,07726.5236,W,26.65,0.43,020823,,,D*4E
$GPGGA,183850.750,4304.8668,N,07726.5237,W,2,08,1.12,181.8,M,-34.3,M,0000,0000*5F
$GPRMC,183851.000,A,4304.8686,N,07726.5236,W,26.36,0.93,020823,,,D*4A
$GPGGA,183851.250,4304.8705,N,07726.5236,W,2,08,1.12,182.4,M,-34.3,M,0000,0000*5F
$GPRMC,183851.500,A,4304.8723,N,07726.5236,W,26.57,1.51,020823,,,D*49
$GPGGA,183851.750,4304.8740,N,07726.5235,W,2,08,1.12,183.1,M,-34.3,M,0000,0000*5C
$GPRMC,183852.000,A,4304.8759,N,07726.5234,W,26.86,1.64,020823,,,D*4A
$GPGGA,183852.250,4304.8780,N,07726.5233,W,2,08,1.04,182.4,M,-34.3,M,0000,0000*53
$GPRMC,183852.500,A,4304.8799,N,07726.5233,W,27.96,1.14,020823,,,D*43
$GPGGA,183852.750,4304.8818,N,07726.5233,W,2,09,0.94,182.9,M,-34.3,M,0000,0000*5C
$GPRMC,183853.000,A,4304.8836,N,07726.5232,W,27.94,1.12,020823,,,D*48
$GPGGA,183853.250,4304.8855,N,07726.5232,W,2,09,0.94,183.5,M,-34.3,M,0000,0000*5D
$GPRMC,183853.500,A,4304.8873,N,07726.5232,W,27.46,1.25,020823,,,D*47
$GPGGA,183853.750,4304.8891,N,07726.5231,W,2,08,1.12,184.0,M,-34.3,M,0000,0000*5F
$GPRMC,183854.000,A,4304.8910,N,07726.5231,W,27.41,1.11,020823,,,D*42
$GPGGA,183854.250,4304.8928,N,07726.5230,W,2,08,1.12,184.4,M,-34.3,M,0000,0000*5B
$GPRMC,183854.500,A,4304.8947,N,07726.5230,W,27.63,1.45,020823,,,D*45
$GPGGA,183854.750,4304.8966,N,07726.5229,W,2,08,1.12,185.0,M,-34.3,M,0000,0000*59
$GPRMC,183855.000,A,4304.8986,N,07726.5229,W,27.93,1.32,020823,,,D*4B
$GPGGA,183855.250,4304.9005,N,07726.5228,W,2,08,1.12,185.5,M,-34.3,M,0000,0000*54
$GPRMC,183855.500,A,4304.9024,N,07726.5228,W,28.14,0.78,020823,,,D*40
$GPGGA,183855.750,4304.9044,N,07726.5228,W,2,08,1.12,186.0,M,-34.3,M,0000,0000*52
$GPRMC,183856.000,A,4304.9063,N,07726.5228,W,28.08,0.40,020823,,,D*43
$GPGGA,183856.250,4304.9083,N,07726.5228,W,2,09,0.94,186.6,M,-34.3,M,0000,0000*57
$GPRMC,183856.500,A,4304.9102,N,07726.5228,W,28.08,0.01,020823,,,D*45
$GPGGA,183856.750,4304.9122,N,07726.5229,W,2,09,0.94,187.1,M,-34.3,M,0000,0000*5F
$GPRMC,183857.000,A,4304.9142,N,07726.5229,W,28.02,0.06,020823,,,D*49
$GPGGA,183857.250,4304.9162,N,07726.5229,W,2,09,0.94,187.7,M,-34.3,M,0000,0000*59
$GPRMC,183857.500,A,4304.9182,N,07726.5228,W,28.02,0.63,020823,,,D*42
$GPGGA,183857.750,4304.9202,N,07726.5228,W,2,09,0.94,188.2,M,-34.3,M,0000,0000*52
$GPRMC,183858.000,A,4304.9222,N,07726.5229,W,28.30,359.99,020823,,,D*4B
$GPGGA,183858.250,4304.9242,N,07726.5229,W,2,09,0.94,188.7,M,-34.3,M,0000,0000*58
$GPRMC,183858.500,A,4304.9263,N,07726.5230,W,28.46,359.56,020823,,,D*41
$GPGGA,183858.750,4304.9283,N,07726.5230,W,2,09,0.94,189.2,M,-34.3,M,0000,0000*5C
$GPRMC,183859.000,A,4304.9304,N,07726.5230,W,28.74,359.58,020823,,,D*4A
$GPGGA,183859.250,4304.9325,N,07726.5231,W,2,08,1.12,189.5,M,-34.3,M,0000,0000*5D
$GPRMC,183859.500,A,4304.9347,N,07726.5231,W,29.03,359.73,020823,,,D*41
$GPGGA,183859.750,4304.9368,N,07726.5231,W,2,08,1.12,189.7,M,-34.3,M,0000,0000*53
$GPRMC,183900.000,A,4304.9390,N,07726.5231,W,29.25,0.14,020823,,,D*49
$GPGGA,183900.250,4304.9412,N,07726.5231,W,2,08,1.12,189.9,M,-34.3,M,0000,0000*5F
$GPRMC,183900.500,A,4304.9434,N,07726.5231,W,29.86,0.74,020823,,,D*4A
$GPGGA,183900.750,4304.9456,N,07726.5230,W,2,08,1.12,190.1,M,-34.3,M,0000,0000*5B
$GPRMC,183901.000,A,4304.9478,N,07726.5229,W,30.25,1.54,020823,,,D*4D
$GPGGA,183901.250,4304.9500,N,07726.5228,W,2,08,1.12,190.4,M,-34.3,M,0000,0000*51
$GPRMC,183901.500,A,4304.9523,N,07726.5227,W,30.75,1.72,020823,,,D*48
$GPGGA,183901.750,4304.9545,N,07726.5226,W,2,08,1.12,190.6,M,-34.3,M,0000,0000*59
$GPRMC,183902.000,A,4304.9567,N,07726.5225,W,30.95,1.41,020823,,,D*42
$GPGGA,183902.250,4304.9589,N,07726.5225,W,2,08,1.12,190.9,M,-34.3,M,0000,0000*53
$GPRMC,183902.500,A,4304.9611,N,07726.5224,W,31.15,1.40,020823,,,D*4C
$GPGGA,183902.750,4304.9634,N,07726.5224,W,2,08,1.12,191.3,M,-34.3,M,0000,0000*59
$GPRMC,183903.000,A,4304.9657,N,07726.5224,W,31.75,0.60,020823,,,D*4F
$GPGGA,183903.250,4304.9679,N,07726.5224,W,2,08,1.12,191.8,M,-34.3,M,0000,0000*5F
$GPRMC,183903.500,A,4304.9702,N,07726.5224,W,32.10,0.29,020823,,,D*46
$GPGGA,183903.750,4304.9724,N,07726.5224,W,2,08,1.12,192.5,M,-34.3,M,0000,0000*5D
$GPRMC,183904.000,A,4304.9747,N,07726.5224,W,32.16,0.34,020823,,,D*4F
$GPGGA,183904.250,4304.9772,N,07726.5225,W,2,08,1.04,191.1,M,-34.3,M,0000,0000*5D
$GPRMC,183904.500,A,4304.9795,N,07726.5225,W,32.57,0.47,020823,,,D*45
$GPGGA,183904.750,4304.9819,N,07726.5225,W,2,08,1.12,191.4,M,-34.3,M,0000,0000*58
$GPRMC,183905.000,A,4304.9842,N,07726.5225,W,32.62,1.00,020823,,,D*40
$GPGGA,183905.250,4304.9865,N,07726.5224,W,2,08,1.12,191.9,M,-34.3,M,0000,0000*5B
$GPRMC,183905.500,A,4304.9888,N,07726.5224,W,32.56,0.72,020823,,,D*41
$GPGGA,183905.750,4304.9910,N,07726.5223,W,2,09,0.94,192.3,M,-34.3,M,0000,0000*5D
$GPRMC,183906.000,A,4304.9932,N,07726.5223,W,31.74,0.86,020823,,,D*48
$GPGGA,183906.250,4304.9954,N,07726.5223,W,2,09,0.94,192.6,M,-34.3,M,0000,0000*5E
$GPRMC,183906.500,A,4304.9977,N,07726.5223,W,31.85,0.64,020823,,,D*4E
$GPGGA,183906.750,4304.9999,N,07726.5222,W,2,09,0.94,192.6,M,-34.3,M,0000,0000*5B
$GPRMC,183907.000,A,4305.0021,N,07726.5222,W,31.57,0.84,020823,,,D*48
$GPGGA,183907.250,4305.0043,N,07726.5222,W,2,09,0.94,192.5,M,-34.3,M,0000,0000*5A
$GPRMC,183907.500,A,4305.0064,N,07726.5222,W,30.63,0.98,020823,,,D*47
$GPGGA,183907.750,4305.0086,N,07726.5221,W,2,09,0.94,192.3,M,-34.3,M,0000,0000*53
$GPRMC,183908.000,A,4305.0107,N,07726.5220,W,30.29,1.30,020823,,,D*46
$GPGGA,183908.250,4305.0129,N,07726.5220,W,2,09,0.94,192.1,M,-34.3,M,0000,0000*5E
$GPRMC,183908.500,A,4305.0151,N,07726.5220,W,30.33,1.01,020823,,,D*49
$GPGGA,183908.750,4305.0173,N,07726.5219,W,2,09,0.94,191.8,M,-34.3,M,0000,0000*54
$GPRMC,183909.000,A,4305.0195,N,07726.5219,W,30.79,0.83,020823,,,D*4A
$GPGGA,183909.250,4305.0217,N,07726.5219,W,2,09,0.94,191.6,M,-34.3,M,0000,0000*5F
$GPRMC,183909.500,A,4305.0240,N,07726.5218,W,30.79,0.37,020823,,,D*4A
$GPGGA,183909.750,4305.0262,N,07726.5218,W,2,09,0.94,191.3,M,-34.3,M,0000,0000*5C
$GPRMC,183910.000,A,4305.0285,N,07726.5218,W,31.01,0.74,020823,,,D*47
$GPGGA,183910.250,4305.0308,N,07726.5218,W,2,09,0.94,191.0,M,-34.3,M,0000,0000*5F
$GPRMC,183910.500,A,4305.0331,N,07726.5217,W,31.44,0.67,020823,,,D*40
$GPGGA,183910.750,4305.0354,N,07726.5217,W,2,09,0.94,190.6,M,-34.3,M,0000,0000*5B
$GPRMC,183911.000,A,4305.0376,N,07726.5217,W,31.75,0.34,020823,,,D*43
$GPGGA,183911.250,4305.0399,N,07726.5217,W,2,09,0.94,190.5,M,-34.3,M,0000,0000*5D
$GPRMC,183911.500,A,4305.0422,N,07726.5217,W,32.17,0.06,020823,,,D*46
$GPGGA,183911.750,4305.0445,N,07726.5217,W,2,09,0.94,190.6,M,-34.3,M,0000,0000*5D
$GPRMC,183912.000,A,4305.0468,N,07726.5217,W,32.37,359.49,020823,,,D*48
$GPGGA,183912.250,4305.0491,N,07726.5217,W,2,09,0.94,190.5,M,-34.3,M,0000,0000*51
$GPRMC,183912.500,A,4305.0514,N,07726.5218,W,32.49,359.36,020823,,,D*49
$GPGGA,183912.750,4305.0537,N,07726.5219,W,2,09,0.94,190.5,M,-34.3,M,0000,0000*57
$GPRMC,183913.000,A,4305.0560,N,07726.5219,W,32.65,359.18,020823,,,D*4D
$GPGGA,183913.250,4305.0583,N,07726.5220,W,2,09,0.94,190.3,M,-34.3,M,0000,0000*50
$GPRMC,183913.500,A,4305.0606,N,07726.5221,W,32.82,359.10,020823,,,D*41
$GPGGA,183913.750,4305.0629,N,07726.5222,W,2,09,0.94,190.3,M,-34.3,M,0000,0000*54
$GPRMC,183914.000,A,4305.0652,N,07726.5222,W,33.01,359.21,020823,,,D*49
$GPGGA,183914.250,4305.0676,N,07726.5223,W,2,09,0.94,190.3,M,-34.3,M,0000,0000*5D
$GPRMC,183914.500,A,4305.0699,N,07726.5224,W,33.09,359.08,020823,,,D*4E
$GPGGA,183914.750,4305.0723,N,07726.5224,W,2,09,0.94,190.2,M,-34.3,M,0000,0000*5F
$GPRMC,183915.000,A,4305.0747,N,07726.5225,W,33.18,359.42,020823,,,D*47
$GPGGA,183915.250,4305.0771,N,07726.5226,W,2,09,0.94,190.2,M,-34.3,M,0000,0000*5E
$GPRMC,183915.500,A,4305.0795,N,07726.5227,W,33.62,359.37,020823,,,D*40
$GPGGA,183915.750,4305.0819,N,07726.5228,W,2,09,0.94,190.0,M,-34.3,M,0000,0000*56
$GPRMC,183916.000,A,4305.0844,N,07726.5229,W,34.00,359.46,020823,,,D*4E
$GPGGA,183916.250,4305.0868,N,07726.5230,W,2,09,0.94,189.9,M,-34.3,M,0000,0000*5E
$GPRMC,183916.500,A,4305.0893,N,07726.5232,W,34.20,358.97,020823,,,D*44
$GPGGA,183916.750,4305.0917,N,07726.5232,W,2,09,0.94,189.7,M,-34.3,M,0000,0000*5E
$GPRMC,183917.000,A,4305.0941,N,07726.5232,W,34.16,359.93,020823,,,D*4E
$GPGGA,183917.250,4305.0965,N,07726.5232,W,2,09,0.94,189.7,M,-34.3,M,0000,0000*5F
$GPRMC,183917.500,A,4305.0989,N,07726.5232,W,34.35,0.08,020823,,,D*43
$GPGGA,183917.750,4305.1013,N,07726.5232,W,2,09,0.94,189.7,M,-34.3,M,0000,0000*53
$GPRMC,183918.000,A,4305.1037,N,07726.5233,W,34.44,359.90,020823,,,D*4D
$GPGGA,183918.250,4305.1061,N,07726.5233,W,2,09,0.94,189.7,M,-34.3,M,0000,0000*5D
$GPRMC,183918.500,A,4305.1085,N,07726.5233,W,34.50,359.97,020823,,,D*43
$GPGGA,183918.750,4305.1110,N,07726.5234,W,2,09,0.94,189.7,M,-34.3,M,0000,0000*58
$GPRMC,183919.000,A,4305.1134,N,07726.5234,W,34.60,359.95,020823,,,D*4A
$GPGGA,183919.250,4305.1158,N,07726.5235,W,2,09,0.92,189.8,M,-34.3,M,0000,0000*58
$GPRMC,183919.500,A,4305.1183,N,07726.5236,W,35.05,359.66,020823,,,D*4F
$GPGGA,183919.750,4305.1208,N,07726.5237,W,2,09,0.94,189.8,M,-34.3,M,0000,0000*5F
$GPRMC,183920.000,A,4305.1233,N,07726.5237,W,36.07,0.19,020823,,,D*4F
$GPGGA,183920.250,4305.1259,N,07726.5237,W,2,09,0.94,190.0,M,-34.3,M,0000,0000*54
$GPRMC,183920.500,A,4305.1285,N,07726.5237,W,36.89,0.05,020823,,,D*4C
$GPGGA,183920.750,4305.1310,N,07726.5238,W,2,09,0.94,190.2,M,-34.3,M,0000,0000*50
$GPRMC,183921.000,A,4305.1335,N,07726.5239,W,36.96,359.32,020823,,,D*49
$GPGGA,183921.250,4305.1360,N,07726.5239,W,2,09,0.94,190.4,M,-34.3,M,0000,0000*54
$GPRMC,183921.500,A,4305.1386,N,07726.5240,W,36.93,358.83,020823,,,D*44
$GPGGA,183921.750,4305.1411,N,07726.5241,W,2,09,0.94,190.7,M,-34.3,M,0000,0000*5C
$GPRMC,183922.000,A,4305.1437,N,07726.5241,W,37.01,358.82,020823,,,D*45
$GPGGA,183922.250,4305.1463,N,07726.5242,W,2,09,0.94,190.8,M,-34.3,M,0000,0000*53
$GPRMC,183922.500,A,4305.1490,N,07726.5242,W,37.18,359.05,020823,,,D*48
$GPGGA,183922.750,4305.1516,N,07726.5243,W,2,09,0.94,190.8,M,-34.3,M,0000,0000*54
$GPRMC,183923.000,A,4305.1541,N,07726.5243,W,37.17,359.61,020823,,,D*4D
$GPGGA,183923.250,4305.1568,N,07726.5243,W,2,09,0.94,190.9,M,-34.3,M,0000,0000*58
$GPRMC,183923.500,A,4305.1593,N,07726.5243,W,37.15,0.00,020823,,,D*4D
$GPGGA,183923.750,4305.1619,N,07726.5243,W,2,09,0.94,190.9,M,-34.3,M,0000,0000*58
$GPRMC,183924.000,A,4305.1646,N,07726.5243,W,37.12,0.43,020823,,,D*44
$GPGGA,183924.250,4305.1672,N,07726.5242,W,2,09,0.92,190.8,M,-34.3,M,0000,0000*51
$GPRMC,183924.500,A,4305.1699,N,07726.5242,W,37.33,0.36,020823,,,D*43
$GPGGA,183924.750,4305.1726,N,07726.5242,W,2,09,0.94,190.5,M,-34.3,M,0000,0000*5F
$GPRMC,183925.000,A,4305.1753,N,07726.5243,W,37.93,359.83,020823,,,D*4A
$GPGGA,183925.250,4305.1780,N,07726.5243,W,2,09,0.94,190.0,M,-34.3,M,0000,0000*53
$GPRMC,183925.500,A,4305.1808,N,07726.5243,W,38.32,359.67,020823,,,D*40
$GPGGA,183925.750,4305.1835,N,07726.5243,W,2,09,0.94,189.8,M,-34.3,M,0000,0000*57
$GPRMC,183926.000,A,4305.1864,N,07726.5242,W,39.77,0.20,020823,,,D*41
$GPGGA,183926.250,4305.1892,N,07726.5242,W,2,09,0.94,189.5,M,-34.3,M,0000,0000*50
$GPRMC,183926.500,A,4305.1920,N,07726.5243,W,39.55,359.38,020823,,,D*42
$GPGGA,183926.750,4305.1948,N,07726.5244,W,2,09,0.95,189.3,M,-34.3,M,0000,0000*52
$GPRMC,183927.000,A,4305.1975,N,07726.5243,W,39.33,359.45,020823,,,D*4C
$GPGGA,183927.250,4305.2003,N,07726.5243,W,2,09,0.94,188.7,M,-34.3,M,0000,0000*50
$GPRMC,183927.500,A,4305.2031,N,07726.5243,W,39.53,359.71,020823,,,D*42
$GPGGA,183927.750,4305.2058,N,07726.5243,W,2,09,0.94,188.2,M,-34.3,M,0000,0000*5E
$GPRMC,183928.000,A,4305.2085,N,07726.5242,W,39.25,359.73,020823,,,D*45
$GPGGA,183928.250,4305.2112,N,07726.5243,W,2,09,0.94,187.8,M,-34.3,M,0000,0000*5E
$GPRMC,183928.500,A,4305.2139,N,07726.5243,W,38.98,359.46,020823,,,D*46
$GPGGA,183928.750,4305.2165,N,07726.5242,W,2,09,0.94,187.7,M,-34.3,M,0000,0000*55
$GPRMC,183929.000,A,4305.2192,N,07726.5241,W,38.37,359.83,020823,,,D*4D
$GPGGA,183929.250,4305.2218,N,07726.5240,W,2,09,0.95,187.5,M,-34.3,M,0000,0000*59
$GPRMC,183929.500,A,4305.2244,N,07726.5239,W,37.88,0.46,020823,,,D*42
$GPGGA,183929.750,4305.2270,N,07726.5238,W,2,09,0.94,187.4,M,-34.3,M,0000,0000*5D
$GPRMC,183930.000,A,4305.2297,N,07726.5237,W,37.73,0.40,020823,,,D*4D
$GPGGA,183930.250,4305.2323,N,07726.5237,W,2,09,0.94,187.2,M,-34.3,M,0000,0000*5E
$GPRMC,183930.500,A,4305.2349,N,07726.5236,W,37.68,0.36,020823,,,D*40
$GPGGA,183930.750,4305.2375,N,07726.5235,W,2,08,1.12,187.2,M,-34.3,M,0000,0000*54
$GPRMC,183931.000,A,4305.2401,N,07726.5234,W,37.97,0.65,020823,,,D*4B
$GPGGA,183931.250,4305.2427,N,07726.5233,W,2,08,1.12,187.4,M,-34.3,M,0000,0000*50
$GPRMC,183931.500,A,4305.2453,N,07726.5232,W,38.20,1.35,020823,,,D*48
$GPGGA,183931.750,4305.2480,N,07726.5231,W,2,08,1.12,187.9,M,-34.3,M,0000,0000*57
$GPRMC,183932.000,A,4305.2506,N,07726.5230,W,38.26,1.32,020823,,,D*4C
$GPGGA,183932.250,4305.2533,N,07726.5230,W,2,09,0.94,188.2,M,-34.3,M,0000,0000*53
$GPRMC,183932.500,A,4305.2560,N,07726.5230,W,38.54,0.63,020823,,,D*49
$GPGGA,183932.750,4305.2587,N,07726.5230,W,2,09,0.94,188.5,M,-34.3,M,0000,0000*5E
$GPRMC,183933.000,A,4305.2613,N,07726.5230,W,38.52,0.68,020823,,,D*47
$GPGGA,183933.250,4305.2640,N,07726.5230,W,2,09,0.94,188.5,M,-34.3,M,0000,0000*52
$GPRMC,183933.500,A,4305.2666,N,07726.5230,W,38.62,359.42,020823,,,D*44
$GPGGA,183933.750,4305.2692,N,07726.5231,W,2,09,0.95,188.7,M,-34.3,M,0000,0000*5A
$GPRMC,183934.000,A,4305.2719,N,07726.5231,W,38.45,359.71,020823,,,D*4B
$GPGGA,183934.250,4305.2744,N,07726.5231,W,2,08,1.12,189.0,M,-34.3,M,0000,0000*5B
$GPRMC,183934.500,A,4305.2770,N,07726.5231,W,36.88,359.76,020823,,,D*49
$GPGGA,183934.750,4305.2795,N,07726.5231,W,2,08,1.12,189.3,M,-34.3,M,0000,0000*51
$GPRMC,183935.000,A,4305.2820,N,07726.5232,W,36.69,359.79,020823,,,D*44
$GPGGA,183935.250,4305.2845,N,07726.5231,W,2,08,1.12,189.4,M,-34.3,M,0000,0000*50
$GPRMC,183935.500,A,4305.2871,N,07726.5231,W,36.24,0.12,020823,,,D*4D
$GPGGA,183935.750,4305.2896,N,07726.5231,W,2,08,1.12,189.4,M,-34.3,M,0000,0000*5B
$GPRMC,183936.000,A,4305.2921,N,07726.5231,W,36.08,359.85,020823,,,D*40
$GPGGA,183936.250,4305.2945,N,07726.5231,W,2,08,1.12,189.3,M,-34.3,M,0000,0000*55
$GPRMC,183936.500,A,4305.2970,N,07726.5231,W,34.94,359.91,020823,,,D*43
$GPGGA,183936.750,4305.2995,N,07726.5230,W,2,08,1.12,188.9,M,-34.3,M,0000,0000*57
$GPRMC,183937.000,A,4305.3021,N,07726.5230,W,34.94,359.71,020823,,,D*44
$GPGGA,183937.250,4305.3045,N,07726.5231,W,2,08,1.12,188.5,M,-34.3,M,0000,0000*5B
$GPRMC,183937.500,A,4305.3070,N,07726.5231,W,34.85,359.43,020823,,,D*45
$GPGGA,183937.750,4305.3095,N,07726.5231,W,2,08,1.12,188.3,M,-34.3,M,0000,0000*55
$GPRMC,183938.000,A,4305.3120,N,07726.5231,W,34.82,359.50,020823,,,D*4E
$GPGGA,183938.250,4305.3145,N,07726.5231,W,2,08,1.12,187.7,M,-34.3,M,0000,0000*58
$GPRMC,183938.500,A,4305.3170,N,07726.5231,W,34.85,359.62,020823,,,D*48
$GPGGA,183938.750,4305.3196,N,07726.5231,W,2,08,1.12,187.2,M,-34.3,M,0000,0000*56
$GPRMC,183939.000,A,4305.3221,N,07726.5232,W,34.87,358.81,020823,,,D*46
$GPGGA,183939.250,4305.3246,N,07726.5233,W,2,08,1.12,187.3,M,-34.3,M,0000,0000*5F
$GPRMC,183939.500,A,4305.3271,N,07726.5233,W,34.96,359.73,020823,,,D*4B
$GPGGA,183939.750,4305.3295,N,07726.5233,W,2,09,0.94,187.7,M,-34.3,M,0000,0000*5E
$GPRMC,183940.000,A,4305.3320,N,07726.5234,W,34.94,358.56,020823,,,D*46
$GPGGA,183940.250,4305.3347,N,07726.5233,W,2,08,1.04,184.1,M,-34.3,M,0000,0000*57
$GPRMC,183940.500,A,4305.3371,N,07726.5233,W,35.19,358.86,020823,,,D*49
$GPGGA,183940.750,4305.3396,N,07726.5234,W,2,09,0.94,184.1,M,-34.3,M,0000,0000*50
$GPRMC,183941.000,A,4305.3420,N,07726.5235,W,35.03,358.29,020823,,,D*46
$GPGGA,183941.250,4305.3444,N,07726.5235,W,2,09,0.94,184.3,M,-34.3,M,0000,0000*5F
$GPRMC,183941.500,A,4305.3468,N,07726.5235,W,34.41,359.59,020823,,,D*4E
$GPGGA,183941.750,4305.3491,N,07726.5234,W,2,09,0.95,184.6,M,-34.3,M,0000,0000*57
$GPRMC,183942.000,A,4305.3514,N,07726.5233,W,33.53,0.36,020823,,,D*46
$GPGGA,183942.250,4305.3538,N,07726.5233,W,2,09,0.94,185.0,M,-34.3,M,0000,0000*52
$GPRMC,183942.500,A,4305.3561,N,07726.5233,W,33.21,359.64,020823,,,D*4C
$GPGGA,183942.750,4305.3583,N,07726.5233,W,2,08,1.12,185.8,M,-34.3,M,0000,0000*51
$GPRMC,183943.000,A,4305.3606,N,07726.5233,W,32.64,359.25,020823,,,D*4F
$GPGGA,183943.250,4305.3631,N,07726.5232,W,2,09,0.92,182.8,M,-34.3,M,0000,0000*51
$GPRMC,183943.500,A,4305.3655,N,07726.5231,W,32.42,358.21,020823,,,D*4F
$GPGGA,183943.750,4305.3678,N,07726.5233,W,2,09,0.94,180.7,M,-34.3,M,0000,0000*53
$GPRMC,183944.000,A,4305.3700,N,07726.5235,W,31.85,356.69,020823,,,D*42
$GPGGA,183944.250,4305.3724,N,07726.5233,W,2,08,1.04,180.5,M,-34.3,M,0000,0000*52
$GPRMC,183944.500,A,4305.3747,N,07726.5230,W,32.96,0.54,020823,,,D*4E
$GPGGA,183944.750,4305.3770,N,07726.5228,W,2,08,1.12,180.3,M,-34.3,M,0000,0000*5D
$GPRMC,183945.000,A,4305.3793,N,07726.5228,W,32.68,0.44,020823,,,D*4A
$GPGGA,183945.250,4305.3817,N,07726.5225,W,2,09,0.92,178.5,M,-34.3,M,0000,0000*53
$GPRMC,183945.500,A,4305.3839,N,07726.5225,W,32.74,0.22,020823,,,D*40
$GPGGA,183945.750,4305.3860,N,07726.5223,W,2,09,0.95,178.7,M,-34.3,M,0000,0000*55
$GPRMC,183946.000,A,4305.3881,N,07726.5221,W,32.40,1.33,020823,,,D*47
$GPGGA,183946.250,4305.3902,N,07726.5220,W,2,08,1.12,179.1,M,-34.3,M,0000,0000*5D
$GPRMC,183946.500,A,4305.3923,N,07726.5219,W,30.48,0.64,020823,,,D*49
$GPGGA,183946.750,4305.3944,N,07726.5219,W,2,09,0.95,179.5,M,-34.3,M,0000,0000*5B
$GPRMC,183947.000,A,4305.3964,N,07726.5219,W,29.80,0.14,020823,,,D*45
$GPGGA,183947.250,4305.3987,N,07726.5217,W,2,08,1.04,177.8,M,-34.3,M,0000,0000*55
$GPRMC,183947.500,A,4305.4008,N,07726.5217,W,30.29,0.51,020823,,,D*40
$GPGGA,183947.750,4305.4029,N,07726.5217,W,2,08,1.12,177.6,M,-34.3,M,0000,0000*53
$GPRMC,183948.000,A,4305.4049,N,07726.5216,W,30.07,0.48,020823,,,D*4A
$GPGGA,183948.250,4305.4069,N,07726.5215,W,2,08,1.12,177.7,M,-34.3,M,0000,0000*5E
$GPRMC,183948.500,A,4305.4088,N,07726.5215,W,30.03,0.55,020823,,,D*49
$GPGGA,183948.750,4305.4106,N,07726.5214,W,2,09,0.95,177.8,M,-34.3,M,0000,0000*52
$GPRMC,183949.000,A,4305.4124,N,07726.5214,W,27.40,0.50,020823,,,D*4F
$GPGGA,183949.250,4305.4141,N,07726.5213,W,2,08,1.12,178.2,M,-34.3,M,0000,0000*58
$GPRMC,183949.500,A,4305.4158,N,07726.5213,W,26.12,0.52,020823,,,D*42
$GPGGA,183949.750,4305.4175,N,07726.5212,W,2,08,1.12,178.5,M,-34.3,M,0000,0000*5C
$GPRMC,183950.000,A,4305.4192,N,07726.5211,W,25.55,0.38,020823,,,D*47
$GPGGA,183950.250,4305.4210,N,07726.5211,W,2,08,1.12,178.7,M,-34.3,M,0000,0000*50
$GPRMC,183950.500,A,4305.4227,N,07726.5211,W,25.19,359.68,020823,,,D*4D
$GPGGA,183950.750,4305.4244,N,07726.5211,W,2,08,1.12,179.0,M,-34.3,M,0000,0000*52
$GPRMC,183951.000,A,4305.4261,N,07726.5211,W,24.99,359.10,020823,,,D*4D
$GPGGA,183951.250,4305.4278,N,07726.5211,W,2,08,1.12,179.3,M,-34.3,M,0000,0000*5A
$GPRMC,183951.500,A,4305.4294,N,07726.5211,W,24.55,359.29,020823,,,D*48
$GPGGA,183951.750,4305.4311,N,07726.5210,W,2,09,0.95,179.3,M,-34.3,M,0000,0000*5F
$GPRMC,183952.000,A,4305.4328,N,07726.5210,W,24.34,359.67,020823,,,D*44
$GPGGA,183952.250,4305.4344,N,07726.5209,W,2,09,0.94,179.3,M,-34.3,M,0000,0000*50
$GPRMC,183952.500,A,4305.4361,N,07726.5209,W,24.13,0.26,020823,,,D*4B
$GPGGA,183952.750,4305.4378,N,07726.5208,W,2,08,0.99,179.2,M,-34.3,M,0000,0000*56
$GPRMC,183953.000,A,4305.4395,N,07726.5208,W,24.02,0.72,020823,,,D*44
$GPGGA,183953.250,4305.4412,N,07726.5207,W,2,07,1.26,179.2,M,-34.3,M,0000,0000*5C
$GPRMC,183953.500,A,4305.4428,N,07726.5206,W,23.90,0.89,020823,,,D*46
$GPGGA,183953.750,4305.4445,N,07726.5206,W,2,08,1.12,179.2,M,-34.3,M,0000,0000*52
$GPRMC,183954.000,A,4305.4462,N,07726.5206,W,23.89,0.78,020823,,,D*4C
$GPGGA,183954.250,4305.4479,N,07726.5205,W,2,08,1.13,179.4,M,-34.3,M,0000,0000*5B
$GPRMC,183954.500,A,4305.4496,N,07726.5205,W,24.30,1.14,020823,,,D*4F
$GPGGA,183954.750,4305.4513,N,07726.5204,W,2,08,1.13,179.5,M,-34.3,M,0000,0000*53
$GPRMC,183955.000,A,4305.4530,N,07726.5203,W,24.54,1.30,020823,,,D*44
$GPGGA,183955.250,4305.4548,N,07726.5203,W,2,08,1.12,179.6,M,-34.3,M,0000,0000*5C
$GPRMC,183955.500,A,4305.4565,N,07726.5202,W,24.77,1.18,020823,,,D*4B
$GPGGA,183955.750,4305.4582,N,07726.5202,W,2,08,1.13,179.7,M,-34.3,M,0000,0000*5E
$GPRMC,183956.000,A,4305.4599,N,07726.5201,W,24.69,1.15,020823,,,D*4F
$GPGGA,183956.250,4305.4616,N,07726.5201,W,2,08,1.13,179.9,M,-34.3,M,0000,0000*5B
$GPRMC,183956.500,A,4305.4633,N,07726.5201,W,24.61,0.44,020823,,,D*44
$GPGGA,183956.750,4305.4651,N,07726.5201,W,2,08,1.13,180.0,M,-34.3,M,0000,0000*52
$GPRMC,183957.000,A,4305.4669,N,07726.5200,W,24.61,0.88,020823,,,D*4E
$GPGGA,183957.250,4305.4686,N,07726.5200,W,2,08,1.13,180.1,M,-34.3,M,0000,0000*5C
$GPRMC,183957.500,A,4305.4703,N,07726.5200,W,24.86,0.97,020823,,,D*41
$GPGGA,183957.750,4305.4721,N,07726.5199,W,2,09,0.95,180.2,M,-34.3,M,0000,0000*5B
$GPRMC,183958.000,A,4305.4738,N,07726.5199,W,24.98,0.79,020823,,,D*4F
$GPGGA,183958.250,4305.4756,N,07726.5199,W,2,09,0.95,180.4,M,-34.3,M,0000,0000*57
$GPRMC,183958.500,A,4305.4773,N,07726.5199,W,25.11,0.67,020823,,,D*4A
$GPGGA,183958.750,4305.4790,N,07726.5199,W,2,08,1.13,180.6,M,-34.3,M,0000,0000*54
$GPRMC,183959.000,A,4305.4809,N,07726.5199,W,25.63,0.27,020823,,,D*4D
$GPGGA,183959.250,4305.4827,N,07726.5199,W,2,09,0.95,180.7,M,-34.3,M,0000,0000*5C
$GPRMC,183959.500,A,4305.4846,N,07726.5199,W,26.36,0.14,020823,,,D*40
