Vers 81
USE_SERIAL_FEEDBACK=true
DEVELOPMENT_MODE=false
USE_RMC_ONLY=false

$GPRMC,202503.000,A,4305.1281,N,07741.1002,W,0.05,207.65,050923,,,A*7A
$GPGGA,202503.250,4305.1281,N,07741.1002,W,1,04,1.60,168.3,M,-34.4,M,,*50
$GPRMC,202503.500,A,4305.1282,N,07741.1001,W,0.05,336.93,050923,,,A*75
$GPGGA,202503.750,4305.1282,N,07741.1000,W,1,04,1.60,168.3,M,-34.4,M,,*54
$GPRMC,202504.000,A,4305.1282,N,07741.0999,W,0.04,25.28,050923,,,A*4E
$GPGGA,202504.250,4305.1281,N,07741.0997,W,1,04,1.60,168.9,M,-34.4,M,,*59
$GPRMC,202504.500,A,4305.1281,N,07741.0996,W,0.11,56.00,050923,,,A*4D
$GPGGA,202504.750,4305.1280,N,07741.0995,W,1,04,1.60,169.4,M,-34.4,M,,*53
$GPRMC,202505.000,A,4305.1280,N,07741.0995,W,0.05,64.72,050923,,,A*4A
$GPGGA,202505.250,4305.1279,N,07741.0995,W,1,04,1.60,169.6,M,-34.4,M,,*53
$GPRMC,202505.500,A,4305.1279,N,07741.0995,W,0.11,331.24,050923,,,A*7C
$GPGGA,202505.750,4305.1278,N,07741.0995,W,1,04,1.60,170.0,M,-34.4,M,,*59
$GPRMC,202506.000,A,4305.1278,N,07741.0995,W,0.21,316.35,050923,,,A*7D
$GPGGA,202506.250,4305.1278,N,07741.0995,W,1,04,1.60,170.2,M,-34.4,M,,*5D
$GPRMC,202506.500,A,4305.1277,N,07741.0996,W,0.17,305.44,050923,,,A*75
$GPGGA,202506.750,4305.1277,N,07741.0996,W,1,04,1.60,170.3,M,-34.4,M,,*55
$GPRMC,202507.000,A,4305.1277,N,07741.0996,W,0.12,315.65,050923,,,A*76
$GPGGA,202507.250,4305.1276,N,07741.0996,W,1,04,1.60,170.6,M,-34.4,M,,*55
$GPRMC,202507.500,A,4305.1276,N,07741.0997,W,0.10,318.50,050923,,,A*7A
$GPGGA,202507.750,4305.1276,N,07741.0997,W,1,04,1.60,170.9,M,-34.4,M,,*5E
$GPRMC,202508.000,A,4305.1275,N,07741.0997,W,0.06,324.68,050923,,,A*70
$GPGGA,202508.250,4305.1274,N,07741.0997,W,1,04,1.60,171.4,M,-34.4,M,,*5A
$GPRMC,202508.500,A,4305.1274,N,07741.0997,W,0.06,334.17,050923,,,A*7D
$GPGGA,202508.750,4305.1274,N,07741.0997,W,1,04,1.60,171.7,M,-34.4,M,,*5C
$GPRMC,202509.000,A,4305.1274,N,07741.0997,W,0.06,330.81,050923,,,A*72
$GPGGA,202509.250,4305.1273,N,07741.0997,W,1,04,1.60,171.7,M,-34.4,M,,*5F
$GPRMC,202509.500,A,4305.1273,N,07741.0997,W,0.04,208.58,050923,,,A*7C
$GPGGA,202509.750,4305.1272,N,07741.0998,W,1,04,1.60,171.7,M,-34.4,M,,*54
$GPRMC,202510.000,A,4305.1272,N,07741.0998,W,0.09,201.05,050923,,,A*73
$GPGGA,202510.250,4305.1272,N,07741.0998,W,1,04,1.60,171.8,M,-34.4,M,,*56
$GPRMC,202510.500,A,4305.1271,N,07741.0998,W,0.07,221.33,050923,,,A*7C
$GPGGA,202510.750,4305.1271,N,07741.0999,W,1,04,1.60,171.9,M,-34.4,M,,*50
$GPRMC,202511.000,A,4305.1271,N,07741.0999,W,0.04,224.77,050923,,,A*7F
$GPGGA,202511.250,4305.1271,N,07741.1000,W,1,04,1.60,171.8,M,-34.4,M,,*5D
$GPRMC,202511.500,A,4305.1271,N,07741.1000,W,0.07,238.19,050923,,,A*74
$GPGGA,202511.750,4305.1272,N,07741.1001,W,1,04,1.60,171.6,M,-34.4,M,,*54
$GPRMC,202512.000,A,4305.1272,N,07741.1001,W,0.14,241.71,050923,,,A*72
$GPGGA,202512.250,4305.1272,N,07741.1002,W,1,04,1.60,171.4,M,-34.4,M,,*53
$GPRMC,202512.500,A,4305.1272,N,07741.1002,W,0.15,259.20,050923,,,A*78
$GPGGA,202512.750,4305.1273,N,07741.1002,W,1,04,1.60,171.1,M,-34.4,M,,*52
$GPRMC,202513.000,A,4305.1273,N,07741.1003,W,0.13,235.60,050923,,,A*74
$GPGGA,202513.250,4305.1274,N,07741.1003,W,1,04,1.60,170.9,M,-34.4,M,,*59
$GPRMC,202513.500,A,4305.1274,N,07741.1003,W,0.16,259.09,050923,,,A*76
$GPGGA,202513.750,4305.1275,N,07741.1004,W,1,04,1.60,170.6,M,-34.4,M,,*55
$GPRMC,202514.000,A,4305.1275,N,07741.1004,W,0.17,257.51,050923,,,A*70
$GPGGA,202514.250,4305.1275,N,07741.1004,W,1,04,1.60,170.3,M,-34.4,M,,*52
$GPRMC,202514.500,A,4305.1276,N,07741.1004,W,0.17,232.93,050923,,,A*7B
$GPGGA,202514.750,4305.1276,N,07741.1004,W,1,04,1.60,170.1,M,-34.4,M,,*56
$GPRMC,202515.000,A,4305.1276,N,07741.1004,W,0.16,212.58,050923,,,A*7B
$GPGGA,202515.250,4305.1277,N,07741.1004,W,1,04,1.60,169.9,M,-34.4,M,,*53
$GPRMC,202515.500,A,4305.1277,N,07741.1004,W,0.09,228.46,050923,,,A*77
$GPGGA,202515.750,4305.1278,N,07741.1004,W,1,04,1.60,169.8,M,-34.4,M,,*58
$GPRMC,202516.000,A,4305.1278,N,07741.1003,W,0.01,258.31,050923,,,A*76
$GPGGA,202516.250,4305.1279,N,07741.1003,W,1,04,1.60,169.7,M,-34.4,M,,*57
$GPRMC,202516.500,A,4305.1279,N,07741.1003,W,0.02,145.80,050923,,,A*74
$GPGGA,202516.750,4305.1279,N,07741.1003,W,1,04,1.60,169.5,M,-34.4,M,,*50
$GPRMC,202517.000,A,4305.1279,N,07741.1003,W,0.01,274.06,050923,,,A*7C
$GPGGA,202517.250,4305.1280,N,07741.1003,W,1,04,1.60,169.4,M,-34.4,M,,*53
$GPRMC,202517.500,A,4305.1280,N,07741.1003,W,0.01,87.81,050923,,,A*4E
$GPGGA,202517.750,4305.1280,N,07741.1003,W,1,04,1.60,169.4,M,-34.4,M,,*56
$GPRMC,202518.000,A,4305.1280,N,07741.1003,W,0.03,85.85,050923,,,A*40
$GPGGA,202518.250,4305.1280,N,07741.1003,W,1,04,1.60,169.3,M,-34.4,M,,*5B
$GPRMC,202518.500,A,4305.1280,N,07741.1003,W,0.01,179.74,050923,,,A*7B
$GPGGA,202518.750,4305.1280,N,07741.1003,W,1,04,1.60,169.2,M,-34.4,M,,*5F
$GPRMC,202519.000,A,4305.1280,N,07741.1003,W,0.04,87.44,050923,,,A*49
$GPGGA,202519.250,4305.1281,N,07741.1003,W,1,04,1.60,169.3,M,-34.4,M,,*5B
$GPRMC,202519.500,A,4305.1281,N,07741.1003,W,0.05,52.83,050923,,,A*4F
$GPGGA,202519.750,4305.1281,N,07741.1003,W,1,04,1.60,169.2,M,-34.4,M,,*5F
$GPRMC,202520.000,A,4305.1281,N,07741.1003,W,0.01,24.78,050923,,,A*41
$GPGGA,202520.250,4305.1283,N,07741.1005,W,1,05,1.22,168.2,M,-34.4,M,,*52
$GPRMC,202520.500,A,4305.1285,N,07741.1007,W,0.12,296.25,050923,,,A*75
$GPGGA,202520.750,4305.1285,N,07741.1008,W,1,05,1.22,166.6,M,-34.4,M,,*56
$GPRMC,202521.000,A,4305.1286,N,07741.1008,W,0.14,140.60,050923,,,A*72
$GPGGA,202521.250,4305.1287,N,07741.1009,W,1,05,1.22,165.3,M,-34.4,M,,*57
$GPRMC,202521.500,A,4305.1289,N,07741.1009,W,0.15,131.04,050923,,,A*7C
$GPGGA,202521.750,4305.1290,N,07741.1010,W,1,05,1.22,164.1,M,-34.4,M,,*5F
$GPRMC,202522.000,A,4305.1291,N,07741.1011,W,0.12,107.95,050923,,,A*70
$GPGGA,202522.250,4305.1292,N,07741.1011,W,1,05,1.22,163.3,M,-34.4,M,,*5F
$GPRMC,202522.500,A,4305.1293,N,07741.1011,W,0.15,74.34,050923,,,A*4E
$GPGGA,202522.750,4305.1294,N,07741.1012,W,1,05,1.22,162.6,M,-34.4,M,,*5B
$GPRMC,202523.000,A,4305.1294,N,07741.1013,W,0.08,31.76,050923,,,A*44
$GPGGA,202523.250,4305.1295,N,07741.1013,W,1,05,1.22,162.0,M,-34.4,M,,*59
$GPRMC,202523.500,A,4305.1295,N,07741.1013,W,0.11,29.29,050923,,,A*4B
$GPGGA,202523.750,4305.1295,N,07741.1014,W,1,05,1.22,161.6,M,-34.4,M,,*5E
$GPRMC,202524.000,A,4305.1296,N,07741.1014,W,0.07,29.29,050923,,,A*4A
$GPGGA,202524.250,4305.1296,N,07741.1014,W,1,05,1.22,161.1,M,-34.4,M,,*58
$GPRMC,202524.500,A,4305.1297,N,07741.1014,W,0.06,20.49,050923,,,A*40
$GPGGA,202524.750,4305.1297,N,07741.1014,W,1,05,1.22,160.8,M,-34.4,M,,*54
$GPRMC,202525.000,A,4305.1298,N,07741.1014,W,0.10,0.46,050923,,,A*71
$GPGGA,202525.250,4305.1298,N,07741.1014,W,1,05,1.25,160.6,M,-34.4,M,,*56
$GPRMC,202525.500,A,4305.1298,N,07741.1014,W,0.07,23.35,050923,,,A*47
$GPGGA,202525.750,4305.1298,N,07741.1014,W,1,05,1.22,160.4,M,-34.4,M,,*56
$GPRMC,202526.000,A,4305.1298,N,07741.1014,W,0.01,175.86,050923,,,A*7D
$GPGGA,202526.250,4305.1298,N,07741.1014,W,1,06,1.21,160.0,M,-34.4,M,,*54
$GPRMC,202526.500,A,4305.1299,N,07741.1014,W,0.02,42.82,050923,,,A*4B
$GPGGA,202526.750,4305.1299,N,07741.1014,W,1,06,1.22,159.7,M,-34.4,M,,*5E
$GPRMC,202527.000,A,4305.1299,N,07741.1014,W,0.02,187.37,050923,,,A*79
$GPGGA,202527.250,4305.1299,N,07741.1014,W,1,06,1.21,159.5,M,-34.4,M,,*5B
$GPRMC,202527.500,A,4305.1299,N,07741.1014,W,0.03,172.18,050923,,,A*7A
$GPGGA,202527.750,4305.1299,N,07741.1014,W,1,06,1.21,159.1,M,-34.4,M,,*5A
$GPRMC,202528.000,A,4305.1300,N,07741.1014,W,0.02,32.68,050923,,,A*42
$GPGGA,202528.250,4305.1300,N,07741.1014,W,1,06,1.21,158.9,M,-34.4,M,,*58
$GPRMC,202528.500,A,4305.1300,N,07741.1014,W,0.03,110.51,050923,,,A*7D
$GPGGA,202528.750,4305.1300,N,07741.1014,W,1,06,1.21,158.7,M,-34.4,M,,*53
$GPRMC,202529.000,A,4305.1300,N,07741.1014,W,0.02,301.98,050923,,,A*7F
$GPGGA,202529.250,4305.1300,N,07741.1014,W,1,06,1.22,158.5,M,-34.4,M,,*56
$GPRMC,202529.500,A,4305.1300,N,07741.1014,W,0.06,173.28,050923,,,A*72
$GPGGA,202529.750,4305.1300,N,07741.1014,W,1,06,1.21,158.3,M,-34.4,M,,*56
$GPRMC,202530.000,A,4305.1300,N,07741.1014,W,0.02,49.30,050923,,,A*4A
$GPGGA,202530.250,4305.1300,N,07741.1014,W,1,06,1.21,158.2,M,-34.4,M,,*5A
$GPRMC,202530.500,A,4305.1300,N,07741.1013,W,0.01,178.38,050923,,,A*70
$GPGGA,202530.750,4305.1301,N,07741.1013,W,1,06,1.22,158.0,M,-34.4,M,,*58
$GPRMC,202531.000,A,4305.1301,N,07741.1013,W,0.02,348.97,050923,,,A*72
$GPGGA,202531.250,4305.1301,N,07741.1013,W,1,06,1.23,157.9,M,-34.4,M,,*5B
$GPRMC,202531.500,A,4305.1301,N,07741.1013,W,0.03,330.98,050923,,,A*76
$GPGGA,202531.750,4305.1300,N,07741.1013,W,1,06,1.21,157.7,M,-34.4,M,,*53
$GPRMC,202532.000,A,4305.1300,N,07741.1012,W,0.03,90.97,050923,,,A*46
$GPGGA,202532.250,4305.1301,N,07741.1012,W,1,08,1.11,157.7,M,-34.4,M,,*58
$GPRMC,202532.500,A,4305.1301,N,07741.1012,W,0.07,196.34,050923,,,A*78
$GPGGA,202532.750,4305.1301,N,07741.1012,W,1,08,1.11,157.7,M,-34.4,M,,*5D
$GPRMC,202533.000,A,4305.1301,N,07741.1012,W,0.02,27.68,050923,,,A*4B
$GPGGA,202533.250,4305.1302,N,07741.1012,W,1,08,1.11,157.7,M,-34.4,M,,*5A
$GPRMC,202533.500,A,4305.1302,N,07741.1012,W,0.02,239.20,050923,,,A*7C
$GPGGA,202533.750,4305.1302,N,07741.1012,W,1,08,1.11,157.7,M,-34.4,M,,*5F
$GPRMC,202534.000,A,4305.1302,N,07741.1012,W,0.03,287.42,050923,,,A*7E
$GPGGA,202534.250,4305.1302,N,07741.1012,W,1,08,1.11,157.8,M,-34.4,M,,*52
$GPRMC,202534.500,A,4305.1302,N,07741.1012,W,0.03,167.59,050923,,,A*7C
$GPGGA,202534.750,4305.1303,N,07741.1012,W,1,08,1.11,157.8,M,-34.4,M,,*56
$GPRMC,202535.000,A,4305.1303,N,07741.1012,W,0.03,225.27,050923,,,A*75
$GPGGA,202535.250,4305.1303,N,07741.1011,W,1,08,1.11,157.9,M,-34.4,M,,*50
$GPRMC,202535.500,A,4305.1303,N,07741.1011,W,0.06,9.19,050923,,,A*77
$GPGGA,202535.750,4305.1303,N,07741.1011,W,1,08,1.12,158.0,M,-34.4,M,,*50
$GPRMC,202536.000,A,4305.1303,N,07741.1011,W,0.00,43.94,050923,,,A*4C
$GPGGA,202536.250,4305.1303,N,07741.1011,W,1,08,1.11,158.0,M,-34.4,M,,*55
$GPRMC,202536.500,A,4305.1303,N,07741.1011,W,0.03,346.25,050923,,,A*76
$GPGGA,202536.750,4305.1303,N,07741.1011,W,1,08,1.12,158.0,M,-34.4,M,,*53
$GPRMC,202537.000,A,4305.1303,N,07741.1011,W,0.21,293.67,050923,,,A*7D
$GPGGA,202537.250,4305.1303,N,07741.1011,W,1,08,1.11,158.0,M,-34.4,M,,*54
$GPRMC,202537.500,A,4305.1303,N,07741.1012,W,1.26,292.48,050923,,,A*71
$GPGGA,202537.750,4305.1304,N,07741.1013,W,1,08,1.11,158.0,M,-34.4,M,,*54
$GPRMC,202538.000,A,4305.1304,N,07741.1015,W,2.28,296.48,050923,,,A*72
$GPGGA,202538.250,4305.1305,N,07741.1017,W,1,08,1.11,158.1,M,-34.4,M,,*5A
$GPRMC,202538.500,A,4305.1306,N,07741.1020,W,3.23,293.50,050923,,,A*75
$GPGGA,202538.750,4305.1307,N,07741.1023,W,1,08,1.11,158.2,M,-34.4,M,,*59
$GPRMC,202539.000,A,4305.1308,N,07741.1026,W,4.19,288.59,050923,,,A*74
$GPGGA,202539.250,4305.1309,N,07741.1030,W,1,08,1.12,158.3,M,-34.4,M,,*53
$GPRMC,202539.500,A,4305.1310,N,07741.1035,W,5.00,289.35,050923,,,A*78
$GPGGA,202539.750,4305.1311,N,07741.1039,W,1,08,1.12,158.4,M,-34.4,M,,*51
$GPRMC,202540.000,A,4305.1312,N,07741.1044,W,5.44,287.55,050923,,,A*7F
$GPGGA,202540.250,4305.1313,N,07741.1050,W,1,08,1.12,158.4,M,-34.4,M,,*57
$GPRMC,202540.500,A,4305.1314,N,07741.1055,W,6.02,285.69,050923,,,A*70
$GPGGA,202540.750,4305.1315,N,07741.1061,W,1,08,1.12,158.4,M,-34.4,M,,*56
$GPRMC,202541.000,A,4305.1316,N,07741.1067,W,6.51,283.40,050923,,,A*7C
$GPGGA,202541.250,4305.1317,N,07741.1074,W,1,08,1.12,158.5,M,-34.4,M,,*55
$GPRMC,202541.500,A,4305.1318,N,07741.1081,W,7.34,283.93,050923,,,A*73
$GPGGA,202541.750,4305.1320,N,07741.1088,W,1,08,1.12,158.6,M,-34.4,M,,*54
$GPRMC,202542.000,A,4305.1321,N,07741.1096,W,8.02,283.22,050923,,,A*79
$GPGGA,202542.250,4305.1322,N,07741.1104,W,1,08,1.12,158.6,M,-34.4,M,,*55
$GPRMC,202542.500,A,4305.1324,N,07741.1112,W,8.55,284.37,050923,,,A*75
$GPGGA,202542.750,4305.1326,N,07741.1120,W,1,08,1.12,158.7,M,-34.4,M,,*53
$GPRMC,202543.000,A,4305.1329,N,07741.1128,W,8.80,288.01,050923,,,A*74
$GPGGA,202543.250,4305.1331,N,07741.1136,W,1,08,1.12,158.9,M,-34.4,M,,*58
$GPRMC,202543.500,A,4305.1334,N,07741.1144,W,9.22,290.73,050923,,,A*72
$GPGGA,202543.750,4305.1336,N,07741.1153,W,1,08,1.12,159.2,M,-34.4,M,,*53
$GPRMC,202544.000,A,4305.1338,N,07741.1161,W,9.21,291.51,050923,,,A*79
$GPGGA,202544.250,4305.1341,N,07741.1169,W,1,08,1.12,159.2,M,-34.4,M,,*58
$GPRMC,202544.500,A,4305.1343,N,07741.1177,W,8.98,293.93,050923,,,A*78
$GPGGA,202544.750,4305.1345,N,07741.1184,W,1,08,1.12,159.2,M,-34.4,M,,*5A
$GPRMC,202545.000,A,4305.1348,N,07741.1191,W,8.92,299.25,050923,,,A*72
$GPGGA,202545.250,4305.1351,N,07741.1198,W,1,08,1.12,159.3,M,-34.4,M,,*57
$GPRMC,202545.500,A,4305.1353,N,07741.1205,W,8.21,301.04,050923,,,A*78
$GPGGA,202545.750,4305.1356,N,07741.1211,W,1,08,1.12,159.4,M,-34.4,M,,*50
$GPRMC,202546.000,A,4305.1359,N,07741.1216,W,6.87,308.03,050923,,,A*7A
$GPGGA,202546.250,4305.1362,N,07741.1221,W,1,08,1.12,159.5,M,-34.4,M,,*53
$GPRMC,202546.500,A,4305.1365,N,07741.1225,W,5.63,310.50,050923,,,A*76
$GPGGA,202546.750,4305.1367,N,07741.1228,W,1,08,1.12,159.6,M,-34.4,M,,*59
$GPRMC,202547.000,A,4305.1369,N,07741.1231,W,4.16,316.66,050923,,,A*7B
$GPGGA,202547.250,4305.1371,N,07741.1234,W,1,08,1.12,159.8,M,-34.4,M,,*59
$GPRMC,202547.500,A,4305.1373,N,07741.1236,W,3.19,317.16,050923,,,A*7C
$GPGGA,202547.750,4305.1375,N,07741.1238,W,1,08,1.11,159.9,M,-34.4,M,,*56
$GPRMC,202548.000,A,4305.1377,N,07741.1241,W,4.05,317.07,050923,,,A*78
$GPGGA,202548.250,4305.1379,N,07741.1245,W,1,08,1.12,159.9,M,-34.4,M,,*59
$GPRMC,202548.500,A,4305.1383,N,07741.1248,W,5.75,316.98,050923,,,A*7E
$GPGGA,202548.750,4305.1387,N,07741.1253,W,1,08,1.12,160.2,M,-34.4,M,,*5B
$GPRMC,202549.000,A,4305.1391,N,07741.1257,W,7.34,322.48,050923,,,A*7A
$GPGGA,202549.250,4305.1397,N,07741.1260,W,1,08,1.12,160.4,M,-34.4,M,,*58
$GPRMC,202549.500,A,4305.1404,N,07741.1263,W,9.02,340.53,050923,,,A*76
$GPGGA,202549.750,4305.1411,N,07741.1265,W,1,08,1.12,160.6,M,-34.4,M,,*53
$GPRMC,202550.000,A,4305.1418,N,07741.1267,W,10.13,350.35,050923,,,A*4B
$GPGGA,202550.250,4305.1426,N,07741.1268,W,1,08,1.12,160.6,M,-34.4,M,,*57
$GPRMC,202550.500,A,4305.1434,N,07741.1268,W,10.90,1.66,050923,,,A*45
$GPGGA,202550.750,4305.1443,N,07741.1266,W,1,08,1.12,160.6,M,-34.4,M,,*5F
$GPRMC,202551.000,A,4305.1452,N,07741.1264,W,12.39,10.25,050923,,,A*7B
$GPGGA,202551.250,4305.1462,N,07741.1262,W,1,08,1.12,160.7,M,-34.4,M,,*5D
$GPRMC,202551.500,A,4305.1472,N,07741.1259,W,13.73,15.94,050923,,,A*72
$GPGGA,202551.750,4305.1483,N,07741.1255,W,1,08,1.12,160.7,M,-34.4,M,,*53
$GPRMC,202552.000,A,4305.1494,N,07741.1249,W,15.47,21.87,050923,,,A*79
$GPGGA,202552.250,4305.1505,N,07741.1243,W,1,08,1.12,160.8,M,-34.4,M,,*52
$GPRMC,202552.500,A,4305.1517,N,07741.1236,W,17.28,26.40,050923,,,A*79
$GPGGA,202552.750,4305.1528,N,07741.1227,W,1,08,1.12,160.9,M,-34.4,M,,*5B
$GPRMC,202553.000,A,4305.1540,N,07741.1218,W,19.00,29.76,050923,,,A*7D
$GPGGA,202553.250,4305.1552,N,07741.1209,W,1,08,1.12,160.9,M,-34.4,M,,*5E
$GPRMC,202553.500,A,4305.1565,N,07741.1198,W,20.51,31.54,050923,,,A*73
$GPGGA,202553.750,4305.1577,N,07741.1187,W,1,08,1.12,160.9,M,-34.4,M,,*59
$GPRMC,202554.000,A,4305.1590,N,07741.1176,W,21.77,32.19,050923,,,A*74
$GPGGA,202554.250,4305.1604,N,07741.1164,W,1,08,1.12,161.1,M,-34.4,M,,*58
$GPRMC,202554.500,A,4305.1618,N,07741.1152,W,22.88,32.71,050923,,,A*79
$GPGGA,202554.750,4305.1632,N,07741.1140,W,1,08,1.12,161.1,M,-34.4,M,,*5E
$GPRMC,202555.000,A,4305.1646,N,07741.1128,W,23.58,32.56,050923,,,A*72
$GPGGA,202555.250,4305.1661,N,07741.1116,W,1,08,1.12,161.2,M,-34.4,M,,*5C
$GPRMC,202555.500,A,4305.1675,N,07741.1103,W,24.60,32.87,050923,,,A*7E
$GPGGA,202555.750,4305.1690,N,07741.1089,W,1,08,1.12,161.3,M,-34.4,M,,*51
$GPRMC,202556.000,A,4305.1705,N,07741.1075,W,25.22,34.27,050923,,,A*75
$GPGGA,202556.250,4305.1719,N,07741.1060,W,1,08,1.12,161.3,M,-34.4,M,,*50
$GPRMC,202556.500,A,4305.1734,N,07741.1045,W,25.73,35.61,050923,,,A*76
$GPGGA,202556.750,4305.1748,N,07741.1030,W,1,08,1.12,161.3,M,-34.4,M,,*54
$GPRMC,202557.000,A,4305.1763,N,07741.1015,W,26.04,35.63,050923,,,A*74
$GPGGA,202557.250,4305.1778,N,07741.1000,W,1,08,1.12,161.3,M,-34.4,M,,*50
$GPRMC,202557.500,A,4305.1792,N,07741.0985,W,25.90,35.81,050923,,,A*7C
$GPGGA,202557.750,4305.1807,N,07741.0971,W,1,08,1.12,161.2,M,-34.4,M,,*5D
$GPRMC,202558.000,A,4305.1821,N,07741.0956,W,25.86,35.78,050923,,,A*7E
$GPGGA,202558.250,4305.1836,N,07741.0941,W,1,08,1.11,161.0,M,-34.4,M,,*57
$GPRMC,202558.500,A,4305.1851,N,07741.0926,W,26.09,35.82,050923,,,A*7A
$GPGGA,202558.750,4305.1865,N,07741.0911,W,1,08,1.12,161.1,M,-34.4,M,,*53
$GPRMC,202559.000,A,4305.1880,N,07741.0896,W,26.30,35.77,050923,,,A*78
$GPGGA,202559.250,4305.1895,N,07741.0881,W,1,08,1.12,161.0,M,-34.4,M,,*51
$GPRMC,202559.500,A,4305.1910,N,07741.0866,W,26.35,36.26,050923,,,A*78
$GPGGA,202559.750,4305.1925,N,07741.0850,W,1,08,1.12,160.9,M,-34.4,M,,*5A
$GPRMC,202600.000,A,4305.1940,N,07741.0835,W,26.44,36.43,050923,,,A*74
$GPGGA,202600.250,4305.1955,N,07741.0819,W,1,08,1.12,160.8,M,-34.4,M,,*5B
$GPRMC,202600.500,A,4305.1970,N,07741.0804,W,26.50,37.11,050923,,,A*73
$GPGGA,202600.750,4305.1986,N,07741.0788,W,1,08,1.12,160.7,M,-34.4,M,,*58
$GPRMC,202601.000,A,4305.2001,N,07741.0772,W,26.84,37.87,050923,,,A*73
$GPGGA,202601.250,4305.2016,N,07741.0756,W,1,08,1.12,160.5,M,-34.4,M,,*5E
$GPRMC,202601.500,A,4305.2031,N,07741.0739,W,27.02,38.92,050923,,,A*7E
$GPGGA,202601.750,4305.2046,N,07741.0723,W,1,08,1.12,160.5,M,-34.4,M,,*5C
$GPRMC,202602.000,A,4305.2061,N,07741.0706,W,27.16,38.21,050923,,,A*7C
$GPGGA,202602.250,4305.2076,N,07741.0690,W,1,08,1.12,160.4,M,-34.4,M,,*51
$GPRMC,202602.500,A,4305.2091,N,07741.0673,W,27.36,38.00,050923,,,A*74
$GPGGA,202602.750,4305.2107,N,07741.0657,W,1,08,1.12,160.4,M,-34.4,M,,*58
$GPRMC,202603.000,A,4305.2122,N,07741.0640,W,27.58,37.62,050923,,,A*7A
$GPGGA,202603.250,4305.2138,N,07741.0624,W,1,08,1.12,160.4,M,-34.4,M,,*54
$GPRMC,202603.500,A,4305.2153,N,07741.0607,W,27.61,37.74,050923,,,A*77
$GPGGA,202603.750,4305.2168,N,07741.0591,W,1,08,1.12,160.3,M,-34.4,M,,*5E
$GPRMC,202604.000,A,4305.2184,N,07741.0574,W,27.73,38.12,050923,,,A*74
$GPGGA,202604.250,4305.2199,N,07741.0557,W,1,08,1.12,160.4,M,-34.4,M,,*5F
$GPRMC,202604.500,A,4305.2215,N,07741.0541,W,27.95,38.39,050923,,,A*7D
$GPGGA,202604.750,4305.2231,N,07741.0524,W,1,08,1.12,160.3,M,-34.4,M,,*58
$GPRMC,202605.000,A,4305.2247,N,07741.0507,W,28.02,38.33,050923,,,A*77
$GPGGA,202605.250,4305.2263,N,07741.0490,W,1,08,1.12,160.3,M,-34.4,M,,*55
$GPRMC,202605.500,A,4305.2279,N,07741.0473,W,28.27,38.55,050923,,,A*7A
$GPGGA,202605.750,4305.2294,N,07741.0456,W,1,08,1.12,160.3,M,-34.4,M,,*52
$GPRMC,202606.000,A,4305.2310,N,07741.0439,W,28.25,38.82,050923,,,A*74
$GPGGA,202606.250,4305.2326,N,07741.0422,W,1,08,1.12,160.3,M,-34.4,M,,*5F
$GPRMC,202606.500,A,4305.2342,N,07741.0405,W,28.50,38.66,050923,,,A*71
$GPGGA,202606.750,4305.2357,N,07741.0388,W,1,08,1.12,160.3,M,-34.4,M,,*5B
$GPRMC,202607.000,A,4305.2373,N,07741.0370,W,28.57,38.69,050923,,,A*7A
$GPGGA,202607.250,4305.2389,N,07741.0353,W,1,08,1.12,160.3,M,-34.4,M,,*5A
$GPRMC,202607.500,A,4305.2405,N,07741.0336,W,28.84,38.63,050923,,,A*7F
$GPGGA,202607.750,4305.2421,N,07741.0318,W,1,08,1.12,160.4,M,-34.4,M,,*52
$GPRMC,202608.000,A,4305.2437,N,07741.0301,W,28.84,38.94,050923,,,A*78
$GPGGA,202608.250,4305.2453,N,07741.0284,W,1,08,1.12,160.4,M,-34.4,M,,*59
$GPRMC,202608.500,A,4305.2469,N,07741.0266,W,29.17,38.91,050923,,,A*78
$GPGGA,202608.750,4305.2485,N,07741.0248,W,1,08,1.12,160.4,M,-34.4,M,,*57
$GPRMC,202609.000,A,4305.2501,N,07741.0231,W,29.25,38.88,050923,,,A*78
$GPGGA,202609.250,4305.2517,N,07741.0213,W,1,08,1.12,160.4,M,-34.4,M,,*57
$GPRMC,202609.500,A,4305.2533,N,07741.0196,W,29.48,38.73,050923,,,A*7D
$GPGGA,202609.750,4305.2549,N,07741.0178,W,1,08,1.12,160.4,M,-34.4,M,,*57
$GPRMC,202610.000,A,4305.2566,N,07741.0161,W,29.48,38.10,050923,,,A*7D
$GPGGA,202610.250,4305.2582,N,07741.0143,W,1,08,1.12,160.4,M,-34.4,M,,*55
$GPRMC,202610.500,A,4305.2598,N,07741.0126,W,29.69,37.71,050923,,,A*71
$GPGGA,202610.750,4305.2615,N,07741.0109,W,1,08,1.12,160.3,M,-34.4,M,,*54
$GPRMC,202611.000,A,4305.2632,N,07741.0091,W,29.77,37.72,050923,,,A*77
$GPGGA,202611.250,4305.2648,N,07741.0074,W,1,08,1.12,160.3,M,-34.4,M,,*53
$GPRMC,202611.500,A,4305.2664,N,07741.0056,W,29.95,37.79,050923,,,A*7D
$GPGGA,202611.750,4305.2681,N,07741.0039,W,1,08,1.12,160.3,M,-34.4,M,,*5A
$GPRMC,202612.000,A,4305.2697,N,07741.0021,W,30.14,38.33,050923,,,A*77
$GPGGA,202612.250,4305.2714,N,07741.0003,W,1,08,1.12,160.3,M,-34.4,M,,*58
$GPRMC,202612.500,A,4305.2730,N,07740.9986,W,30.03,38.22,050923,,,A*74
$GPGGA,202612.750,4305.2747,N,07740.9968,W,1,08,1.12,160.3,M,-34.4,M,,*57
$GPRMC,202613.000,A,4305.2763,N,07740.9951,W,29.81,38.45,050923,,,A*7F
$GPGGA,202613.250,4305.2779,N,07740.9933,W,1,08,1.12,160.3,M,-34.4,M,,*50
$GPRMC,202613.500,A,4305.2796,N,07740.9915,W,29.83,38.55,050923,,,A*73
$GPGGA,202613.750,4305.2812,N,07740.9898,W,1,08,1.12,160.3,M,-34.4,M,,*57
$GPRMC,202614.000,A,4305.2828,N,07740.9880,W,29.88,38.30,050923,,,A*7E
$GPGGA,202614.250,4305.2844,N,07740.9862,W,1,08,1.12,160.3,M,-34.4,M,,*53
$GPRMC,202614.500,A,4305.2860,N,07740.9845,W,29.85,38.15,050923,,,A*74
$GPGGA,202614.750,4305.2876,N,07740.9827,W,1,08,1.12,160.3,M,-34.4,M,,*56
$GPRMC,202615.000,A,4305.2892,N,07740.9809,W,29.64,38.32,050923,,,A*7F
$GPGGA,202615.250,4305.2909,N,07740.9792,W,1,08,1.12,160.3,M,-34.4,M,,*5A
$GPRMC,202615.500,A,4305.2925,N,07740.9774,W,29.89,38.35,050923,,,A*76
$GPGGA,202615.750,4305.2941,N,07740.9756,W,1,08,1.12,160.4,M,-34.4,M,,*5C
$GPRMC,202616.000,A,4305.2957,N,07740.9739,W,29.70,38.57,050923,,,A*7E
$GPGGA,202616.250,4305.2973,N,07740.9721,W,1,08,1.12,160.4,M,-34.4,M,,*5B
$GPRMC,202616.500,A,4305.2989,N,07740.9703,W,29.75,38.77,050923,,,A*76
$GPGGA,202616.750,4305.3005,N,07740.9685,W,1,08,1.12,160.4,M,-34.4,M,,*58
$GPRMC,202617.000,A,4305.3021,N,07740.9667,W,29.61,39.07,050923,,,A*78
$GPGGA,202617.250,4305.3037,N,07740.9649,W,1,08,1.12,160.4,M,-34.4,M,,*5D
$GPRMC,202617.500,A,4305.3054,N,07740.9631,W,29.64,39.12,050923,,,A*7D
$GPGGA,202617.750,4305.3070,N,07740.9614,W,1,08,1.12,160.3,M,-34.4,M,,*54
$GPRMC,202618.000,A,4305.3086,N,07740.9596,W,29.85,39.11,050923,,,A*7A
$GPGGA,202618.250,4305.3102,N,07740.9578,W,1,08,1.12,160.3,M,-34.4,M,,*53
$GPRMC,202618.500,A,4305.3118,N,07740.9560,W,29.76,39.11,050923,,,A*7C
$GPGGA,202618.750,4305.3134,N,07740.9542,W,1,08,1.12,160.3,M,-34.4,M,,*5A
$GPRMC,202619.000,A,4305.3150,N,07740.9524,W,29.82,38.97,050923,,,A*70
$GPGGA,202619.250,4305.3167,N,07740.9506,W,1,08,1.12,160.3,M,-34.4,M,,*58
$GPRMC,202619.500,A,4305.3183,N,07740.9488,W,29.81,38.73,050923,,,A*75
$GPGGA,202619.750,4305.3199,N,07740.9471,W,1,08,1.12,160.2,M,-34.4,M,,*5C
$GPRMC,202620.000,A,4305.3215,N,07740.9453,W,29.60,38.55,050923,,,A*7B
$GPGGA,202620.250,4305.3231,N,07740.9436,W,1,08,1.12,160.2,M,-34.4,M,,*51
$GPRMC,202620.500,A,4305.3247,N,07740.9419,W,29.64,38.62,050923,,,A*77
$GPGGA,202620.750,4305.3264,N,07740.9401,W,1,08,1.12,160.0,M,-34.4,M,,*52
$GPRMC,202621.000,A,4305.3280,N,07740.9383,W,29.79,38.60,050923,,,A*72
$GPGGA,202621.250,4305.3296,N,07740.9365,W,1,08,1.11,159.9,M,-34.4,M,,*5E
$GPRMC,202621.500,A,4305.3312,N,07740.9348,W,29.84,38.81,050923,,,A*77
$GPGGA,202621.750,4305.3329,N,07740.9330,W,1,08,1.12,159.8,M,-34.4,M,,*5C
$GPRMC,202622.000,A,4305.3345,N,07740.9312,W,29.80,38.59,050923,,,A*7D
$GPGGA,202622.250,4305.3361,N,07740.9294,W,1,08,1.11,159.7,M,-34.4,M,,*55
$GPRMC,202622.500,A,4305.3377,N,07740.9276,W,29.99,38.76,050923,,,A*7F
$GPGGA,202622.750,4305.3393,N,07740.9258,W,1,08,1.12,159.6,M,-34.4,M,,*5F
$GPRMC,202623.000,A,4305.3410,N,07740.9240,W,29.96,39.23,050923,,,A*76
$GPGGA,202623.250,4305.3426,N,07740.9222,W,1,08,1.12,159.5,M,-34.4,M,,*5C
$GPRMC,202623.500,A,4305.3441,N,07740.9203,W,29.97,39.80,050923,,,A*78
$GPGGA,202623.750,4305.3457,N,07740.9185,W,1,08,1.12,159.5,M,-34.4,M,,*51
$GPRMC,202624.000,A,4305.3473,N,07740.9167,W,29.77,39.90,050923,,,A*75
$GPGGA,202624.250,4305.3489,N,07740.9148,W,1,08,1.12,159.5,M,-34.4,M,,*51
$GPRMC,202624.500,A,4305.3505,N,07740.9130,W,29.74,39.61,050923,,,A*7F
$GPGGA,202624.750,4305.3521,N,07740.9112,W,1,08,1.12,159.4,M,-34.4,M,,*59
$GPRMC,202625.000,A,4305.3537,N,07740.9094,W,29.55,39.63,050923,,,A*74
$GPGGA,202625.250,4305.3553,N,07740.9076,W,1,08,1.12,159.3,M,-34.4,M,,*5C
$GPRMC,202625.500,A,4305.3569,N,07740.9058,W,29.54,39.52,050923,,,A*79
$GPGGA,202625.750,4305.3585,N,07740.9040,W,1,08,1.12,159.2,M,-34.4,M,,*56
$GPRMC,202626.000,A,4305.3601,N,07740.9023,W,29.57,38.97,050923,,,A*75
$GPGGA,202626.250,4305.3617,N,07740.9005,W,1,08,1.12,159.1,M,-34.4,M,,*5A
$GPRMC,202626.500,A,4305.3632,N,07740.8988,W,29.50,38.84,050923,,,A*7C
$GPGGA,202626.750,4305.3648,N,07740.8970,W,1,08,1.12,159.1,M,-34.4,M,,*5F
$GPRMC,202627.000,A,4305.3664,N,07740.8953,W,29.37,38.78,050923,,,A*7F
$GPGGA,202627.250,4305.3680,N,07740.8936,W,1,08,1.12,159.0,M,-34.4,M,,*5C
$GPRMC,202627.500,A,4305.3696,N,07740.8918,W,29.32,38.56,050923,,,A*71
$GPGGA,202627.750,4305.3712,N,07740.8901,W,1,08,1.12,159.0,M,-34.4,M,,*57
$GPRMC,202628.000,A,4305.3728,N,07740.8884,W,29.26,38.80,050923,,,A*75
$GPGGA,202628.250,4305.3744,N,07740.8866,W,1,08,1.12,159.0,M,-34.4,M,,*5E
$GPRMC,202628.500,A,4305.3760,N,07740.8849,W,29.22,39.49,050923,,,A*7D
$GPGGA,202628.750,4305.3775,N,07740.8832,W,1,08,1.12,159.1,M,-34.4,M,,*59
$GPRMC,202629.000,A,4305.3791,N,07740.8814,W,29.18,38.55,050923,,,A*7A
$GPGGA,202629.250,4305.3807,N,07740.8797,W,1,08,1.12,159.1,M,-34.4,M,,*57
$GPRMC,202629.500,A,4305.3823,N,07740.8780,W,29.17,38.51,050923,,,A*70
$GPGGA,202629.750,4305.3839,N,07740.8763,W,1,08,1.12,159.1,M,-34.4,M,,*54
$GPRMC,202630.000,A,4305.3855,N,07740.8745,W,29.15,38.33,050923,,,A*73
$GPGGA,202630.250,4305.3871,N,07740.8728,W,1,08,1.12,159.0,M,-34.4,M,,*5B
$GPRMC,202630.500,A,4305.3886,N,07740.8711,W,29.07,37.99,050923,,,A*75
$GPGGA,202630.750,4305.3902,N,07740.8694,W,1,08,1.12,159.0,M,-34.4,M,,*5D
$GPRMC,202631.000,A,4305.3918,N,07740.8677,W,28.88,38.39,050923,,,A*75
$GPGGA,202631.250,4305.3934,N,07740.8660,W,1,08,1.12,159.1,M,-34.4,M,,*56
$GPRMC,202631.500,A,4305.3950,N,07740.8643,W,28.98,38.31,050923,,,A*72
$GPGGA,202631.750,4305.3965,N,07740.8626,W,1,08,1.12,159.1,M,-34.4,M,,*55
$GPRMC,202632.000,A,4305.3981,N,07740.8609,W,28.89,38.70,050923,,,A*73
$GPGGA,202632.250,4305.3996,N,07740.8591,W,1,08,1.12,159.1,M,-34.4,M,,*50
$GPRMC,202632.500,A,4305.4012,N,07740.8574,W,28.89,39.00,050923,,,A*7D
$GPGGA,202632.750,4305.4027,N,07740.8557,W,1,08,1.12,159.1,M,-34.4,M,,*5B
$GPRMC,202633.000,A,4305.4043,N,07740.8539,W,28.93,39.42,050923,,,A*79
$GPGGA,202633.250,4305.4059,N,07740.8522,W,1,08,1.12,159.0,M,-34.4,M,,*55
$GPRMC,202633.500,A,4305.4074,N,07740.8505,W,28.99,38.87,050923,,,A*75
$GPGGA,202633.750,4305.4090,N,07740.8488,W,1,08,1.12,158.8,M,-34.4,M,,*5D
$GPRMC,202634.000,A,4305.4106,N,07740.8470,W,29.32,38.30,050923,,,A*7C
$GPGGA,202634.250,4305.4122,N,07740.8453,W,1,08,1.12,158.7,M,-34.4,M,,*5E
$GPRMC,202634.500,A,4305.4138,N,07740.8436,W,29.29,38.14,050923,,,A*7A
$GPGGA,202634.750,4305.4155,N,07740.8419,W,1,08,1.12,158.5,M,-34.4,M,,*57
$GPRMC,202635.000,A,4305.4171,N,07740.8401,W,29.21,38.00,050923,,,A*7A
$GPGGA,202635.250,4305.4187,N,07740.8384,W,1,08,1.12,158.3,M,-34.4,M,,*59
$GPRMC,202635.500,A,4305.4202,N,07740.8367,W,29.05,38.37,050923,,,A*7D
$GPGGA,202635.750,4305.4218,N,07740.8350,W,1,08,1.12,158.3,M,-34.4,M,,*50
$GPRMC,202636.000,A,4305.4234,N,07740.8333,W,28.99,38.32,050923,,,A*7E
$GPGGA,202636.250,4305.4250,N,07740.8316,W,1,08,1.12,158.3,M,-34.4,M,,*58
$GPRMC,202636.500,A,4305.4265,N,07740.8298,W,28.89,38.35,050923,,,A*79
$GPGGA,202636.750,4305.4281,N,07740.8282,W,1,08,1.12,158.3,M,-34.4,M,,*5D
$GPRMC,202637.000,A,4305.4297,N,07740.8265,W,28.63,38.34,050923,,,A*77
$GPGGA,202637.250,4305.4312,N,07740.8248,W,1,08,1.12,158.2,M,-34.4,M,,*55
$GPRMC,202637.500,A,4305.4328,N,07740.8231,W,28.39,37.81,050923,,,A*78
$GPGGA,202637.750,4305.4343,N,07740.8215,W,1,08,1.12,158.2,M,-34.4,M,,*5C
$GPRMC,202638.000,A,4305.4358,N,07740.8199,W,28.10,37.39,050923,,,A*7C
$GPGGA,202638.250,4305.4373,N,07740.8182,W,1,08,1.12,158.1,M,-34.4,M,,*5B
$GPRMC,202638.500,A,4305.4388,N,07740.8166,W,27.81,37.52,050923,,,A*7E
$GPGGA,202638.750,4305.4403,N,07740.8150,W,1,08,1.12,158.0,M,-34.4,M,,*50
$GPRMC,202639.000,A,4305.4418,N,07740.8134,W,27.75,37.59,050923,,,A*73
$GPGGA,202639.250,4305.4434,N,07740.8118,W,1,08,1.12,157.8,M,-34.4,M,,*5B
$GPRMC,202639.500,A,4305.4448,N,07740.8102,W,27.37,37.61,050923,,,A*7B
$GPGGA,202639.750,4305.4463,N,07740.8086,W,1,08,1.12,157.7,M,-34.4,M,,*55
$GPRMC,202640.000,A,4305.4478,N,07740.8071,W,27.32,37.63,050923,,,A*71
$GPGGA,202640.250,4305.4493,N,07740.8055,W,1,08,1.12,157.7,M,-34.4,M,,*5F
$GPRMC,202640.500,A,4305.4507,N,07740.8041,W,27.08,37.42,050923,,,A*74
$GPGGA,202640.750,4305.4521,N,07740.8026,W,1,08,1.12,158.0,M,-34.4,M,,*5E
$GPRMC,202641.000,A,4305.4536,N,07740.8011,W,26.60,37.19,050923,,,A*76
$GPGGA,202641.250,4305.4551,N,07740.7995,W,1,08,1.12,158.0,M,-34.4,M,,*53
$GPRMC,202641.500,A,4305.4565,N,07740.7980,W,26.16,36.97,050923,,,A*7D
$GPGGA,202641.750,4305.4579,N,07740.7966,W,1,08,1.12,158.1,M,-34.4,M,,*51
$GPRMC,202642.000,A,4305.4594,N,07740.7951,W,25.48,36.54,050923,,,A*7E
$GPGGA,202642.250,4305.4608,N,07740.7937,W,1,08,1.12,158.2,M,-34.4,M,,*55
$GPRMC,202642.500,A,4305.4622,N,07740.7923,W,25.22,35.88,050923,,,A*7E
$GPGGA,202642.750,4305.4636,N,07740.7909,W,1,08,1.12,158.3,M,-34.4,M,,*51
$GPRMC,202643.000,A,4305.4650,N,07740.7895,W,24.74,35.19,050923,,,A*79
$GPGGA,202643.250,4305.4664,N,07740.7881,W,1,08,1.12,158.2,M,-34.4,M,,*52
$GPRMC,202643.500,A,4305.4679,N,07740.7868,W,24.26,33.66,050923,,,A*7C
$GPGGA,202643.750,4305.4692,N,07740.7855,W,1,08,1.12,158.3,M,-34.4,M,,*56
$GPRMC,202644.000,A,4305.4706,N,07740.7843,W,23.63,32.86,050923,,,A*77
$GPGGA,202644.250,4305.4720,N,07740.7830,W,1,08,1.12,158.4,M,-34.4,M,,*58
$GPRMC,202644.500,A,4305.4734,N,07740.7818,W,23.57,32.38,050923,,,A*7F
$GPGGA,202644.750,4305.4748,N,07740.7806,W,1,08,1.12,158.4,M,-34.4,M,,*56
$GPRMC,202645.000,A,4305.4761,N,07740.7794,W,23.32,32.20,050923,,,A*7A
$GPGGA,202645.250,4305.4775,N,07740.7783,W,1,08,1.12,158.5,M,-34.4,M,,*5F
$GPRMC,202645.500,A,4305.4789,N,07740.7771,W,23.09,31.29,050923,,,A*70
$GPGGA,202645.750,4305.4803,N,07740.7760,W,1,08,1.12,158.6,M,-34.4,M,,*5A
$GPRMC,202646.000,A,4305.4816,N,07740.7749,W,22.73,30.19,050923,,,A*7A
$GPGGA,202646.250,4305.4830,N,07740.7739,W,1,08,1.12,158.7,M,-34.4,M,,*51
$GPRMC,202646.500,A,4305.4843,N,07740.7729,W,22.23,28.81,050923,,,A*74
$GPGGA,202646.750,4305.4856,N,07740.7719,W,1,08,1.12,158.8,M,-34.4,M,,*59
$GPRMC,202647.000,A,4305.4869,N,07740.7710,W,21.65,27.70,050923,,,A*72
$GPGGA,202647.250,4305.4882,N,07740.7701,W,1,08,1.12,158.9,M,-34.4,M,,*5C
$GPRMC,202647.500,A,4305.4895,N,07740.7692,W,21.15,26.54,050923,,,A*7F
$GPGGA,202647.750,4305.4908,N,07740.7684,W,1,08,1.12,159.0,M,-34.4,M,,*5E
$GPRMC,202648.000,A,4305.4920,N,07740.7676,W,20.55,24.63,050923,,,A*73
$GPGGA,202648.250,4305.4933,N,07740.7668,W,1,08,1.12,159.0,M,-34.4,M,,*5E
$GPRMC,202648.500,A,4305.4945,N,07740.7660,W,20.16,23.77,050923,,,A*77
$GPGGA,202648.750,4305.4958,N,07740.7653,W,1,08,1.12,159.0,M,-34.4,M,,*5E
$GPRMC,202649.000,A,4305.4970,N,07740.7645,W,19.73,23.57,050923,,,A*79
$GPGGA,202649.250,4305.4982,N,07740.7638,W,1,08,1.12,159.1,M,-34.4,M,,*51
$GPRMC,202649.500,A,4305.4994,N,07740.7631,W,19.47,23.42,050923,,,A*76
$GPGGA,202649.750,4305.5006,N,07740.7624,W,1,08,1.12,159.1,M,-34.4,M,,*5D
$GPRMC,202650.000,A,4305.5017,N,07740.7617,W,18.87,23.45,050923,,,A*76
$GPGGA,202650.250,4305.5029,N,07740.7611,W,1,08,1.12,159.1,M,-34.4,M,,*5B
$GPRMC,202650.500,A,4305.5039,N,07740.7605,W,17.78,23.42,050923,,,A*74
$GPGGA,202650.750,4305.5050,N,07740.7599,W,1,08,1.12,159.0,M,-34.4,M,,*52
$GPRMC,202651.000,A,4305.5060,N,07740.7593,W,16.58,22.66,050923,,,A*74
$GPGGA,202651.250,4305.5068,N,07740.7589,W,1,08,1.12,159.0,M,-34.4,M,,*5C
$GPRMC,202651.500,A,4305.5076,N,07740.7586,W,15.19,22.05,050923,,,A*71
$GPGGA,202651.750,4305.5084,N,07740.7584,W,1,08,1.12,159.0,M,-34.4,M,,*56
$GPRMC,202652.000,A,4305.5091,N,07740.7581,W,13.74,23.54,050923,,,A*71
$GPGGA,202652.250,4305.5097,N,07740.7579,W,1,08,1.12,159.1,M,-34.4,M,,*51
$GPRMC,202652.500,A,4305.5103,N,07740.7577,W,12.32,22.38,050923,,,A*7F
$GPGGA,202652.750,4305.5109,N,07740.7575,W,1,08,1.12,159.1,M,-34.4,M,,*5E
$GPRMC,202653.000,A,4305.5114,N,07740.7573,W,10.98,22.08,050923,,,A*78
$GPGGA,202653.250,4305.5120,N,07740.7570,W,1,08,1.12,159.0,M,-34.4,M,,*55
$GPRMC,202653.500,A,4305.5125,N,07740.7568,W,10.31,22.15,050923,,,A*7A
$GPGGA,202653.750,4305.5130,N,07740.7566,W,1,08,1.12,159.1,M,-34.4,M,,*57
$GPRMC,202654.000,A,4305.5136,N,07740.7564,W,9.36,22.43,050923,,,A*4A
$GPGGA,202654.250,4305.5141,N,07740.7562,W,1,08,1.12,159.2,M,-34.4,M,,*54
$GPRMC,202654.500,A,4305.5145,N,07740.7560,W,8.82,20.16,050923,,,A*43
$GPGGA,202654.750,4305.5149,N,07740.7558,W,1,08,1.12,159.2,M,-34.4,M,,*50
$GPRMC,202655.000,A,4305.5153,N,07740.7555,W,7.69,22.53,050923,,,A*4F
$GPGGA,202655.250,4305.5157,N,07740.7553,W,1,08,1.12,159.2,M,-34.4,M,,*50
$GPRMC,202655.500,A,4305.5162,N,07740.7551,W,7.35,21.97,050923,,,A*4E
$GPGGA,202655.750,4305.5166,N,07740.7549,W,1,08,1.12,159.3,M,-34.4,M,,*5D
$GPRMC,202656.000,A,4305.5171,N,07740.7547,W,8.03,23.02,050923,,,A*49
$GPGGA,202656.250,4305.5176,N,07740.7545,W,1,08,1.12,159.4,M,-34.4,M,,*51
$GPRMC,202656.500,A,4305.5181,N,07740.7542,W,9.21,22.91,050923,,,A*4C
$GPGGA,202656.750,4305.5187,N,07740.7539,W,1,08,1.12,159.5,M,-34.4,M,,*50
$GPRMC,202657.000,A,4305.5193,N,07740.7536,W,9.94,23.64,050923,,,A*4D
$GPGGA,202657.250,4305.5199,N,07740.7533,W,1,08,1.12,159.5,M,-34.4,M,,*51
$GPRMC,202657.500,A,4305.5206,N,07740.7529,W,10.83,22.45,050923,,,A*75
$GPGGA,202657.750,4305.5213,N,07740.7526,W,1,08,1.12,159.6,M,-34.4,M,,*52
$GPRMC,202658.000,A,4305.5220,N,07740.7522,W,11.03,24.41,050923,,,A*7B
$GPGGA,202658.250,4305.5227,N,07740.7518,W,1,08,1.12,159.6,M,-34.4,M,,*52
$GPRMC,202658.500,A,4305.5235,N,07740.7515,W,11.43,23.95,050923,,,A*74
$GPGGA,202658.750,4305.5243,N,07740.7511,W,1,08,1.12,159.7,M,-34.4,M,,*5D
$GPRMC,202659.000,A,4305.5252,N,07740.7509,W,12.05,22.95,050923,,,A*7C
$GPGGA,202659.250,4305.5261,N,07740.7506,W,1,08,1.12,159.9,M,-34.4,M,,*51
$GPRMC,202659.500,A,4305.5269,N,07740.7503,W,12.81,23.23,050923,,,A*7B
$GPGGA,202659.750,4305.5277,N,07740.7499,W,1,08,1.12,160.0,M,-34.4,M,,*57
$GPRMC,202700.000,A,4305.5285,N,07740.7495,W,13.42,23.79,050923,,,A*7E
$GPGGA,202700.250,4305.5294,N,07740.7490,W,1,08,1.12,160.0,M,-34.4,M,,*5B
$GPRMC,202700.500,A,4305.5303,N,07740.7486,W,13.96,24.03,050923,,,A*75
$GPGGA,202700.750,4305.5313,N,07740.7481,W,1,08,1.12,160.1,M,-34.4,M,,*51
$GPRMC,202701.000,A,4305.5323,N,07740.7476,W,14.71,23.70,050923,,,A*71
$GPGGA,202701.250,4305.5333,N,07740.7471,W,1,08,1.12,160.2,M,-34.4,M,,*5B
$GPRMC,202701.500,A,4305.5343,N,07740.7465,W,15.26,24.50,050923,,,A*76
$GPGGA,202701.750,4305.5353,N,07740.7459,W,1,08,1.12,160.2,M,-34.4,M,,*52
$GPRMC,202702.000,A,4305.5364,N,07740.7454,W,15.98,23.01,050923,,,A*71
$GPGGA,202702.250,4305.5374,N,07740.7448,W,1,09,0.93,160.2,M,-34.4,M,,*58
$GPRMC,202702.500,A,4305.5385,N,07740.7442,W,16.48,22.21,050923,,,A*71
$GPGGA,202702.750,4305.5397,N,07740.7436,W,1,09,0.93,160.2,M,-34.4,M,,*59
$GPRMC,202703.000,A,4305.5409,N,07740.7430,W,17.30,19.82,050923,,,A*7C
$GPGGA,202703.250,4305.5422,N,07740.7425,W,1,09,0.93,160.2,M,-34.4,M,,*56
$GPRMC,202703.500,A,4305.5435,N,07740.7419,W,18.13,17.56,050923,,,A*74
$GPGGA,202703.750,4305.5448,N,07740.7414,W,1,09,0.93,160.0,M,-34.4,M,,*5F
$GPRMC,202704.000,A,4305.5461,N,07740.7408,W,18.66,16.96,050923,,,A*78
$GPGGA,202704.250,4305.5474,N,07740.7403,W,1,09,0.93,159.9,M,-34.4,M,,*57
$GPRMC,202704.500,A,4305.5488,N,07740.7397,W,19.35,16.85,050923,,,A*7E
$GPGGA,202704.750,4305.5502,N,07740.7392,W,1,09,0.93,159.7,M,-34.4,M,,*53
$GPRMC,202705.000,A,4305.5516,N,07740.7386,W,19.91,17.97,050923,,,A*70
$GPGGA,202705.250,4305.5531,N,07740.7380,W,1,09,0.93,159.6,M,-34.4,M,,*55
$GPRMC,202705.500,A,4305.5545,N,07740.7374,W,20.73,17.92,050923,,,A*7D
$GPGGA,202705.750,4305.5560,N,07740.7367,W,1,09,0.93,159.5,M,-34.4,M,,*5E
$GPRMC,202706.000,A,4305.5575,N,07740.7361,W,21.31,16.25,050923,,,A*76
$GPGGA,202706.250,4305.5591,N,07740.7354,W,1,09,0.93,159.5,M,-34.4,M,,*56
$GPRMC,202706.500,A,4305.5607,N,07740.7348,W,22.17,16.55,050923,,,A*7E
$GPGGA,202706.750,4305.5623,N,07740.7341,W,1,09,0.93,159.1,M,-34.4,M,,*59
$GPRMC,202707.000,A,4305.5639,N,07740.7334,W,23.28,16.19,050923,,,A*79
$GPGGA,202707.250,4305.5655,N,07740.7328,W,1,09,0.93,159.1,M,-34.4,M,,*53
$GPRMC,202707.500,A,4305.5672,N,07740.7321,W,23.66,16.59,050923,,,A*79
$GPGGA,202707.750,4305.5688,N,07740.7314,W,1,09,0.93,159.2,M,-34.4,M,,*5A
$GPRMC,202708.000,A,4305.5705,N,07740.7308,W,23.98,16.25,050923,,,A*73
$GPGGA,202708.250,4305.5721,N,07740.7301,W,1,09,0.93,159.2,M,-34.4,M,,*56
$GPRMC,202708.500,A,4305.5738,N,07740.7294,W,24.41,16.16,050923,,,A*7F
$GPGGA,202708.750,4305.5755,N,07740.7288,W,1,09,0.93,159.4,M,-34.4,M,,*56
$GPRMC,202709.000,A,4305.5772,N,07740.7281,W,25.08,15.97,050923,,,A*77
$GPGGA,202709.250,4305.5789,N,07740.7275,W,1,09,0.93,159.2,M,-34.4,M,,*57
$GPRMC,202709.500,A,4305.5807,N,07740.7267,W,25.71,15.93,050923,,,A*7D
$GPGGA,202709.750,4305.5825,N,07740.7260,W,1,09,0.93,159.5,M,-34.4,M,,*58
$GPRMC,202710.000,A,4305.5843,N,07740.7253,W,26.09,15.64,050923,,,A*73
$GPGGA,202710.250,4305.5861,N,07740.7246,W,1,09,0.93,159.7,M,-34.4,M,,*53
$GPRMC,202710.500,A,4305.5879,N,07740.7239,W,26.30,15.95,050923,,,A*77
$GPGGA,202710.750,4305.5897,N,07740.7231,W,1,09,0.93,159.8,M,-34.4,M,,*50
$GPRMC,202711.000,A,4305.5915,N,07740.7224,W,26.53,16.13,050923,,,A*7C
$GPGGA,202711.250,4305.5933,N,07740.7217,W,1,09,0.93,159.9,M,-34.4,M,,*5E
$GPRMC,202711.500,A,4305.5952,N,07740.7210,W,27.24,15.30,050923,,,A*7E
$GPGGA,202711.750,4305.5970,N,07740.7203,W,1,09,0.93,159.9,M,-34.4,M,,*59
$GPRMC,202712.000,A,4305.5989,N,07740.7195,W,27.92,14.69,050923,,,A*70
$GPGGA,202712.250,4305.6008,N,07740.7188,W,1,09,0.93,160.0,M,-34.4,M,,*59
$GPRMC,202712.500,A,4305.6026,N,07740.7180,W,28.19,15.02,050923,,,A*7E
$GPGGA,202712.750,4305.6045,N,07740.7173,W,1,09,0.93,160.2,M,-34.4,M,,*53
$GPRMC,202713.000,A,4305.6065,N,07740.7165,W,28.35,15.01,050923,,,A*7B
$GPGGA,202713.250,4305.6084,N,07740.7158,W,1,09,0.93,160.3,M,-34.4,M,,*52
$GPRMC,202713.500,A,4305.6103,N,07740.7150,W,28.74,14.91,050923,,,A*74
$GPGGA,202713.750,4305.6122,N,07740.7143,W,1,08,0.96,160.4,M,-34.4,M,,*53
$GPRMC,202714.000,A,4305.6142,N,07740.7135,W,28.92,15.16,050923,,,A*76
$GPGGA,202714.250,4305.6162,N,07740.7128,W,1,08,0.96,160.5,M,-34.4,M,,*59
$GPRMC,202714.500,A,4305.6182,N,07740.7120,W,29.17,15.56,050923,,,A*73
$GPGGA,202714.750,4305.6201,N,07740.7112,W,1,09,0.93,160.6,M,-34.4,M,,*54
$GPRMC,202715.000,A,4305.6221,N,07740.7104,W,29.32,15.99,050923,,,A*7F
$GPGGA,202715.250,4305.6241,N,07740.7096,W,1,09,0.93,160.7,M,-34.4,M,,*58
$GPRMC,202715.500,A,4305.6262,N,07740.7087,W,29.55,15.99,050923,,,A*76
$GPGGA,202715.750,4305.6282,N,07740.7079,W,1,09,0.93,160.9,M,-34.4,M,,*5D
$GPRMC,202716.000,A,4305.6303,N,07740.7071,W,29.79,14.98,050923,,,A*71
$GPGGA,202716.250,4305.6324,N,07740.7063,W,1,09,0.93,161.1,M,-34.4,M,,*54
$GPRMC,202716.500,A,4305.6345,N,07740.7055,W,30.09,14.42,050923,,,A*78
$GPGGA,202716.750,4305.6367,N,07740.7048,W,1,09,0.93,161.4,M,-34.4,M,,*5A
$GPRMC,202717.000,A,4305.6388,N,07740.7040,W,32.25,14.11,050923,,,A*73
$GPGGA,202717.250,4305.6410,N,07740.7033,W,1,09,0.93,161.6,M,-34.4,M,,*57
$GPRMC,202717.500,A,4305.6432,N,07740.7025,W,32.22,13.50,050923,,,A*76
$GPGGA,202717.750,4305.6454,N,07740.7018,W,1,09,0.93,161.8,M,-34.4,M,,*55
$GPRMC,202718.000,A,4305.6475,N,07740.7011,W,32.64,13.31,050923,,,A*7D
$GPGGA,202718.250,4305.6497,N,07740.7004,W,1,09,0.93,162.0,M,-34.4,M,,*56
$GPRMC,202718.500,A,4305.6519,N,07740.6997,W,32.69,13.13,050923,,,A*78
$GPGGA,202718.750,4305.6541,N,07740.6989,W,1,09,0.93,162.2,M,-34.4,M,,*56
$GPRMC,202719.000,A,4305.6563,N,07740.6982,W,32.72,13.01,050923,,,A*7C
$GPGGA,202719.250,4305.6585,N,07740.6975,W,1,09,0.93,162.4,M,-34.4,M,,*5F
$GPRMC,202719.500,A,4305.6606,N,07740.6968,W,32.54,12.69,050923,,,A*76
$GPGGA,202719.750,4305.6628,N,07740.6962,W,1,09,0.93,162.5,M,-34.4,M,,*59
$GPRMC,202720.000,A,4305.6649,N,07740.6955,W,32.56,12.49,050923,,,A*7C
$GPGGA,202720.250,4305.6671,N,07740.6948,W,1,09,0.93,162.6,M,-34.4,M,,*51
$GPRMC,202720.500,A,4305.6693,N,07740.6942,W,32.88,12.56,050923,,,A*75
$GPGGA,202720.750,4305.6715,N,07740.6935,W,1,09,0.93,162.6,M,-34.4,M,,*5D
$GPRMC,202721.000,A,4305.6737,N,07740.6929,W,33.16,12.23,050923,,,A*77
$GPGGA,202721.250,4305.6760,N,07740.6923,W,1,09,0.93,162.5,M,-34.4,M,,*5F
$GPRMC,202721.500,A,4305.6782,N,07740.6916,W,33.22,11.60,050923,,,A*73
$GPGGA,202721.750,4305.6805,N,07740.6910,W,1,09,0.93,162.3,M,-34.4,M,,*50
$GPRMC,202722.000,A,4305.6827,N,07740.6904,W,33.39,10.75,050923,,,A*79
$GPGGA,202722.250,4305.6850,N,07740.6898,W,1,09,0.93,162.2,M,-34.4,M,,*56
$GPRMC,202722.500,A,4305.6874,N,07740.6892,W,33.72,10.77,050923,,,A*79
$GPGGA,202722.750,4305.6897,N,07740.6886,W,1,09,0.93,162.1,M,-34.4,M,,*54
$GPRMC,202723.000,A,4305.6920,N,07740.6880,W,33.92,9.94,050923,,,A*45
$GPGGA,202723.250,4305.6943,N,07740.6874,W,1,09,0.93,161.9,M,-34.4,M,,*5E
$GPRMC,202723.500,A,4305.6967,N,07740.6868,W,34.09,9.60,050923,,,A*4B
$GPGGA,202723.750,4305.6990,N,07740.6863,W,1,09,0.93,161.8,M,-34.4,M,,*52
$GPRMC,202724.000,A,4305.7014,N,07740.6857,W,34.71,9.57,050923,,,A*42
$GPGGA,202724.250,4305.7037,N,07740.6851,W,1,09,0.93,161.8,M,-34.4,M,,*54
$GPRMC,202724.500,A,4305.7063,N,07740.6844,W,35.29,10.22,050923,,,A*73
$GPGGA,202724.750,4305.7088,N,07740.6838,W,1,09,0.91,162.9,M,-34.4,M,,*5A
$GPRMC,202725.000,A,4305.7112,N,07740.6832,W,35.40,10.51,050923,,,A*7A
$GPGGA,202725.250,4305.7136,N,07740.6826,W,1,09,0.91,163.1,M,-34.4,M,,*5C
$GPRMC,202725.500,A,4305.7161,N,07740.6820,W,35.98,10.93,050923,,,A*73
$GPGGA,202725.750,4305.7185,N,07740.6813,W,1,09,0.93,163.3,M,-34.4,M,,*57
$GPRMC,202726.000,A,4305.7210,N,07740.6807,W,36.19,10.93,050923,,,A*7F
$GPGGA,202726.250,4305.7234,N,07740.6801,W,1,09,0.93,163.4,M,-34.4,M,,*5C
$GPRMC,202726.500,A,4305.7259,N,07740.6795,W,36.05,10.83,050923,,,A*7F
$GPGGA,202726.750,4305.7284,N,07740.6788,W,1,09,0.93,163.4,M,-34.4,M,,*5C
$GPRMC,202727.000,A,4305.7309,N,07740.6781,W,36.74,11.67,050923,,,A*77
$GPGGA,202727.250,4305.7334,N,07740.6774,W,1,09,0.93,163.5,M,-34.4,M,,*50
$GPRMC,202727.500,A,4305.7359,N,07740.6767,W,36.68,12.11,050923,,,A*70
$GPGGA,202727.750,4305.7383,N,07740.6760,W,1,09,0.93,163.6,M,-34.4,M,,*5F
$GPRMC,202728.000,A,4305.7408,N,07740.6752,W,36.74,12.81,050923,,,A*7B
$GPGGA,202728.250,4305.7433,N,07740.6744,W,1,09,0.93,163.6,M,-34.4,M,,*5F
$GPRMC,202728.500,A,4305.7458,N,07740.6736,W,36.81,13.45,050923,,,A*7A
$GPGGA,202728.750,4305.7483,N,07740.6728,W,1,09,0.93,163.7,M,-34.4,M,,*5A
$GPRMC,202729.000,A,4305.7508,N,07740.6720,W,36.88,14.09,050923,,,A*7B
$GPGGA,202729.250,4305.7534,N,07740.6711,W,1,09,0.93,163.8,M,-34.4,M,,*56
$GPRMC,202729.500,A,4305.7559,N,07740.6702,W,36.92,14.88,050923,,,A*78
$GPGGA,202729.750,4305.7584,N,07740.6693,W,1,09,0.93,164.0,M,-34.4,M,,*5C
$GPRMC,202730.000,A,4305.7609,N,07740.6683,W,37.05,15.51,050923,,,A*71
$GPGGA,202730.250,4305.7634,N,07740.6673,W,1,09,0.93,164.1,M,-34.4,M,,*56
$GPRMC,202730.500,A,4305.7658,N,07740.6663,W,37.08,16.64,050923,,,A*76
$GPGGA,202730.750,4305.7683,N,07740.6653,W,1,09,0.93,164.2,M,-34.4,M,,*5E
$GPRMC,202731.000,A,4305.7707,N,07740.6642,W,36.91,17.31,050923,,,A*7A
$GPGGA,202731.250,4305.7732,N,07740.6632,W,1,09,0.93,164.3,M,-34.4,M,,*57
$GPRMC,202731.500,A,4305.7756,N,07740.6621,W,36.63,17.91,050923,,,A*79
$GPGGA,202731.750,4305.7780,N,07740.6610,W,1,09,0.93,164.4,M,-34.4,M,,*5C
$GPRMC,202732.000,A,4305.7804,N,07740.6599,W,36.16,18.70,050923,,,A*75
$GPGGA,202732.250,4305.7828,N,07740.6588,W,1,09,0.93,164.6,M,-34.4,M,,*57
$GPRMC,202732.500,A,4305.7852,N,07740.6577,W,36.06,19.07,050923,,,A*73
$GPGGA,202732.750,4305.7876,N,07740.6566,W,1,09,0.93,164.6,M,-34.4,M,,*59
$GPRMC,202733.000,A,4305.7899,N,07740.6554,W,35.78,19.70,050923,,,A*7B
$GPGGA,202733.250,4305.7923,N,07740.6543,W,1,09,0.93,164.7,M,-34.4,M,,*5A
$GPRMC,202733.500,A,4305.7946,N,07740.6531,W,35.72,20.37,050923,,,A*7D
$GPGGA,202733.750,4305.7970,N,07740.6520,W,1,09,0.93,164.9,M,-34.4,M,,*52
$GPRMC,202734.000,A,4305.7994,N,07740.6508,W,35.69,20.70,050923,,,A*73
$GPGGA,202734.250,4305.8017,N,07740.6496,W,1,09,0.93,165.0,M,-34.4,M,,*53
$GPRMC,202734.500,A,4305.8040,N,07740.6484,W,35.52,20.64,050923,,,A*71
$GPGGA,202734.750,4305.8064,N,07740.6472,W,1,09,0.93,165.3,M,-34.4,M,,*5B
$GPRMC,202735.000,A,4305.8087,N,07740.6460,W,35.58,20.51,050923,,,A*78
$GPGGA,202735.250,4305.8110,N,07740.6449,W,1,09,0.93,165.5,M,-34.4,M,,*53
$GPRMC,202735.500,A,4305.8134,N,07740.6437,W,35.58,20.89,050923,,,A*73
$GPGGA,202735.750,4305.8157,N,07740.6425,W,1,09,0.93,165.6,M,-34.4,M,,*5C
$GPRMC,202736.000,A,4305.8180,N,07740.6413,W,35.57,20.85,050923,,,A*7F
$GPGGA,202736.250,4305.8204,N,07740.6401,W,1,09,0.93,165.8,M,-34.4,M,,*57
$GPRMC,202736.500,A,4305.8227,N,07740.6389,W,35.51,21.01,050923,,,A*7B
$GPGGA,202736.750,4305.8250,N,07740.6377,W,1,09,0.93,166.0,M,-34.4,M,,*5E
$GPRMC,202737.000,A,4305.8273,N,07740.6365,W,35.47,20.78,050923,,,A*74
$GPGGA,202737.250,4305.8297,N,07740.6353,W,1,09,0.93,166.3,M,-34.4,M,,*54
$GPRMC,202737.500,A,4305.8320,N,07740.6341,W,35.30,20.80,050923,,,A*77
$GPGGA,202737.750,4305.8343,N,07740.6329,W,1,09,0.93,166.5,M,-34.4,M,,*52
$GPRMC,202738.000,A,4305.8366,N,07740.6317,W,35.08,20.80,050923,,,A*77
$GPGGA,202738.250,4305.8388,N,07740.6306,W,1,09,0.93,166.7,M,-34.4,M,,*50
$GPRMC,202738.500,A,4305.8411,N,07740.6294,W,34.97,20.93,050923,,,A*7A
$GPGGA,202738.750,4305.8433,N,07740.6282,W,1,09,0.93,166.8,M,-34.4,M,,*50
$GPRMC,202739.000,A,4305.8456,N,07740.6271,W,34.83,20.63,050923,,,A*7C
$GPGGA,202739.250,4305.8478,N,07740.6259,W,1,09,0.93,166.9,M,-34.4,M,,*5C
$GPRMC,202739.500,A,4305.8500,N,07740.6248,W,34.67,20.45,050923,,,A*7F
$GPGGA,202739.750,4305.8522,N,07740.6237,W,1,09,0.93,166.9,M,-34.4,M,,*5F
$GPRMC,202740.000,A,4305.8544,N,07740.6226,W,33.58,19.91,050923,,,A*74
$GPGGA,202740.250,4305.8565,N,07740.6216,W,1,09,0.93,167.0,M,-34.4,M,,*5C
$GPRMC,202740.500,A,4305.8587,N,07740.6205,W,33.19,19.82,050923,,,A*78
$GPGGA,202740.750,4305.8609,N,07740.6194,W,1,09,0.93,167.1,M,-34.4,M,,*58
$GPRMC,202741.000,A,4305.8630,N,07740.6184,W,32.98,20.03,050923,,,A*72
$GPGGA,202741.250,4305.8652,N,07740.6173,W,1,09,0.93,167.2,M,-34.4,M,,*58
$GPRMC,202741.500,A,4305.8673,N,07740.6163,W,32.91,19.69,050923,,,A*76
$GPGGA,202741.750,4305.8695,N,07740.6152,W,1,09,0.93,167.2,M,-34.4,M,,*55
$GPRMC,202742.000,A,4305.8716,N,07740.6142,W,32.65,19.24,050923,,,A*73
$GPGGA,202742.250,4305.8737,N,07740.6132,W,1,09,0.93,167.0,M,-34.4,M,,*5E
$GPRMC,202742.500,A,4305.8758,N,07740.6123,W,32.60,18.55,050923,,,A*79
$GPGGA,202742.750,4305.8780,N,07740.6113,W,1,09,0.93,166.8,M,-34.4,M,,*5D
$GPRMC,202743.000,A,4305.8802,N,07740.6103,W,32.82,18.04,050923,,,A*77
$GPGGA,202743.250,4305.8823,N,07740.6094,W,1,09,0.93,166.6,M,-34.4,M,,*5F
$GPRMC,202743.500,A,4305.8845,N,07740.6084,W,32.78,17.89,050923,,,A*70
$GPGGA,202743.750,4305.8867,N,07740.6075,W,1,09,0.93,166.4,M,-34.4,M,,*57
$GPRMC,202744.000,A,4305.8888,N,07740.6066,W,32.69,17.24,050923,,,A*78
$GPGGA,202744.250,4305.8910,N,07740.6057,W,1,09,0.93,166.2,M,-34.4,M,,*52
$GPRMC,202744.500,A,4305.8932,N,07740.6048,W,32.67,17.05,050923,,,A*7C
$GPGGA,202744.750,4305.8954,N,07740.6039,W,1,09,0.93,165.9,M,-34.4,M,,*57
$GPRMC,202745.000,A,4305.8976,N,07740.6030,W,32.66,16.60,050923,,,A*74
$GPGGA,202745.250,4305.8997,N,07740.6022,W,1,09,0.93,165.8,M,-34.4,M,,*57
$GPRMC,202745.500,A,4305.9019,N,07740.6013,W,32.65,16.83,050923,,,A*7F
$GPGGA,202745.750,4305.9041,N,07740.6004,W,1,09,0.93,165.6,M,-34.4,M,,*5B
$GPRMC,202746.000,A,4305.9063,N,07740.5995,W,32.96,16.96,050923,,,A*78
$GPGGA,202746.250,4305.9085,N,07740.5986,W,1,09,0.93,165.4,M,-34.4,M,,*57
$GPRMC,202746.500,A,4305.9107,N,07740.5977,W,33.02,17.13,050923,,,A*72
$GPGGA,202746.750,4305.9129,N,07740.5967,W,1,09,0.93,165.3,M,-34.4,M,,*5D
$GPRMC,202747.000,A,4305.9151,N,07740.5958,W,33.03,17.14,050923,,,A*7E
$GPGGA,202747.250,4305.9173,N,07740.5949,W,1,09,0.93,165.2,M,-34.4,M,,*5B
$GPRMC,202747.500,A,4305.9195,N,07740.5939,W,33.09,17.01,050923,,,A*7A
$GPGGA,202747.750,4305.9217,N,07740.5930,W,1,09,0.93,165.2,M,-34.4,M,,*51
$GPRMC,202748.000,A,4305.9239,N,07740.5921,W,32.95,16.84,050923,,,A*74
$GPGGA,202748.250,4305.9261,N,07740.5912,W,1,09,0.93,165.2,M,-34.4,M,,*5A
$GPRMC,202748.500,A,4305.9283,N,07740.5903,W,32.87,16.87,050923,,,A*70
$GPGGA,202748.750,4305.9304,N,07740.5894,W,1,09,0.93,165.3,M,-34.4,M,,*53
$GPRMC,202749.000,A,4305.9326,N,07740.5885,W,32.59,16.81,050923,,,A*70
$GPGGA,202749.250,4305.9347,N,07740.5876,W,1,09,0.93,165.4,M,-34.4,M,,*5B
$GPRMC,202749.500,A,4305.9369,N,07740.5867,W,32.30,16.67,050923,,,A*75
$GPGGA,202749.750,4305.9390,N,07740.5858,W,1,09,0.93,165.7,M,-34.4,M,,*5B
$GPRMC,202750.000,A,4305.9412,N,07740.5849,W,32.73,16.94,050923,,,A*74
$GPGGA,202750.250,4305.9434,N,07740.5839,W,1,09,0.91,165.8,M,-34.4,M,,*55
$GPRMC,202750.500,A,4305.9456,N,07740.5830,W,32.94,17.29,050923,,,A*71
$GPGGA,202750.750,4305.9478,N,07740.5820,W,1,09,0.93,165.8,M,-34.4,M,,*52
$GPRMC,202751.000,A,4305.9500,N,07740.5811,W,33.01,16.99,050923,,,A*73
$GPGGA,202751.250,4305.9522,N,07740.5802,W,1,09,0.93,166.1,M,-34.4,M,,*52
$GPRMC,202751.500,A,4305.9544,N,07740.5792,W,33.03,16.32,050923,,,A*71
$GPGGA,202751.750,4305.9566,N,07740.5784,W,1,09,0.93,166.5,M,-34.4,M,,*52
$GPRMC,202752.000,A,4305.9588,N,07740.5775,W,33.00,15.56,050923,,,A*7C
$GPGGA,202752.250,4305.9610,N,07740.5767,W,1,09,0.93,166.7,M,-34.4,M,,*59
$GPRMC,202752.500,A,4305.9633,N,07740.5758,W,32.99,15.36,050923,,,A*72
$GPGGA,202752.750,4305.9655,N,07740.5750,W,1,09,0.93,166.9,M,-34.4,M,,*57
$GPRMC,202753.000,A,4305.9677,N,07740.5741,W,32.97,16.24,050923,,,A*70
$GPGGA,202753.250,4305.9699,N,07740.5732,W,1,09,0.93,167.0,M,-34.4,M,,*5F
$GPRMC,202753.500,A,4305.9720,N,07740.5723,W,32.79,17.06,050923,,,A*73
$GPGGA,202753.750,4305.9742,N,07740.5714,W,1,09,0.93,167.0,M,-34.4,M,,*59
$GPRMC,202754.000,A,4305.9764,N,07740.5705,W,32.97,17.25,050923,,,A*74
$GPGGA,202754.250,4305.9786,N,07740.5696,W,1,09,0.93,167.0,M,-34.4,M,,*58
$GPRMC,202754.500,A,4305.9808,N,07740.5686,W,33.00,16.57,050923,,,A*75
$GPGGA,202754.750,4305.9831,N,07740.5678,W,1,09,0.93,167.1,M,-34.4,M,,*5F
$GPRMC,202755.000,A,4305.9853,N,07740.5669,W,33.02,15.89,050923,,,A*7C
$GPGGA,202755.250,4305.9876,N,07740.5661,W,1,09,0.93,167.1,M,-34.4,M,,*50
$GPRMC,202755.500,A,4305.9899,N,07740.5652,W,33.11,15.26,050923,,,A*70
$GPGGA,202755.750,4305.9921,N,07740.5644,W,1,09,0.93,167.2,M,-34.4,M,,*52
$GPRMC,202756.000,A,4305.9944,N,07740.5636,W,33.52,13.98,050923,,,A*71
$GPGGA,202756.250,4305.9967,N,07740.5629,W,1,09,0.93,167.1,M,-34.4,M,,*5E
$GPRMC,202756.500,A,4305.9989,N,07740.5622,W,33.48,12.64,050923,,,A*79
$GPGGA,202756.750,4306.0012,N,07740.5616,W,1,09,0.93,167.0,M,-34.4,M,,*57
$GPRMC,202757.000,A,4306.0034,N,07740.5610,W,33.36,10.96,050923,,,A*7F
$GPGGA,202757.250,4306.0056,N,07740.5604,W,1,09,0.93,167.0,M,-34.4,M,,*50
$GPRMC,202757.500,A,4306.0078,N,07740.5599,W,33.26,10.05,050923,,,A*7B
$GPGGA,202757.750,4306.0101,N,07740.5593,W,1,09,0.93,167.0,M,-34.4,M,,*5B
$GPRMC,202758.000,A,4306.0123,N,07740.5588,W,33.24,9.72,050923,,,A*44
$GPGGA,202758.250,4306.0146,N,07740.5583,W,1,09,0.93,167.0,M,-34.4,M,,*53
$GPRMC,202758.500,A,4306.0168,N,07740.5578,W,33.20,9.13,050923,,,A*42
$GPGGA,202758.750,4306.0191,N,07740.5573,W,1,09,0.93,166.8,M,-34.4,M,,*5A
$GPRMC,202759.000,A,4306.0214,N,07740.5569,W,33.25,9.02,050923,,,A*4B
$GPGGA,202759.250,4306.0237,N,07740.5564,W,1,09,0.93,166.8,M,-34.4,M,,*57
$GPRMC,202759.500,A,4306.0261,N,07740.5559,W,33.99,8.87,050923,,,A*44
$GPGGA,202759.750,4306.0284,N,07740.5555,W,1,09,0.93,167.0,M,-34.4,M,,*51
$GPRMC,202800.000,A,4306.0307,N,07740.5550,W,33.91,8.56,050923,,,A*4E
$GPGGA,202800.250,4306.0330,N,07740.5546,W,1,09,0.93,167.0,M,-34.4,M,,*5B
$GPRMC,202800.500,A,4306.0354,N,07740.5542,W,34.21,7.63,050923,,,A*4B
$GPGGA,202800.750,4306.0377,N,07740.5537,W,1,09,0.93,167.1,M,-34.4,M,,*5A
$GPRMC,202801.000,A,4306.0401,N,07740.5533,W,34.85,7.78,050923,,,A*4A
$GPGGA,202801.250,4306.0425,N,07740.5528,W,1,09,0.93,167.0,M,-34.4,M,,*51
$GPRMC,202801.500,A,4306.0449,N,07740.5524,W,35.22,7.64,050923,,,A*44
$GPGGA,202801.750,4306.0472,N,07740.5519,W,1,09,0.93,166.9,M,-34.4,M,,*5C
$GPRMC,202802.000,A,4306.0496,N,07740.5515,W,35.20,8.14,050923,,,A*48
$GPGGA,202802.250,4306.0520,N,07740.5511,W,1,09,0.93,166.6,M,-34.4,M,,*5B
$GPRMC,202802.500,A,4306.0543,N,07740.5506,W,35.16,8.01,050923,,,A*47
$GPGGA,202802.750,4306.0567,N,07740.5502,W,1,09,0.93,166.4,M,-34.4,M,,*5D
$GPRMC,202803.000,A,4306.0591,N,07740.5497,W,35.12,7.55,050923,,,A*4F
$GPGGA,202803.250,4306.0615,N,07740.5493,W,1,09,0.93,166.3,M,-34.4,M,,*51
$GPRMC,202803.500,A,4306.0639,N,07740.5489,W,34.74,6.89,050923,,,A*45
$GPGGA,202803.750,4306.0663,N,07740.5486,W,1,09,0.93,166.3,M,-34.4,M,,*51
$GPRMC,202804.000,A,4306.0687,N,07740.5483,W,34.47,5.73,050923,,,A*4E
$GPGGA,202804.250,4306.0711,N,07740.5480,W,1,09,0.93,166.3,M,-34.4,M,,*51
$GPRMC,202804.500,A,4306.0735,N,07740.5477,W,34.38,4.87,050923,,,A*4A
$GPGGA,202804.750,4306.0759,N,07740.5474,W,1,09,0.93,166.2,M,-34.4,M,,*52
$GPRMC,202805.000,A,4306.0782,N,07740.5471,W,34.44,5.35,050923,,,A*47
$GPGGA,202805.250,4306.0807,N,07740.5468,W,1,09,0.93,166.2,M,-34.4,M,,*5F
$GPRMC,202805.500,A,4306.0831,N,07740.5465,W,34.54,5.27,050923,,,A*42
$GPGGA,202805.750,4306.0855,N,07740.5462,W,1,09,0.93,166.1,M,-34.4,M,,*54
$GPRMC,202806.000,A,4306.0879,N,07740.5459,W,34.92,4.42,050923,,,A*4F
$GPGGA,202806.250,4306.0903,N,07740.5457,W,1,09,0.93,166.1,M,-34.4,M,,*56
$GPRMC,202806.500,A,4306.0927,N,07740.5455,W,34.65,3.64,050923,,,A*47
$GPGGA,202806.750,4306.0950,N,07740.5453,W,1,09,0.93,166.0,M,-34.4,M,,*50
$GPRMC,202807.000,A,4306.0974,N,07740.5452,W,34.61,2.68,050923,,,A*4B
$GPGGA,202807.250,4306.0998,N,07740.5450,W,1,09,0.93,166.0,M,-34.4,M,,*53
$GPRMC,202807.500,A,4306.1023,N,07740.5448,W,34.60,2.94,050923,,,A*4D
$GPGGA,202807.750,4306.1048,N,07740.5447,W,1,09,0.93,165.9,M,-34.4,M,,*5F
$GPRMC,202808.000,A,4306.1072,N,07740.5446,W,34.76,1.86,050923,,,A*4A
$GPGGA,202808.250,4306.1097,N,07740.5445,W,1,09,0.93,165.7,M,-34.4,M,,*5B
$GPRMC,202808.500,A,4306.1121,N,07740.5445,W,35.47,0.52,050923,,,A*40
$GPGGA,202808.750,4306.1145,N,07740.5446,W,1,09,0.93,165.4,M,-34.4,M,,*50
$GPRMC,202809.000,A,4306.1170,N,07740.5446,W,35.59,0.10,050923,,,A*4A
$GPGGA,202809.250,4306.1194,N,07740.5446,W,1,09,0.93,165.1,M,-34.4,M,,*5D
$GPRMC,202809.500,A,4306.1219,N,07740.5447,W,35.59,358.94,050923,,,A*40
$GPGGA,202809.750,4306.1244,N,07740.5448,W,1,09,0.93,164.6,M,-34.4,M,,*5E
$GPRMC,202810.000,A,4306.1269,N,07740.5450,W,35.78,357.60,050923,,,A*4B
$GPGGA,202810.250,4306.1294,N,07740.5451,W,1,09,0.93,164.3,M,-34.4,M,,*53
$GPRMC,202810.500,A,4306.1319,N,07740.5453,W,36.03,356.74,050923,,,A*40
$GPGGA,202810.750,4306.1344,N,07740.5456,W,1,09,0.93,164.1,M,-34.4,M,,*5F
$GPRMC,202811.000,A,4306.1370,N,07740.5458,W,36.34,356.59,050923,,,A*4B
$GPGGA,202811.250,4306.1395,N,07740.5460,W,1,09,0.93,163.8,M,-34.4,M,,*5C
$GPRMC,202811.500,A,4306.1420,N,07740.5462,W,36.30,356.39,050923,,,A*47
$GPGGA,202811.750,4306.1446,N,07740.5464,W,1,09,0.93,163.6,M,-34.4,M,,*5A
$GPRMC,202812.000,A,4306.1471,N,07740.5467,W,36.72,355.92,050923,,,A*44
$GPGGA,202812.250,4306.1498,N,07740.5469,W,1,09,0.93,163.3,M,-34.4,M,,*57
$GPRMC,202812.500,A,4306.1523,N,07740.5472,W,36.80,355.53,050923,,,A*43
$GPGGA,202812.750,4306.1549,N,07740.5475,W,1,09,0.93,163.1,M,-34.4,M,,*50
$GPRMC,202813.000,A,4306.1576,N,07740.5478,W,37.59,355.14,050923,,,A*4B
$GPGGA,202813.250,4306.1602,N,07740.5481,W,1,09,0.93,163.0,M,-34.4,M,,*52
$GPRMC,202813.500,A,4306.1628,N,07740.5485,W,37.41,354.64,050923,,,A*4B
$GPGGA,202813.750,4306.1653,N,07740.5489,W,1,09,0.93,162.7,M,-34.4,M,,*5D
$GPRMC,202814.000,A,4306.1679,N,07740.5493,W,36.96,354.44,050923,,,A*43
$GPGGA,202814.250,4306.1705,N,07740.5496,W,1,09,0.93,162.5,M,-34.4,M,,*51
$GPRMC,202814.500,A,4306.1730,N,07740.5501,W,36.71,354.55,050923,,,A*49
$GPGGA,202814.750,4306.1755,N,07740.5505,W,1,09,0.93,162.2,M,-34.4,M,,*5D
$GPRMC,202815.000,A,4306.1780,N,07740.5508,W,37.08,355.58,050923,,,A*4C
$GPGGA,202815.250,4306.1807,N,07740.5511,W,1,09,0.93,161.9,M,-34.4,M,,*5C
$GPRMC,202815.500,A,4306.1833,N,07740.5513,W,37.55,356.60,050923,,,A*44
$GPGGA,202815.750,4306.1860,N,07740.5515,W,1,09,0.93,161.6,M,-34.4,M,,*53
$GPRMC,202816.000,A,4306.1886,N,07740.5518,W,37.64,356.57,050923,,,A*41
$GPGGA,202816.250,4306.1912,N,07740.5520,W,1,09,0.93,161.5,M,-34.4,M,,*54
$GPRMC,202816.500,A,4306.1938,N,07740.5522,W,37.67,357.02,050923,,,A*4B
$GPGGA,202816.750,4306.1963,N,07740.5523,W,1,09,0.94,161.4,M,-34.4,M,,*52
$GPRMC,202817.000,A,4306.1989,N,07740.5525,W,36.63,358.03,050923,,,A*49
$GPGGA,202817.250,4306.2015,N,07740.5526,W,1,09,0.93,161.4,M,-34.4,M,,*5F
$GPRMC,202817.500,A,4306.2041,N,07740.5526,W,36.91,359.33,050923,,,A*4E
$GPGGA,202817.750,4306.2066,N,07740.5526,W,1,09,0.94,161.3,M,-34.4,M,,*5E
$GPRMC,202818.000,A,4306.2093,N,07740.5525,W,36.86,1.56,050923,,,A*43
$GPGGA,202818.250,4306.2119,N,07740.5524,W,1,09,0.93,161.2,M,-34.4,M,,*59
$GPRMC,202818.500,A,4306.2145,N,07740.5523,W,37.32,2.67,050923,,,A*45
$GPGGA,202818.750,4306.2171,N,07740.5521,W,1,09,0.94,161.3,M,-34.4,M,,*51
$GPRMC,202819.000,A,4306.2197,N,07740.5519,W,37.41,3.26,050923,,,A*47
$GPGGA,202819.250,4306.2223,N,07740.5517,W,1,09,0.93,161.4,M,-34.4,M,,*54
$GPRMC,202819.500,A,4306.2249,N,07740.5515,W,37.51,4.02,050923,,,A*4E
$GPGGA,202819.750,4306.2275,N,07740.5513,W,1,09,0.94,161.3,M,-34.4,M,,*56
$GPRMC,202820.000,A,4306.2301,N,07740.5510,W,38.08,4.09,050923,,,A*41
$GPGGA,202820.250,4306.2327,N,07740.5508,W,1,09,0.94,161.2,M,-34.4,M,,*54
$GPRMC,202820.500,A,4306.2353,N,07740.5505,W,38.17,3.85,050923,,,A*4A
$GPGGA,202820.750,4306.2380,N,07740.5503,W,1,09,0.93,161.1,M,-34.4,M,,*53
$GPRMC,202821.000,A,4306.2406,N,07740.5500,W,38.36,4.07,050923,,,A*42
$GPGGA,202821.250,4306.2433,N,07740.5498,W,1,09,0.94,161.3,M,-34.4,M,,*5E
$GPRMC,202821.500,A,4306.2460,N,07740.5495,W,38.33,4.42,050923,,,A*4E
$GPGGA,202821.750,4306.2486,N,07740.5492,W,1,09,0.94,161.4,M,-34.4,M,,*58
$GPRMC,202822.000,A,4306.2513,N,07740.5489,W,38.57,4.91,050923,,,A*4C
$GPGGA,202822.250,4306.2540,N,07740.5486,W,1,09,0.94,161.5,M,-34.4,M,,*51
$GPRMC,202822.500,A,4306.2567,N,07740.5483,W,38.65,5.39,050923,,,A*42
$GPGGA,202822.750,4306.2593,N,07740.5479,W,1,09,0.93,161.6,M,-34.4,M,,*5E
$GPRMC,202823.000,A,4306.2620,N,07740.5476,W,38.55,5.72,050923,,,A*40
$GPGGA,202823.250,4306.2646,N,07740.5471,W,1,09,0.94,161.6,M,-34.4,M,,*5E
$GPRMC,202823.500,A,4306.2673,N,07740.5467,W,38.76,6.69,050923,,,A*4B
$GPGGA,202823.750,4306.2700,N,07740.5463,W,1,09,0.94,161.6,M,-34.4,M,,*5B
$GPRMC,202824.000,A,4306.2726,N,07740.5458,W,38.58,7.63,050923,,,A*43
$GPGGA,202824.250,4306.2753,N,07740.5454,W,1,09,0.94,161.4,M,-34.4,M,,*59
$GPRMC,202824.500,A,4306.2779,N,07740.5449,W,38.77,7.95,050923,,,A*48
$GPGGA,202824.750,4306.2806,N,07740.5444,W,1,09,0.94,161.1,M,-34.4,M,,*57
$GPRMC,202825.000,A,4306.2833,N,07740.5438,W,38.95,8.97,050923,,,A*4A
$GPGGA,202825.250,4306.2860,N,07740.5432,W,1,09,0.94,161.0,M,-34.4,M,,*53
$GPRMC,202825.500,A,4306.2886,N,07740.5426,W,38.99,10.25,050923,,,A*72
$GPGGA,202825.750,4306.2913,N,07740.5419,W,1,09,0.94,161.0,M,-34.4,M,,*5A
$GPRMC,202826.000,A,4306.2939,N,07740.5412,W,39.03,11.19,050923,,,A*7A
$GPGGA,202826.250,4306.2966,N,07740.5405,W,1,09,0.94,160.9,M,-34.4,M,,*5B
$GPRMC,202826.500,A,4306.2993,N,07740.5398,W,39.03,11.89,050923,,,A*73
$GPGGA,202826.750,4306.3019,N,07740.5390,W,1,09,0.94,161.0,M,-34.4,M,,*5D
$GPRMC,202827.000,A,4306.3045,N,07740.5382,W,38.53,12.62,050923,,,A*7D
$GPGGA,202827.250,4306.3072,N,07740.5373,W,1,09,0.94,161.0,M,-34.4,M,,*59
$GPRMC,202827.500,A,4306.3098,N,07740.5365,W,38.82,13.70,050923,,,A*7F
$GPGGA,202827.750,4306.3125,N,07740.5355,W,1,09,0.94,161.1,M,-34.4,M,,*5A
$GPRMC,202828.000,A,4306.3151,N,07740.5346,W,39.19,14.58,050923,,,A*7E
$GPGGA,202828.250,4306.3177,N,07740.5336,W,1,09,0.94,161.1,M,-34.4,M,,*52
$GPRMC,202828.500,A,4306.3204,N,07740.5326,W,39.27,16.07,050923,,,A*7B
$GPGGA,202828.750,4306.3229,N,07740.5315,W,1,09,0.94,161.1,M,-34.4,M,,*5E
$GPRMC,202829.000,A,4306.3255,N,07740.5303,W,39.40,17.71,050923,,,A*7D
$GPGGA,202829.250,4306.3281,N,07740.5292,W,1,09,0.91,161.0,M,-34.4,M,,*52
$GPRMC,202829.500,A,4306.3307,N,07740.5280,W,39.39,18.37,050923,,,A*77
