Vers 81
USE_SERIAL_FEEDBACK=true
DEVELOPMENT_MODE=false
USE_RMC_ONLY=false

$GPRMC,182511.750,A,4305.1557,N,07740.8579,W,0.04,25.13,201023,,,A*40
$GPGGA,182512.000,4305.1560,N,07740.8581,W,1,04,2.23,149.8,M,-34.4,M,,*5E
$GPRMC,182512.250,A,4305.1565,N,07740.8582,W,0.01,275.69,201023,,,A*7C
$GPGGA,182512.500,4305.1568,N,07740.8583,W,1,04,2.23,151.5,M,-34.4,M,,*55
$GPRMC,182512.750,A,4305.1570,N,07740.8584,W,0.03,339.75,201023,,,A*7D
$GPGGA,182513.000,4305.1573,N,07740.8585,W,1,04,2.24,152.8,M,-34.4,M,,*54
$GPRMC,182513.250,A,4305.1575,N,07740.8586,W,0.05,181.28,201023,,,A*71
$GPGGA,182513.500,4305.1578,N,07740.8587,W,1,04,2.24,154.0,M,-34.4,M,,*56
$GPRMC,182513.750,A,4305.1579,N,07740.8588,W,0.01,324.54,201023,,,A*74
$GPGGA,182514.000,4305.1580,N,07740.8588,W,1,04,2.24,154.5,M,-34.4,M,,*59
$GPRMC,182514.250,A,4305.1582,N,07740.8589,W,0.03,3.99,201023,,,A*76
$GPGGA,182514.500,4305.1584,N,07740.8589,W,1,04,9.43,155.5,M,-34.4,M,,*52
$GPRMC,182514.750,A,4305.1585,N,07740.8589,W,0.04,182.59,201023,,,A*77
$GPGGA,182515.000,4305.1586,N,07740.8590,W,1,04,2.24,156.2,M,-34.4,M,,*52
$GPRMC,182515.250,A,4305.1588,N,07740.8590,W,0.03,284.13,201023,,,A*7A
$GPGGA,182515.500,4305.1588,N,07740.8590,W,1,04,2.24,156.6,M,-34.4,M,,*5D
$GPRMC,182515.750,A,4305.1588,N,07740.8590,W,0.03,35.04,201023,,,A*41
$GPGGA,182516.000,4305.1586,N,07740.8589,W,1,04,2.24,156.2,M,-34.4,M,,*59
$GPRMC,182516.250,A,4305.1583,N,07740.8588,W,0.02,88.75,201023,,,A*44
$GPGGA,182516.500,4305.1582,N,07740.8587,W,1,04,2.24,155.4,M,-34.4,M,,*53
$GPRMC,182516.750,A,4305.1579,N,07740.8586,W,0.03,172.46,201023,,,A*7F
$GPGGA,182517.000,4305.1576,N,07740.8585,W,1,04,2.24,154.1,M,-34.4,M,,*5A
$GPRMC,182517.250,A,4305.1574,N,07740.8584,W,0.02,355.37,201023,,,A*74
$GPGGA,182517.500,4305.1572,N,07740.8583,W,1,04,9.43,153.2,M,-34.4,M,,*53
$GPRMC,182517.750,A,4305.1570,N,07740.8582,W,0.02,320.48,201023,,,A*79
$GPGGA,182518.000,4305.1569,N,07740.8582,W,1,04,2.24,152.6,M,-34.4,M,,*5D
$GPRMC,182518.250,A,4305.1568,N,07740.8581,W,0.02,239.35,201023,,,A*7A
$GPGGA,182518.500,4305.1567,N,07740.8581,W,1,04,2.24,152.1,M,-34.4,M,,*52
$GPRMC,182518.750,A,4305.1566,N,07740.8581,W,0.01,33.83,201023,,,A*47
$GPGGA,182519.000,4305.1566,N,07740.8581,W,1,04,2.24,151.9,M,-34.4,M,,*5C
$GPRMC,182519.250,A,4305.1567,N,07740.8581,W,0.02,45.90,201023,,,A*42
$GPGGA,182519.500,4305.1568,N,07740.8581,W,1,04,2.24,152.4,M,-34.4,M,,*59
$GPRMC,182519.750,A,4305.1569,N,07740.8582,W,0.03,188.15,201023,,,A*76
$GPGGA,182520.000,4305.1572,N,07740.8582,W,1,04,2.24,153.3,M,-34.4,M,,*58
$GPRMC,182520.250,A,4305.1606,N,07740.8594,W,0.01,232.94,201023,,,A*7D
$GPGGA,182520.500,4305.1626,N,07740.8601,W,1,05,1.77,166.3,M,-34.4,M,,*55
$GPRMC,182520.750,A,4305.1639,N,07740.8605,W,0.01,192.75,201023,,,A*79
$GPGGA,182521.000,4305.1654,N,07740.8610,W,1,05,1.77,172.8,M,-34.4,M,,*5A
$GPRMC,182521.250,A,4305.1659,N,07740.8612,W,0.02,214.03,201023,,,A*72
$GPGGA,182521.500,4305.1663,N,07740.8613,W,1,05,1.77,175.0,M,-34.4,M,,*57
$GPRMC,182521.750,A,4305.1667,N,07740.8614,W,0.01,315.32,201023,,,A*7D
$GPGGA,182522.000,4305.1670,N,07740.8615,W,1,05,1.77,176.7,M,-34.4,M,,*51
$GPRMC,182522.250,A,4305.1672,N,07740.8616,W,0.03,40.40,201023,,,A*49
$GPGGA,182522.500,4305.1674,N,07740.8617,W,1,05,1.77,177.7,M,-34.4,M,,*53
$GPRMC,182522.750,A,4305.1676,N,07740.8617,W,0.03,238.67,201023,,,A*71
$GPGGA,182523.000,4305.1679,N,07740.8618,W,1,05,1.77,178.7,M,-34.4,M,,*5A
$GPRMC,182523.250,A,4305.1681,N,07740.8619,W,0.01,112.14,201023,,,A*7E
$GPGGA,182523.500,4305.1683,N,07740.8619,W,1,05,1.77,179.8,M,-34.4,M,,*55
$GPRMC,182523.750,A,4305.1684,N,07740.8620,W,0.03,215.06,201023,,,A*71
$GPGGA,182524.000,4305.1685,N,07740.8620,W,1,05,1.77,180.4,M,-34.4,M,,*51
$GPRMC,182524.250,A,4305.1687,N,07740.8620,W,0.01,112.57,201023,,,A*72
$GPGGA,182524.500,4305.1688,N,07740.8620,W,1,05,1.77,181.2,M,-34.4,M,,*5E
$GPRMC,182524.750,A,4305.1689,N,07740.8621,W,0.00,345.30,201023,,,A*78
$GPGGA,182525.000,4305.1691,N,07740.8621,W,1,05,3.68,182.0,M,-34.4,M,,*5E
$GPRMC,182525.250,A,4305.1692,N,07740.8621,W,0.04,302.58,201023,,,A*7F
$GPGGA,182525.500,4305.1692,N,07740.8621,W,1,05,1.77,182.5,M,-34.4,M,,*51
$GPRMC,182525.750,A,4305.1693,N,07740.8621,W,0.02,39.10,201023,,,A*4A
$GPGGA,182526.000,4305.1694,N,07740.8621,W,1,05,1.77,183.1,M,-34.4,M,,*54
$GPRMC,182526.250,A,4305.1692,N,07740.8620,W,0.01,349.78,201023,,,A*75
$GPGGA,182526.500,4305.1691,N,07740.8619,W,1,06,2.69,182.5,M,-34.4,M,,*55
$GPRMC,182526.750,A,4305.1690,N,07740.8619,W,0.02,337.45,201023,,,A*7C
$GPGGA,182527.000,4305.1689,N,07740.8619,W,1,06,1.38,182.1,M,-34.4,M,,*5B
$GPRMC,182527.250,A,4305.1688,N,07740.8619,W,0.02,100.53,201023,,,A*70
$GPGGA,182527.500,4305.1687,N,07740.8618,W,1,06,1.38,181.6,M,-34.4,M,,*55
$GPRMC,182527.750,A,4305.1686,N,07740.8618,W,0.01,162.50,201023,,,A*7E
$GPGGA,182528.000,4305.1686,N,07740.8618,W,1,06,1.38,181.2,M,-34.4,M,,*5A
$GPRMC,182528.250,A,4305.1685,N,07740.8618,W,0.01,240.18,201023,,,A*78
$GPGGA,182528.500,4305.1685,N,07740.8618,W,1,06,1.38,181.0,M,-34.4,M,,*5E
$GPRMC,182528.750,A,4305.1685,N,07740.8618,W,0.01,262.95,201023,,,A*78
$GPGGA,182529.000,4305.1684,N,07740.8618,W,1,06,1.38,180.8,M,-34.4,M,,*52
$GPRMC,182529.250,A,4305.1684,N,07740.8618,W,0.02,143.77,201023,,,A*72
$GPGGA,182529.500,4305.1684,N,07740.8618,W,1,06,1.38,180.6,M,-34.4,M,,*59
$GPRMC,182529.750,A,4305.1683,N,07740.8618,W,0.02,299.11,201023,,,A*74
$GPGGA,182530.000,4305.1683,N,07740.8618,W,1,06,1.38,180.4,M,-34.4,M,,*51
$GPRMC,182530.250,A,4305.1683,N,07740.8617,W,0.03,51.72,201023,,,A*44
$GPGGA,182530.500,4305.1683,N,07740.8617,W,1,06,1.38,180.3,M,-34.4,M,,*5C
$GPRMC,182530.750,A,4305.1682,N,07740.8617,W,0.03,252.59,201023,,,A*78
$GPGGA,182531.000,4305.1682,N,07740.8617,W,1,06,1.38,180.1,M,-34.4,M,,*5B
$GPRMC,182531.250,A,4305.1682,N,07740.8617,W,0.01,309.15,201023,,,A*79
$GPGGA,182531.500,4305.1681,N,07740.8617,W,1,06,1.38,180.0,M,-34.4,M,,*5C
$GPRMC,182531.750,A,4305.1681,N,07740.8617,W,0.01,153.86,201023,,,A*78
$GPGGA,182532.000,4305.1681,N,07740.8617,W,1,06,1.38,179.9,M,-34.4,M,,*55
$GPRMC,182532.250,A,4305.1674,N,07740.8616,W,0.05,261.97,201023,,,A*73
$GPGGA,182532.500,4305.1669,N,07740.8615,W,1,09,0.96,176.1,M,-34.4,M,,*59
$GPRMC,182532.750,A,4305.1667,N,07740.8614,W,0.02,104.70,201023,,,A*78
$GPGGA,182533.000,4305.1664,N,07740.8613,W,1,09,0.96,174.1,M,-34.4,M,,*54
$GPRMC,182533.250,A,4305.1662,N,07740.8613,W,0.02,221.01,201023,,,A*7C
$GPGGA,182533.500,4305.1660,N,07740.8612,W,1,09,0.96,172.5,M,-34.4,M,,*56
$GPRMC,182533.750,A,4305.1658,N,07740.8612,W,0.02,38.51,201023,,,A*4E
$GPGGA,182534.000,4305.1657,N,07740.8612,W,1,09,0.96,171.6,M,-34.4,M,,*50
$GPRMC,182534.250,A,4305.1656,N,07740.8611,W,0.02,248.94,201023,,,A*7D
$GPGGA,182534.500,4305.1654,N,07740.8611,W,1,09,0.96,170.9,M,-34.4,M,,*5B
$GPRMC,182534.750,A,4305.1653,N,07740.8611,W,0.01,79.62,201023,,,A*47
$GPGGA,182535.000,4305.1652,N,07740.8611,W,1,09,0.96,170.3,M,-34.4,M,,*53
$GPRMC,182535.250,A,4305.1652,N,07740.8611,W,0.02,153.90,201023,,,A*75
$GPGGA,182535.500,4305.1652,N,07740.8611,W,1,09,0.96,170.0,M,-34.4,M,,*55
$GPRMC,182535.750,A,4305.1651,N,07740.8611,W,0.02,318.82,201023,,,A*7D
$GPGGA,182536.000,4305.1651,N,07740.8611,W,1,09,0.96,169.8,M,-34.4,M,,*50
$GPRMC,182536.250,A,4305.1651,N,07740.8611,W,0.01,235.14,201023,,,A*79
$GPGGA,182536.500,4305.1651,N,07740.8611,W,1,09,0.96,169.8,M,-34.4,M,,*55
$GPRMC,182536.750,A,4305.1651,N,07740.8611,W,0.03,14.25,201023,,,A*4D
$GPGGA,182537.000,4305.1651,N,07740.8611,W,1,09,0.96,169.8,M,-34.4,M,,*51
$GPRMC,182537.250,A,4305.1651,N,07740.8611,W,0.01,176.13,201023,,,A*7B
$GPGGA,182537.500,4305.1651,N,07740.8611,W,1,09,0.96,169.8,M,-34.4,M,,*54
$GPRMC,182537.750,A,4305.1651,N,07740.8611,W,0.00,8.68,201023,,,A*7B
$GPGGA,182538.000,4305.1651,N,07740.8611,W,1,09,0.96,169.8,M,-34.4,M,,*5E
$GPRMC,182538.250,A,4305.1651,N,07740.8611,W,0.02,96.72,201023,,,A*4F
$GPGGA,182538.500,4305.1651,N,07740.8611,W,1,09,0.96,169.8,M,-34.4,M,,*5B
$GPRMC,182538.750,A,4305.1651,N,07740.8611,W,0.02,299.78,201023,,,A*7D
$GPGGA,182539.000,4305.1651,N,07740.8611,W,1,09,0.96,169.8,M,-34.4,M,,*5F
$GPRMC,182539.250,A,4305.1651,N,07740.8611,W,0.02,293.11,201023,,,A*7C
$GPGGA,182539.500,4305.1651,N,07740.8611,W,1,09,0.96,169.8,M,-34.4,M,,*5A
$GPRMC,182539.750,A,4305.1651,N,07740.8611,W,0.02,274.95,201023,,,A*7C
$GPGGA,182540.000,4305.1651,N,07740.8611,W,1,09,0.96,169.8,M,-34.4,M,,*51
$GPRMC,182540.250,A,4305.1651,N,07740.8611,W,0.03,87.69,201023,,,A*4B
$GPGGA,182540.500,4305.1651,N,07740.8611,W,1,09,0.96,169.8,M,-34.4,M,,*54
$GPRMC,182540.750,A,4305.1651,N,07740.8611,W,0.01,70.16,201023,,,A*4C
$GPGGA,182541.000,4305.1651,N,07740.8611,W,1,09,0.96,169.8,M,-34.4,M,,*50
$GPRMC,182541.250,A,4305.1651,N,07740.8611,W,0.03,234.74,201023,,,A*7C
$GPGGA,182541.500,4305.1651,N,07740.8611,W,1,09,0.96,169.8,M,-34.4,M,,*55
$GPRMC,182541.750,A,4305.1651,N,07740.8611,W,0.01,89.08,201023,,,A*44
$GPGGA,182542.000,4305.1651,N,07740.8611,W,1,09,0.96,169.8,M,-34.4,M,,*53
$GPRMC,182542.250,A,4305.1651,N,07740.8611,W,0.02,252.13,201023,,,A*7F
$GPGGA,182542.500,4305.1651,N,07740.8611,W,1,09,0.96,169.8,M,-34.4,M,,*56
$GPRMC,182542.750,A,4305.1651,N,07740.8611,W,0.03,323.50,201023,,,A*7B
$GPGGA,182543.000,4305.1651,N,07740.8611,W,1,09,0.96,169.8,M,-34.4,M,,*52
$GPRMC,182543.250,A,4305.1651,N,07740.8611,W,0.01,242.64,201023,,,A*7C
$GPGGA,182543.500,4305.1651,N,07740.8611,W,1,09,0.96,169.8,M,-34.4,M,,*57
$GPRMC,182543.750,A,4305.1651,N,07740.8611,W,0.00,99.19,201023,,,A*46
$GPGGA,182544.000,4305.1651,N,07740.8611,W,1,09,0.96,169.8,M,-34.4,M,,*55
$GPRMC,182544.250,A,4305.1651,N,07740.8611,W,0.01,78.51,201023,,,A*46
$GPGGA,182544.500,4305.1651,N,07740.8611,W,1,09,0.96,169.8,M,-34.4,M,,*50
$GPRMC,182544.750,A,4305.1651,N,07740.8611,W,0.01,272.32,201023,,,A*7E
$GPGGA,182545.000,4305.1651,N,07740.8611,W,1,09,0.96,169.8,M,-34.4,M,,*54
$GPRMC,182545.250,A,4305.1651,N,07740.8611,W,0.01,332.45,201023,,,A*7F
$GPGGA,182545.500,4305.1651,N,07740.8611,W,1,09,0.96,169.7,M,-34.4,M,,*5E
$GPRMC,182545.750,A,4305.1651,N,07740.8611,W,0.00,0.00,201023,,,A*78
$GPGGA,182546.000,4305.1651,N,07740.8611,W,1,09,0.96,169.7,M,-34.4,M,,*58
$GPRMC,182546.250,A,4305.1651,N,07740.8611,W,0.01,167.23,201023,,,A*7E
$GPGGA,182546.500,4305.1651,N,07740.8611,W,1,09,0.96,169.7,M,-34.4,M,,*5D
$GPRMC,182546.750,A,4305.1651,N,07740.8611,W,0.01,16.17,201023,,,A*4B
$GPGGA,182547.000,4305.1651,N,07740.8611,W,1,09,0.96,169.7,M,-34.4,M,,*59
$GPRMC,182547.250,A,4305.1651,N,07740.8611,W,0.00,157.02,201023,,,A*7E
$GPGGA,182547.500,4305.1651,N,07740.8611,W,1,09,0.96,169.7,M,-34.4,M,,*5C
$GPRMC,182547.750,A,4305.1651,N,07740.8611,W,0.01,209.12,201023,,,A*73
$GPGGA,182548.000,4305.1651,N,07740.8611,W,1,09,0.96,169.7,M,-34.4,M,,*56
$GPRMC,182548.250,A,4305.1651,N,07740.8611,W,0.00,320.29,201023,,,A*7A
$GPGGA,182548.500,4305.1651,N,07740.8611,W,1,09,0.96,169.7,M,-34.4,M,,*53
$GPRMC,182548.750,A,4305.1651,N,07740.8611,W,0.01,229.67,201023,,,A*7C
$GPGGA,182549.000,4305.1651,N,07740.8611,W,1,09,0.96,169.7,M,-34.4,M,,*57
$GPRMC,182549.250,A,4305.1651,N,07740.8611,W,0.00,7.72,201023,,,A*73
$GPGGA,182549.500,4305.1651,N,07740.8611,W,1,09,0.96,169.7,M,-34.4,M,,*52
$GPRMC,182549.750,A,4305.1651,N,07740.8611,W,0.00,185.90,201023,,,A*71
$GPGGA,182550.000,4305.1651,N,07740.8611,W,1,09,0.96,169.7,M,-34.4,M,,*5F
$GPRMC,182550.250,A,4305.1651,N,07740.8611,W,0.00,130.88,201023,,,A*7B
$GPGGA,182550.500,4305.1651,N,07740.8611,W,1,09,0.96,169.7,M,-34.4,M,,*5A
$GPRMC,182550.750,A,4305.1651,N,07740.8611,W,0.00,52.68,201023,,,A*45
$GPGGA,182551.000,4305.1651,N,07740.8611,W,1,09,0.96,169.7,M,-34.4,M,,*5E
$GPRMC,182551.250,A,4305.1651,N,07740.8611,W,0.00,266.45,201023,,,A*7B
$GPGGA,182551.500,4305.1651,N,07740.8611,W,1,09,0.96,169.7,M,-34.4,M,,*5B
$GPRMC,182551.750,A,4305.1651,N,07740.8611,W,0.00,101.99,201023,,,A*7D
$GPGGA,182552.000,4305.1651,N,07740.8611,W,1,09,0.96,169.7,M,-34.4,M,,*5D
$GPRMC,182552.250,A,4305.1651,N,07740.8611,W,0.00,141.29,201023,,,A*74
$GPGGA,182552.500,4305.1651,N,07740.8611,W,1,09,0.96,169.7,M,-34.4,M,,*58
$GPRMC,182552.750,A,4305.1651,N,07740.8611,W,0.01,275.62,201023,,,A*7B
$GPGGA,182553.000,4305.1651,N,07740.8611,W,1,09,0.96,169.7,M,-34.4,M,,*5C
$GPRMC,182553.250,A,4305.1651,N,07740.8611,W,0.00,16.39,201023,,,A*47
$GPGGA,182553.500,4305.1651,N,07740.8611,W,1,09,0.96,169.7,M,-34.4,M,,*59
$GPRMC,182553.750,A,4305.1651,N,07740.8611,W,0.01,136.57,201023,,,A*78
$GPGGA,182554.000,4305.1651,N,07740.8611,W,1,09,0.96,169.7,M,-34.4,M,,*5B
$GPRMC,182554.250,A,4305.1651,N,07740.8611,W,0.00,275.19,201023,,,A*75
$GPGGA,182554.500,4305.1651,N,07740.8611,W,1,09,0.96,169.7,M,-34.4,M,,*5E
$GPRMC,182554.750,A,4305.1651,N,07740.8611,W,0.00,264.05,201023,,,A*7D
$GPGGA,182555.000,4305.1651,N,07740.8611,W,1,09,0.96,169.7,M,-34.4,M,,*5A
$GPRMC,182555.250,A,4305.1651,N,07740.8611,W,0.00,286.83,201023,,,A*7B
$GPGGA,182555.500,4305.1651,N,07740.8611,W,1,09,0.96,169.7,M,-34.4,M,,*5F
$GPRMC,182555.750,A,4305.1651,N,07740.8611,W,0.00,79.89,201023,,,A*46
$GPGGA,182556.000,4305.1651,N,07740.8611,W,1,09,0.96,169.7,M,-34.4,M,,*59
$GPRMC,182556.250,A,4305.1651,N,07740.8611,W,0.00,343.17,201023,,,A*7D
$GPGGA,182556.500,4305.1651,N,07740.8611,W,1,09,0.96,169.7,M,-34.4,M,,*5C
$GPRMC,182556.750,A,4305.1651,N,07740.8611,W,0.01,205.67,201023,,,A*7D
$GPGGA,182557.000,4305.1651,N,07740.8611,W,1,09,0.96,169.7,M,-34.4,M,,*58
$GPRMC,182557.250,A,4305.1651,N,07740.8611,W,0.00,314.36,201023,,,A*7D
$GPGGA,182557.500,4305.1651,N,07740.8611,W,1,09,0.96,169.7,M,-34.4,M,,*5D
$GPRMC,182557.750,A,4305.1651,N,07740.8611,W,0.01,102.49,201023,,,A*74
$GPGGA,182558.000,4305.1651,N,07740.8611,W,1,09,0.96,169.7,M,-34.4,M,,*57
$GPRMC,182558.250,A,4305.1651,N,07740.8611,W,0.01,248.24,201023,,,A*78
$GPGGA,182558.500,4305.1651,N,07740.8611,W,1,09,0.96,169.7,M,-34.4,M,,*52
$GPRMC,182558.750,A,4305.1651,N,07740.8611,W,0.00,344.70,201023,,,A*70
$GPGGA,182559.000,4305.1651,N,07740.8611,W,1,09,0.96,169.7,M,-34.4,M,,*56
$GPRMC,182559.250,A,4305.1651,N,07740.8611,W,0.01,260.32,201023,,,A*74
$GPGGA,182559.500,4305.1651,N,07740.8611,W,1,09,0.96,169.7,M,-34.4,M,,*53
$GPRMC,182559.750,A,4305.1651,N,07740.8611,W,0.01,155.43,201023,,,A*72
$GPGGA,182600.000,4305.1651,N,07740.8611,W,1,09,0.96,169.7,M,-34.4,M,,*59
$GPRMC,182600.250,A,4305.1651,N,07740.8611,W,0.00,272.13,201023,,,A*7A
$GPGGA,182600.500,4305.1651,N,07740.8611,W,1,09,0.96,169.7,M,-34.4,M,,*5C
$GPRMC,182600.750,A,4305.1651,N,07740.8611,W,0.00,226.77,201023,,,A*7C
$GPGGA,182601.000,4305.1651,N,07740.8611,W,1,09,0.96,169.7,M,-34.4,M,,*58
$GPRMC,182601.250,A,4305.1651,N,07740.8611,W,0.01,336.92,201023,,,A*72
$GPGGA,182601.500,4305.1651,N,07740.8611,W,1,09,0.96,169.6,M,-34.4,M,,*5C
$GPRMC,182601.750,A,4305.1651,N,07740.8611,W,0.00,321.66,201023,,,A*7B
$GPGGA,182602.000,4305.1651,N,07740.8611,W,1,09,0.96,169.6,M,-34.4,M,,*5A
$GPRMC,182602.250,A,4305.1651,N,07740.8611,W,0.00,218.62,201023,,,A*72
$GPGGA,182602.500,4305.1651,N,07740.8611,W,1,09,0.96,169.6,M,-34.4,M,,*5F
$GPRMC,182602.750,A,4305.1651,N,07740.8611,W,0.00,256.72,201023,,,A*7C
$GPGGA,182603.000,4305.1651,N,07740.8611,W,1,09,0.96,169.6,M,-34.4,M,,*5B
$GPRMC,182603.250,A,4305.1651,N,07740.8611,W,0.00,51.86,201023,,,A*46
$GPGGA,182603.500,4305.1651,N,07740.8611,W,1,09,0.96,169.6,M,-34.4,M,,*5E
$GPRMC,182603.750,A,4305.1651,N,07740.8611,W,0.01,264.34,201023,,,A*7F
$GPGGA,182604.000,4305.1651,N,07740.8611,W,1,09,0.96,169.6,M,-34.4,M,,*5C
$GPRMC,182604.250,A,4305.1651,N,07740.8611,W,0.00,161.57,201023,,,A*7F
$GPGGA,182604.500,4305.1651,N,07740.8611,W,1,09,0.96,169.6,M,-34.4,M,,*59
$GPRMC,182604.750,A,4305.1651,N,07740.8611,W,0.01,325.64,201023,,,A*79
$GPGGA,182605.000,4305.1651,N,07740.8611,W,1,09,0.96,169.6,M,-34.4,M,,*5D
$GPRMC,182605.250,A,4305.1651,N,07740.8611,W,0.00,237.80,201023,,,A*74
$GPGGA,182605.500,4305.1651,N,07740.8611,W,1,09,0.96,169.6,M,-34.4,M,,*58
$GPRMC,182605.750,A,4305.1651,N,07740.8611,W,0.00,55.31,201023,,,A*4D
$GPGGA,182606.000,4305.1651,N,07740.8611,W,1,09,0.96,169.6,M,-34.4,M,,*5E
$GPRMC,182606.250,A,4305.1651,N,07740.8611,W,0.00,254.86,201023,,,A*74
$GPGGA,182606.500,4305.1651,N,07740.8611,W,1,09,0.96,169.6,M,-34.4,M,,*5B
$GPRMC,182606.750,A,4305.1651,N,07740.8611,W,0.00,233.88,201023,,,A*7E
$GPGGA,182607.000,4305.1651,N,07740.8611,W,1,09,0.96,169.6,M,-34.4,M,,*5F
$GPRMC,182607.250,A,4305.1651,N,07740.8611,W,0.01,321.10,201023,,,A*78
$GPGGA,182607.500,4305.1651,N,07740.8611,W,1,09,0.96,169.6,M,-34.4,M,,*5A
$GPRMC,182607.750,A,4305.1651,N,07740.8611,W,0.00,121.84,201023,,,A*73
$GPGGA,182608.000,4305.1651,N,07740.8611,W,1,09,0.96,169.6,M,-34.4,M,,*50
$GPRMC,182608.250,A,4305.1651,N,07740.8611,W,0.01,246.88,201023,,,A*76
$GPGGA,182608.500,4305.1651,N,07740.8611,W,1,09,0.96,169.6,M,-34.4,M,,*55
$GPRMC,182608.750,A,4305.1651,N,07740.8611,W,0.01,279.63,201023,,,A*7A
$GPGGA,182609.000,4305.1651,N,07740.8611,W,1,09,0.96,169.6,M,-34.4,M,,*51
$GPRMC,182609.250,A,4305.1651,N,07740.8611,W,0.00,200.75,201023,,,A*76
$GPGGA,182609.500,4305.1651,N,07740.8611,W,1,09,0.96,169.6,M,-34.4,M,,*54
$GPRMC,182609.750,A,4305.1651,N,07740.8611,W,0.00,39.05,201023,,,A*4C
$GPGGA,182610.000,4305.1651,N,07740.8611,W,1,09,0.96,169.6,M,-34.4,M,,*59
$GPRMC,182610.250,A,4305.1651,N,07740.8611,W,0.00,131.55,201023,,,A*7D
$GPGGA,182610.500,4305.1651,N,07740.8611,W,1,09,0.96,169.6,M,-34.4,M,,*5C
$GPRMC,182610.750,A,4305.1651,N,07740.8611,W,0.00,0.00,201023,,,A*7B
$GPGGA,182611.000,4305.1651,N,07740.8611,W,1,09,0.96,169.6,M,-34.4,M,,*58
$GPRMC,182611.250,A,4305.1651,N,07740.8611,W,0.00,230.78,201023,,,A*71
$GPGGA,182611.500,4305.1651,N,07740.8611,W,1,09,0.96,169.6,M,-34.4,M,,*5D
$GPRMC,182611.750,A,4305.1651,N,07740.8611,W,0.00,120.64,201023,,,A*7B
$GPGGA,182612.000,4305.1651,N,07740.8611,W,1,09,0.96,169.6,M,-34.4,M,,*5B
$GPRMC,182612.250,A,4305.1651,N,07740.8611,W,0.00,135.38,201023,,,A*70
$GPGGA,182612.500,4305.1651,N,07740.8611,W,1,09,0.96,169.6,M,-34.4,M,,*5E
$GPRMC,182612.750,A,4305.1651,N,07740.8611,W,0.00,338.59,201023,,,A*7D
$GPGGA,182613.000,4305.1651,N,07740.8611,W,1,09,0.96,169.6,M,-34.4,M,,*5A
$GPRMC,182613.250,A,4305.1651,N,07740.8612,W,0.00,206.98,201023,,,A*7B
$GPGGA,182613.500,4305.1651,N,07740.8612,W,1,09,0.96,169.6,M,-34.4,M,,*5C
$GPRMC,182613.750,A,4305.1651,N,07740.8612,W,0.00,199.41,201023,,,A*7F
$GPGGA,182614.000,4305.1651,N,07740.8612,W,1,09,0.96,169.6,M,-34.4,M,,*5E
$GPRMC,182614.250,A,4305.1651,N,07740.8612,W,0.01,287.07,201023,,,A*72
$GPGGA,182614.500,4305.1651,N,07740.8612,W,1,09,0.96,169.6,M,-34.4,M,,*5B
$GPRMC,182614.750,A,4305.1651,N,07740.8612,W,0.01,296.85,201023,,,A*7D
$GPGGA,182615.000,4305.1651,N,07740.8612,W,1,09,0.96,169.6,M,-34.4,M,,*5F
$GPRMC,182615.250,A,4305.1651,N,07740.8612,W,0.00,17.84,201023,,,A*42
$GPGGA,182615.500,4305.1651,N,07740.8612,W,1,09,0.96,169.6,M,-34.4,M,,*5A
$GPRMC,182615.750,A,4305.1651,N,07740.8612,W,0.00,181.30,201023,,,A*76
$GPGGA,182616.000,4305.1651,N,07740.8612,W,1,09,0.96,169.6,M,-34.4,M,,*5C
$GPRMC,182616.250,A,4305.1651,N,07740.8612,W,0.01,218.59,201023,,,A*7D
$GPGGA,182616.500,4305.1651,N,07740.8612,W,1,09,0.96,169.6,M,-34.4,M,,*59
$GPRMC,182616.750,A,4305.1651,N,07740.8612,W,0.00,29.54,201023,,,A*44
$GPGGA,182617.000,4305.1651,N,07740.8612,W,1,09,0.96,169.6,M,-34.4,M,,*5D
$GPRMC,182617.250,A,4305.1651,N,07740.8612,W,0.00,0.00,201023,,,A*7A
$GPGGA,182617.500,4305.1651,N,07740.8612,W,1,09,0.96,169.6,M,-34.4,M,,*58
$GPRMC,182617.750,A,4305.1651,N,07740.8612,W,0.01,124.12,201023,,,A*7A
$GPGGA,182618.000,4305.1651,N,07740.8612,W,1,09,0.96,169.6,M,-34.4,M,,*52
$GPRMC,182618.250,A,4305.1651,N,07740.8612,W,0.00,17.40,201023,,,A*47
$GPGGA,182618.500,4305.1651,N,07740.8612,W,1,09,0.96,169.6,M,-34.4,M,,*57
$GPRMC,182618.750,A,4305.1651,N,07740.8612,W,0.00,205.74,201023,,,A*74
$GPGGA,182619.000,4305.1651,N,07740.8612,W,1,09,0.96,169.6,M,-34.4,M,,*53
$GPRMC,182619.250,A,4305.1651,N,07740.8612,W,0.00,290.11,201023,,,A*7F
$GPGGA,182619.500,4305.1651,N,07740.8612,W,1,09,0.96,169.6,M,-34.4,M,,*56
$GPRMC,182619.750,A,4305.1651,N,07740.8612,W,0.00,143.69,201023,,,A*78
$GPGGA,182620.000,4305.1651,N,07740.8612,W,1,09,0.96,169.6,M,-34.4,M,,*59
$GPRMC,182620.250,A,4305.1651,N,07740.8612,W,0.01,130.50,201023,,,A*78
$GPGGA,182620.500,4305.1651,N,07740.8612,W,1,09,0.96,169.6,M,-34.4,M,,*5C
$GPRMC,182620.750,A,4305.1651,N,07740.8612,W,0.00,288.44,201023,,,A*79
$GPGGA,182621.000,4305.1651,N,07740.8612,W,1,09,0.96,169.6,M,-34.4,M,,*58
$GPRMC,182621.250,A,4305.1651,N,07740.8612,W,0.01,201.07,201023,,,A*7A
$GPGGA,182621.500,4305.1651,N,07740.8612,W,1,09,0.96,169.6,M,-34.4,M,,*5D
$GPRMC,182621.750,A,4305.1651,N,07740.8612,W,0.01,167.11,201023,,,A*7B
$GPGGA,182622.000,4305.1651,N,07740.8612,W,1,09,0.96,169.6,M,-34.4,M,,*5B
$GPRMC,182622.250,A,4305.1651,N,07740.8612,W,0.00,345.48,201023,,,A*72
$GPGGA,182622.500,4305.1651,N,07740.8612,W,1,09,0.96,169.6,M,-34.4,M,,*5E
$GPRMC,182622.750,A,4305.1651,N,07740.8612,W,0.00,252.25,201023,,,A*7B
$GPGGA,182623.000,4305.1651,N,07740.8612,W,1,09,0.96,169.6,M,-34.4,M,,*5A
$GPRMC,182623.250,A,4305.1651,N,07740.8612,W,0.00,357.24,201023,,,A*7A
$GPGGA,182623.500,4305.1651,N,07740.8612,W,1,09,0.96,169.6,M,-34.4,M,,*5F
$GPRMC,182623.750,A,4305.1651,N,07740.8612,W,0.00,12.91,201023,,,A*43
$GPGGA,182624.000,4305.1651,N,07740.8612,W,1,09,0.96,169.6,M,-34.4,M,,*5D
$GPRMC,182624.250,A,4305.1651,N,07740.8612,W,0.00,217.57,201023,,,A*7C
$GPGGA,182624.500,4305.1651,N,07740.8612,W,1,09,0.96,169.6,M,-34.4,M,,*58
$GPRMC,182624.750,A,4305.1651,N,07740.8612,W,0.00,326.23,201023,,,A*79
$GPGGA,182625.000,4305.1651,N,07740.8612,W,1,09,0.96,169.6,M,-34.4,M,,*5C
$GPRMC,182625.250,A,4305.1651,N,07740.8612,W,0.01,314.49,201023,,,A*71
$GPGGA,182625.500,4305.1651,N,07740.8612,W,1,09,0.96,169.6,M,-34.4,M,,*59
$GPRMC,182625.750,A,4305.1651,N,07740.8612,W,0.00,136.89,201023,,,A*7B
$GPGGA,182626.000,4305.1651,N,07740.8612,W,1,09,0.96,169.6,M,-34.4,M,,*5F
$GPRMC,182626.250,A,4305.1651,N,07740.8612,W,0.00,258.87,201023,,,A*78
$GPGGA,182626.500,4305.1651,N,07740.8612,W,1,09,0.96,169.6,M,-34.4,M,,*5A
$GPRMC,182626.750,A,4305.1651,N,07740.8612,W,0.00,2.31,201023,,,A*7D
$GPGGA,182627.000,4305.1651,N,07740.8612,W,1,09,0.96,169.6,M,-34.4,M,,*5E
$GPRMC,182627.250,A,4305.1651,N,07740.8612,W,0.00,207.03,201023,,,A*7F
$GPGGA,182627.500,4305.1651,N,07740.8612,W,1,09,0.96,169.6,M,-34.4,M,,*5B
$GPRMC,182627.750,A,4305.1651,N,07740.8612,W,0.01,118.82,201023,,,A*7F
$GPGGA,182628.000,4305.1651,N,07740.8612,W,1,09,0.96,169.6,M,-34.4,M,,*51
$GPRMC,182628.250,A,4305.1651,N,07740.8612,W,0.01,120.86,201023,,,A*7A
$GPGGA,182628.500,4305.1651,N,07740.8612,W,1,09,0.96,169.6,M,-34.4,M,,*54
$GPRMC,182628.750,A,4305.1651,N,07740.8612,W,0.01,15.84,201023,,,A*4A
$GPGGA,182629.000,4305.1651,N,07740.8612,W,1,09,0.96,169.6,M,-34.4,M,,*50
$GPRMC,182629.250,A,4305.1651,N,07740.8612,W,0.00,230.74,201023,,,A*75
$GPGGA,182629.500,4305.1651,N,07740.8612,W,1,09,0.96,169.6,M,-34.4,M,,*55
$GPRMC,182629.750,A,4305.1651,N,07740.8612,W,0.00,120.02,201023,,,A*73
$GPGGA,182630.000,4305.1651,N,07740.8612,W,1,09,0.96,169.6,M,-34.4,M,,*58
$GPRMC,182630.250,A,4305.1651,N,07740.8612,W,0.00,0.00,201023,,,A*7F
$GPGGA,182630.500,4305.1651,N,07740.8612,W,1,09,0.96,169.6,M,-34.4,M,,*5D
$GPRMC,182630.750,A,4305.1651,N,07740.8612,W,0.00,100.21,201023,,,A*78
$GPGGA,182631.000,4305.1651,N,07740.8612,W,1,09,0.96,169.6,M,-34.4,M,,*59
$GPRMC,182631.250,A,4305.1651,N,07740.8612,W,0.00,86.64,201023,,,A*42
$GPGGA,182631.500,4305.1651,N,07740.8612,W,1,09,0.96,169.6,M,-34.4,M,,*5C
$GPRMC,182631.750,A,4305.1651,N,07740.8612,W,0.00,304.90,201023,,,A*75
$GPGGA,182632.000,4305.1651,N,07740.8612,W,1,09,0.96,169.6,M,-34.4,M,,*5A
$GPRMC,182632.250,A,4305.1651,N,07740.8612,W,0.01,221.97,201023,,,A*73
$GPGGA,182632.500,4305.1651,N,07740.8612,W,1,09,0.96,169.6,M,-34.4,M,,*5F
$GPRMC,182632.750,A,4305.1651,N,07740.8612,W,0.00,335.06,201023,,,A*7B
$GPGGA,182633.000,4305.1651,N,07740.8612,W,1,09,0.96,169.6,M,-34.4,M,,*5B
$GPRMC,182633.250,A,4305.1651,N,07740.8612,W,0.00,195.27,201023,,,A*74
$GPGGA,182633.500,4305.1651,N,07740.8612,W,1,09,0.96,169.6,M,-34.4,M,,*5E
$GPRMC,182633.750,A,4305.1651,N,07740.8612,W,0.01,238.52,201023,,,A*76
$GPGGA,182634.000,4305.1651,N,07740.8612,W,1,09,0.96,169.6,M,-34.4,M,,*5C
$GPRMC,182634.250,A,4305.1651,N,07740.8612,W,0.00,259.94,201023,,,A*78
$GPGGA,182634.500,4305.1651,N,07740.8612,W,1,09,0.96,169.6,M,-34.4,M,,*59
$GPRMC,182634.750,A,4305.1651,N,07740.8612,W,0.01,353.54,201023,,,A*7B
$GPGGA,182635.000,4305.1651,N,07740.8612,W,1,09,0.96,169.6,M,-34.4,M,,*5D
$GPRMC,182635.250,A,4305.1651,N,07740.8612,W,0.01,274.72,201023,,,A*7F
$GPGGA,182635.500,4305.1651,N,07740.8612,W,1,09,0.96,169.6,M,-34.4,M,,*58
$GPRMC,182635.750,A,4305.1651,N,07740.8612,W,0.01,187.68,201023,,,A*7E
$GPGGA,182636.000,4305.1651,N,07740.8612,W,1,09,0.96,169.6,M,-34.4,M,,*5E
$GPRMC,182636.250,A,4305.1651,N,07740.8612,W,0.01,184.55,201023,,,A*75
$GPGGA,182636.500,4305.1651,N,07740.8612,W,1,09,0.96,169.6,M,-34.4,M,,*5B
$GPRMC,182636.750,A,4305.1651,N,07740.8612,W,0.00,87.94,201023,,,A*4E
$GPGGA,182637.000,4305.1651,N,07740.8612,W,1,09,0.96,169.6,M,-34.4,M,,*5F
$GPRMC,182637.250,A,4305.1651,N,07740.8612,W,0.00,195.58,201023,,,A*78
$GPGGA,182637.500,4305.1651,N,07740.8612,W,1,09,0.96,169.6,M,-34.4,M,,*5A
$GPRMC,182637.750,A,4305.1651,N,07740.8612,W,0.00,306.76,201023,,,A*79
$GPGGA,182638.000,4305.1651,N,07740.8612,W,1,09,0.96,169.6,M,-34.4,M,,*50
$GPRMC,182638.250,A,4305.1651,N,07740.8612,W,0.01,295.05,201023,,,A*7D
$GPGGA,182638.500,4305.1651,N,07740.8612,W,1,09,0.96,169.6,M,-34.4,M,,*55
$GPRMC,182638.750,A,4305.1651,N,07740.8612,W,0.01,129.21,201023,,,A*7A
$GPGGA,182639.000,4305.1651,N,07740.8612,W,1,09,0.96,169.6,M,-34.4,M,,*51
$GPRMC,182639.250,A,4305.1651,N,07740.8612,W,0.00,0.00,201023,,,A*76
$GPGGA,182639.500,4305.1651,N,07740.8612,W,1,09,0.96,169.6,M,-34.4,M,,*54
$GPRMC,182639.750,A,4305.1651,N,07740.8612,W,0.01,298.20,201023,,,A*73
$GPGGA,182640.000,4305.1651,N,07740.8612,W,1,09,0.96,169.6,M,-34.4,M,,*5F
$GPRMC,182640.250,A,4305.1651,N,07740.8612,W,0.00,279.84,201023,,,A*78
$GPGGA,182640.500,4305.1651,N,07740.8612,W,1,09,0.96,169.6,M,-34.4,M,,*5A
$GPRMC,182640.750,A,4305.1651,N,07740.8612,W,0.00,215.59,201023,,,A*77
$GPGGA,182641.000,4305.1651,N,07740.8612,W,1,09,0.96,169.6,M,-34.4,M,,*5E
$GPRMC,182641.250,A,4305.1651,N,07740.8612,W,0.00,119.16,201023,,,A*77
$GPGGA,182641.500,4305.1651,N,07740.8612,W,1,09,0.96,169.6,M,-34.4,M,,*5B
$GPRMC,182641.750,A,4305.1651,N,07740.8612,W,0.00,102.35,201023,,,A*79
$GPGGA,182642.000,4305.1651,N,07740.8612,W,1,09,0.96,169.6,M,-34.4,M,,*5D
$GPRMC,182642.250,A,4305.1651,N,07740.8612,W,0.00,18.78,201023,,,A*4C
$GPGGA,182642.500,4305.1651,N,07740.8612,W,1,09,0.96,169.6,M,-34.4,M,,*58
$GPRMC,182642.750,A,4305.1651,N,07740.8612,W,0.00,222.62,201023,,,A*79
$GPGGA,182643.000,4305.1651,N,07740.8612,W,1,09,0.96,169.6,M,-34.4,M,,*5C
$GPRMC,182643.250,A,4305.1651,N,07740.8612,W,0.01,356.18,201023,,,A*73
$GPGGA,182643.500,4305.1651,N,07740.8612,W,1,09,0.96,169.6,M,-34.4,M,,*59
$GPRMC,182643.750,A,4305.1651,N,07740.8612,W,0.01,166.41,201023,,,A*7B
$GPGGA,182644.000,4305.1651,N,07740.8612,W,1,09,0.96,169.6,M,-34.4,M,,*5B
$GPRMC,182644.250,A,4305.1651,N,07740.8612,W,0.01,248.15,201023,,,A*77
$GPGGA,182644.500,4305.1651,N,07740.8612,W,1,09,0.96,169.6,M,-34.4,M,,*5E
$GPRMC,182644.750,A,4305.1651,N,07740.8612,W,0.00,35.60,201023,,,A*49
$GPGGA,182645.000,4305.1651,N,07740.8612,W,1,09,0.96,169.6,M,-34.4,M,,*5A
$GPRMC,182645.250,A,4305.1651,N,07740.8612,W,0.00,159.60,201023,,,A*76
$GPGGA,182645.500,4305.1651,N,07740.8612,W,1,09,0.96,169.6,M,-34.4,M,,*5F
$GPRMC,182645.750,A,4305.1651,N,07740.8612,W,0.00,268.43,201023,,,A*73
$GPGGA,182646.000,4305.1651,N,07740.8612,W,1,09,0.96,169.6,M,-34.4,M,,*59
$GPRMC,182646.250,A,4305.1651,N,07740.8612,W,0.00,258.57,201023,,,A*73
$GPGGA,182646.500,4305.1651,N,07740.8612,W,1,09,0.96,169.6,M,-34.4,M,,*5C
$GPRMC,182646.750,A,4305.1651,N,07740.8612,W,0.01,167.41,201023,,,A*7F
$GPGGA,182647.000,4305.1651,N,07740.8612,W,1,09,0.96,169.6,M,-34.4,M,,*58
$GPRMC,182647.250,A,4305.1651,N,07740.8612,W,0.00,0.00,201023,,,A*7F
$GPGGA,182647.500,4305.1651,N,07740.8612,W,1,09,0.96,169.6,M,-34.4,M,,*5D
$GPRMC,182647.750,A,4305.1651,N,07740.8612,W,0.00,111.31,201023,,,A*79
$GPGGA,182648.000,4305.1651,N,07740.8612,W,1,09,0.96,169.6,M,-34.4,M,,*57
$GPRMC,182648.250,A,4305.1651,N,07740.8612,W,0.00,259.33,201023,,,A*7E
$GPGGA,182648.500,4305.1651,N,07740.8612,W,1,09,0.96,169.6,M,-34.4,M,,*52
$GPRMC,182648.750,A,4305.1651,N,07740.8612,W,0.00,44.49,201023,,,A*48
$GPGGA,182649.000,4305.1651,N,07740.8612,W,1,09,0.96,169.6,M,-34.4,M,,*56
$GPRMC,182649.250,A,4305.1651,N,07740.8612,W,0.00,67.85,201023,,,A*4D
$GPGGA,182649.500,4305.1651,N,07740.8612,W,1,09,0.96,169.6,M,-34.4,M,,*53
$GPRMC,182649.750,A,4305.1651,N,07740.8612,W,0.01,282.62,201023,,,A*79
$GPGGA,182650.000,4305.1651,N,07740.8612,W,1,09,0.96,169.6,M,-34.4,M,,*5E
$GPRMC,182650.250,A,4305.1651,N,07740.8612,W,0.00,316.39,201023,,,A*77
$GPGGA,182650.500,4305.1651,N,07740.8612,W,1,09,0.96,169.6,M,-34.4,M,,*5B
$GPRMC,182650.750,A,4305.1651,N,07740.8612,W,0.00,245.48,201023,,,A*73
$GPGGA,182651.000,4305.1651,N,07740.8612,W,1,09,0.96,169.6,M,-34.4,M,,*5F
$GPRMC,182651.250,A,4305.1651,N,07740.8612,W,0.00,233.34,201023,,,A*7D
$GPGGA,182651.500,4305.1651,N,07740.8612,W,1,09,0.96,169.6,M,-34.4,M,,*5A
$GPRMC,182651.750,A,4305.1651,N,07740.8612,W,0.00,60.16,201023,,,A*4C
$GPGGA,182652.000,4305.1651,N,07740.8612,W,1,09,0.96,169.6,M,-34.4,M,,*5C
$GPRMC,182652.250,A,4305.1651,N,07740.8612,W,0.00,228.47,201023,,,A*70
$GPGGA,182652.500,4305.1651,N,07740.8612,W,1,09,0.96,169.6,M,-34.4,M,,*59
$GPRMC,182652.750,A,4305.1651,N,07740.8612,W,0.00,245.15,201023,,,A*79
$GPGGA,182653.000,4305.1651,N,07740.8612,W,1,09,0.96,169.6,M,-34.4,M,,*5D
$GPRMC,182653.250,A,4305.1651,N,07740.8612,W,0.00,269.26,201023,,,A*73
$GPGGA,182653.500,4305.1651,N,07740.8612,W,1,09,0.96,169.6,M,-34.4,M,,*58
$GPRMC,182653.750,A,4305.1651,N,07740.8612,W,0.00,179.72,201023,,,A*75
$GPGGA,182654.000,4305.1651,N,07740.8612,W,1,09,0.96,169.6,M,-34.4,M,,*5A
$GPRMC,182654.250,A,4305.1651,N,07740.8612,W,0.00,317.42,201023,,,A*7E
$GPGGA,182654.500,4305.1651,N,07740.8612,W,1,09,0.96,169.6,M,-34.4,M,,*5F
$GPRMC,182654.750,A,4305.1651,N,07740.8612,W,0.00,264.81,201023,,,A*71
$GPGGA,182655.000,4305.1651,N,07740.8612,W,1,09,0.96,169.6,M,-34.4,M,,*5B
$GPRMC,182655.250,A,4305.1651,N,07740.8612,W,0.00,0.00,201023,,,A*7C
$GPGGA,182655.500,4305.1651,N,07740.8612,W,1,09,0.96,169.6,M,-34.4,M,,*5E
$GPRMC,182655.750,A,4305.1651,N,07740.8612,W,0.00,242.95,201023,,,A*71
$GPGGA,182656.000,4305.1651,N,07740.8612,W,1,09,0.96,169.6,M,-34.4,M,,*58
$GPRMC,182656.250,A,4305.1651,N,07740.8612,W,0.00,69.92,201023,,,A*4B
$GPGGA,182656.500,4305.1651,N,07740.8612,W,1,09,0.96,169.6,M,-34.4,M,,*5D
$GPRMC,182656.750,A,4305.1651,N,07740.8612,W,0.00,156.42,201023,,,A*7E
$GPGGA,182657.000,4305.1651,N,07740.8612,W,1,09,0.96,169.6,M,-34.4,M,,*59
$GPRMC,182657.250,A,4305.1651,N,07740.8612,W,0.00,186.44,201023,,,A*71
$GPGGA,182657.500,4305.1651,N,07740.8612,W,1,09,0.96,169.6,M,-34.4,M,,*5C
$GPRMC,182657.750,A,4305.1651,N,07740.8612,W,0.00,1.76,201023,,,A*7B
$GPGGA,182658.000,4305.1651,N,07740.8612,W,1,09,0.96,169.6,M,-34.4,M,,*56
$GPRMC,182658.250,A,4305.1651,N,07740.8612,W,0.00,310.03,201023,,,A*70
$GPGGA,182658.500,4305.1651,N,07740.8612,W,1,09,0.96,169.6,M,-34.4,M,,*53
$GPRMC,182658.750,A,4305.1651,N,07740.8612,W,0.00,247.99,201023,,,A*75
$GPGGA,182659.000,4305.1651,N,07740.8612,W,1,09,0.96,169.6,M,-34.4,M,,*57
$GPRMC,182659.250,A,4305.1651,N,07740.8612,W,0.00,62.83,201023,,,A*4F
$GPGGA,182659.500,4305.1651,N,07740.8612,W,1,09,0.96,169.6,M,-34.4,M,,*52
$GPRMC,182659.750,A,4305.1651,N,07740.8612,W,0.01,265.47,201023,,,A*76
$GPGGA,182700.000,4305.1651,N,07740.8612,W,1,09,0.96,169.6,M,-34.4,M,,*5A
$GPRMC,182700.250,A,4305.1651,N,07740.8612,W,0.01,70.36,201023,,,A*4E
$GPGGA,182700.500,4305.1651,N,07740.8612,W,1,09,0.96,169.6,M,-34.4,M,,*5F
$GPRMC,182700.750,A,4305.1651,N,07740.8612,W,0.00,301.29,201023,,,A*71
$GPGGA,182701.000,4305.1651,N,07740.8612,W,1,09,0.96,169.6,M,-34.4,M,,*5B
$GPRMC,182701.250,A,4305.1651,N,07740.8612,W,0.00,0.00,201023,,,A*7C
$GPGGA,182701.500,4305.1651,N,07740.8612,W,1,09,0.96,169.6,M,-34.4,M,,*5E
$GPRMC,182701.750,A,4305.1651,N,07740.8612,W,0.00,222.23,201023,,,A*7A
$GPGGA,182702.000,4305.1651,N,07740.8612,W,1,09,0.96,169.6,M,-34.4,M,,*58
$GPRMC,182702.250,A,4305.1651,N,07740.8612,W,0.00,259.68,201023,,,A*7F
$GPGGA,182702.500,4305.1651,N,07740.8612,W,1,09,0.96,169.6,M,-34.4,M,,*5D
$GPRMC,182702.750,A,4305.1651,N,07740.8612,W,0.00,71.02,201023,,,A*4E
$GPGGA,182703.000,4305.1651,N,07740.8612,W,1,09,0.96,169.6,M,-34.4,M,,*59
$GPRMC,182703.250,A,4305.1651,N,07740.8612,W,0.00,0.00,201023,,,A*7E
$GPGGA,182703.500,4305.1651,N,07740.8612,W,1,09,0.96,169.6,M,-34.4,M,,*5C
$GPRMC,182703.750,A,4305.1651,N,07740.8612,W,0.01,317.80,201023,,,A*77
$GPGGA,182704.000,4305.1651,N,07740.8612,W,1,09,0.96,169.6,M,-34.4,M,,*5E
$GPRMC,182704.250,A,4305.1651,N,07740.8612,W,0.00,214.40,201023,,,A*7A
$GPGGA,182704.500,4305.1651,N,07740.8612,W,1,09,0.96,169.6,M,-34.4,M,,*5B
$GPRMC,182704.750,A,4305.1651,N,07740.8612,W,0.01,59.51,201023,,,A*45
$GPGGA,182705.000,4305.1651,N,07740.8612,W,1,09,0.96,169.6,M,-34.4,M,,*5F
$GPRMC,182705.250,A,4305.1651,N,07740.8612,W,0.00,220.47,201023,,,A*7B
$GPGGA,182705.500,4305.1651,N,07740.8612,W,1,09,0.96,169.6,M,-34.4,M,,*5A
$GPRMC,182705.750,A,4305.1651,N,07740.8612,W,0.00,241.97,201023,,,A*74
$GPGGA,182706.000,4305.1651,N,07740.8612,W,1,09,0.96,169.6,M,-34.4,M,,*5C
$GPRMC,182706.250,A,4305.1651,N,07740.8612,W,0.00,252.39,201023,,,A*74
$GPGGA,182706.500,4305.1651,N,07740.8612,W,1,09,0.96,169.6,M,-34.4,M,,*59
$GPRMC,182706.750,A,4305.1651,N,07740.8612,W,0.00,8.45,201023,,,A*77
$GPGGA,182707.000,4305.1651,N,07740.8612,W,1,09,0.96,169.6,M,-34.4,M,,*5D
$GPRMC,182707.250,A,4305.1651,N,07740.8612,W,0.00,113.32,201023,,,A*78
$GPGGA,182707.500,4305.1651,N,07740.8612,W,1,09,0.96,169.6,M,-34.4,M,,*58
$GPRMC,182707.750,A,4305.1651,N,07740.8612,W,0.00,217.02,201023,,,A*79
$GPGGA,182708.000,4305.1651,N,07740.8612,W,1,09,0.96,169.6,M,-34.4,M,,*52
$GPRMC,182708.250,A,4305.1651,N,07740.8612,W,0.01,129.33,201023,,,A*7E
$GPGGA,182708.500,4305.1651,N,07740.8612,W,1,09,0.96,169.6,M,-34.4,M,,*57
$GPRMC,182708.750,A,4305.1651,N,07740.8612,W,0.01,317.75,201023,,,A*76
$GPGGA,182709.000,4305.1651,N,07740.8612,W,1,09,0.96,169.6,M,-34.4,M,,*53
$GPRMC,182709.250,A,4305.1651,N,07740.8612,W,0.00,115.30,201023,,,A*72
$GPGGA,182709.500,4305.1651,N,07740.8612,W,1,09,0.96,169.6,M,-34.4,M,,*56
$GPRMC,182709.750,A,4305.1651,N,07740.8612,W,0.00,253.66,201023,,,A*75
$GPGGA,182710.000,4305.1651,N,07740.8612,W,1,09,0.96,169.6,M,-34.4,M,,*5B
$GPRMC,182710.250,A,4305.1651,N,07740.8612,W,0.00,182.94,201023,,,A*7A
$GPGGA,182710.500,4305.1651,N,07740.8612,W,1,09,0.96,169.6,M,-34.4,M,,*5E
$GPRMC,182710.750,A,4305.1651,N,07740.8612,W,0.01,292.16,201023,,,A*76
$GPGGA,182711.000,4305.1651,N,07740.8612,W,1,09,0.96,169.6,M,-34.4,M,,*5A
$GPRMC,182711.250,A,4305.1651,N,07740.8612,W,0.00,251.97,201023,,,A*75
$GPGGA,182711.500,4305.1651,N,07740.8612,W,1,09,0.96,169.6,M,-34.4,M,,*5F
$GPRMC,182711.750,A,4305.1651,N,07740.8612,W,0.00,142.21,201023,,,A*7C
$GPGGA,182712.000,4305.1651,N,07740.8612,W,1,09,0.96,169.6,M,-34.4,M,,*59
$GPRMC,182712.250,A,4305.1651,N,07740.8612,W,0.01,330.21,201023,,,A*7C
$GPGGA,182712.500,4305.1651,N,07740.8612,W,1,09,0.96,169.6,M,-34.4,M,,*5C
$GPRMC,182712.750,A,4305.1651,N,07740.8612,W,0.00,172.41,201023,,,A*7A
$GPGGA,182713.000,4305.1651,N,07740.8612,W,1,09,0.96,169.6,M,-34.4,M,,*58
$GPRMC,182713.250,A,4305.1651,N,07740.8612,W,0.00,37.35,201023,,,A*4D
$GPGGA,182713.500,4305.1651,N,07740.8612,W,1,09,0.96,169.6,M,-34.4,M,,*5D
$GPRMC,182713.750,A,4305.1651,N,07740.8612,W,0.00,138.81,201023,,,A*79
$GPGGA,182714.000,4305.1651,N,07740.8612,W,1,09,0.96,169.6,M,-34.4,M,,*5F
$GPRMC,182714.250,A,4305.1651,N,07740.8612,W,0.01,150.51,201023,,,A*79
$GPGGA,182714.500,4305.1651,N,07740.8612,W,1,09,0.96,169.6,M,-34.4,M,,*5A
$GPRMC,182714.750,A,4305.1651,N,07740.8612,W,0.00,244.85,201023,,,A*72
$GPGGA,182715.000,4305.1651,N,07740.8612,W,1,09,0.96,169.6,M,-34.4,M,,*5E
$GPRMC,182715.250,A,4305.1651,N,07740.8612,W,0.00,290.44,201023,,,A*72
$GPGGA,182715.500,4305.1651,N,07740.8612,W,1,09,0.96,169.6,M,-34.4,M,,*5B
$GPRMC,182715.750,A,4305.1651,N,07740.8612,W,0.00,166.34,201023,,,A*7A
$GPGGA,182716.000,4305.1651,N,07740.8612,W,1,09,0.96,169.6,M,-34.4,M,,*5D
$GPRMC,182716.250,A,4305.1651,N,07740.8612,W,0.01,133.07,201023,,,A*7D
$GPGGA,182716.500,4305.1651,N,07740.8612,W,1,09,0.96,169.6,M,-34.4,M,,*58
$GPRMC,182716.750,A,4305.1651,N,07740.8612,W,0.00,115.32,201023,,,A*7B
$GPGGA,182717.000,4305.1651,N,07740.8612,W,1,09,0.96,169.6,M,-34.4,M,,*5C
$GPRMC,182717.250,A,4305.1651,N,07740.8612,W,0.00,200.78,201023,,,A*76
$GPGGA,182717.500,4305.1651,N,07740.8612,W,1,09,0.96,169.6,M,-34.4,M,,*59
$GPRMC,182717.750,A,4305.1651,N,07740.8612,W,0.00,347.76,201023,,,A*7F
$GPGGA,182718.000,4305.1651,N,07740.8612,W,1,09,0.96,169.6,M,-34.4,M,,*53
$GPRMC,182718.250,A,4305.1651,N,07740.8612,W,0.00,273.47,201023,,,A*71
$GPGGA,182718.500,4305.1651,N,07740.8612,W,1,09,0.96,169.6,M,-34.4,M,,*56
$GPRMC,182718.750,A,4305.1651,N,07740.8612,W,0.01,205.63,201023,,,A*72
$GPGGA,182719.000,4305.1651,N,07740.8612,W,1,09,0.96,169.6,M,-34.4,M,,*52
$GPRMC,182719.250,A,4305.1651,N,07740.8612,W,0.00,8.68,201023,,,A*73
$GPGGA,182719.500,4305.1651,N,07740.8612,W,1,09,0.96,169.6,M,-34.4,M,,*57
$GPRMC,182719.750,A,4305.1651,N,07740.8612,W,0.00,294.02,201023,,,A*7D
$GPGGA,182720.000,4305.1651,N,07740.8612,W,1,09,0.96,169.6,M,-34.4,M,,*58
$GPRMC,182720.250,A,4305.1651,N,07740.8612,W,0.00,136.09,201023,,,A*72
$GPGGA,182720.500,4305.1651,N,07740.8612,W,1,09,0.96,169.6,M,-34.4,M,,*5D
$GPRMC,182720.750,A,4305.1651,N,07740.8612,W,0.00,225.82,201023,,,A*75
$GPGGA,182721.000,4305.1651,N,07740.8612,W,1,09,0.96,169.6,M,-34.4,M,,*59
$GPRMC,182721.250,A,4305.1651,N,07740.8612,W,0.00,30.73,201023,,,A*49
$GPGGA,182721.500,4305.1651,N,07740.8612,W,1,09,0.96,169.6,M,-34.4,M,,*5C
$GPRMC,182721.750,A,4305.1651,N,07740.8612,W,0.00,124.58,201023,,,A*71
$GPGGA,182722.000,4305.1651,N,07740.8612,W,1,09,0.96,169.6,M,-34.4,M,,*5A
$GPRMC,182722.250,A,4305.1651,N,07740.8612,W,0.00,32.66,201023,,,A*4C
$GPGGA,182722.500,4305.1651,N,07740.8612,W,1,09,0.96,169.6,M,-34.4,M,,*5F
$GPRMC,182722.750,A,4305.1651,N,07740.8612,W,0.00,0.00,201023,,,A*78
$GPGGA,182723.000,4305.1651,N,07740.8612,W,1,09,0.96,169.6,M,-34.4,M,,*5B
$GPRMC,182723.250,A,4305.1651,N,07740.8612,W,0.00,86.38,201023,,,A*49
$GPGGA,182723.500,4305.1651,N,07740.8612,W,1,09,0.96,169.6,M,-34.4,M,,*5E
$GPRMC,182723.750,A,4305.1651,N,07740.8612,W,0.01,192.95,201023,,,A*7E
$GPGGA,182724.000,4305.1651,N,07740.8612,W,1,09,0.96,169.6,M,-34.4,M,,*5C
$GPRMC,182724.250,A,4305.1651,N,07740.8612,W,0.01,85.58,201023,,,A*4A
$GPGGA,182724.500,4305.1651,N,07740.8612,W,1,09,0.96,169.6,M,-34.4,M,,*59
$GPRMC,182724.750,A,4305.1651,N,07740.8612,W,0.00,154.78,201023,,,A*71
$GPGGA,182725.000,4305.1651,N,07740.8612,W,1,09,0.96,169.6,M,-34.4,M,,*5D
$GPRMC,182725.250,A,4305.1651,N,07740.8612,W,0.00,235.29,201023,,,A*75
$GPGGA,182725.500,4305.1651,N,07740.8612,W,1,09,0.96,169.6,M,-34.4,M,,*58
$GPRMC,182725.750,A,4305.1651,N,07740.8612,W,0.00,158.86,201023,,,A*7D
$GPGGA,182726.000,4305.1651,N,07740.8612,W,1,09,0.96,169.6,M,-34.4,M,,*5E
$GPRMC,182726.250,A,4305.1651,N,07740.8612,W,0.00,121.23,201023,,,A*7A
$GPGGA,182726.500,4305.1651,N,07740.8612,W,1,09,0.96,169.6,M,-34.4,M,,*5B
$GPRMC,182726.750,A,4305.1651,N,07740.8612,W,0.00,300.11,201023,,,A*7F
$GPGGA,182727.000,4305.1651,N,07740.8612,W,1,09,0.96,169.6,M,-34.4,M,,*5F
$GPRMC,182727.250,A,4305.1651,N,07740.8612,W,0.01,9.80,201023,,,A*78
$GPGGA,182727.500,4305.1651,N,07740.8612,W,1,09,0.96,169.6,M,-34.4,M,,*5A
$GPRMC,182727.750,A,4305.1651,N,07740.8612,W,0.00,169.64,201023,,,A*71
$GPGGA,182728.000,4305.1651,N,07740.8612,W,1,09,0.96,169.6,M,-34.4,M,,*50
$GPRMC,182728.250,A,4305.1651,N,07740.8612,W,0.01,192.83,201023,,,A*77
$GPGGA,182728.500,4305.1651,N,07740.8612,W,1,09,0.96,169.6,M,-34.4,M,,*55
$GPRMC,182728.750,A,4305.1651,N,07740.8612,W,0.00,231.30,201023,,,A*71
$GPGGA,182729.000,4305.1651,N,07740.8612,W,1,09,0.96,169.6,M,-34.4,M,,*51
$GPRMC,182729.250,A,4305.1651,N,07740.8612,W,0.00,328.00,201023,,,A*7F
$GPGGA,182729.500,4305.1651,N,07740.8612,W,1,09,0.96,169.6,M,-34.4,M,,*54
$GPRMC,182729.750,A,4305.1651,N,07740.8612,W,0.00,55.57,201023,,,A*41
$GPGGA,182730.000,4305.1651,N,07740.8612,W,1,09,0.96,169.6,M,-34.4,M,,*59
$GPRMC,182730.250,A,4305.1651,N,07740.8612,W,0.00,106.51,201023,,,A*7D
$GPGGA,182730.500,4305.1651,N,07740.8612,W,1,09,0.96,169.6,M,-34.4,M,,*5C
$GPRMC,182730.750,A,4305.1651,N,07740.8612,W,0.00,221.67,201023,,,A*7B
$GPGGA,182731.000,4305.1651,N,07740.8612,W,1,09,0.96,169.6,M,-34.4,M,,*58
$GPRMC,182731.250,A,4305.1651,N,07740.8612,W,0.00,168.82,201023,,,A*7A
$GPGGA,182731.500,4305.1651,N,07740.8612,W,1,09,0.96,169.6,M,-34.4,M,,*5D
$GPRMC,182731.750,A,4305.1651,N,07740.8612,W,0.00,136.33,201023,,,A*7E
$GPGGA,182732.000,4305.1651,N,07740.8612,W,1,09,0.96,169.6,M,-34.4,M,,*5B
$GPRMC,182732.250,A,4305.1651,N,07740.8612,W,0.01,83.65,201023,,,A*45
$GPGGA,182732.500,4305.1651,N,07740.8612,W,1,09,0.96,169.6,M,-34.4,M,,*5E
$GPRMC,182732.750,A,4305.1651,N,07740.8612,W,0.00,37.85,201023,,,A*40
$GPGGA,182733.000,4305.1651,N,07740.8612,W,1,09,0.96,169.6,M,-34.4,M,,*5A
$GPRMC,182733.250,A,4305.1651,N,07740.8612,W,0.01,209.79,201023,,,A*79
$GPGGA,182733.500,4305.1651,N,07740.8612,W,1,09,0.96,169.6,M,-34.4,M,,*5F
$GPRMC,182733.750,A,4305.1651,N,07740.8612,W,0.00,0.00,201023,,,A*78
$GPGGA,182734.000,4305.1651,N,07740.8612,W,1,09,0.96,169.6,M,-34.4,M,,*5D
$GPRMC,182734.250,A,4305.1651,N,07740.8612,W,0.01,52.90,201023,,,A*45
$GPGGA,182734.500,4305.1651,N,07740.8612,W,1,09,0.96,169.6,M,-34.4,M,,*58
$GPRMC,182734.750,A,4305.1651,N,07740.8612,W,0.00,101.31,201023,,,A*7D
$GPGGA,182735.000,4305.1651,N,07740.8612,W,1,09,0.96,169.6,M,-34.4,M,,*5C
$GPRMC,182735.250,A,4305.1651,N,07740.8612,W,0.00,306.56,201023,,,A*7D
$GPGGA,182735.500,4305.1651,N,07740.8612,W,1,09,0.96,169.6,M,-34.4,M,,*59
$GPRMC,182735.750,A,4305.1651,N,07740.8612,W,0.01,327.36,201023,,,A*7C
$GPGGA,182736.000,4305.1651,N,07740.8612,W,1,09,0.96,169.6,M,-34.4,M,,*5F
$GPRMC,182736.250,A,4305.1651,N,07740.8612,W,0.00,132.04,201023,,,A*7C
$GPGGA,182736.500,4305.1651,N,07740.8612,W,1,09,0.96,169.6,M,-34.4,M,,*5A
$GPRMC,182736.750,A,4305.1651,N,07740.8612,W,0.00,15.96,201023,,,A*46
$GPGGA,182737.000,4305.1651,N,07740.8612,W,1,09,0.96,169.6,M,-34.4,M,,*5E
$GPRMC,182737.250,A,4305.1651,N,07740.8612,W,0.01,272.05,201023,,,A*7A
$GPGGA,182737.500,4305.1651,N,07740.8612,W,1,08,1.04,169.6,M,-34.4,M,,*50
$GPRMC,182737.750,A,4305.1651,N,07740.8612,W,0.01,32.26,201023,,,A*48
$GPGGA,182738.000,4305.1651,N,07740.8612,W,1,09,0.96,169.6,M,-34.4,M,,*51
$GPRMC,182738.250,A,4305.1651,N,07740.8612,W,0.07,345.56,201023,,,A*70
$GPGGA,182738.500,4305.1651,N,07740.8612,W,1,09,0.96,169.6,M,-34.4,M,,*54
$GPRMC,182738.750,A,4305.1651,N,07740.8612,W,0.14,356.44,201023,,,A*76
$GPGGA,182739.000,4305.1651,N,07740.8612,W,1,09,0.96,169.6,M,-34.4,M,,*50
$GPRMC,182739.250,A,4305.1651,N,07740.8612,W,0.83,357.89,201023,,,A*7C
$GPGGA,182739.500,4305.1651,N,07740.8612,W,1,09,0.96,169.6,M,-34.4,M,,*55
$GPRMC,182739.750,A,4305.1652,N,07740.8612,W,1.91,4.56,201023,,,A*7F
$GPGGA,182740.000,4305.1652,N,07740.8613,W,1,09,0.96,169.6,M,-34.4,M,,*5C
$GPRMC,182740.250,A,4305.1653,N,07740.8615,W,1.62,4.85,201023,,,A*70
$GPGGA,182740.500,4305.1654,N,07740.8615,W,1,09,0.96,169.5,M,-34.4,M,,*5A
$GPRMC,182740.750,A,4305.1654,N,07740.8615,W,2.05,10.03,201023,,,A*4B
$GPGGA,182741.000,4305.1655,N,07740.8616,W,1,09,0.96,169.5,M,-34.4,M,,*5C
$GPRMC,182741.250,A,4305.1656,N,07740.8616,W,2.10,10.12,201023,,,A*4A
$GPGGA,182741.500,4305.1657,N,07740.8616,W,1,09,0.96,169.6,M,-34.4,M,,*58
$GPRMC,182741.750,A,4305.1658,N,07740.8616,W,2.00,16.87,201023,,,A*4A
$GPGGA,182742.000,4305.1659,N,07740.8615,W,1,09,0.96,169.6,M,-34.4,M,,*53
$GPRMC,182742.250,A,4305.1659,N,07740.8615,W,2.16,17.50,201023,,,A*42
$GPGGA,182742.500,4305.1661,N,07740.8614,W,1,09,0.96,169.6,M,-34.4,M,,*5C
$GPRMC,182742.750,A,4305.1662,N,07740.8614,W,2.40,22.83,201023,,,A*45
$GPGGA,182743.000,4305.1663,N,07740.8613,W,1,09,0.96,169.7,M,-34.4,M,,*5C
$GPRMC,182743.250,A,4305.1664,N,07740.8612,W,2.42,31.37,201023,,,A*4E
$GPGGA,182743.500,4305.1666,N,07740.8611,W,1,09,0.96,169.7,M,-34.4,M,,*5E
$GPRMC,182743.750,A,4305.1667,N,07740.8610,W,2.67,38.16,201023,,,A*47
$GPGGA,182744.000,4305.1669,N,07740.8608,W,1,09,0.96,169.7,M,-34.4,M,,*5B
$GPRMC,182744.250,A,4305.1670,N,07740.8606,W,2.58,50.37,201023,,,A*45
$GPGGA,182744.500,4305.1671,N,07740.8604,W,1,09,0.96,169.7,M,-34.4,M,,*5B
$GPRMC,182744.750,A,4305.1671,N,07740.8602,W,2.08,56.97,201023,,,A*4C
$GPGGA,182745.000,4305.1672,N,07740.8601,W,1,09,0.95,169.7,M,-34.4,M,,*5A
$GPRMC,182745.250,A,4305.1672,N,07740.8600,W,0.56,53.32,201023,,,A*4A
$GPGGA,182745.500,4305.1672,N,07740.8600,W,1,09,0.96,169.7,M,-34.4,M,,*5D
$GPRMC,182745.750,A,4305.1671,N,07740.8601,W,1.44,237.85,201023,,,A*73
$GPGGA,182746.000,4305.1670,N,07740.8603,W,1,09,0.96,169.8,M,-34.4,M,,*55
$GPRMC,182746.250,A,4305.1668,N,07740.8607,W,5.44,237.93,201023,,,A*78
$GPGGA,182746.500,4305.1666,N,07740.8612,W,1,09,0.96,169.8,M,-34.4,M,,*57
$GPRMC,182746.750,A,4305.1663,N,07740.8619,W,8.50,243.11,201023,,,A*78
$GPGGA,182747.000,4305.1660,N,07740.8627,W,1,09,0.96,169.9,M,-34.4,M,,*52
$GPRMC,182747.250,A,4305.1658,N,07740.8636,W,11.43,252.97,201023,,,A*4D
$GPGGA,182747.500,4305.1656,N,07740.8647,W,1,09,0.96,170.0,M,-34.4,M,,*55
$GPRMC,182747.750,A,4305.1655,N,07740.8660,W,13.76,264.22,201023,,,A*49
$GPGGA,182748.000,4305.1654,N,07740.8673,W,1,09,0.96,170.1,M,-34.4,M,,*5B
$GPRMC,182748.250,A,4305.1655,N,07740.8687,W,14.46,272.59,201023,,,A*45
$GPGGA,182748.500,4305.1655,N,07740.8700,W,1,09,0.96,170.1,M,-34.4,M,,*5A
$GPRMC,182748.750,A,4305.1656,N,07740.8714,W,14.39,274.92,201023,,,A*41
$GPGGA,182749.000,4305.1657,N,07740.8727,W,1,09,0.96,170.0,M,-34.4,M,,*58
$GPRMC,182749.250,A,4305.1658,N,07740.8740,W,13.26,274.71,201023,,,A*4E
$GPGGA,182749.500,4305.1659,N,07740.8752,W,1,09,0.96,170.0,M,-34.4,M,,*51
$GPRMC,182749.750,A,4305.1660,N,07740.8762,W,11.38,275.92,201023,,,A*41
$GPGGA,182750.000,4305.1661,N,07740.8772,W,1,09,0.96,170.0,M,-34.4,M,,*55
$GPRMC,182750.250,A,4305.1661,N,07740.8781,W,9.08,276.73,201023,,,A*76
$GPGGA,182750.500,4305.1662,N,07740.8789,W,1,09,0.96,170.0,M,-34.4,M,,*57
$GPRMC,182750.750,A,4305.1662,N,07740.8796,W,7.22,274.64,201023,,,A*74
$GPGGA,182751.000,4305.1663,N,07740.8803,W,1,09,0.96,170.0,M,-34.4,M,,*5F
$GPRMC,182751.250,A,4305.1663,N,07740.8809,W,6.78,268.54,201023,,,A*78
$GPGGA,182751.500,4305.1662,N,07740.8816,W,1,09,0.96,170.0,M,-34.4,M,,*5F
$GPRMC,182751.750,A,4305.1661,N,07740.8824,W,7.73,259.99,201023,,,A*79
$GPGGA,182752.000,4305.1660,N,07740.8832,W,1,09,0.96,170.1,M,-34.4,M,,*5C
$GPRMC,182752.250,A,4305.1657,N,07740.8840,W,9.25,245.61,201023,,,A*7F
$GPGGA,182752.500,4305.1654,N,07740.8848,W,1,09,0.96,170.2,M,-34.4,M,,*50
$GPRMC,182752.750,A,4305.1649,N,07740.8857,W,10.87,227.11,201023,,,A*40
$GPGGA,182753.000,4305.1644,N,07740.8864,W,1,09,0.96,170.4,M,-34.4,M,,*5D
$GPRMC,182753.250,A,4305.1637,N,07740.8871,W,11.91,211.37,201023,,,A*4E
$GPGGA,182753.500,4305.1629,N,07740.8876,W,1,08,1.22,170.7,M,-34.4,M,,*5C
$GPRMC,182753.750,A,4305.1619,N,07740.8880,W,13.39,193.74,201023,,,A*47
$GPGGA,182754.000,4305.1609,N,07740.8882,W,1,09,0.96,170.8,M,-34.4,M,,*57
$GPRMC,182754.250,A,4305.1599,N,07740.8884,W,14.29,183.74,201023,,,A*4D
$GPGGA,182754.500,4305.1588,N,07740.8884,W,1,08,1.22,171.0,M,-34.4,M,,*58
$GPRMC,182754.750,A,4305.1578,N,07740.8885,W,14.25,179.81,201023,,,A*45
$GPGGA,182755.000,4305.1568,N,07740.8885,W,1,08,1.22,171.2,M,-34.4,M,,*51
$GPRMC,182755.250,A,4305.1559,N,07740.8885,W,13.95,181.25,201023,,,A*47
$GPGGA,182755.500,4305.1549,N,07740.8885,W,1,09,0.96,171.3,M,-34.4,M,,*59
$GPRMC,182755.750,A,4305.1539,N,07740.8887,W,13.72,189.09,201023,,,A*49
$GPGGA,182756.000,4305.1530,N,07740.8890,W,1,08,1.22,171.7,M,-34.4,M,,*5E
$GPRMC,182756.250,A,4305.1521,N,07740.8894,W,13.47,201.13,201023,,,A*4A
$GPGGA,182756.500,4305.1512,N,07740.8899,W,1,08,1.22,171.7,M,-34.4,M,,*52
$GPRMC,182756.750,A,4305.1504,N,07740.8906,W,12.98,215.86,201023,,,A*48
$GPGGA,182757.000,4305.1497,N,07740.8914,W,1,08,1.22,171.7,M,-34.4,M,,*5E
$GPRMC,182757.250,A,4305.1491,N,07740.8923,W,13.41,230.06,201023,,,A*4C
$GPGGA,182757.500,4305.1486,N,07740.8933,W,1,08,1.22,171.8,M,-34.4,M,,*51
$GPRMC,182757.750,A,4305.1481,N,07740.8945,W,14.12,246.01,201023,,,A*4F
$GPGGA,182758.000,4305.1477,N,07740.8957,W,1,08,1.22,171.8,M,-34.4,M,,*57
$GPRMC,182758.250,A,4305.1474,N,07740.8971,W,14.84,256.62,201023,,,A*43
$GPGGA,182758.500,4305.1472,N,07740.8986,W,1,09,0.96,171.9,M,-34.4,M,,*55
$GPRMC,182758.750,A,4305.1470,N,07740.9001,W,16.47,263.55,201023,,,A*42
$GPGGA,182759.000,4305.1469,N,07740.9017,W,1,09,0.96,171.8,M,-34.4,M,,*5A
$GPRMC,182759.250,A,4305.1468,N,07740.9034,W,17.25,269.06,201023,,,A*40
$GPGGA,182759.500,4305.1468,N,07740.9051,W,1,09,0.96,171.8,M,-34.4,M,,*5C
$GPRMC,182759.750,A,4305.1469,N,07740.9068,W,18.24,275.28,201023,,,A*42
$GPGGA,182800.000,4305.1470,N,07740.9086,W,1,08,1.22,171.7,M,-34.4,M,,*59
$GPRMC,182800.250,A,4305.1472,N,07740.9104,W,19.32,281.27,201023,,,A*47
$GPGGA,182800.500,4305.1475,N,07740.9122,W,1,08,1.22,171.6,M,-34.4,M,,*57
$GPRMC,182800.750,A,4305.1478,N,07740.9141,W,19.97,286.71,201023,,,A*42
$GPGGA,182801.000,4305.1483,N,07740.9159,W,1,08,1.22,171.5,M,-34.4,M,,*55
$GPRMC,182801.250,A,4305.1487,N,07740.9178,W,20.81,289.06,201023,,,A*4E
$GPGGA,182801.500,4305.1492,N,07740.9197,W,1,08,1.22,171.3,M,-34.4,M,,*54
$GPRMC,182801.750,A,4305.1497,N,07740.9217,W,21.66,288.02,201023,,,A*4D
$GPGGA,182802.000,4305.1501,N,07740.9237,W,1,09,0.96,171.1,M,-34.4,M,,*5D
$GPRMC,182802.250,A,4305.1505,N,07740.9257,W,21.88,285.09,201023,,,A*43
$GPGGA,182802.500,4305.1509,N,07740.9277,W,1,09,0.96,170.8,M,-34.4,M,,*5C
$GPRMC,182802.750,A,4305.1513,N,07740.9298,W,21.83,282.09,201023,,,A*4E
$GPGGA,182803.000,4305.1515,N,07740.9318,W,1,09,0.96,170.3,M,-34.4,M,,*56
$GPRMC,182803.250,A,4305.1518,N,07740.9338,W,21.82,278.04,201023,,,A*43
$GPGGA,182803.500,4305.1520,N,07740.9359,W,1,09,0.96,170.2,M,-34.4,M,,*51
$GPRMC,182803.750,A,4305.1522,N,07740.9379,W,21.61,275.32,201023,,,A*4F
$GPGGA,182804.000,4305.1523,N,07740.9400,W,1,09,0.96,169.8,M,-34.4,M,,*59
$GPRMC,182804.250,A,4305.1524,N,07740.9420,W,21.61,272.83,201023,,,A*4D
$GPGGA,182804.500,4305.1525,N,07740.9441,W,1,09,0.96,169.7,M,-34.4,M,,*50
$GPRMC,182804.750,A,4305.1525,N,07740.9461,W,21.37,271.10,201023,,,A*46
$GPGGA,182805.000,4305.1525,N,07740.9482,W,1,09,0.96,169.6,M,-34.4,M,,*5A
$GPRMC,182805.250,A,4305.1526,N,07740.9502,W,21.32,270.94,201023,,,A*4D
$GPGGA,182805.500,4305.1526,N,07740.9522,W,1,09,0.96,169.5,M,-34.4,M,,*54
$GPRMC,182805.750,A,4305.1526,N,07740.9542,W,20.94,269.86,201023,,,A*4A
$GPGGA,182806.000,4305.1526,N,07740.9562,W,1,09,0.96,169.4,M,-34.4,M,,*57
$GPRMC,182806.250,A,4305.1525,N,07740.9582,W,20.85,268.98,201023,,,A*4D
$GPGGA,182806.500,4305.1525,N,07740.9602,W,1,09,0.96,169.4,M,-34.4,M,,*54
$GPRMC,182806.750,A,4305.1525,N,07740.9621,W,20.13,268.40,201023,,,A*48
$GPGGA,182807.000,4305.1524,N,07740.9640,W,1,09,0.96,169.4,M,-34.4,M,,*57
$GPRMC,182807.250,A,4305.1524,N,07740.9657,W,18.26,267.96,201023,,,A*45
$GPGGA,182807.500,4305.1523,N,07740.9674,W,1,09,0.96,169.4,M,-34.4,M,,*52
$GPRMC,182807.750,A,4305.1523,N,07740.9689,W,15.61,267.92,201023,,,A*4E
$GPGGA,182808.000,4305.1521,N,07740.9704,W,1,09,0.96,169.4,M,-34.4,M,,*5C
$GPRMC,182808.250,A,4305.1521,N,07740.9716,W,12.89,268.39,201023,,,A*4E
$GPGGA,182808.500,4305.1520,N,07740.9728,W,1,09,0.96,169.5,M,-34.4,M,,*57
$GPRMC,182808.750,A,4305.1520,N,07740.9737,W,10.21,267.77,201023,,,A*4C
$GPGGA,182809.000,4305.1519,N,07740.9746,W,1,09,0.96,169.5,M,-34.4,M,,*51
$GPRMC,182809.250,A,4305.1519,N,07740.9753,W,7.76,266.16,201023,,,A*72
$GPGGA,182809.500,4305.1519,N,07740.9760,W,1,09,0.96,169.5,M,-34.4,M,,*50
$GPRMC,182809.750,A,4305.1518,N,07740.9766,W,6.89,262.46,201023,,,A*70
$GPGGA,182810.000,4305.1518,N,07740.9772,W,1,09,0.96,169.4,M,-34.4,M,,*5E
$GPRMC,182810.250,A,4305.1517,N,07740.9779,W,7.40,256.18,201023,,,A*74
$GPGGA,182810.500,4305.1516,N,07740.9785,W,1,09,0.96,169.3,M,-34.4,M,,*5A
$GPRMC,182810.750,A,4305.1514,N,07740.9793,W,8.91,245.75,201023,,,A*7C
$GPGGA,182811.000,4305.1511,N,07740.9800,W,1,09,0.96,169.4,M,-34.4,M,,*5C
$GPRMC,182811.250,A,4305.1508,N,07740.9808,W,10.72,230.42,201023,,,A*4A
$GPGGA,182811.500,4305.1502,N,07740.9815,W,1,09,0.96,169.5,M,-34.4,M,,*5E
$GPRMC,182811.750,A,4305.1496,N,07740.9822,W,12.39,216.23,201023,,,A*4F
$GPGGA,182812.000,4305.1489,N,07740.9829,W,1,09,0.96,169.6,M,-34.4,M,,*56
$GPRMC,182812.250,A,4305.1480,N,07740.9834,W,13.83,205.13,201023,,,A*48
$GPGGA,182812.500,4305.1472,N,07740.9839,W,1,09,0.96,169.8,M,-34.4,M,,*58
$GPRMC,182812.750,A,4305.1462,N,07740.9843,W,14.95,196.96,201023,,,A*45
$GPGGA,182813.000,4305.1452,N,07740.9847,W,1,09,0.96,169.9,M,-34.4,M,,*56
$GPRMC,182813.250,A,4305.1442,N,07740.9850,W,15.71,190.83,201023,,,A*48
$GPGGA,182813.500,4305.1431,N,07740.9853,W,1,09,0.96,170.1,M,-34.4,M,,*53
$GPRMC,182813.750,A,4305.1420,N,07740.9855,W,16.24,191.18,201023,,,A*4C
$GPGGA,182814.000,4305.1409,N,07740.9859,W,1,09,0.96,170.3,M,-34.4,M,,*52
$GPRMC,182814.250,A,4305.1398,N,07740.9863,W,16.83,195.86,201023,,,A*41
$GPGGA,182814.500,4305.1387,N,07740.9868,W,1,09,0.96,170.5,M,-34.4,M,,*52
$GPRMC,182814.750,A,4305.1376,N,07740.9873,W,17.46,201.71,201023,,,A*4B
$GPGGA,182815.000,4305.1365,N,07740.9880,W,1,09,0.96,170.6,M,-34.4,M,,*5F
$GPRMC,182815.250,A,4305.1353,N,07740.9888,W,18.47,208.52,201023,,,A*4A
$GPGGA,182815.500,4305.1342,N,07740.9897,W,1,09,0.96,170.8,M,-34.4,M,,*57
$GPRMC,182815.750,A,4305.1331,N,07740.9907,W,19.63,215.11,201023,,,A*41
$GPGGA,182816.000,4305.1320,N,07740.9918,W,1,09,0.96,170.8,M,-34.4,M,,*53
$GPRMC,182816.250,A,4305.1309,N,07740.9931,W,20.48,221.98,201023,,,A*4C
$GPGGA,182816.500,4305.1299,N,07740.9944,W,1,09,0.96,170.9,M,-34.4,M,,*5D
$GPRMC,182816.750,A,4305.1289,N,07740.9959,W,21.50,228.10,201023,,,A*4F
$GPGGA,182817.000,4305.1279,N,07740.9974,W,1,09,0.96,171.0,M,-34.4,M,,*5C
$GPRMC,182817.250,A,4305.1269,N,07740.9990,W,21.84,229.89,201023,,,A*48
$GPGGA,182817.500,4305.1259,N,07741.0006,W,1,09,0.96,171.0,M,-34.4,M,,*5F
$GPRMC,182817.750,A,4305.1249,N,07741.0023,W,22.27,231.68,201023,,,A*4A
$GPGGA,182818.000,4305.1239,N,07741.0040,W,1,09,0.96,171.1,M,-34.4,M,,*50
$GPRMC,182818.250,A,4305.1230,N,07741.0057,W,22.32,234.56,201023,,,A*41
$GPGGA,182818.500,4305.1221,N,07741.0075,W,1,09,0.96,171.1,M,-34.4,M,,*5A
$GPRMC,182818.750,A,4305.1212,N,07741.0093,W,22.41,235.26,201023,,,A*4E
$GPGGA,182819.000,4305.1203,N,07741.0111,W,1,09,0.96,171.1,M,-34.4,M,,*5D
$GPRMC,182819.250,A,4305.1194,N,07741.0128,W,22.46,235.33,201023,,,A*45
$GPGGA,182819.500,4305.1184,N,07741.0146,W,1,09,0.96,171.0,M,-34.4,M,,*57
$GPRMC,182819.750,A,4305.1175,N,07741.0163,W,22.44,234.80,201023,,,A*4B
$GPGGA,182820.000,4305.1166,N,07741.0180,W,1,09,0.96,170.9,M,-34.4,M,,*56
$GPRMC,182820.250,A,4305.1157,N,07741.0198,W,22.42,234.46,201023,,,A*4C
$GPGGA,182820.500,4305.1148,N,07741.0215,W,1,09,0.96,170.8,M,-34.4,M,,*51
$GPRMC,182820.750,A,4305.1138,N,07741.0232,W,22.39,234.47,201023,,,A*4E
$GPGGA,182821.000,4305.1130,N,07741.0250,W,1,09,0.96,170.7,M,-34.4,M,,*54
$GPRMC,182821.250,A,4305.1121,N,07741.0268,W,22.17,238.17,201023,,,A*48
$GPGGA,182821.500,4305.1113,N,07741.0286,W,1,09,0.96,170.5,M,-34.4,M,,*59
$GPRMC,182821.750,A,4305.1106,N,07741.0304,W,22.20,243.26,201023,,,A*49
$GPGGA,182822.000,4305.1100,N,07741.0323,W,1,09,0.96,170.4,M,-34.4,M,,*52
$GPRMC,182822.250,A,4305.1094,N,07741.0342,W,22.08,250.85,201023,,,A*46
$GPGGA,182822.500,4305.1089,N,07741.0362,W,1,09,0.96,170.2,M,-34.4,M,,*54
$GPRMC,182822.750,A,4305.1086,N,07741.0382,W,22.06,256.78,201023,,,A*46
$GPGGA,182823.000,4305.1083,N,07741.0402,W,1,09,0.96,170.1,M,-34.4,M,,*58
$GPRMC,182823.250,A,4305.1082,N,07741.0423,W,21.74,265.89,201023,,,A*42
$GPGGA,182823.500,4305.1082,N,07741.0444,W,1,09,0.96,169.8,M,-34.4,M,,*5F
$GPRMC,182823.750,A,4305.1082,N,07741.0465,W,21.74,274.23,201023,,,A*45
$GPGGA,182824.000,4305.1084,N,07741.0485,W,1,09,0.96,169.5,M,-34.4,M,,*5B
$GPRMC,182824.250,A,4305.1086,N,07741.0506,W,21.22,281.78,201023,,,A*40
$GPGGA,182824.500,4305.1090,N,07741.0525,W,1,09,0.96,169.0,M,-34.4,M,,*55
$GPRMC,182824.750,A,4305.1094,N,07741.0544,W,19.97,289.20,201023,,,A*40
$GPGGA,182825.000,4305.1099,N,07741.0562,W,1,09,0.96,168.8,M,-34.4,M,,*52
$GPRMC,182825.250,A,4305.1104,N,07741.0578,W,18.79,295.82,201023,,,A*47
$GPGGA,182825.500,4305.1110,N,07741.0594,W,1,09,0.96,168.5,M,-34.4,M,,*53
$GPRMC,182825.750,A,4305.1116,N,07741.0609,W,17.74,300.98,201023,,,A*40
$GPGGA,182826.000,4305.1123,N,07741.0623,W,1,09,0.96,168.4,M,-34.4,M,,*5B
$GPRMC,182826.250,A,4305.1129,N,07741.0637,W,16.76,302.54,201023,,,A*46
$GPGGA,182826.500,4305.1136,N,07741.0650,W,1,09,0.96,168.2,M,-34.4,M,,*58
$GPRMC,182826.750,A,4305.1142,N,07741.0663,W,15.64,302.09,201023,,,A*47
$GPGGA,182827.000,4305.1148,N,07741.0676,W,1,09,0.96,168.0,M,-34.4,M,,*53
$GPRMC,182827.250,A,4305.1153,N,07741.0688,W,13.97,301.38,201023,,,A*4D
$GPGGA,182827.500,4305.1157,N,07741.0699,W,1,09,0.96,167.8,M,-34.4,M,,*5E
$GPRMC,182827.750,A,4305.1161,N,07741.0709,W,11.53,299.74,201023,,,A*43
$GPGGA,182828.000,4305.1165,N,07741.0718,W,1,09,0.96,167.7,M,-34.4,M,,*52
$GPRMC,182828.250,A,4305.1168,N,07741.0726,W,9.21,299.62,201023,,,A*76
$GPGGA,182828.500,4305.1170,N,07741.0733,W,1,09,0.96,167.6,M,-34.4,M,,*5B
$GPRMC,182828.750,A,4305.1173,N,07741.0740,W,6.89,300.04,201023,,,A*75
$GPGGA,182829.000,4305.1175,N,07741.0745,W,1,09,0.96,167.5,M,-34.4,M,,*58
$GPRMC,182829.250,A,4305.1177,N,07741.0750,W,5.67,300.64,201023,,,A*71
$GPGGA,182829.500,4305.1179,N,07741.0754,W,1,09,0.96,167.4,M,-34.4,M,,*50
$GPRMC,182829.750,A,4305.1181,N,07741.0760,W,7.19,300.58,201023,,,A*7A
$GPGGA,182830.000,4305.1184,N,07741.0766,W,1,09,0.96,167.3,M,-34.4,M,,*59
$GPRMC,182830.250,A,4305.1188,N,07741.0774,W,10.23,300.98,201023,,,A*48
$GPGGA,182830.500,4305.1192,N,07741.0783,W,1,09,0.96,167.2,M,-34.4,M,,*51
$GPRMC,182830.750,A,4305.1197,N,07741.0793,W,12.68,301.69,201023,,,A*48
$GPGGA,182831.000,4305.1202,N,07741.0804,W,1,09,0.96,167.3,M,-34.4,M,,*5E
$GPRMC,182831.250,A,4305.1207,N,07741.0815,W,14.80,300.68,201023,,,A*47
$GPGGA,182831.500,4305.1213,N,07741.0827,W,1,09,0.96,167.4,M,-34.4,M,,*5D
$GPRMC,182831.750,A,4305.1219,N,07741.0841,W,16.59,299.43,201023,,,A*42
$GPGGA,182832.000,4305.1224,N,07741.0855,W,1,09,0.96,167.4,M,-34.4,M,,*5A
$GPRMC,182832.250,A,4305.1230,N,07741.0870,W,17.67,298.49,201023,,,A*4A
$GPGGA,182832.500,4305.1236,N,07741.0885,W,1,09,0.96,167.2,M,-34.4,M,,*57
$GPRMC,182832.750,A,4305.1242,N,07741.0900,W,19.04,296.32,201023,,,A*45
$GPGGA,182833.000,4305.1248,N,07741.0917,W,1,09,0.96,167.1,M,-34.4,M,,*53
$GPRMC,182833.250,A,4305.1253,N,07741.0934,W,20.04,293.93,201023,,,A*42
$GPGGA,182833.500,4305.1259,N,07741.0951,W,1,09,0.96,166.9,M,-34.4,M,,*5D
$GPRMC,182833.750,A,4305.1264,N,07741.0969,W,20.84,292.05,201023,,,A*4D
$GPGGA,182834.000,4305.1269,N,07741.0987,W,1,09,0.96,166.9,M,-34.4,M,,*57
$GPRMC,182834.250,A,4305.1275,N,07741.1006,W,20.84,291.71,201023,,,A*4E
$GPGGA,182834.500,4305.1280,N,07741.1024,W,1,09,0.96,166.8,M,-34.4,M,,*55
$GPRMC,182834.750,A,4305.1285,N,07741.1042,W,20.62,292.11,201023,,,A*49
$GPGGA,182835.000,4305.1291,N,07741.1060,W,1,09,0.96,166.8,M,-34.4,M,,*51
$GPRMC,182835.250,A,4305.1296,N,07741.1078,W,20.22,292.74,201023,,,A*41
$GPGGA,182835.500,4305.1302,N,07741.1095,W,1,09,0.96,166.8,M,-34.4,M,,*55
$GPRMC,182835.750,A,4305.1307,N,07741.1112,W,19.61,294.27,201023,,,A*4D
$GPGGA,182836.000,4305.1313,N,07741.1129,W,1,08,0.99,166.8,M,-34.4,M,,*5B
$GPRMC,182836.250,A,4305.1318,N,07741.1145,W,18.13,295.52,201023,,,A*40
$GPGGA,182836.500,4305.1324,N,07741.1160,W,1,09,0.96,166.8,M,-34.4,M,,*59
$GPRMC,182836.750,A,4305.1329,N,07741.1175,W,16.61,296.57,201023,,,A*49
$GPGGA,182837.000,4305.1334,N,07741.1189,W,1,09,0.96,166.7,M,-34.4,M,,*54
$GPRMC,182837.250,A,4305.1340,N,07741.1202,W,14.34,300.03,201023,,,A*4C
$GPGGA,182837.500,4305.1345,N,07741.1214,W,1,09,0.96,166.7,M,-34.4,M,,*50
$GPRMC,182837.750,A,4305.1350,N,07741.1224,W,12.03,304.52,201023,,,A*4E
$GPGGA,182838.000,4305.1355,N,07741.1233,W,1,09,0.96,166.7,M,-34.4,M,,*5E
