Vers 81
USE_SERIAL_FEEDBACK=true
DEVELOPMENT_MODE=false
USE_RMC_ONLY=false

$GPRMC,174152.250,A,4308.3124,N,07726.2273,W,15.57,79.06,020823,,,A*71
$GPGGA,174152.500,4308.3125,N,07726.2255,W,1,03,2.18,183.0,M,-34.4,M,,*5D
$GPRMC,174152.750,A,4308.3125,N,07726.2236,W,16.20,79.52,020823,,,A*76
$GPGGA,174153.000,4308.3126,N,07726.2217,W,1,03,2.18,182.7,M,-34.4,M,,*5A
$GPRMC,174153.250,A,4308.3127,N,07726.2198,W,16.84,80.38,020823,,,A*73
$GPGGA,174153.500,4308.3127,N,07726.2179,W,1,03,2.18,182.4,M,-34.4,M,,*56
$GPRMC,174153.750,A,4308.3127,N,07726.2159,W,17.28,81.62,020823,,,A*72
$GPGGA,174154.000,4308.3128,N,07726.2140,W,1,03,2.18,182.1,M,-34.4,M,,*54
$GPRMC,174154.250,A,4308.3128,N,07726.2120,W,17.66,82.18,020823,,,A*75
$GPGGA,174154.500,4308.3129,N,07726.2100,W,1,03,2.18,182.0,M,-34.4,M,,*55
$GPRMC,174154.750,A,4308.3131,N,07726.2080,W,18.24,81.97,020823,,,A*7E
$GPGGA,174155.000,4308.3131,N,07726.2059,W,1,03,2.18,181.7,M,-34.4,M,,*51
$GPRMC,174155.250,A,4308.3131,N,07726.2035,W,19.11,83.17,020823,,,A*79
$GPGGA,174155.500,4308.3131,N,07726.2012,W,1,03,2.19,181.5,M,-34.4,M,,*58
$GPRMC,174155.750,A,4308.3130,N,07726.1988,W,19.79,86.01,020823,,,A*7D
$GPGGA,174156.000,4308.3130,N,07726.1966,W,1,03,2.18,181.4,M,-34.4,M,,*56
$GPGGA,174156.150,4308.3129,N,07726.1949,W,1,03,2.18,181.3,M,-34.4,M,,*50
$GPRMC,174156.150,A,4308.3129,N,07726.1949,W,20.71,85.98,020823,,,A*7C
$GPGGA,174156.500,4308.3130,N,07726.1917,W,1,03,2.18,181.1,M,-34.4,M,,*50
$GPRMC,174156.500,A,4308.3130,N,07726.1917,W,21.36,85.83,020823,,A*76
$GPGGA,174156.750,4308.3129,N,07726.1894,W,1,03,2.18,181.0,M,-34.4,M,,*54
$GPRMC,174156.750,A,4308.3129,N,07726.1894,W,21.53,87.03,020823$GPGGA,174157.000,4308.3129,N,07726.1873,W,1,03,2.18,180.9,M,-34.4,M,,*56
$GPRMC,174157.250,A,4308.3125,N,07726.1846,W,21.42,89.10,020823,,,A*71
$GPGGA,174157.500,4308.3125,N,07726.1823,W,1,03,2.18,182.4,M,-34.4,M,,*55
$GPRMC,174157.750,A,4308.3124,N,07726.1800,W,21.68,88.71,020823,,,A*79
$GPGGA,174158.000,4308.3123,N,07726.1778,W,1,03,2.18,182.2,M,-34.4,M,,*5E
$GPRMC,174158.250,A,4308.3122,N,07726.1756,W,21.45,89.02,020823,,,A*73
$GPGGA,174158.500,4308.3121,N,07726.1734,W,1,03,2.18,182.0,M,-34.4,M,,*53
$GPRMC,174158.750,A,4308.3120,N,07726.1712,W,21.46,90.31,020823,,,A*7F
$GPGGA,174159.000,4308.3119,N,07726.1691,W,1,03,2.18,181.8,M,-34.4,M,,*59
$GPRMC,174159.250,A,4308.3120,N,07726.1670,W,21.79,89.94,020823,,,A*75
$GPGGA,174159.500,4308.3120,N,07726.1649,W,1,03,2.18,181.5,M,-34.4,M,,*5E
$GPRMC,174159.750,A,4308.3122,N,07726.1628,W,22.11,88.37,020823,,,A*7A
$GPGGA,174200.000,4308.3124,N,07726.1608,W,1,03,2.18,181.3,M,-34.4,M,,*53
$GPRMC,174200.250,A,4308.3126,N,07726.1588,W,21.89,84.59,020823,,,A*7B
$GPGGA,174200.500,4308.3129,N,07726.1566,W,1,03,2.18,181.1,M,-34.4,M,,*52
$GPRMC,174200.750,A,4308.3131,N,07726.1544,W,22.02,81.85,020823,,,A*7C
$GPGGA,174201.000,4308.3137,N,07726.1524,W,1,03,2.18,180.9,M,-34.4,M,,*56
$GPRMC,174201.250,A,4308.3142,N,07726.1502,W,22.99,75.97,020823,,,A*74
$GPGGA,174201.500,4308.3147,N,07726.1480,W,1,03,2.18,180.6,M,-34.4,M,,*54
$GPRMC,174201.750,A,4308.3153,N,07726.1456,W,23.33,70.18,020823,,,A*72
$GPGGA,174202.000,4308.3159,N,07726.1433,W,1,03,2.18,180.4,M,-34.4,M,,*57
$GPGGA,174202.149,4308.3164,N,07726.1417,W,1,03,2.18,180.4,M,-34.4,M,,*53
$GPRMC,174202.149,A,4308.3164,N,07726.1417,W,23.55,66.01,020823,,A*71
$GPGGA,174202.500,4308.3174,N,07726.1386,W,1,03,2.18,180.2,M,-34.4,M,,*52
$GPRMC,174202.500,A,4308.3174,N,07726.1386,W,23.95,64.20,020823,,A*7B
$GPGGA,174202.750,4308.3182,N,07726.1366,W,1,03,2.18,180.1,M,-34.4,M,,*51
$GPRMC,174202.750,A,4308.3182,N,07726.1366,W,23.58,61.23,020823,,A*7C
$GPGGA,174203.000,4308.3190,N,07726.1345,W,1,03,2.18,180.0,M,-34.4,M,,*51
$GPRMC,174203.000,A,4308.3190,N,07726.1345,W,23.61,60.17,020823,,,A*71
$GPGGA,174203.250,4308.3199,N,07726.1325,W,1,03,2.18,179.9,M,-34.4,M,,*56
$GPRMC,174203.250,A,4308.3199,N,07726.1325,W,23.58,58.30,020823,,A*7D
$GPGGA,174203.500,4308.3209,N,07726.1304,W,1,03,2.18,179.8,M,-34.4,M,,*5C
$GPRMC,174203.500,A,4308.3209,N,07726.1304,W,24.00,55.64,020823,,,A*70
$GPGGA,174203.750,4308.3219,N,07726.1286,W,1,03,2.18,179.6,M,-34.4,M,,*5F
$GPRMC,174203.750,A,4308.3219,N,07726.1286,W,23.77,52.46,020823$GPGGA,174204.000,4308.3230,N,07726.1268,W,1,03,2.18,179.5,M,-34.4,M,,*52
$GPRMC,174204.250,A,4308.3242,N,07726.1251,W,24.21,48.50,020823,,,A*73
$GPGGA,174204.500,4308.3254,N,07726.1233,W,1,03,2.18,179.3,M,-34.4,M,,*5D
$GPRMC,174204.750,A,4308.3265,N,07726.1216,W,24.35,46.73,020823,,,A*7A
$GPGGA,174205.000,4308.3277,N,07726.1199,W,1,03,2.18,179.1,M,-34.4,M,,*59
$GPRMC,174205.250,A,4308.3290,N,07726.1182,W,24.94,45.25,020823,,,A*71
$GPGGA,174205.500,4308.3304,N,07726.1168,W,1,03,2.18,178.9,M,-34.4,M,,*5E
$GPRMC,174205.750,A,4308.3318,N,07726.1157,W,24.49,38.85,020823,,,A*7D
$GPGGA,174206.000,4308.3332,N,07726.1145,W,1,03,2.18,178.6,M,-34.4,M,,*5D
$GPRMC,174206.250,A,4308.3346,N,07726.1132,W,24.44,36.07,020823,,,A*7A
$GPGGA,174206.500,4308.3360,N,07726.1121,W,1,03,2.19,178.4,M,-34.4,M,,*5E
$GPRMC,174206.750,A,4308.3375,N,07726.1109,W,24.29,33.73,020823,,,A*7A
$GPGGA,174207.000,4308.3389,N,07726.1097,W,1,03,2.18,178.2,M,-34.4,M,,*56
$GPRMC,174207.250,A,4308.3403,N,07726.1085,W,24.17,32.78,020823,,,A*7A
$GPGGA,174207.500,4308.3417,N,07726.1072,W,1,03,2.18,178.0,M,-34.4,M,,*5A
$GPRMC,174207.750,A,4308.3432,N,07726.1066,W,23.65,29.20,020823,,,A*75
$GPGGA,174208.000,4308.3449,N,07726.1063,W,1,03,2.18,177.7,M,-34.4,M,,*53
$GPGGA,174208.149,4308.3462,N,07726.1074,W,1,03,2.18,177.7,M,-34.4,M,,*50
$GPRMC,174208.149,A,4308.3462,N,07726.1074,W,23.32,16.60,020823,,,A*78
$GPGGA,174208.500,4308.3484,N,07726.1068,W,1,03,2.18,177.5,M,-34.4,M,,*5E
$GPRMC,174208.500,A,4308.3484,N,07726.1068,W,22.97,15.09,020823$GPGGA,174208.750,4308.3500,N,07726.1066,W,1,03,2.18,177.4,M,-34.4,M,,*5B
$GPRMC,174209.000,A,4308.3517,N,07726.1066,W,23.32,10.96,020823,,,A*7A
$GPGGA,174209.250,4308.3535,N,07726.1073,W,1,03,56.00,177.2,M,-34.4,M,,*63
$GPRMC,174209.500,A,4308.3553,N,07726.1076,W,23.77,1.94,020823,,,A*4D
$GPGGA,174209.750,4308.3570,N,07726.1078,W,1,03,56.00,176.9,M,-34.4,M,,*66
$GPRMC,174210.000,A,4308.3587,N,07726.1077,W,24.24,0.85,020823,,,A*48
$GPGGA,174210.250,4308.3604,N,07726.1076,W,1,03,56.00,176.7,M,-34.4,M,,*6B
$GPRMC,174210.500,A,4308.3622,N,07726.1076,W,25.25,0.70,020823,,,A*4A
$GPGGA,174210.750,4308.3640,N,07726.1077,W,1,03,56.01,176.5,M,-34.4,M,,*6C
$GPRMC,174211.000,A,4308.3657,N,07726.1078,W,25.81,358.65,020823,,,A*46
$GPGGA,174211.250,4308.3675,N,07726.1079,W,1,03,56.01,176.3,M,-34.4,M,,*66
$GPRMC,174211.500,A,4308.3693,N,07726.1080,W,25.80,358.17,020823,,,A*48
$GPGGA,174211.750,4308.3710,N,07726.1080,W,1,03,56.01,176.1,M,-34.4,M,,*65
$GPRMC,174212.000,A,4308.3728,N,07726.1079,W,26.05,358.88,020823,,,A*41
$GPGGA,174212.250,4308.3746,N,07726.1078,W,1,03,56.02,175.9,M,-34.4,M,,*6F
$GPRMC,174212.500,A,4308.3764,N,07726.1077,W,26.18,0.24,020823,,,A*46
$GPGGA,174212.750,4308.3782,N,07726.1076,W,1,03,56.02,175.7,M,-34.4,M,,*62
$GPRMC,174213.000,A,4308.3799,N,07726.1076,W,25.92,0.86,020823,,,A*48
$GPGGA,174213.250,4308.3817,N,07726.1074,W,1,03,56.02,175.5,M,-34.4,M,,*65
$GPRMC,174213.500,A,4308.3835,N,07726.1075,W,25.90,1.58,020823,,,A*47
$GPGGA,174213.750,4308.3853,N,07726.1075,W,1,03,56.03,175.3,M,-34.4,M,,*66
$GPRMC,174214.000,A,4308.3872,N,07726.1076,W,26.07,1.23,020823,,,A*44
$GPGGA,174214.093,4308.3879,N,07726.1076,W,1,03,56.03,175.1,M,-.4,M,,*60
$GPRMC,174214.500,A,4308.3908,N,07726.1074,W,26.35,1.86,020823,,,A*41
$GPGGA,174214.750,4308.3927,N,07726.1073,W,1,03,56.03,174.9,M,-34.4,M,,*6E
$GPRMC,174215.000,A,4308.3945,N,07726.1072,W,26.10,1.47,020823,,,A*40
$GPGGA,174215.250,4308.3963,N,07726.1073,W,1,03,56.04,174.7,M,-34.4,M,,*63
$GPRMC,174215.500,A,4308.3981,N,07726.1073,W,25.91,0.61,020823,,,A*43
$GPGGA,174215.750,4308.3999,N,07726.1074,W,1,03,56.04,174.5,M,-34.4,M,,*66
$GPRMC,174216.000,A,4308.4016,N,07726.1073,W,25.62,0.95,020823,,,A*42
$GPGGA,174216.250,4308.4033,N,07726.1073,W,1,03,56.04,174.3,M,-34.4,M,,*6F
$GPRMC,174216.500,A,4308.4051,N,07726.1075,W,24.87,0.04,020823,,,A*40
$GPGGA,174216.750,4308.4068,N,07726.1076,W,1,03,56.05,174.1,M,-34.4,M,,*62
$GPRMC,174217.000,A,4308.4085,N,07726.1078,W,24.68,359.40,020823,,,A*4E
$GPGGA,174217.250,4308.4102,N,07726.1078,W,1,03,56.05,173.9,M,-34.4,M,,*6A
$GPRMC,174217.500,A,4308.4119,N,07726.1079,W,24.14,0.04,020823,,,A*4A
$GPGGA,174217.750,4308.4135,N,07726.1078,W,1,03,56.05,173.7,M,-34.4,M,,*65
$GPRMC,174218.000,A,4308.4150,N,07726.1079,W,22.95,0.37,020823,,,A*42
$GPGGA,174218.250,4308.4166,N,07726.1080,W,1,03,56.06,173.5,M,-34.4,M,,*6F
$GPRMC,174218.500,A,4308.4180,N,07726.1080,W,21.72,359.27,020823,,,A*48
$GPGGA,174218.750,4308.4193,N,07726.1081,W,1,03,56.06,173.3,M,-34.4,M,,*67
$GPRMC,174219.000,A,4308.4206,N,07726.1082,W,20.17,357.59,020823,,,A*46
$GPGGA,174219.250,4308.4219,N,07726.1083,W,1,03,56.06,173.1,M,-34.4,M,,*62
$GPRMC,174219.500,A,4308.4233,N,07726.1083,W,19.64,358.06,020823,,,A*4F
$GPGGA,174219.750,4308.4246,N,07726.1084,W,1,03,56.07,173.0,M,-34.4,M,,*6A
$GPRMC,174220.000,A,4308.4258,N,07726.1084,W,18.98,358.47,020823,,,A*4D
$GPGGA,174220.093,4308.4262,N,07726.1084,W,1,03,56.07,172.8,M,-.4,M,,*67
$GPRMC,174220.500,A,4308.4281,N,07726.1086,W,17.80,357.92,020823,,,A*4F
$GPGGA,174220.750,4308.4292,N,07726.1086,W,1,03,56.07,172.6,M,-34.4,M,,*6C
$GPRMC,174221.000,A,4308.4299,N,07726.1089,W,15.57,356.11,020823,,,A*4F
$GPGGA,174221.250,4308.4305,N,07726.1093,W,1,03,56.08,172.5,M,-34.4,M,,*6F
$GPRMC,174221.500,A,4308.4311,N,07726.1095,W,12.82,352.18,020823,,,A*44
$GPGGA,174221.750,4308.4316,N,07726.1096,W,1,03,56.08,172.3,M,-34.4,M,,*6B
$GPRMC,174222.000,A,4308.4323,N,07726.1097,W,11.62,351.57,020823,,,A*44
$GPGGA,174222.250,4308.4330,N,07726.1097,W,1,03,56.08,172.1,M,-34.4,M,,*6A
$GPRMC,174222.500,A,4308.4336,N,07726.1097,W,10.87,353.09,020823,,,A*46
$GPGGA,174222.750,4308.4340,N,07726.1094,W,1,03,56.09,171.9,M,-34.4,M,,*61
$GPRMC,174223.000,A,4308.4346,N,07726.1091,W,9.75,356.84,020823,,,A*76
$GPGGA,174223.250,4308.4351,N,07726.1090,W,1,03,56.09,171.7,M,-34.4,M,,*6F
$GPRMC,174223.500,A,4308.4349,N,07726.1070,W,7.79,12.56,020823,,,A*4D
$GPGGA,174223.750,4308.4347,N,07726.1054,W,1,03,56.09,171.5,M,-34.4,M,,*67
$GPRMC,174224.000,A,4308.4349,N,07726.1048,W,6.05,31.26,020823,,,A*48
$GPGGA,174224.250,4308.4351,N,07726.1043,W,1,03,2.19,171.3,M,-34.4,M,,*52
$GPRMC,174224.500,A,4308.4354,N,07726.1037,W,5.81,36.21,020823,,,A*46
$GPGGA,174224.750,4308.4357,N,07726.1030,W,1,03,2.18,171.1,M,-34.4,M,,*56
$GPRMC,174225.000,A,4308.4361,N,07726.1024,W,6.81,42.80,020823,,,A*4D
$GPGGA,174225.250,4308.4365,N,07726.1018,W,1,03,2.19,170.9,M,-34.4,M,,*51
$GPRMC,174225.500,A,4308.4370,N,07726.1011,W,8.27,44.06,020823,,,A*44
$GPGGA,174225.750,4308.4377,N,07726.1004,W,1,03,2.18,170.6,M,-34.4,M,,*54
$GPRMC,174226.000,A,4308.4381,N,07726.0996,W,9.48,45.35,020823,,,A*42
$GPGGA,174226.088,4308.4377,N,07726.0950,W,1,04,1.86,171.2,M,-38,A,4308.4377,N,07726.0950,W,13.13,61.79,020823,,,A*7A
$GPGGA,174226.500,4308.4384,N,07726.0920,W,1,04,4.22,171.2,M,-34.4,M,,*5F
$GPRMC,174226.500,A,4308.4384,N,07726.0920,W,15.75,64.83,020823,,A*72
$GPGGA,174226.750,4308.4387,N,07726.0899,W,1,04,1.86,171.2,M,-34.4,M,,*53
$GPRMC,174226.750,A,4308.4387,N,07726.0899,W,17.10,66.85,020823,,A*70
$GPGGA,174227.000,4308.4392,N,07726.0882,W,1,04,1.86,171.1,M,-34.4,M,,*5D
$GPRMC,174227.000,A,4308.4392,N,07726.0882,W,17.70,67.31,020823$GPGGA,174227.250,4308.4395,N,07726.0862,W,1,04,1.86,171.0,M,-34.4,M,,*52
$GPRMC,174227.500,A,4308.4399,N,07726.0841,W,19.63,69.84,020823,,,A*78
$GPGGA,174227.750,4308.4403,N,07726.0819,W,1,04,1.86,170.9,M,-34.4,M,,*5B
$GPRMC,174228.000,A,4308.4407,N,07726.0798,W,21.16,71.31,020823,,,A*77
$GPGGA,174228.250,4308.4411,N,07726.0776,W,1,04,1.86,170.7,M,-34.4,M,,*5A
$GPRMC,174228.500,A,4308.4415,N,07726.0752,W,22.90,72.50,020823,,,A*7E
$GPGGA,174228.750,4308.4420,N,07726.0727,W,1,04,1.86,170.6,M,-34.4,M,,*58
$GPRMC,174229.000,A,4308.4427,N,07726.0702,W,24.80,72.24,020823,,,A*7A
$GPGGA,174229.250,4308.4435,N,07726.0676,W,1,04,1.86,170.4,M,-34.4,M,,*5F
$GPRMC,174229.500,A,4308.4442,N,07726.0650,W,26.61,70.62,020823,,,A*77
$GPGGA,174229.750,4308.4449,N,07726.0623,W,1,04,1.86,170.3,M,-34.4,M,,*56
$GPRMC,174230.000,A,4308.4456,N,07726.0596,W,27.87,70.29,020823,,,A*70
$GPGGA,174230.250,4308.4464,N,07726.0568,W,1,04,1.86,170.2,M,-34.4,M,,*59
$GPRMC,174230.500,A,4308.4471,N,07726.0540,W,29.01,69.87,020823,,,A*77
$GPGGA,174230.750,4308.4478,N,07726.0512,W,1,04,1.86,170.2,M,-34.4,M,,*5C
$GPRMC,174231.000,A,4308.4486,N,07726.0483,W,29.75,69.94,020823,,,A*74
$GPGGA,174231.250,4308.4494,N,07726.0455,W,1,04,1.86,170.1,M,-34.4,M,,*5B
$GPRMC,174231.500,A,4308.4504,N,07726.0426,W,30.48,68.76,020823,,,A*7E
$GPGGA,174231.750,4308.4513,N,07726.0398,W,1,04,1.86,170.0,M,-34.4,M,,*57
$GPRMC,174232.000,A,4308.4525,N,07726.0369,W,31.45,67.11,020823,,,A*75
$GPGGA,174232.250,4308.4534,N,07726.0341,W,1,04,1.86,170.0,M,-34.4,M,,*50
$GPRMC,174232.500,A,4308.4543,N,07726.0313,W,31.57,66.72,020823,,,A*7A
$GPGGA,174232.750,4308.4552,N,07726.0285,W,1,04,1.86,169.8,M,-34.4,M,,*5C
$GPRMC,174233.000,A,4308.4561,N,07726.0256,W,32.08,66.41,020823,,,A*77
$GPGGA,174233.250,4308.4570,N,07726.0228,W,1,04,1.86,169.7,M,-34.4,M,,*50
$GPRMC,174233.500,A,4308.4579,N,07726.0199,W,32.64,66.45,020823,,,A*75
$GPGGA,174233.750,4308.4587,N,07726.0168,W,1,04,4.22,169.6,M,-34.4,M,,*50
$GPRMC,174234.000,A,4308.4595,N,07726.0138,W,33.19,66.70,020823,,,A*73
$GPGGA,174234.250,4308.4605,N,07726.0107,W,1,04,1.86,169.5,M,-34.4,M,,*5A
$GPRMC,174234.500,A,4308.4615,N,07726.0078,W,33.63,65.43,020823,,,A*76
$GPGGA,174234.750,4308.4625,N,07726.0048,W,1,04,4.22,169.4,M,-34.4,M,,*5D
$GPRMC,174235.000,A,4308.4636,N,07726.0018,W,34.51,64.14,020823,,,A*70
$GPGGA,174235.250,4308.4648,N,07725.9987,W,1,04,1.86,169.4,M,-34.4,M,,*59
$GPRMC,174235.500,A,4308.4660,N,07725.9957,W,35.87,59.97,020823,,,A*71
$GPGGA,174235.750,4308.4672,N,07725.9927,W,1,04,4.21,169.4,M,-34.4,M,,*57
$GPRMC,174236.000,A,4308.4684,N,07725.9898,W,35.92,56.27,020823,,,A*7F
$GPGGA,174236.250,4308.4697,N,07725.9869,W,1,04,1.86,169.3,M,-34.4,M,,*5E
$GPRMC,174236.500,A,4308.4711,N,07725.9840,W,36.03,52.82,020823,,,A*72
$GPGGA,174236.750,4308.4726,N,07725.9813,W,1,04,4.21,169.1,M,-34.4,M,,*57
$GPRMC,174237.000,A,4308.4741,N,07725.9786,W,36.03,50.73,020823,,,A*7A
$GPGGA,174237.250,4308.4756,N,07725.9758,W,1,04,1.86,169.0,M,-34.4,M,,*5D
$GPRMC,174237.500,A,4308.4773,N,07725.9732,W,36.14,48.56,020823,,,A*79
$GPGGA,174237.750,4308.4789,N,07725.9705,W,1,04,4.21,168.8,M,-34.4,M,,*53
$GPRMC,174238.000,A,4308.4805,N,07725.9679,W,36.35,48.08,020823,,,A*7B
$GPGGA,174238.250,4308.4822,N,07725.9652,W,1,04,1.86,168.6,M,-34.4,M,,*52
$GPRMC,174238.500,A,4308.4840,N,07725.9625,W,37.11,47.42,020823,,,A*70
$GPGGA,174238.750,4308.4857,N,07725.9597,W,1,04,1.86,168.4,M,-34.4,M,,*5D
$GPRMC,174239.000,A,4308.4875,N,07725.9569,W,38.28,46.80,020823,,,A*73
$GPGGA,174239.250,4308.4893,N,07725.9542,W,1,04,1.86,168.2,M,-34.4,M,,*5F
$GPRMC,174239.500,A,4308.4912,N,07725.9515,W,38.71,45.97,020823,,,A*74
$GPGGA,174239.750,4308.4930,N,07725.9487,W,1,04,1.86,168.0,M,-34.4,M,,*58
$GPRMC,174240.000,A,4308.4949,N,07725.9459,W,38.76,45.69,020823,,,A*7E
$GPGGA,174240.250,4308.4968,N,07725.9432,W,1,04,1.86,167.8,M,-34.4,M,,*57
$GPRMC,174240.500,A,4308.4987,N,07725.9403,W,39.09,45.57,020823,,,A*72
$GPGGA,174240.750,4308.5005,N,07725.9374,W,1,04,1.86,167.6,M,-34.4,M,,*5A
$GPRMC,174241.000,A,4308.5024,N,07725.9345,W,39.95,46.51,020823,,,A*72
$GPGGA,174241.250,4308.5042,N,07725.9317,W,1,04,1.86,167.3,M,-34.4,M,,*5D
$GPRMC,174241.500,A,4308.5061,N,07725.9288,W,40.93,47.06,020823,,,A*7D
$GPGGA,174241.750,4308.5081,N,07725.9260,W,1,04,1.86,167.1,M,-34.4,M,,*54
$GPRMC,174242.000,A,4308.5100,N,07725.9231,W,41.68,47.01,020823,,,A*7D
$GPGGA,174242.250,4308.5119,N,07725.9202,W,1,04,1.86,166.8,M,-34.4,M,,*5E
$GPRMC,174242.500,A,4308.5139,N,07725.9173,W,41.94,46.95,020823,,,A*78
$GPGGA,174242.750,4308.5158,N,07725.9144,W,1,04,4.20,166.6,M,-34.4,M,,*58
$GPRMC,174243.000,A,4308.5178,N,07725.9115,W,42.31,46.59,020823,,,A*75
$GPGGA,174243.250,4308.5199,N,07725.9085,W,1,04,1.86,166.4,M,-34.4,M,,*56
$GPRMC,174243.500,A,4308.5220,N,07725.9055,W,42.99,46.24,020823,,,A*73
$GPGGA,174243.750,4308.5241,N,07725.9025,W,1,04,4.20,166.2,M,-34.4,M,,*50
$GPRMC,174244.000,A,4308.5262,N,07725.8995,W,43.73,46.01,020823,,,A*71
$GPGGA,174244.250,4308.5284,N,07725.8966,W,1,04,4.20,166.1,M,-34.4,M,,*57
$GPRMC,174244.500,A,4308.5305,N,07725.8936,W,44.19,45.72,020823,,,A*71
$GPGGA,174244.750,4308.5327,N,07725.8907,W,1,04,4.21,165.9,M,-34.4,M,,*57
$GPRMC,174245.000,A,4308.5349,N,07725.8878,W,44.30,45.61,020823,,,A*7F
$GPGGA,174245.250,4308.5371,N,07725.8849,W,1,04,1.86,165.8,M,-34.4,M,,*52
$GPRMC,174245.500,A,4308.5393,N,07725.8820,W,44.34,44.82,020823,,,A*78
$GPGGA,174245.750,4308.5415,N,07725.8791,W,1,04,4.20,165.7,M,-34.4,M,,*5E
$GPRMC,174246.000,A,4308.5436,N,07725.8763,W,44.15,44.53,020823,,,A*71
$GPGGA,174246.250,4308.5457,N,07725.8734,W,1,04,4.20,165.6,M,-34.4,M,,*50
$GPRMC,174246.500,A,4308.5477,N,07725.8705,W,42.63,45.16,020823,,,A*76
$GPGGA,174246.750,4308.5497,N,07725.8677,W,1,04,4.20,165.5,M,-34.4,M,,*5C
$GPRMC,174247.000,A,4308.5516,N,07725.8648,W,41.74,45.92,020823,,,A*75
$GPGGA,174247.250,4308.5536,N,07725.8620,W,1,04,4.20,165.4,M,-34.4,M,,*51
$GPRMC,174247.500,A,4308.5555,N,07725.8592,W,41.01,46.40,020823,,,A*7D
$GPGGA,174247.750,4308.5574,N,07725.8564,W,1,04,4.20,165.3,M,-34.4,M,,*56
$GPRMC,174248.000,A,4308.5594,N,07725.8536,W,40.59,46.50,020823,,,A*79
$GPGGA,174248.250,4308.5613,N,07725.8508,W,1,04,1.86,165.1,M,-34.4,M,,*5F
$GPRMC,174248.500,A,4308.5632,N,07725.8480,W,40.04,46.43,020823,,,A*75
$GPGGA,174248.750,4308.5651,N,07725.8452,W,1,04,4.20,165.0,M,-34.4,M,,*5A
$GPRMC,174249.000,A,4308.5670,N,07725.8425,W,39.91,46.60,020823,,,A*7B
$GPGGA,174249.250,4308.5689,N,07725.8398,W,1,04,1.86,164.9,M,-34.4,M,,*5B
$GPRMC,174249.500,A,4308.5707,N,07725.8371,W,39.07,46.79,020823,,,A*7E
$GPGGA,174249.750,4308.5726,N,07725.8344,W,1,04,1.86,164.8,M,-34.4,M,,*5A
$GPRMC,174250.000,A,4308.5744,N,07725.8317,W,38.66,46.39,020823,,,A*76
$GPGGA,174250.250,4308.5763,N,07725.8291,W,1,04,1.86,164.7,M,-34.4,M,,*50
$GPRMC,174250.500,A,4308.5781,N,07725.8265,W,37.66,45.61,020823,,,A*7F
$GPGGA,174250.750,4308.5800,N,07725.8239,W,1,04,4.20,164.6,M,-34.4,M,,*55
$GPRMC,174251.000,A,4308.5818,N,07725.8213,W,37.34,45.22,020823,,,A*75
$GPGGA,174251.250,4308.5836,N,07725.8186,W,1,04,1.86,164.5,M,-34.4,M,,*59
$GPRMC,174251.500,A,4308.5853,N,07725.8160,W,36.98,46.11,020823,,,A*7C
$GPGGA,174251.750,4308.5870,N,07725.8133,W,1,04,4.20,164.4,M,-34.4,M,,*58
$GPRMC,174252.000,A,4308.5887,N,07725.8106,W,36.89,47.11,020823,,,A*72
$GPGGA,174252.250,4308.5904,N,07725.8080,W,1,04,1.86,164.2,M,-34.4,M,,*5A
$GPRMC,174252.500,A,4308.5921,N,07725.8055,W,36.60,47.36,020823,,,A*7F
$GPGGA,174252.750,4308.5939,N,07725.8030,W,1,04,4.20,164.1,M,-34.4,M,,*50
$GPRMC,174253.000,A,4308.5956,N,07725.8005,W,36.66,47.36,020823,,,A*78
$GPGGA,174253.250,4308.5973,N,07725.7980,W,1,04,1.86,163.9,M,-34.4,M,,*51
$GPRMC,174253.500,A,4308.5990,N,07725.7955,W,36.69,47.69,020823,,,A*71
$GPGGA,174253.750,4308.6007,N,07725.7929,W,1,04,1.86,163.7,M,-34.4,M,,*50
$GPRMC,174254.000,A,4308.6024,N,07725.7902,W,36.70,48.59,020823,,,A*70
$GPGGA,174254.250,4308.6039,N,07725.7875,W,1,04,1.86,163.5,M,-34.4,M,,*55
$GPRMC,174254.500,A,4308.6055,N,07725.7848,W,36.52,49.99,020823,,,A*71
$GPGGA,174254.750,4308.6071,N,07725.7821,W,1,04,4.20,163.4,M,-34.4,M,,*55
$GPRMC,174255.000,A,4308.6086,N,07725.7795,W,36.34,50.68,020823,,,A*72
$GPGGA,174255.250,4308.6101,N,07725.7768,W,1,04,4.19,163.4,M,-34.4,M,,*5F
$GPRMC,174255.500,A,4308.6116,N,07725.7739,W,36.19,52.64,020823,,,A*78
$GPGGA,174255.750,4308.6129,N,07725.7710,W,1,04,1.86,163.2,M,-34.4,M,,*5A
$GPRMC,174256.000,A,4308.6142,N,07725.7680,W,36.47,56.67,020823,,,A*70
$GPGGA,174256.250,4308.6154,N,07725.7649,W,1,04,1.86,163.1,M,-34.4,M,,*58
$GPRMC,174256.500,A,4308.6165,N,07725.7619,W,36.46,59.84,020823,,,A*73
$GPGGA,174256.750,4308.6176,N,07725.7588,W,1,04,1.86,163.0,M,-34.4,M,,*52
$GPRMC,174257.000,A,4308.6187,N,07725.7559,W,35.74,62.10,020823,,,A*7B
$GPGGA,174257.250,4308.6195,N,07725.7528,W,1,04,1.86,162.9,M,-34.4,M,,*59
$GPRMC,174257.500,A,4308.6201,N,07725.7497,W,35.58,67.75,020823,,,A*78
$GPGGA,174257.750,4308.6207,N,07725.7466,W,1,04,1.86,162.8,M,-34.4,M,,*5E
$GPRMC,174258.000,A,4308.6212,N,07725.7438,W,33.75,71.58,020823,,,A*74
$GPGGA,174258.250,4308.6217,N,07725.7409,W,1,04,1.86,162.7,M,-34.4,M,,*53
$GPRMC,174258.500,A,4308.6220,N,07725.7378,W,32.72,75.31,020823,,,A*7E
$GPGGA,174258.750,4308.6224,N,07725.7347,W,1,04,4.19,162.7,M,-34.4,M,,*58
$GPRMC,174259.000,A,4308.6228,N,07725.7316,W,32.68,77.84,020823,,,A*7D
$GPGGA,174259.250,4308.6231,N,07725.7283,W,1,04,1.86,162.7,M,-34.4,M,,*52
$GPRMC,174259.500,A,4308.6233,N,07725.7252,W,32.78,80.40,020823,,,A*72
$GPGGA,174259.750,4308.6235,N,07725.7220,W,1,04,1.86,162.7,M,-34.4,M,,*5A
$GPRMC,174300.000,A,4308.6236,N,07725.7188,W,32.84,83.65,020823,,,A*7C
$GPGGA,174300.250,4308.6237,N,07725.7155,W,1,04,4.19,162.7,M,-34.4,M,,*52
$GPRMC,174300.500,A,4308.6237,N,07725.7123,W,33.20,86.75,020823,,,A*72
$GPGGA,174300.750,4308.6237,N,07725.7089,W,1,04,4.19,162.7,M,-34.4,M,,*57
$GPRMC,174301.000,A,4308.6237,N,07725.7056,W,33.76,88.43,020823,,,A*7D
$GPGGA,174301.250,4308.6236,N,07725.7022,W,1,04,4.19,162.7,M,-34.4,M,,*53
$GPRMC,174301.500,A,4308.6235,N,07725.6989,W,34.12,90.61,020823,,,A*7C
$GPGGA,174301.750,4308.6235,N,07725.6955,W,1,04,4.19,162.6,M,-34.4,M,,*5C
$GPRMC,174302.000,A,4308.6234,N,07725.6922,W,34.31,91.21,020823,,,A*7E
$GPGGA,174302.250,4308.6233,N,07725.6889,W,1,04,1.86,162.7,M,-34.4,M,,*5E
$GPRMC,174302.500,A,4308.6232,N,07725.6856,W,34.23,90.97,020823,,,A*70
$GPGGA,174302.750,4308.6231,N,07725.6823,W,1,04,4.19,162.7,M,-34.4,M,,*5A
$GPRMC,174303.000,A,4308.6230,N,07725.6791,W,33.93,90.96,020823,,,A*7F
$GPGGA,174303.250,4308.6230,N,07725.6758,W,1,04,1.86,162.8,M,-34.4,M,,*50
$GPRMC,174303.500,A,4308.6229,N,07725.6726,W,33.95,90.69,020823,,,A*78
$GPGGA,174303.750,4308.6229,N,07725.6694,W,1,04,1.86,162.8,M,-34.4,M,,*5C
$GPRMC,174304.000,A,4308.6229,N,07725.6662,W,33.71,90.45,020823,,,A*7F
$GPGGA,174304.250,4308.6228,N,07725.6630,W,1,04,1.86,162.8,M,-34.4,M,,*51
$GPRMC,174304.500,A,4308.6228,N,07725.6599,W,33.23,90.61,020823,,,A*7D
$GPGGA,174304.750,4308.6228,N,07725.6567,W,1,04,1.86,162.8,M,-34.4,M,,*55
$GPRMC,174305.000,A,4308.6227,N,07725.6536,W,32.98,90.98,020823,,,A*74
$GPGGA,174305.250,4308.6227,N,07725.6504,W,1,04,1.86,162.8,M,-34.4,M,,*5B
$GPRMC,174305.500,A,4308.6226,N,07725.6473,W,32.71,91.81,020823,,,A*7E
$GPGGA,174305.750,4308.6226,N,07725.6442,W,1,04,1.86,162.8,M,-34.4,M,,*5C
$GPRMC,174306.000,A,4308.6225,N,07725.6411,W,32.58,92.21,020823,,,A*7D
$GPGGA,174306.250,4308.6226,N,07725.6381,W,1,04,1.86,162.8,M,-34.4,M,,*52
$GPRMC,174306.500,A,4308.6225,N,07725.6351,W,32.08,92.33,020823,,,A*7D
$GPGGA,174306.750,4308.6225,N,07725.6321,W,1,04,1.86,162.8,M,-34.4,M,,*5E
$GPRMC,174307.000,A,4308.6225,N,07725.6291,W,31.43,91.83,020823,,,A*70
$GPGGA,174307.250,4308.6225,N,07725.6262,W,1,04,1.86,162.9,M,-34.4,M,,*5D
$GPRMC,174307.500,A,4308.6225,N,07725.6235,W,30.48,91.23,020823,,,A*7B
$GPGGA,174307.750,4308.6226,N,07725.6207,W,1,04,1.86,162.9,M,-34.4,M,,*58
$GPRMC,174308.000,A,4308.6226,N,07725.6179,W,29.78,90.73,020823,,,A*76
$GPGGA,174308.250,4308.6226,N,07725.6152,W,1,04,1.86,163.0,M,-34.4,M,,*59
$GPRMC,174308.500,A,4308.6225,N,07725.6126,W,28.93,90.68,020823,,,A*74
$GPGGA,174308.750,4308.6225,N,07725.6100,W,1,04,1.86,163.0,M,-34.4,M,,*58
$GPRMC,174309.000,A,4308.6224,N,07725.6074,W,27.96,90.85,020823,,,A*7E
$GPGGA,174309.250,4308.6225,N,07725.6049,W,1,04,1.86,162.9,M,-34.4,M,,*58
$GPRMC,174309.500,A,4308.6225,N,07725.6026,W,26.35,90.43,020823,,,A*7F
$GPGGA,174309.750,4308.6225,N,07725.6005,W,1,04,1.86,162.9,M,-34.4,M,,*55
$GPRMC,174310.000,A,4308.6224,N,07725.5981,W,24.92,91.31,020823,,,A*7F
$GPGGA,174310.250,4308.6224,N,07725.5960,W,1,04,1.86,162.9,M,-34.4,M,,*50
$GPRMC,174310.500,A,4308.6224,N,07725.5939,W,23.33,92.35,020823,,,A*72
$GPGGA,174310.750,4308.6222,N,07725.5918,W,1,04,1.86,162.9,M,-34.4,M,,*5C
$GPRMC,174311.000,A,4308.6221,N,07725.5899,W,22.02,94.08,020823,,,A*73
$GPGGA,174311.250,4308.6220,N,07725.5883,W,1,04,1.86,162.8,M,-34.4,M,,*58
$GPRMC,174311.500,A,4308.6219,N,07725.5865,W,20.29,95.69,020823,,,A*73
$GPGGA,174311.750,4308.6216,N,07725.5849,W,1,04,1.86,162.9,M,-34.4,M,,*5F
$GPRMC,174312.000,A,4308.6214,N,07725.5835,W,18.32,98.68,020823,,,A*70
$GPGGA,174312.250,4308.6210,N,07725.5825,W,1,04,1.86,162.9,M,-34.4,M,,*55
$GPRMC,174312.500,A,4308.6205,N,07725.5812,W,16.16,104.90,020823,,,A*4B
$GPGGA,174312.750,4308.6202,N,07725.5800,W,1,04,1.86,163.0,M,-34.4,M,,*5C
$GPRMC,174313.000,A,4308.6199,N,07725.5788,W,14.98,106.77,020823,,,A*4A
$GPGGA,174313.250,4308.6196,N,07725.5780,W,1,04,1.86,163.0,M,-34.4,M,,*51
$GPRMC,174313.500,A,4308.6192,N,07725.5770,W,13.33,111.50,020823,,,A*46
$GPGGA,174313.750,4308.6188,N,07725.5767,W,1,04,1.86,163.1,M,-34.4,M,,*53
$GPRMC,174314.000,A,4308.6184,N,07725.5762,W,10.99,122.48,020823,,,A*4A
$GPGGA,174314.250,4308.6177,N,07725.5753,W,1,04,1.86,163.2,M,-34.4,M,,*55
$GPRMC,174314.500,A,4308.6172,N,07725.5746,W,10.09,130.80,020823,,,A*4E
$GPGGA,174314.750,4308.6168,N,07725.5742,W,1,04,1.86,163.2,M,-34.4,M,,*5E
$GPRMC,174315.000,A,4308.6163,N,07725.5737,W,9.28,139.03,020823,,,A*75
$GPGGA,174315.250,4308.6157,N,07725.5732,W,1,04,1.86,163.3,M,-34.4,M,,*50
$GPRMC,174315.500,A,4308.6149,N,07725.5727,W,9.84,148.98,020823,,,A*7B
$GPGGA,174315.750,4308.6141,N,07725.5721,W,1,04,4.17,163.4,M,-34.4,M,,*5A
$GPRMC,174316.000,A,4308.6132,N,07725.5716,W,10.79,154.26,020823,,,A*41
$GPGGA,174316.250,4308.6124,N,07725.5712,W,1,04,1.86,163.5,M,-34.4,M,,*53
$GPRMC,174316.500,A,4308.6116,N,07725.5709,W,10.86,158.15,020823,,,A*40
$GPGGA,174316.750,4308.6108,N,07725.5706,W,1,04,1.86,163.6,M,-34.4,M,,*5E
$GPRMC,174317.000,A,4308.6100,N,07725.5703,W,10.95,162.21,020823,,,A*45
$GPGGA,174317.250,4308.6090,N,07725.5701,W,1,04,1.86,163.6,M,-34.4,M,,*5D
$GPRMC,174317.500,A,4308.6076,N,07725.5702,W,13.21,170.46,020823,,,A*4F
$GPGGA,174317.750,4308.6063,N,07725.5703,W,1,04,1.86,163.8,M,-34.4,M,,*58
$GPRMC,174318.000,A,4308.6052,N,07725.5703,W,14.07,176.31,020823,,,A*47
$GPGGA,174318.250,4308.6040,N,07725.5704,W,1,04,1.86,164.0,M,-34.4,M,,*5B
$GPRMC,174318.500,A,4308.6029,N,07725.5706,W,14.59,180.94,020823,,,A*46
$GPGGA,174318.750,4308.6017,N,07725.5707,W,1,04,4.17,164.2,M,-34.4,M,,*50
$GPRMC,174319.000,A,4308.6005,N,07725.5708,W,15.13,183.16,020823,,,A*44
$GPGGA,174319.250,4308.5993,N,07725.5710,W,1,04,1.86,164.4,M,-34.4,M,,*5F
$GPRMC,174319.500,A,4308.5980,N,07725.5712,W,16.04,184.84,020823,,,A*44
$GPGGA,174319.750,4308.5967,N,07725.5714,W,1,04,4.17,164.5,M,-34.4,M,,*59
$GPRMC,174320.000,A,4308.5954,N,07725.5716,W,17.02,184.91,020823,,,A*45
$GPGGA,174320.250,4308.5940,N,07725.5717,W,1,04,1.86,164.7,M,-34.4,M,,*5F
$GPRMC,174320.500,A,4308.5927,N,07725.5719,W,18.02,184.24,020823,,,A*4A
$GPGGA,174320.750,4308.5913,N,07725.5720,W,1,04,1.86,164.8,M,-34.4,M,,*57
$GPRMC,174321.000,A,4308.5899,N,07725.5721,W,18.59,183.56,020823,,,A*4D
$GPGGA,174321.250,4308.5886,N,07725.5722,W,1,04,1.86,164.8,M,-34.4,M,,*5C
$GPRMC,174321.500,A,4308.5871,N,07725.5723,W,19.10,183.02,020823,,,A*41
$GPGGA,174321.750,4308.5856,N,07725.5724,W,1,04,1.86,164.9,M,-34.4,M,,*53
$GPRMC,174322.000,A,4308.5841,N,07725.5725,W,19.71,183.05,020823,,,A*42
$GPGGA,174322.250,4308.5825,N,07725.5727,W,1,04,1.86,165.1,M,-34.4,M,,*5B
$GPRMC,174322.500,A,4308.5809,N,07725.5728,W,20.67,183.04,020823,,,A*4A
$GPGGA,174322.750,4308.5793,N,07725.5729,W,1,04,4.17,165.3,M,-34.4,M,,*5D
$GPRMC,174323.000,A,4308.5778,N,07725.5730,W,20.90,183.18,020823,,,A*4B
$GPGGA,174323.250,4308.5762,N,07725.5731,W,1,04,1.86,165.4,M,-34.4,M,,*54
$GPRMC,174323.500,A,4308.5746,N,07725.5732,W,21.13,183.76,020823,,,A*43
$GPGGA,174323.750,4308.5730,N,07725.5733,W,1,04,4.17,165.4,M,-34.4,M,,*59
$GPRMC,174324.000,A,4308.5714,N,07725.5734,W,21.46,183.37,020823,,,A*45
$GPGGA,174324.250,4308.5698,N,07725.5736,W,1,04,1.86,165.5,M,-34.4,M,,*51
$GPRMC,174324.500,A,4308.5680,N,07725.5737,W,22.10,183.92,020823,,,A*40
$GPGGA,174324.750,4308.5661,N,07725.5740,W,1,04,1.86,165.7,M,-34.4,M,,*51
$GPRMC,174325.000,A,4308.5642,N,07725.5741,W,23.08,184.35,020823,,,A*49
$GPGGA,174325.250,4308.5623,N,07725.5743,W,1,04,1.86,165.8,M,-34.4,M,,*5F
$GPRMC,174325.500,A,4308.5604,N,07725.5745,W,23.87,184.70,020823,,,A*4C
$GPGGA,174325.750,4308.5585,N,07725.5747,W,1,04,1.86,166.0,M,-34.4,M,,*5A
$GPRMC,174326.000,A,4308.5567,N,07725.5748,W,23.98,184.82,020823,,,A*42
$GPGGA,174326.250,4308.5548,N,07725.5750,W,1,04,1.86,166.1,M,-34.4,M,,*5A
$GPRMC,174326.500,A,4308.5528,N,07725.5749,W,24.77,183.63,020823,,,A*43
$GPGGA,174326.750,4308.5507,N,07725.5749,W,1,04,4.16,166.2,M,-34.4,M,,*53
$GPRMC,174327.000,A,4308.5487,N,07725.5750,W,25.71,183.21,020823,,,A*4A
$GPGGA,174327.250,4308.5467,N,07725.5751,W,1,04,1.86,166.3,M,-34.4,M,,*54
$GPRMC,174327.500,A,4308.5446,N,07725.5753,W,26.71,183.72,020823,,,A*44
$GPGGA,174327.750,4308.5424,N,07725.5754,W,1,04,1.86,166.4,M,-34.4,M,,*54
$GPRMC,174328.000,A,4308.5403,N,07725.5756,W,27.97,183.86,020823,,,A*48
$GPGGA,174328.250,4308.5381,N,07725.5758,W,1,04,1.86,166.4,M,-34.4,M,,*5A
$GPRMC,174328.500,A,4308.5359,N,07725.5760,W,28.98,184.69,020823,,,A*46
$GPGGA,174328.750,4308.5337,N,07725.5762,W,1,04,1.86,166.5,M,-34.4,M,,*5A
$GPRMC,174329.000,A,4308.5315,N,07725.5764,W,29.24,184.69,020823,,,A*48
$GPGGA,174329.250,4308.5293,N,07725.5765,W,1,04,1.86,166.5,M,-34.4,M,,*56
$GPRMC,174329.500,A,4308.5271,N,07725.5767,W,29.98,184.02,020823,,,A*47
$GPGGA,174329.750,4308.5248,N,07725.5769,W,1,04,1.86,166.5,M,-34.4,M,,*59
$GPRMC,174330.000,A,4308.5225,N,07725.5771,W,30.93,184.02,020823,,,A*4F
$GPGGA,174330.250,4308.5202,N,07725.5773,W,1,04,1.86,166.6,M,-34.4,M,,*52
$GPRMC,174330.500,A,4308.5178,N,07725.5774,W,31.88,183.93,020823,,,A*40
$GPGGA,174330.750,4308.5153,N,07725.5776,W,1,04,1.86,166.6,M,-34.4,M,,*55
$GPRMC,174331.000,A,4308.5127,N,07725.5777,W,32.40,184.07,020823,,,A*40
$GPGGA,174331.250,4308.5103,N,07725.5779,W,1,04,1.86,166.6,M,-34.4,M,,*5B
$GPRMC,174331.500,A,4308.5079,N,07725.5781,W,32.65,183.91,020823,,,A*49
$GPGGA,174331.750,4308.5055,N,07725.5782,W,1,04,1.86,166.5,M,-34.4,M,,*5B
$GPRMC,174332.000,A,4308.5031,N,07725.5783,W,32.88,183.43,020823,,,A*4D
$GPGGA,174332.250,4308.5006,N,07725.5784,W,1,04,1.86,166.5,M,-34.4,M,,*5D
$GPRMC,174332.500,A,4308.4980,N,07725.5785,W,34.65,182.79,020823,,,A*41
$GPGGA,174332.750,4308.4954,N,07725.5785,W,1,04,1.86,166.5,M,-34.4,M,,*56
$GPRMC,174333.000,A,4308.4928,N,07725.5785,W,35.32,181.92,020823,,,A*42
$GPGGA,174333.250,4308.4903,N,07725.5784,W,1,04,1.86,166.4,M,-34.4,M,,*50
$GPRMC,174333.500,A,4308.4877,N,07725.5784,W,35.75,181.10,020823,,,A*44
$GPGGA,174333.750,4308.4851,N,07725.5782,W,1,04,1.86,166.4,M,-34.4,M,,*55
$GPRMC,174334.000,A,4308.4824,N,07725.5782,W,36.06,180.55,020823,,,A*41
$GPGGA,174334.250,4308.4798,N,07725.5782,W,1,04,1.86,166.4,M,-34.4,M,,*5D
$GPRMC,174334.500,A,4308.4771,N,07725.5783,W,36.38,180.67,020823,,,A*46
$GPGGA,174334.750,4308.4745,N,07725.5784,W,1,04,1.86,166.4,M,-34.4,M,,*5E
$GPRMC,174335.000,A,4308.4718,N,07725.5785,W,36.64,181.01,020823,,,A*43
$GPGGA,174335.250,4308.4691,N,07725.5785,W,1,04,1.86,166.3,M,-34.4,M,,*54
$GPRMC,174335.500,A,4308.4664,N,07725.5786,W,36.81,180.84,020823,,,A*48
$GPGGA,174335.750,4308.4637,N,07725.5787,W,1,04,1.86,166.3,M,-34.4,M,,*5F
$GPRMC,174336.000,A,4308.4611,N,07725.5788,W,36.86,180.89,020823,,,A*48
$GPGGA,174336.250,4308.4584,N,07725.5788,W,1,04,1.86,166.2,M,-34.4,M,,*5C
$GPRMC,174336.500,A,4308.4557,N,07725.5789,W,37.26,181.02,020823,,,A*44
$GPGGA,174336.750,4308.4529,N,07725.5790,W,1,04,1.86,166.2,M,-34.4,M,,*57
$GPRMC,174337.000,A,4308.4500,N,07725.5790,W,37.58,181.07,020823,,,A*46
$GPGGA,174337.250,4308.4472,N,07725.5790,W,1,04,1.86,166.1,M,-34.4,M,,*5F
$GPRMC,174337.500,A,4308.4444,N,07725.5790,W,37.65,180.55,020823,,,A*4A
$GPGGA,174337.750,4308.4415,N,07725.5790,W,1,04,1.86,166.1,M,-34.4,M,,*5B
$GPRMC,174338.000,A,4308.4386,N,07725.5790,W,37.78,180.40,020823,,,A*41
$GPGGA,174336.250,4308.4357,N,07725.5791,W,1,04,1.86,166.0,M,-34.4,M,,*5E
$GPRMC,174336.500,A,4308.4327,N,07725.5791,W,39.05,180.54,020823,,,A*41
$GPGGA,174336.750,4308.4297,N,07725.5791,W,1,04,1.86,166.0,M,-34.4,M,,*56
$GPRMC,174337.000,A,4308.4267,N,07725.5792,W,40.40,180.70,020823,,,A*4A
$GPGGA,174337.250,4308.4237,N,07725.5793,W,1,04,1.86,166.0,M,-34.4,M,,*5A
$GPRMC,174337.500,A,4308.4207,N,07725.5794,W,41.96,180.91,020823,,,A*4A
$GPGGA,174337.750,4308.4178,N,07725.5796,W,1,04,1.86,165.9,M,-34.4,M,,*58
$GPRMC,174338.000,A,4308.4148,N,07725.5798,W,42.34,181.25,020823,,,A*41
$GPGGA,174338.250,4308.4118,N,07725.5799,W,1,04,1.86,165.9,M,-34.4,M,,*5B
$GPRMC,174338.500,A,4308.4087,N,07725.5800,W,42.95,181.37,020823,,,A*40
$GPGGA,174338.750,4308.4055,N,07725.5800,W,1,04,1.86,165.9,M,-34.4,M,,*59
$GPRMC,174339.000,A,4308.4024,N,07725.5801,W,43.27,181.22,020823,,,A*40
$GPGGA,174339.250,4308.3993,N,07725.5803,W,1,04,1.86,165.8,M,-34.4,M,,*5B
$GPRMC,174339.500,A,4308.3963,N,07725.5805,W,43.50,181.35,020823,,,A*4A
$GPGGA,174339.750,4308.3932,N,07725.5807,W,1,04,1.86,165.7,M,-34.4,M,,*5E
$GPRMC,174340.000,A,4308.3901,N,07725.5809,W,43.97,181.55,020823,,,A*44
$GPGGA,174340.250,4308.3870,N,07725.5812,W,1,04,1.86,165.7,M,-34.4,M,,*56
$GPRMC,174340.500,A,4308.3838,N,07725.5814,W,45.16,182.06,020823,,,A*4C
$GPGGA,174340.750,4308.3806,N,07725.5814,W,1,04,1.86,165.7,M,-34.4,M,,*54
$GPRMC,174341.000,A,4308.3773,N,07725.5816,W,46.13,181.99,020823,,,A*49
$GPGGA,174341.250,4308.3741,N,07725.5819,W,1,04,1.86,165.6,M,-34.4,M,,*50
$GPRMC,174341.500,A,4308.3709,N,07725.5821,W,46.91,182.01,020823,,,A*4D
$GPGGA,174341.750,4308.3677,N,07725.5821,W,1,04,1.86,165.6,M,-34.4,M,,*5A
$GPRMC,174342.000,A,4308.3644,N,07725.5821,W,46.35,181.53,020823,,,A*49
$GPGGA,174342.250,4308.3612,N,07725.5821,W,1,04,1.86,165.6,M,-34.3,M,,*58
$GPRMC,174342.500,A,4308.3581,N,07725.5820,W,46.09,180.93,020823,,,A*45
$GPGGA,174342.750,4308.3550,N,07725.5821,W,1,04,1.86,165.6,M,-34.3,M,,*58
$GPRMC,174343.000,A,4308.3518,N,07725.5822,W,46.04,181.32,020823,,,A*44
$GPGGA,174343.250,4308.3486,N,07725.5824,W,1,04,1.86,165.6,M,-34.3,M,,*53
$GPRMC,174343.500,A,4308.3454,N,07725.5825,W,46.46,181.67,020823,,,A*49
$GPGGA,174343.750,4308.3422,N,07725.5827,W,1,04,1.86,165.7,M,-34.3,M,,*5A
$GPRMC,174344.000,A,4308.3391,N,07725.5830,W,47.15,182.19,020823,,,A*4C
$GPGGA,174344.250,4308.3360,N,07725.5833,W,1,04,1.86,165.7,M,-34.3,M,,*5C
$GPRMC,174344.500,A,4308.3329,N,07725.5838,W,47.41,183.16,020823,,,A*4D
$GPGGA,174344.750,4308.3298,N,07725.5842,W,1,04,1.86,165.7,M,-34.3,M,,*59
$GPRMC,174345.000,A,4308.3265,N,07725.5845,W,47.44,183.34,020823,,,A*4F
$GPGGA,174345.250,4308.3234,N,07725.5848,W,1,04,1.86,165.8,M,-34.3,M,,*5E
$GPRMC,174345.500,A,4308.3204,N,07725.5850,W,47.37,183.15,020823,,,A*4E
$GPGGA,174345.750,4308.3174,N,07725.5852,W,1,04,1.86,165.9,M,-34.3,M,,*56
$GPRMC,174346.000,A,4308.3143,N,07725.5853,W,47.71,182.91,020823,,,A*44
$GPGGA,174346.250,4308.3112,N,07725.5854,W,1,04,1.86,166.1,M,-34.3,M,,*5D
$GPRMC,174346.500,A,4308.3080,N,07725.5856,W,47.66,182.70,020823,,,A*43
$GPGGA,174346.750,4308.3049,N,07725.5856,W,1,04,1.86,166.2,M,-34.3,M,,*56
$GPRMC,174347.000,A,4308.3016,N,07725.5858,W,48.47,182.59,020823,,,A*41
$GPGGA,174347.250,4308.2985,N,07725.5863,W,1,04,1.86,166.4,M,-34.3,M,,*5A
$GPRMC,174347.500,A,4308.2954,N,07725.5868,W,48.48,184.79,020823,,,A*42
$GPGGA,174347.750,4308.2925,N,07725.5871,W,1,04,1.86,166.6,M,-34.3,M,,*54
$GPRMC,174348.000,A,4308.2893,N,07725.5873,W,48.21,184.62,020823,,,A*4D
$GPGGA,174348.250,4308.2864,N,07725.5875,W,1,04,1.86,166.7,M,-34.3,M,,*5F
$GPRMC,174348.500,A,4308.2834,N,07725.5876,W,48.14,183.98,020823,,,A*44
$GPGGA,174348.750,4308.2803,N,07725.5876,W,1,04,1.86,167.0,M,-34.3,M,,*5E
$GPRMC,174349.000,A,4308.2771,N,07725.5876,W,47.70,183.44,020823,,,A*42
$GPGGA,174349.250,4308.2739,N,07725.5874,W,1,04,1.86,167.2,M,-34.3,M,,*5C
$GPRMC,174349.500,A,4308.2707,N,07725.5871,W,46.89,182.54,020823,,,A*46
$GPGGA,174349.750,4308.2676,N,07725.5870,W,1,04,4.14,167.4,M,-34.3,M,,*5F
$GPRMC,174350.000,A,4308.2644,N,07725.5869,W,45.99,181.63,020823,,,A*41
$GPGGA,174350.250,4308.2612,N,07725.5868,W,1,04,4.14,167.7,M,-34.3,M,,*5A
$GPRMC,174350.500,A,4308.2581,N,07725.5867,W,45.35,181.20,020823,,,A*41
$GPGGA,174350.750,4308.2549,N,07725.5867,W,1,04,1.86,167.9,M,-34.3,M,,*5D
$GPRMC,174351.000,A,4308.2518,N,07725.5867,W,45.36,181.39,020823,,,A*4E
$GPGGA,174351.250,4308.2487,N,07725.5867,W,1,04,1.86,168.2,M,-34.3,M,,*5E
$GPRMC,174351.500,A,4308.2456,N,07725.5867,W,45.19,181.78,020823,,,A*48
$GPGGA,174351.750,4308.2424,N,07725.5866,W,1,04,1.86,168.5,M,-34.3,M,,*54
$GPRMC,174352.000,A,4308.2393,N,07725.5867,W,46.15,181.84,020823,,,A*4C
$GPGGA,174352.250,4308.2362,N,07725.5868,W,1,04,1.86,168.8,M,-34.3,M,,*54
$GPRMC,174352.500,A,4308.2331,N,07725.5868,W,45.60,182.06,020823,,,A*46
$GPGGA,174352.750,4308.2300,N,07725.5869,W,1,04,1.86,169.1,M,-34.3,M,,*5C
$GPRMC,174353.000,A,4308.2268,N,07725.5869,W,45.65,182.16,020823,,,A*4A
$GPGGA,174353.250,4308.2237,N,07725.5870,W,1,04,1.86,169.4,M,-34.3,M,,*50
$GPRMC,174353.500,A,4308.2205,N,07725.5871,W,46.09,182.30,020823,,,A*40
$GPGGA,174353.750,4308.2174,N,07725.5872,W,1,04,1.86,169.7,M,-34.3,M,,*50
$GPRMC,174354.000,A,4308.2142,N,07725.5874,W,46.73,182.66,020823,,,A*49
$GPGGA,174354.250,4308.2110,N,07725.5875,W,1,04,1.86,170.0,M,-34.3,M,,*58
$GPRMC,174354.500,A,4308.2078,N,07725.5877,W,47.83,183.27,020823,,,A*4D
$GPGGA,174354.750,4308.2045,N,07725.5878,W,1,04,1.86,170.1,M,-34.3,M,,*50
$GPRMC,174355.000,A,4308.2012,N,07725.5878,W,48.31,182.74,020823,,,A*4B
$GPGGA,174355.250,4308.1979,N,07725.5878,W,1,04,1.86,170.4,M,-34.3,M,,*54
$GPRMC,174355.500,A,4308.1946,N,07725.5877,W,47.93,181.96,020823,,,A*42
$GPGGA,174355.750,4308.1914,N,07725.5875,W,1,04,1.86,170.7,M,-34.3,M,,*54
$GPRMC,174356.000,A,4308.1882,N,07725.5874,W,47.00,181.08,020823,,,A*43
$GPGGA,174356.250,4308.1851,N,07725.5873,W,1,04,1.86,171.0,M,-34.3,M,,*52
$GPRMC,174356.500,A,4308.1819,N,07725.5872,W,46.42,180.94,020823,,,A*41
$GPGGA,174356.750,4308.1786,N,07725.5872,W,1,04,4.13,171.3,M,-34.3,M,,*59
$GPRMC,174357.000,A,4308.1754,N,07725.5872,W,46.26,181.01,020823,,,A*4C
$GPGGA,174357.250,4308.1721,N,07725.5872,W,1,04,1.86,171.7,M,-34.3,M,,*5D
$GPRMC,174357.500,A,4308.1689,N,07725.5873,W,47.74,181.39,020823,,,A*44
$GPGGA,174357.750,4308.1656,N,07725.5873,W,1,04,1.86,172.0,M,-34.3,M,,*5C
$GPRMC,174358.000,A,4308.1622,N,07725.5870,W,48.82,180.85,020823,,,A*4C
$GPGGA,174358.250,4308.1589,N,07725.5868,W,1,04,1.86,172.1,M,-34.3,M,,*5C
$GPRMC,174358.500,A,4308.1555,N,07725.5868,W,48.74,180.83,020823,,,A*4C
$GPGGA,174358.750,4308.1522,N,07725.5869,W,1,04,4.13,172.4,M,-34.3,M,,*55
$GPRMC,174359.000,A,4308.1489,N,07725.5869,W,48.17,181.19,020823,,,A*4E
$GPGGA,174359.250,4308.1455,N,07725.5870,W,1,04,1.86,172.8,M,-34.3,M,,*5D
$GPRMC,174359.500,A,4308.1422,N,07725.5871,W,47.39,181.65,020823,,,A*4B
$GPGGA,174359.750,4308.1389,N,07725.5872,W,1,04,1.86,173.1,M,-34.3,M,,*54
$GPRMC,174400.000,A,4308.1356,N,07725.5871,W,47.16,181.45,020823,,,A*4E
$GPGGA,174400.250,4308.1323,N,07725.5871,W,1,04,1.86,173.3,M,-34.3,M,,*5B
$GPRMC,174400.500,A,4308.1289,N,07725.5869,W,48.18,180.48,020823,,,A*4C
$GPGGA,174400.750,4308.1255,N,07725.5869,W,1,04,4.13,173.5,M,-34.3,M,,*58
$GPRMC,174401.000,A,4308.1221,N,07725.5869,W,49.09,180.58,020823,,,A*4A
$GPGGA,174401.250,4308.1188,N,07725.5870,W,1,04,1.86,173.8,M,-34.3,M,,*53
$GPRMC,174401.500,A,4308.1154,N,07725.5871,W,49.81,180.80,020823,,,A*42
$GPGGA,174401.750,4308.1120,N,07725.5872,W,1,04,1.86,174.0,M,-34.3,M,,*59
$GPRMC,174402.000,A,4308.1087,N,07725.5873,W,50.07,181.08,020823,,,A*4E
$GPGGA,174402.250,4308.1054,N,07725.5875,W,1,04,1.86,174.2,M,-34.3,M,,*58
$GPRMC,174402.500,A,4308.1020,N,07725.5877,W,50.32,181.31,020823,,,A*4E
$GPGGA,174402.750,4308.0985,N,07725.5876,W,1,04,1.87,174.4,M,-34.3,M,,*5D
$GPRMC,174403.000,A,4308.0950,N,07725.5875,W,50.56,180.34,020823,,,A*41
$GPGGA,174403.250,4308.0916,N,07725.5873,W,1,04,1.86,174.6,M,-34.3,M,,*55
$GPRMC,174403.500,A,4308.0881,N,07725.5872,W,50.81,179.24,020823,,,A*43
$GPGGA,174403.750,4308.0848,N,07725.5871,W,1,04,1.86,175.0,M,-34.3,M,,*5F
$GPRMC,174404.000,A,4308.0813,N,07725.5872,W,50.56,179.14,020823,,,A*43
$GPGGA,174404.250,4308.0781,N,07725.5873,W,1,04,1.86,175.1,M,-34.3,M,,*54
$GPRMC,174404.500,A,4308.0748,N,07725.5874,W,49.21,179.50,020823,,,A*49
$GPGGA,174404.750,4308.0715,N,07725.5875,W,1,04,1.86,175.5,M,-34.3,M,,*5E
$GPRMC,174405.000,A,4308.0683,N,07725.5875,W,48.19,179.38,020823,,,A*4E
$GPGGA,174405.250,4308.0652,N,07725.5875,W,1,04,1.86,175.8,M,-34.3,M,,*55
$GPRMC,174405.500,A,4308.0621,N,07725.5879,W,47.99,180.13,020823,,,A*47
$GPGGA,174405.750,4308.0590,N,07725.5883,W,1,04,4.12,175.9,M,-34.3,M,,*5D
$GPRMC,174406.000,A,4308.0558,N,07725.5885,W,48.46,180.88,020823,,,A*40
$GPGGA,174406.250,4308.0525,N,07725.5885,W,1,04,1.86,176.2,M,-34.3,M,,*53
$GPRMC,174406.500,A,4308.0492,N,07725.5885,W,48.65,180.21,020823,,,A*40
$GPGGA,174406.750,4308.0461,N,07725.5887,W,1,04,4.12,176.5,M,-34.3,M,,*5A
$GPGGA,174407.250,4308.0395,N,07725.5889,W,1,04,1.86,176.6,M,-34.3,M,,*57
$GPRMC,174407.250,A,4308.0395,N,07725.5889,W,49.19,180.56,02082,,,A*45
$GPGGA,174407.500,4308.0362,N,07725.5889,W,1,04,4.13,176.8,M,-34.3,M,,*5A
$GPRMC,174407.500,A,4308.0362,N,07725.5889,W,49.38,180.30,02082,,,A*4C
$GPGGA,174407.750,4308.0328,N,07725.5889,W,1,04,4.12,177.0,M,-34.3,M,,*5B
$GPRMC,174407.750,A,4308.0328,N,07725.5889,W,49.71,180.04,02082,,,A*4F
$GPGGA,174408.000,4308.0295,N,07725.5888,W,1,04,1.86,177.2,M,-34.3,M,,*5A
$GPRMC,174408.000,A,4308.0295,N,07725.5888,W,49.88,180.02,020823,,,A*44
$GPGGA,174408.250,4308.0261,N,07725.5888,W,1,04,1.86,177.4,M,-34.3,M,,*50
$GPRMC,174408.250,A,4308.0261,N,07725.5888,W,49.89,180.12,02082,,,A*48
$GPGGA,174408.500,4308.0227,N,07725.5888,W,1,04,1.86,177.6,M,-34.3,M,,*52
$GPRMC,174408.500,A,4308.0227,N,07725.5888,W,49.94,179.93,020823,,,A*4B
$GPGGA,174408.750,4308.0193,N,07725.5888,W,1,04,1.86,177.5,M,-34.3,M,,*5A
$GPRMC,174408.750,A,4308.0193,N,07725.5888,W,50.01,179.95,02082,,,A*42
$GPGGA,174409.000,4308.0159,N,07725.5888,W,1,04,1.86,177.7,M,-34.3,M,,*5D
$GPRMC,174409.000,A,4308.0159,N,07725.5888,W,49.97,179.85,02082$GPGGA,174409.250,4308.0125,N,07725.5888,W,1,04,1.86,178.0,M,-34.3,M,,*59
$GPRMC,174409.500,A,4308.0092,N,07725.5887,W,49.30,179.38,020823,,,A*46
$GPGGA,174409.750,4308.0061,N,07725.5887,W,1,04,1.86,178.3,M,-34.3,M,,*51
$GPRMC,174410.000,A,4308.0029,N,07725.5886,W,49.04,178.88,020823,,,A*47
$GPGGA,174410.250,4307.9998,N,07725.5887,W,1,04,1.86,178.7,M,-34.3,M,,*51
$GPRMC,174410.500,A,4307.9969,N,07725.5889,W,48.84,179.32,020823,,,A*4F
$GPGGA,174410.750,4307.9943,N,07725.5893,W,1,04,4.12,179.0,M,-34.3,M,,*59
$GPRMC,174411.000,A,4307.9915,N,07725.5898,W,48.15,180.77,020823,,,A*4F
$GPGGA,174411.250,4307.9888,N,07725.5903,W,1,04,1.87,179.0,M,-34.3,M,,*5A
$GPRMC,174411.500,A,4307.9856,N,07725.5906,W,42.45,182.09,020823,,,A*4E
$GPGGA,174411.750,4307.9828,N,07725.5908,W,1,04,1.86,179.3,M,-34.3,M,,*5C
$GPRMC,174412.000,A,4307.9801,N,07725.5911,W,42.01,182.02,020823,,,A*47
$GPGGA,174412.250,4307.9773,N,07725.5913,W,1,04,1.86,179.5,M,-34.3,M,,*57
$GPRMC,174412.500,A,4307.9745,N,07725.5915,W,42.31,182.41,020823,,,A*4D
$GPGGA,174412.750,4307.9717,N,07725.5917,W,1,04,4.12,179.6,M,-34.3,M,,*5F
$GPRMC,174413.000,A,4307.9690,N,07725.5920,W,42.37,182.89,020823,,,A*44
$GPGGA,174413.250,4307.9662,N,07725.5923,W,1,04,1.87,179.7,M,-34.3,M,,*57
$GPRMC,174413.500,A,4307.9635,N,07725.5925,W,41.96,182.92,020823,,,A*49
$GPGGA,174413.750,4307.9609,N,07725.5926,W,1,04,4.12,179.9,M,-34.3,M,,*5D
$GPRMC,174414.000,A,4307.9583,N,07725.5928,W,41.67,182.58,020823,,,A*40
$GPGGA,174414.250,4307.9556,N,07725.5930,W,1,04,1.86,180.0,M,-34.3,M,,*56
$GPRMC,174414.500,A,4307.9529,N,07725.5931,W,41.56,182.78,020823,,,A*4D
$GPGGA,174414.750,4307.9501,N,07725.5933,W,1,04,4.12,180.1,M,-34.3,M,,*5B
$GPRMC,174415.000,A,4307.9474,N,07725.5935,W,41.21,183.03,020823,,,A*49
$GPGGA,174415.250,4307.9448,N,07725.5938,W,1,04,1.86,180.2,M,-34.3,M,,*53
$GPRMC,174415.500,A,4307.9421,N,07725.5938,W,40.84,182.41,020823,,,A*48
$GPGGA,174415.750,4307.9394,N,07725.5939,W,1,04,4.11,180.3,M,-34.3,M,,*5B
$GPRMC,174416.000,A,4307.9366,N,07725.5940,W,40.89,181.74,020823,,,A*4D
$GPGGA,174416.250,4307.9339,N,07725.5942,W,1,04,4.11,180.5,M,-34.3,M,,*50
$GPRMC,174416.500,A,4307.9312,N,07725.5943,W,41.18,181.85,020823,,,A*4F
$GPGGA,174416.750,4307.9284,N,07725.5944,W,1,04,1.86,180.6,M,-34.3,M,,*5C
$GPRMC,174417.000,A,4307.9256,N,07725.5945,W,41.25,181.72,020823,,,A*4A
$GPGGA,174417.250,4307.9228,N,07725.5945,W,1,04,1.86,180.8,M,-34.3,M,,*51
$GPRMC,174417.500,A,4307.9201,N,07725.5946,W,41.20,181.12,020823,,,A*4D
$GPGGA,174417.750,4307.9173,N,07725.5946,W,1,04,4.11,181.0,M,-34.3,M,,*58
$GPRMC,174418.000,A,4307.9145,N,07725.5946,W,40.73,180.50,020823,,,A*44
$GPGGA,174418.250,4307.9119,N,07725.5947,W,1,04,1.86,181.1,M,-34.3,M,,*55
$GPRMC,174418.500,A,4307.9093,N,07725.5948,W,39.72,180.56,020823,,,A*4C
$GPGGA,174418.750,4307.9066,N,07725.5949,W,1,04,4.11,181.3,M,-34.3,M,,*5E
$GPRMC,174419.000,A,4307.9040,N,07725.5949,W,39.21,180.75,020823,,,A*40
$GPGGA,174419.250,4307.9014,N,07725.5950,W,1,04,4.11,181.4,M,-34.3,M,,*50
$GPRMC,174419.500,A,4307.8988,N,07725.5951,W,38.75,180.96,020823,,,A*4D
$GPGGA,174419.750,4307.8963,N,07725.5952,W,1,04,4.11,181.5,M,-34.3,M,,*5E
$GPRMC,174420.000,A,4307.8938,N,07725.5953,W,38.58,181.06,020823,,,A*4C
$GPGGA,174420.250,4307.8912,N,07725.5953,W,1,04,1.86,181.6,M,-34.3,M,,*5E
$GPRMC,174420.500,A,4307.8887,N,07725.5955,W,38.68,181.14,020823,,,A*4A
$GPGGA,174420.750,4307.8862,N,07725.5955,W,1,04,1.86,181.7,M,-34.3,M,,*5A
$GPRMC,174421.000,A,4307.8836,N,07725.5956,W,38.74,180.95,020823,,,A*42
$GPGGA,174421.250,4307.8810,N,07725.5957,W,1,04,1.86,181.8,M,-34.3,M,,*56
$GPRMC,174421.500,A,4307.8785,N,07725.5957,W,38.07,180.51,020823,,,A*4D
$GPGGA,174421.750,4307.8760,N,07725.5959,W,1,04,4.11,181.9,M,-34.3,M,,*5F
$GPRMC,174422.000,A,4307.8736,N,07725.5959,W,37.03,180.47,020823,,,A*41
$GPGGA,174422.250,4307.8712,N,07725.5960,W,1,04,1.86,182.0,M,-34.3,M,,*57
$GPRMC,174422.500,A,4307.8688,N,07725.5961,W,35.85,180.16,020823,,,A*43
$GPGGA,174422.750,4307.8665,N,07725.5961,W,1,04,4.11,182.1,M,-34.3,M,,*58
$GPRMC,174423.000,A,4307.8642,N,07725.5961,W,34.29,179.65,020823,,,A*44
$GPGGA,174423.250,4307.8620,N,07725.5961,W,1,04,1.87,182.3,M,-34.3,M,,*55
$GPRMC,174423.500,A,4307.8599,N,07725.5961,W,32.24,178.98,020823,,,A*4C
$GPGGA,174423.750,4307.8579,N,07725.5961,W,1,04,4.11,182.4,M,-34.3,M,,*52
$GPRMC,174424.000,A,4307.8558,N,07725.5961,W,30.63,178.79,020823,,,A*4D
$GPGGA,174424.250,4307.8539,N,07725.5961,W,1,05,1.83,182.6,M,-34.3,M,,*59
$GPRMC,174424.500,A,4307.8520,N,07725.5962,W,29.15,178.84,020823,,,A*4F
$GPGGA,174424.750,4307.8503,N,07725.5962,W,1,05,2.45,182.6,M,-34.3,M,,*5F
$GPRMC,174425.000,A,4307.8485,N,07725.5962,W,27.48,178.63,020823,,,A*4A
$GPGGA,174425.250,4307.8468,N,07725.5961,W,1,05,1.83,182.7,M,-34.3,M,,*5C
$GPRMC,174425.500,A,4307.8450,N,07725.5961,W,26.21,177.94,020823,,,A*4D
$GPGGA,174425.750,4307.8434,N,07725.5960,W,1,05,2.45,182.8,M,-34.3,M,,*57
$GPRMC,174426.000,A,4307.8418,N,07725.5960,W,24.50,177.81,020823,,,A*46
$GPGGA,174426.250,4307.8405,N,07725.5961,W,1,05,1.83,182.9,M,-34.3,M,,*5A
$GPRMC,174426.500,A,4307.8392,N,07725.5961,W,21.59,177.29,020823,,,A*49
$GPGGA,174426.750,4307.8381,N,07725.5962,W,1,05,2.45,182.9,M,-34.3,M,,*5E
$GPRMC,174427.000,A,4307.8370,N,07725.5961,W,18.98,176.42,020823,,,A*4A
$GPGGA,174427.250,4307.8360,N,07725.5962,W,1,05,2.45,182.9,M,-34.3,M,,*55
$GPRMC,174427.500,A,4307.8352,N,07725.5964,W,16.13,176.44,020823,,,A*41
$GPGGA,174427.750,4307.8345,N,07725.5963,W,1,05,2.45,182.9,M,-34.3,M,,*56
$GPRMC,174428.000,A,4307.8338,N,07725.5961,W,14.01,176.18,020823,,,A*4A
$GPGGA,174428.250,4307.8332,N,07725.5959,W,1,05,2.45,182.8,M,-34.3,M,,*54
$GPRMC,174428.500,A,4307.8328,N,07725.5961,W,11.68,175.03,020823,,,A*4D
$GPGGA,174428.750,4307.8324,N,07725.5964,W,1,05,2.45,182.5,M,-34.3,M,,*55
$GPRMC,174429.000,A,4307.8320,N,07725.5964,W,9.80,178.71,020823,,,A*73
$GPGGA,174429.250,4307.8318,N,07725.5965,W,1,05,2.45,182.2,M,-34.3,M,,*58
$GPRMC,174429.500,A,4307.8317,N,07725.5966,W,6.66,181.46,020823,,,A*75
$GPGGA,174429.750,4307.8315,N,07725.5969,W,1,05,2.45,182.1,M,-34.3,M,,*5F
$GPRMC,174430.000,A,4307.8313,N,07725.5970,W,5.15,183.86,020823,,,A*72
$GPGGA,174430.250,4307.8311,N,07725.5971,W,1,05,2.45,182.0,M,-34.3,M,,*5E
$GPRMC,174430.500,A,4307.8309,N,07725.5972,W,4.13,183.50,020823,,,A*72
$GPGGA,174430.750,4307.8308,N,07725.5973,W,1,05,2.45,182.0,M,-34.3,M,,*51
$GPRMC,174431.000,A,4307.8307,N,07725.5977,W,3.14,180.03,020823,,,A*78
$GPGGA,174431.250,4307.8307,N,07725.5979,W,1,05,1.83,181.8,M,-34.3,M,,*52
$GPRMC,174431.500,A,4307.8307,N,07725.5980,W,2.07,180.03,020823,,,A*76
$GPGGA,174431.750,4307.8307,N,07725.5980,W,1,05,1.83,181.8,M,-34.3,M,,*51
$GPRMC,174432.000,A,4307.8307,N,07725.5980,W,1.34,180.03,020823,,,A*73
$GPGGA,174432.250,4307.8308,N,07725.5981,W,1,05,1.83,181.8,M,-34.3,M,,*59
$GPRMC,174432.500,A,4307.8307,N,07725.5981,W,0.98,180.03,020823,,,A*70
$GPGGA,174432.750,4307.8307,N,07725.5981,W,1,05,1.83,181.7,M,-34.3,M,,*5C
$GPRMC,174433.000,A,4307.8307,N,07725.5981,W,0.72,180.03,020823,,,A*70
$GPGGA,174433.250,4307.8307,N,07725.5982,W,1,05,1.83,181.7,M,-34.3,M,,*5B
$GPRMC,174433.500,A,4307.8307,N,07725.5984,W,0.44,180.03,020823,,,A*75
$GPGGA,174433.750,4307.8308,N,07725.5986,W,1,05,1.83,181.3,M,-34.3,M,,*51
$GPRMC,174434.000,A,4307.8308,N,07725.5987,W,0.23,180.03,020823,,,A*7A
$GPGGA,174434.250,4307.8309,N,07725.5989,W,1,05,1.83,180.9,M,-34.3,M,,*56
$GPRMC,174434.500,A,4307.8310,N,07725.5991,W,0.15,180.03,020823,,,A*74
$GPGGA,174434.750,4307.8310,N,07725.5992,W,1,05,1.83,180.5,M,-34.3,M,,*5D
$GPRMC,174435.000,A,4307.8310,N,07725.5993,W,0.10,180.03,020823,,,A*77
$GPGGA,174435.250,4307.8310,N,07725.5993,W,1,05,1.83,180.5,M,-34.3,M,,*58
$GPRMC,174435.500,A,4307.8310,N,07725.5993,W,0.24,180.03,020823,,,A*75
$GPGGA,174435.750,4307.8310,N,07725.5993,W,1,05,1.83,180.5,M,-34.3,M,,*5D
$GPRMC,174436.000,A,4307.8310,N,07725.5994,W,0.68,180.03,020823,,,A*7C
$GPGGA,174436.250,4307.8310,N,07725.5994,W,1,05,1.83,180.6,M,-34.3,M,,*5F
$GPRMC,174436.500,A,4307.8310,N,07725.5996,W,2.18,180.03,020823,,,A*7E
$GPGGA,174436.750,4307.8309,N,07725.6014,W,1,05,1.83,180.4,M,-34.3,M,,*52
$GPRMC,174437.000,A,4307.8308,N,07725.6032,W,5.96,255.02,020823,,,A*7C
$GPGGA,174437.250,4307.8305,N,07725.6043,W,1,05,2.45,180.2,M,-34.3,M,,*57
$GPRMC,174437.500,A,4307.8304,N,07725.6059,W,9.12,254.71,020823,,,A*7D
$GPGGA,174437.750,4307.8302,N,07725.6075,W,1,05,2.45,179.8,M,-34.3,M,,*5C
$GPRMC,174438.000,A,4307.8301,N,07725.6086,W,11.17,256.01,020823,,,A*49
$GPGGA,174438.250,4307.8300,N,07725.6100,W,1,05,2.45,179.6,M,-34.3,M,,*59
$GPRMC,174438.500,A,4307.8300,N,07725.6116,W,13.43,260.45,020823,,,A*43
$GPGGA,174438.750,4307.8299,N,07725.6139,W,1,05,2.45,179.3,M,-34.3,M,,*52
$GPRMC,174439.000,A,4307.8299,N,07725.6160,W,17.00,262.59,020823,,,A*4B
$GPGGA,174439.250,4307.8298,N,07725.6182,W,1,05,1.83,179.0,M,-34.3,M,,*5D
$GPRMC,174439.500,A,4307.8298,N,07725.6205,W,19.68,263.57,020823,,,A*40
$GPGGA,174439.750,4307.8298,N,07725.6228,W,1,05,1.83,178.7,M,-34.3,M,,*5D
$GPRMC,174440.000,A,4307.8298,N,07725.6251,W,21.45,264.84,020823,,,A*47
$GPGGA,174440.250,4307.8299,N,07725.6275,W,1,05,1.83,178.4,M,-34.3,M,,*5C
$GPRMC,174440.500,A,4307.8301,N,07725.6300,W,23.56,266.60,020823,,,A*4E
$GPGGA,174440.750,4307.8301,N,07725.6326,W,1,05,1.83,178.1,M,-34.3,M,,*5B
$GPRMC,174441.000,A,4307.8301,N,07725.6351,W,25.39,267.22,020823,,,A*46
$GPGGA,174441.250,4307.8302,N,07725.6379,W,1,05,1.83,177.8,M,-34.3,M,,*50
$GPRMC,174441.500,A,4307.8305,N,07725.6408,W,27.53,268.42,020823,,,A*4B
$GPGGA,174441.750,4307.8312,N,07725.6438,W,1,05,1.83,177.5,M,-34.3,M,,*5B
$GPRMC,174442.000,A,4307.8315,N,07725.6469,W,29.78,272.50,020823,,,A*44
$GPGGA,174442.250,4307.8319,N,07725.6500,W,1,05,1.83,177.2,M,-34.3,M,,*5B
$GPRMC,174442.500,A,4307.8322,N,07725.6531,W,31.43,273.48,020823,,,A*40
$GPGGA,174442.750,4307.8325,N,07725.6564,W,1,05,1.83,176.8,M,-34.3,M,,*58
$GPRMC,174443.000,A,4307.8327,N,07725.6595,W,32.43,273.36,020823,,,A*45
$GPGGA,174443.250,4307.8328,N,07725.6628,W,1,05,1.83,176.5,M,-34.3,M,,*57
$GPRMC,174443.500,A,4307.8330,N,07725.6660,W,33.37,273.22,020823,,,A*48
$GPGGA,174443.750,4307.8330,N,07725.6692,W,1,05,2.45,176.0,M,-34.3,M,,*56
$GPRMC,174444.000,A,4307.8331,N,07725.6725,W,33.92,272.58,020823,,,A*48
$GPGGA,174444.250,4307.8332,N,07725.6759,W,1,05,1.83,175.7,M,-34.3,M,,*5D
$GPRMC,174444.500,A,4307.8332,N,07725.6793,W,35.32,271.42,020823,,,A*47
$GPGGA,174444.750,4307.8332,N,07725.6828,W,1,05,2.45,175.4,M,-34.3,M,,*5B
$GPRMC,174445.000,A,4307.8332,N,07725.6862,W,36.12,270.40,020823,,,A*40
$GPGGA,174445.250,4307.8332,N,07725.6897,W,1,05,1.83,175.1,M,-34.3,M,,*57
$GPRMC,174445.500,A,4307.8332,N,07725.6933,W,36.73,269.78,020823,,,A*44
$GPGGA,174445.750,4307.8332,N,07725.6968,W,1,05,1.83,174.9,M,-34.3,M,,*5A
$GPRMC,174446.000,A,4307.8332,N,07725.7004,W,37.02,269.89,020823,,,A*47
$GPGGA,174446.250,4307.8332,N,07725.7040,W,1,05,1.83,174.7,M,-34.3,M,,*50
$GPRMC,174446.500,A,4307.8333,N,07725.7076,W,37.38,270.35,020823,,,A*40
$GPGGA,174446.750,4307.8334,N,07725.7112,W,1,05,1.83,174.5,M,-34.3,M,,*57
$GPRMC,174447.000,A,4307.8334,N,07725.7149,W,37.60,270.83,020823,,,A*4E
$GPGGA,174447.250,4307.8335,N,07725.7185,W,1,05,1.83,174.3,M,-34.3,M,,*5A
$GPRMC,174447.500,A,4307.8335,N,07725.7221,W,37.73,270.31,020823,,,A*4C
$GPGGA,174447.750,4307.8334,N,07725.7258,W,1,05,1.83,174.1,M,-34.3,M,,*5F
$GPRMC,174448.000,A,4307.8334,N,07725.7295,W,37.97,269.42,020823,,,A*4E
$GPGGA,174448.250,4307.8334,N,07725.7331,W,1,05,1.83,173.9,M,-34.3,M,,*54
$GPRMC,174448.500,A,4307.8335,N,07725.7367,W,37.87,268.60,020823,,,A*46
$GPGGA,174448.750,4307.8335,N,07725.7403,W,1,05,2.45,173.7,M,-34.3,M,,*51
$GPRMC,174449.000,A,4307.8334,N,07725.7439,W,37.74,268.03,020823,,,A*46
$GPGGA,174449.250,4307.8334,N,07725.7475,W,1,05,1.83,173.4,M,-34.3,M,,*5F
$GPRMC,174449.500,A,4307.8333,N,07725.7511,W,37.70,267.77,020823,,,A*47
$GPGGA,174449.750,4307.8333,N,07725.7548,W,1,05,1.83,173.3,M,-34.3,M,,*55
$GPRMC,174450.000,A,4307.8333,N,07725.7584,W,37.70,268.09,020823,,,A*40
$GPGGA,174450.250,4307.8332,N,07725.7621,W,1,05,1.83,173.1,M,-34.3,M,,*57
$GPRMC,174450.500,A,4307.8332,N,07725.7657,W,38.16,268.42,020823,,,A*49
$GPGGA,174450.750,4307.8331,N,07725.7694,W,1,05,1.83,172.9,M,-34.3,M,,*56
$GPRMC,174451.000,A,4307.8331,N,07725.7731,W,38.25,269.11,020823,,,A*48
$GPGGA,174451.250,4307.8331,N,07725.7767,W,1,05,1.83,172.8,M,-34.3,M,,*5E
$GPRMC,174451.500,A,4307.8331,N,07725.7804,W,38.35,269.84,020823,,,A*49
$GPGGA,174451.750,4307.8332,N,07725.7842,W,1,05,2.45,172.6,M,-34.3,M,,*57
$GPRMC,174452.000,A,4307.8332,N,07725.7879,W,38.66,270.53,020823,,,A*42
$GPGGA,174452.250,4307.8334,N,07725.7916,W,1,05,1.83,172.3,M,-34.3,M,,*5B
$GPRMC,174452.500,A,4307.8334,N,07725.7953,W,38.87,270.58,020823,,,A*4C
$GPGGA,174452.750,4307.8333,N,07725.7990,W,1,05,1.83,172.1,M,-34.3,M,,*55
$GPRMC,174453.000,A,4307.8335,N,07725.8027,W,38.77,270.48,020823,,,A*42
$GPGGA,174453.250,4307.8334,N,07725.8064,W,1,05,2.45,171.7,M,-34.3,M,,*57
$GPRMC,174453.500,A,4307.8334,N,07725.8100,W,38.65,269.78,020823,,,A*4A
$GPGGA,174453.750,4307.8334,N,07725.8137,W,1,05,2.45,171.3,M,-34.3,M,,*51
$GPRMC,174454.000,A,4307.8333,N,07725.8174,W,38.94,269.22,020823,,,A*4D
$GPGGA,174454.250,4307.8338,N,07725.8211,W,1,06,1.65,170.9,M,-34.3,M,,*51
$GPRMC,174454.500,A,4307.8342,N,07725.8247,W,38.95,269.70,020823,,,A*4B
$GPGGA,174454.750,4307.8344,N,07725.8284,W,1,06,2.12,170.5,M,-34.3,M,,*5C
$GPRMC,174455.000,A,4307.8346,N,07725.8321,W,38.94,270.24,020823,,,A*42
$GPGGA,174455.250,4307.8347,N,07725.8358,W,1,06,1.65,170.3,M,-34.3,M,,*5E
$GPRMC,174455.500,A,4307.8348,N,07725.8396,W,39.36,270.14,020823,,,A*4F
$GPGGA,174455.750,4307.8350,N,07725.8432,W,1,06,2.12,170.0,M,-34.3,M,,*56
$GPRMC,174456.000,A,4307.8351,N,07725.8469,W,39.17,270.13,020823,,,A*42
$GPGGA,174456.250,4307.8353,N,07725.8507,W,1,06,1.65,169.7,M,-34.3,M,,*58
$GPRMC,174456.500,A,4307.8355,N,07725.8543,W,39.16,270.91,020823,,,A*41
$GPGGA,174456.750,4307.8358,N,07725.8580,W,1,06,2.12,169.5,M,-34.3,M,,*58
$GPRMC,174457.000,A,4307.8360,N,07725.8616,W,38.71,271.37,020823,,,A*4D
$GPGGA,174457.250,4307.8362,N,07725.8652,W,1,06,2.12,169.3,M,-34.3,M,,*5F
$GPRMC,174457.500,A,4307.8363,N,07725.8688,W,38.41,271.86,020823,,,A*45
$GPGGA,174457.750,4307.8364,N,07725.8724,W,1,06,2.12,169.0,M,-34.3,M,,*5F
$GPRMC,174458.000,A,4307.8365,N,07725.8760,W,38.06,271.60,020823,,,A*45
$GPGGA,174458.250,4307.8365,N,07725.8796,W,1,06,2.12,168.9,M,-34.3,M,,*55
$GPRMC,174458.500,A,4307.8366,N,07725.8831,W,37.42,271.69,020823,,,A*4E
$GPGGA,174458.750,4307.8366,N,07725.8865,W,1,06,2.12,168.7,M,-34.3,M,,*5E
$GPRMC,174459.000,A,4307.8367,N,07725.8899,W,36.38,272.19,020823,,,A*41
$GPGGA,174459.250,4307.8368,N,07725.8933,W,1,06,1.65,168.6,M,-34.3,M,,*54
$GPRMC,174459.500,A,4307.8368,N,07725.8965,W,35.79,272.65,020823,,,A*44
$GPGGA,174459.750,4307.8368,N,07725.8996,W,1,06,2.13,168.5,M,-34.3,M,,*5F
$GPRMC,174500.000,A,4307.8368,N,07725.9026,W,32.50,272.60,020823,,,A*4A
$GPGGA,174500.250,4307.8368,N,07725.9055,W,1,06,1.65,168.5,M,-34.3,M,,*52
$GPRMC,174500.500,A,4307.8368,N,07725.9083,W,30.10,272.62,020823,,,A*44
$GPGGA,174500.750,4307.8368,N,07725.9109,W,1,06,2.13,168.5,M,-34.3,M,,*5D
$GPRMC,174501.000,A,4307.8368,N,07725.9134,W,27.35,272.48,020823,,,A*44
$GPGGA,174501.250,4307.8367,N,07725.9157,W,1,06,1.65,168.5,M,-34.3,M,,*5F
$GPRMC,174501.500,A,4307.8367,N,07725.9178,W,24.04,271.74,020823,,,A*4B
$GPGGA,174501.750,4307.8366,N,07725.9199,W,1,06,1.65,168.4,M,-34.3,M,,*58
$GPRMC,174502.000,A,4307.8366,N,07725.9219,W,21.85,271.11,020823,,,A*47
$GPGGA,174502.250,4307.8364,N,07725.9236,W,1,06,1.65,168.4,M,-34.3,M,,*5A
$GPRMC,174502.500,A,4307.8364,N,07725.9253,W,19.24,269.86,020823,,,A*49
$GPGGA,174502.750,4307.8364,N,07725.9269,W,1,06,2.12,168.3,M,-34.3,M,,*51
$GPRMC,174503.000,A,4307.8365,N,07725.9285,W,17.36,270.20,020823,,,A*4E
$GPGGA,174503.250,4307.8365,N,07725.9299,W,1,06,2.13,168.2,M,-34.3,M,,*5B
$GPRMC,174503.500,A,4307.8368,N,07725.9309,W,14.80,270.35,020823,,,A*49
$GPGGA,174503.750,4307.8368,N,07725.9320,W,1,06,2.13,168.1,M,-34.3,M,,*53
$GPRMC,174504.000,A,4307.8368,N,07725.9329,W,12.08,266.65,020823,,,A*4D
$GPGGA,174504.250,4307.8367,N,07725.9337,W,1,06,2.13,168.1,M,-34.3,M,,*58
$GPRMC,174504.500,A,4307.8366,N,07725.9345,W,10.07,261.91,020823,,,A*4D
$GPGGA,174504.750,4307.8363,N,07725.9353,W,1,06,2.13,168.1,M,-34.3,M,,*5B
$GPRMC,174505.000,A,4307.8361,N,07725.9361,W,9.32,254.75,020823,,,A*7A
$GPGGA,174505.250,4307.8360,N,07725.9369,W,1,06,1.65,168.1,M,-34.3,M,,*57
$GPRMC,174505.500,A,4307.8359,N,07725.9377,W,9.33,252.48,020823,,,A*7A
$GPGGA,174505.750,4307.8359,N,07725.9383,W,1,06,2.13,168.1,M,-34.3,M,,*5E
$GPRMC,174506.000,A,4307.8357,N,07725.9390,W,9.34,246.56,020823,,,A*76
$GPGGA,174506.250,4307.8352,N,07725.9397,W,1,06,1.65,168.1,M,-34.3,M,,*54
$GPRMC,174506.500,A,4307.8347,N,07725.9404,W,10.09,236.30,020823,,,A*49
$GPGGA,174506.750,4307.8343,N,07725.9411,W,1,06,2.13,168.1,M,-34.3,M,,*5A
$GPRMC,174507.000,A,4307.8339,N,07725.9417,W,10.01,231.98,020823,,,A*4B
$GPGGA,174507.250,4307.8335,N,07725.9424,W,1,06,1.65,168.1,M,-34.3,M,,*5B
$GPRMC,174507.500,A,4307.8331,N,07725.9431,W,9.64,230.17,020823,,,A*7F
$GPGGA,174507.750,4307.8327,N,07725.9437,W,1,06,1.65,168.2,M,-34.3,M,,*5C
$GPRMC,174508.000,A,4307.8320,N,07725.9442,W,10.14,222.28,020823,,,A*41
$GPGGA,174508.250,4307.8310,N,07725.9443,W,1,06,1.66,168.2,M,-34.3,M,,*52
$GPRMC,174508.500,A,4307.8299,N,07725.9443,W,11.14,205.17,020823,,,A*4E
$GPGGA,174508.750,4307.8288,N,07725.9443,W,1,06,2.13,168.2,M,-34.3,M,,*56
$GPRMC,174509.000,A,4307.8278,N,07725.9444,W,12.22,196.45,020823,,,A*4A
$GPGGA,174509.250,4307.8266,N,07725.9445,W,1,06,2.13,168.1,M,-34.3,M,,*57
$GPRMC,174509.500,A,4307.8255,N,07725.9445,W,13.57,191.58,020823,,,A*49
$GPGGA,174509.750,4307.8246,N,07725.9446,W,1,06,2.13,168.1,M,-34.3,M,,*53
$GPRMC,174510.000,A,4307.8236,N,07725.9447,W,13.79,188.67,020823,,,A*4B
$GPGGA,174510.250,4307.8226,N,07725.9447,W,1,06,2.13,168.0,M,-34.3,M,,*58
