Vers 81
USE_SERIAL_FEEDBACK=true
DEVELOPMENT_MODE=false
USE_RMC_ONLY=false

$GPRMC,172336.500,A,4309.2777,N,07735.0996,W,0.00,347.76,090923,,,D*75
$GPGGA,172336.750,4309.2777,N,07735.0996,W,2,08,1.26,161.7,M,-34.4,M,0000,0000*54
$GPRMC,172337.000,A,4309.2777,N,07735.0996,W,0.00,347.76,090923,,,D*71
$GPGGA,172337.250,4309.2777,N,07735.0996,W,2,08,1.26,161.7,M,-34.4,M,0000,0000*50
$GPRMC,172337.500,A,4309.2777,N,07735.0996,W,0.00,347.76,090923,,,D*74
$GPGGA,172337.750,4309.2777,N,07735.0996,W,2,08,1.26,161.7,M,-34.4,M,0000,0000*55
$GPRMC,172338.000,A,4309.2777,N,07735.0996,W,0.00,347.76,090923,,,D*7E
$GPGGA,172338.250,4309.2777,N,07735.0996,W,2,08,1.26,161.7,M,-34.4,M,0000,0000*5F
$GPRMC,172338.500,A,4309.2777,N,07735.0996,W,0.00,347.76,090923,,,D*7B
$GPGGA,172338.750,4309.2777,N,07735.0996,W,2,08,1.26,161.7,M,-34.4,M,0000,0000*5A
$GPRMC,172339.000,A,4309.2777,N,07735.0996,W,0.00,347.76,090923,,,D*7F
$GPGGA,172339.250,4309.2777,N,07735.0996,W,2,08,1.26,161.7,M,-34.4,M,0000,0000*5E
$GPRMC,172339.500,A,4309.2777,N,07735.0996,W,0.00,347.76,090923,,,D*7A
$GPGGA,172339.750,4309.2777,N,07735.0996,W,2,08,1.26,161.7,M,-34.4,M,0000,0000*5B
$GPRMC,172340.000,A,4309.2777,N,07735.0996,W,0.00,347.76,090923,,,D*71
$GPGGA,172340.250,4309.2777,N,07735.0996,W,2,08,1.26,161.7,M,-34.4,M,0000,0000*50
$GPRMC,172340.500,A,4309.2777,N,07735.0996,W,0.00,347.76,090923,,,D*74
$GPGGA,172340.750,4309.2777,N,07735.0996,W,2,08,1.26,161.7,M,-34.4,M,0000,0000*55
$GPRMC,172341.000,A,4309.2777,N,07735.0996,W,0.00,347.76,090923,,,D*70
$GPGGA,172341.250,4309.2777,N,07735.0996,W,2,08,1.26,161.7,M,-34.4,M,0000,0000*51
$GPRMC,172341.500,A,4309.2777,N,07735.0996,W,0.00,347.76,090923,,,D*75
$GPGGA,172341.750,4309.2777,N,07735.0996,W,2,08,1.26,161.7,M,-34.4,M,0000,0000*54
$GPRMC,172342.000,A,4309.2777,N,07735.0996,W,0.00,347.76,090923,,,D*73
$GPGGA,172342.250,4309.2777,N,07735.0996,W,2,08,1.26,161.7,M,-34.4,M,0000,0000*52
$GPRMC,172342.500,A,4309.2777,N,07735.0996,W,0.00,347.76,090923,,,D*76
$GPGGA,172342.750,4309.2777,N,07735.0996,W,2,08,1.26,161.7,M,-34.4,M,0000,0000*57
$GPRMC,172343.000,A,4309.2777,N,07735.0996,W,0.00,347.76,090923,,,D*72
$GPGGA,172343.250,4309.2777,N,07735.0996,W,2,08,1.26,161.7,M,-34.4,M,0000,0000*53
$GPRMC,172343.500,A,4309.2777,N,07735.0996,W,0.01,347.76,090923,,,D*76
$GPGGA,172343.750,4309.2777,N,07735.0996,W,2,08,1.26,161.7,M,-34.4,M,0000,0000*56
$GPRMC,172344.000,A,4309.2777,N,07735.0996,W,0.00,347.76,090923,,,D*75
$GPGGA,172344.250,4309.2777,N,07735.0996,W,2,08,1.26,161.7,M,-34.4,M,0000,0000*54
$GPRMC,172344.500,A,4309.2777,N,07735.0996,W,0.00,347.76,090923,,,D*70
$GPGGA,172344.750,4309.2777,N,07735.0996,W,2,08,1.26,161.7,M,-34.4,M,0000,0000*51
$GPRMC,172345.000,A,4309.2777,N,07735.0996,W,0.00,347.76,090923,,,D*74
$GPGGA,172345.250,4309.2777,N,07735.0996,W,2,08,1.26,161.7,M,-34.4,M,0000,0000*55
$GPRMC,172345.500,A,4309.2777,N,07735.0996,W,0.01,347.76,090923,,,D*70
$GPGGA,172345.750,4309.2777,N,07735.0996,W,2,08,1.26,161.7,M,-34.4,M,0000,0000*50
$GPRMC,172346.000,A,4309.2777,N,07735.0996,W,0.01,347.76,090923,,,D*76
$GPGGA,172346.250,4309.2777,N,07735.0996,W,2,08,1.26,161.7,M,-34.4,M,0000,0000*56
$GPRMC,172346.500,A,4309.2777,N,07735.0996,W,0.01,347.76,090923,,,D*73
$GPGGA,172346.750,4309.2777,N,07735.0996,W,2,08,1.26,161.7,M,-34.4,M,0000,0000*53
$GPRMC,172347.000,A,4309.2777,N,07735.0996,W,0.00,347.76,090923,,,D*76
$GPGGA,172347.250,4309.2777,N,07735.0996,W,2,08,1.26,161.7,M,-34.4,M,0000,0000*57
$GPRMC,172347.500,A,4309.2777,N,07735.0996,W,0.00,347.76,090923,,,D*73
$GPGGA,172347.750,4309.2777,N,07735.0996,W,2,08,1.26,161.7,M,-34.4,M,0000,0000*52
$GPRMC,172348.000,A,4309.2777,N,07735.0996,W,0.00,347.76,090923,,,D*79
$GPGGA,172348.250,4309.2777,N,07735.0996,W,2,08,1.26,161.7,M,-34.4,M,0000,0000*58
$GPRMC,172348.500,A,4309.2777,N,07735.0996,W,0.00,347.76,090923,,,D*7C
$GPGGA,172348.750,4309.2777,N,07735.0996,W,2,08,1.26,161.7,M,-34.4,M,0000,0000*5D
$GPRMC,172349.000,A,4309.2777,N,07735.0996,W,0.00,347.76,090923,,,D*78
$GPGGA,172349.250,4309.2777,N,07735.0996,W,2,08,1.26,161.7,M,-34.4,M,0000,0000*59
$GPRMC,172349.500,A,4309.2777,N,07735.0996,W,0.00,347.76,090923,,,D*7D
$GPGGA,172349.750,4309.2777,N,07735.0996,W,2,08,1.26,161.7,M,-34.4,M,0000,0000*5C
$GPRMC,172350.000,A,4309.2777,N,07735.0996,W,0.01,347.76,090923,,,D*71
$GPGGA,172350.250,4309.2777,N,07735.0996,W,2,08,1.26,161.7,M,-34.4,M,0000,0000*51
$GPRMC,172350.500,A,4309.2777,N,07735.0996,W,0.01,347.76,090923,,,D*74
$GPGGA,172350.750,4309.2777,N,07735.0996,W,2,08,1.26,161.7,M,-34.4,M,0000,0000*54
$GPRMC,172351.000,A,4309.2777,N,07735.0996,W,0.01,347.76,090923,,,D*70
$GPGGA,172351.250,4309.2777,N,07735.0996,W,2,08,1.26,161.7,M,-34.4,M,0000,0000*50
$GPRMC,172351.500,A,4309.2777,N,07735.0996,W,0.01,347.76,090923,,,D*75
$GPGGA,172351.750,4309.2777,N,07735.0996,W,2,08,1.26,161.7,M,-34.4,M,0000,0000*55
$GPRMC,172352.000,A,4309.2777,N,07735.0996,W,0.01,347.76,090923,,,D*73
$GPGGA,172352.250,4309.2778,N,07735.0996,W,2,08,1.26,161.7,M,-34.4,M,0000,0000*5C
$GPRMC,172352.500,A,4309.2778,N,07735.0996,W,0.01,347.76,090923,,,D*79
$GPGGA,172352.750,4309.2778,N,07735.0996,W,2,08,1.26,161.7,M,-34.4,M,0000,0000*59
$GPRMC,172353.000,A,4309.2778,N,07735.0996,W,0.01,347.76,090923,,,D*7D
$GPGGA,172353.250,4309.2778,N,07735.0996,W,2,08,1.26,161.7,M,-34.4,M,0000,0000*5D
$GPRMC,172353.500,A,4309.2778,N,07735.0996,W,0.01,347.76,090923,,,D*78
$GPGGA,172353.750,4309.2778,N,07735.0996,W,2,08,1.26,161.7,M,-34.4,M,0000,0000*58
$GPRMC,172354.000,A,4309.2778,N,07735.0996,W,0.00,347.76,090923,,,D*7B
$GPGGA,172354.250,4309.2778,N,07735.0996,W,2,08,1.26,161.7,M,-34.4,M,0000,0000*5A
$GPRMC,172354.500,A,4309.2778,N,07735.0996,W,0.01,347.76,090923,,,D*7F
$GPGGA,172354.750,4309.2778,N,07735.0996,W,2,08,1.26,161.7,M,-34.4,M,0000,0000*5F
$GPRMC,172355.000,A,4309.2778,N,07735.0996,W,0.00,347.76,090923,,,D*7A
$GPGGA,172355.250,4309.2778,N,07735.0996,W,2,08,1.26,161.7,M,-34.4,M,0000,0000*5B
$GPRMC,172355.500,A,4309.2778,N,07735.0996,W,0.01,347.76,090923,,,D*7E
$GPGGA,172355.750,4309.2778,N,07735.0996,W,2,08,1.26,161.7,M,-34.4,M,0000,0000*5E
$GPRMC,172356.000,A,4309.2778,N,07735.0996,W,0.01,347.76,090923,,,D*78
$GPGGA,172356.250,4309.2778,N,07735.0996,W,2,08,1.26,161.7,M,-34.4,M,0000,0000*58
$GPRMC,172356.500,A,4309.2778,N,07735.0996,W,0.00,347.76,090923,,,D*7C
$GPGGA,172356.750,4309.2778,N,07735.0996,W,2,08,1.26,161.7,M,-34.4,M,0000,0000*5D
$GPRMC,172357.000,A,4309.2778,N,07735.0996,W,0.00,347.76,090923,,,D*78
$GPGGA,172357.250,4309.2778,N,07735.0996,W,2,08,1.26,161.7,M,-34.4,M,0000,0000*59
$GPRMC,172357.500,A,4309.2778,N,07735.0996,W,0.00,347.76,090923,,,D*7D
$GPGGA,172357.750,4309.2778,N,07735.0996,W,2,08,1.26,161.7,M,-34.4,M,0000,0000*5C
$GPRMC,172358.000,A,4309.2778,N,07735.0996,W,0.01,347.76,090923,,,D*76
$GPGGA,172358.250,4309.2778,N,07735.0996,W,2,08,1.26,161.7,M,-34.4,M,0000,0000*56
$GPRMC,172358.500,A,4309.2778,N,07735.0996,W,0.00,347.76,090923,,,D*72
$GPGGA,172358.750,4309.2778,N,07735.0996,W,2,08,1.26,161.7,M,-34.4,M,0000,0000*53
$GPRMC,172359.000,A,4309.2778,N,07735.0996,W,0.00,347.76,090923,,,D*76
$GPGGA,172359.250,4309.2778,N,07735.0996,W,2,08,1.26,161.7,M,-34.4,M,0000,0000*57
$GPRMC,172359.500,A,4309.2778,N,07735.0996,W,0.00,347.76,090923,,,D*73
$GPGGA,172359.750,4309.2778,N,07735.0996,W,2,08,1.26,161.7,M,-34.4,M,0000,0000*52
$GPRMC,172400.000,A,4309.2778,N,07735.0996,W,0.00,347.76,090923,,,D*7D
$GPGGA,172400.250,4309.2778,N,07735.0996,W,2,08,1.26,161.7,M,-34.4,M,0000,0000*5C
$GPRMC,172400.500,A,4309.2778,N,07735.0996,W,0.00,347.76,090923,,,D*78
$GPGGA,172400.750,4309.2778,N,07735.0996,W,2,08,1.26,161.7,M,-34.4,M,0000,0000*59
$GPRMC,172401.000,A,4309.2778,N,07735.0996,W,0.00,347.76,090923,,,D*7C
$GPGGA,172401.250,4309.2778,N,07735.0996,W,2,08,1.26,161.7,M,-34.4,M,0000,0000*5D
$GPRMC,172401.500,A,4309.2778,N,07735.0996,W,0.01,347.76,090923,,,D*78
$GPGGA,172401.750,4309.2778,N,07735.0996,W,2,08,1.26,161.7,M,-34.4,M,0000,0000*58
$GPRMC,172402.000,A,4309.2778,N,07735.0996,W,0.00,347.76,090923,,,D*7F
$GPGGA,172402.250,4309.2778,N,07735.0996,W,2,08,1.26,161.7,M,-34.4,M,0000,0000*5E
$GPRMC,172402.500,A,4309.2778,N,07735.0996,W,0.00,347.76,090923,,,D*7A
$GPGGA,172402.750,4309.2778,N,07735.0996,W,2,08,1.26,161.7,M,-34.4,M,0000,0000*5B
$GPRMC,172403.000,A,4309.2778,N,07735.0996,W,0.00,347.76,090923,,,D*7E
$GPGGA,172403.250,4309.2778,N,07735.0996,W,2,08,1.26,161.7,M,-34.4,M,0000,0000*5F
$GPRMC,172403.500,A,4309.2778,N,07735.0996,W,0.00,347.76,090923,,,D*7B
$GPGGA,172403.750,4309.2778,N,07735.0996,W,2,08,1.26,161.7,M,-34.4,M,0000,0000*5A
$GPRMC,172404.000,A,4309.2778,N,07735.0996,W,0.00,347.76,090923,,,D*79
$GPGGA,172404.250,4309.2778,N,07735.0996,W,2,08,1.26,161.7,M,-34.4,M,0000,0000*58
$GPRMC,172404.500,A,4309.2778,N,07735.0996,W,0.00,347.76,090923,,,D*7C
$GPGGA,172404.750,4309.2778,N,07735.0996,W,2,08,1.26,161.7,M,-34.4,M,0000,0000*5D
$GPRMC,172405.000,A,4309.2778,N,07735.0996,W,0.00,347.76,090923,,,D*78
$GPGGA,172405.250,4309.2778,N,07735.0996,W,2,08,1.26,161.7,M,-34.4,M,0000,0000*59
$GPRMC,172405.500,A,4309.2778,N,07735.0996,W,0.00,347.76,090923,,,D*7D
$GPGGA,172405.750,4309.2778,N,07735.0996,W,2,08,1.26,161.7,M,-34.4,M,0000,0000*5C
$GPRMC,172406.000,A,4309.2778,N,07735.0996,W,0.00,347.76,090923,,,D*7B
$GPGGA,172406.250,4309.2778,N,07735.0996,W,2,08,1.26,161.7,M,-34.4,M,0000,0000*5A
$GPRMC,172406.500,A,4309.2778,N,07735.0996,W,0.01,347.76,090923,,,D*7F
$GPGGA,172406.750,4309.2778,N,07735.0996,W,2,08,1.26,161.7,M,-34.4,M,0000,0000*5F
$GPRMC,172407.000,A,4309.2778,N,07735.0996,W,0.00,347.76,090923,,,D*7A
$GPGGA,172407.250,4309.2778,N,07735.0996,W,2,08,1.26,161.7,M,-34.4,M,0000,0000*5B
$GPRMC,172407.500,A,4309.2778,N,07735.0996,W,0.01,347.76,090923,,,D*7E
$GPGGA,172407.750,4309.2778,N,07735.0996,W,2,08,1.26,161.7,M,-34.4,M,0000,0000*5E
$GPRMC,172408.000,A,4309.2778,N,07735.0996,W,0.00,347.76,090923,,,D*75
$GPGGA,172408.250,4309.2778,N,07735.0996,W,2,08,1.26,161.7,M,-34.4,M,0000,0000*54
$GPRMC,172408.500,A,4309.2778,N,07735.0996,W,0.01,347.76,090923,,,D*71
$GPGGA,172408.750,4309.2778,N,07735.0996,W,2,08,1.26,161.7,M,-34.4,M,0000,0000*51
$GPRMC,172409.000,A,4309.2778,N,07735.0996,W,0.01,347.76,090923,,,D*75
$GPGGA,172409.250,4309.2778,N,07735.0996,W,2,08,1.26,161.7,M,-34.4,M,0000,0000*55
$GPRMC,172409.500,A,4309.2778,N,07735.0996,W,0.01,347.76,090923,,,D*70
$GPGGA,172409.750,4309.2778,N,07735.0996,W,2,08,1.26,161.7,M,-34.4,M,0000,0000*50
$GPRMC,172410.000,A,4309.2778,N,07735.0996,W,0.02,347.76,090923,,,D*7E
$GPGGA,172410.250,4309.2778,N,07735.0996,W,2,08,1.26,161.7,M,-34.4,M,0000,0000*5D
$GPRMC,172410.500,A,4309.2778,N,07735.0996,W,0.01,347.76,090923,,,D*78
$GPGGA,172410.750,4309.2778,N,07735.0996,W,2,08,1.26,161.7,M,-34.4,M,0000,0000*58
$GPRMC,172411.000,A,4309.2778,N,07735.0996,W,0.00,347.76,090923,,,D*7D
$GPGGA,172411.250,4309.2778,N,07735.0996,W,2,08,1.26,161.7,M,-34.4,M,0000,0000*5C
$GPRMC,172411.500,A,4309.2778,N,07735.0996,W,0.04,347.76,090923,,,D*7C
$GPGGA,172411.750,4309.2777,N,07735.0996,W,2,08,1.21,161.7,M,-34.4,M,0000,0000*51
$GPRMC,172412.000,A,4309.2777,N,07735.0996,W,0.27,347.76,090923,,,D*74
$GPGGA,172412.250,4309.2777,N,07735.0996,W,2,08,1.21,161.7,M,-34.4,M,0000,0000*57
$GPRMC,172412.500,A,4309.2777,N,07735.0997,W,0.79,219.79,090923,,,D*7E
$GPGGA,172412.750,4309.2773,N,07735.1000,W,2,08,1.21,161.6,M,-34.4,M,0000,0000*50
$GPRMC,172413.000,A,4309.2771,N,07735.1001,W,1.16,218.38,090923,,,D*77
$GPGGA,172413.250,4309.2768,N,07735.1002,W,2,08,1.21,161.5,M,-34.4,M,0000,0000*5F
$GPRMC,172413.500,A,4309.2764,N,07735.1003,W,2.12,204.29,090923,,,D*7E
$GPGGA,172413.750,4309.2760,N,07735.0999,W,2,08,1.21,162.0,M,-34.4,M,0000,0000*5E
$GPRMC,172414.000,A,4309.2751,N,07735.0988,W,3.46,186.23,090923,,,D*72
$GPGGA,172414.250,4309.2746,N,07735.0987,W,2,08,1.21,162.5,M,-34.4,M,0000,0000*52
$GPRMC,172414.500,A,4309.2741,N,07735.0982,W,4.26,181.04,090923,,,D*7F
$GPGGA,172414.750,4309.2736,N,07735.0983,W,2,08,1.26,162.9,M,-34.4,M,0000,0000*5F
$GPRMC,172415.000,A,4309.2732,N,07735.0982,W,4.60,182.60,090923,,,D*7C
$GPGGA,172415.250,4309.2729,N,07735.0984,W,2,08,1.26,163.3,M,-34.4,M,0000,0000*59
$GPRMC,172415.500,A,4309.2724,N,07735.0988,W,4.69,186.95,090923,,,D*73
$GPGGA,172415.750,4309.2719,N,07735.0991,W,2,08,1.26,163.4,M,-34.4,M,0000,0000*5C
$GPRMC,172416.000,A,4309.2716,N,07735.0993,W,4.65,189.68,090923,,,D*7F
$GPGGA,172416.250,4309.2713,N,07735.0994,W,2,08,1.26,163.6,M,-34.4,M,0000,0000*57
$GPRMC,172416.500,A,4309.2710,N,07735.0996,W,4.44,189.62,090923,,,D*70
$GPGGA,172416.750,4309.2706,N,07735.0998,W,2,08,1.26,163.8,M,-34.4,M,0000,0000*54
$GPRMC,172417.000,A,4309.2704,N,07735.0997,W,4.51,185.43,090923,,,D*7B
$GPGGA,172417.250,4309.2701,N,07735.0996,W,2,08,1.26,164.2,M,-34.4,M,0000,0000*54
$GPRMC,172417.500,A,4309.2698,N,07735.0995,W,4.42,175.95,090923,,,D*7E
$GPGGA,172417.750,4309.2696,N,07735.0995,W,2,08,1.26,164.4,M,-34.4,M,0000,0000*5B
$GPRMC,172418.000,A,4309.2693,N,07735.0994,W,3.98,171.78,090923,,,D*79
$GPGGA,172418.250,4309.2691,N,07735.0993,W,2,08,1.26,164.5,M,-34.4,M,0000,0000*51
$GPRMC,172418.500,A,4309.2689,N,07735.0988,W,3.71,154.87,090923,,,D*7A
$GPGGA,172418.750,4309.2687,N,07735.0985,W,2,08,1.21,164.8,M,-34.4,M,0000,0000*5E
$GPRMC,172419.000,A,4309.2684,N,07735.0981,W,3.71,138.89,090923,,,D*7E
$GPGGA,172419.250,4309.2683,N,07735.0976,W,2,08,1.21,164.8,M,-34.4,M,0000,0000*52
$GPRMC,172419.500,A,4309.2682,N,07735.0972,W,3.88,122.19,090923,,,D*75
$GPGGA,172419.750,4309.2682,N,07735.0968,W,2,08,1.21,164.6,M,-34.4,M,0000,0000*57
$GPRMC,172420.000,A,4309.2682,N,07735.0964,W,3.89,108.97,090923,,,D*72
$GPGGA,172420.250,4309.2682,N,07735.0959,W,2,08,1.26,164.4,M,-34.4,M,0000,0000*5F
$GPRMC,172420.500,A,4309.2683,N,07735.0954,W,4.70,91.70,090923,,,D*4C
$GPGGA,172420.750,4309.2684,N,07735.0948,W,2,08,1.26,164.2,M,-34.4,M,0000,0000*5A
$GPRMC,172421.000,A,4309.2686,N,07735.0944,W,4.90,79.71,090923,,,D*45
$GPGGA,172421.250,4309.2689,N,07735.0939,W,2,08,1.26,164.1,M,-34.4,M,0000,0000*56
$GPRMC,172421.500,A,4309.2692,N,07735.0935,W,5.43,62.83,090923,,,D*4B
$GPGGA,172421.750,4309.2699,N,07735.0929,W,2,08,1.26,163.8,M,-34.4,M,0000,0000*5D
$GPRMC,172422.000,A,4309.2706,N,07735.0923,W,5.69,54.48,090923,,,D*4C
$GPGGA,172422.250,4309.2714,N,07735.0919,W,2,08,1.26,163.4,M,-34.4,M,0000,0000*50
$GPRMC,172422.500,A,4309.2722,N,07735.0915,W,6.36,36.39,090923,,,D*41
$GPGGA,172422.750,4309.2729,N,07735.0912,W,2,08,1.26,163.1,M,-34.4,M,0000,0000*55
$GPRMC,172423.000,A,4309.2735,N,07735.0910,W,7.03,29.07,090923,,,D*42
$GPGGA,172423.250,4309.2740,N,07735.0909,W,2,08,1.26,162.9,M,-34.4,M,0000,0000*5D
$GPRMC,172423.500,A,4309.2746,N,07735.0907,W,7.66,23.82,090923,,,D*41
$GPGGA,172423.750,4309.2752,N,07735.0905,W,2,08,1.26,162.9,M,-34.4,M,0000,0000*57
$GPRMC,172424.000,A,4309.2758,N,07735.0904,W,8.20,20.63,090923,,,D*4E
$GPGGA,172424.250,4309.2764,N,07735.0902,W,2,08,1.26,162.9,M,-34.4,M,0000,0000*57
$GPRMC,172424.500,A,4309.2771,N,07735.0899,W,9.01,20.03,090923,,,D*41
$GPGGA,172424.750,4309.2778,N,07735.0896,W,2,08,1.26,162.8,M,-34.4,M,0000,0000*52
$GPRMC,172425.000,A,4309.2786,N,07735.0893,W,9.41,18.29,090923,,,D*40
$GPGGA,172425.250,4309.2794,N,07735.0889,W,2,08,1.26,162.5,M,-34.4,M,0000,0000*57
$GPRMC,172425.500,A,4309.2802,N,07735.0885,W,10.08,18.10,090923,,,D*7E
$GPGGA,172425.750,4309.2810,N,07735.0882,W,2,08,1.26,162.2,M,-34.4,M,0000,0000*5D
$GPRMC,172426.000,A,4309.2817,N,07735.0879,W,10.32,17.04,090923,,,D*7C
$GPGGA,172426.250,4309.2824,N,07735.0877,W,2,08,1.26,162.1,M,-34.4,M,0000,0000*55
$GPRMC,172426.500,A,4309.2831,N,07735.0874,W,10.21,16.92,090923,,,D*7C
$GPGGA,172426.750,4309.2838,N,07735.0871,W,2,08,1.26,162.1,M,-34.4,M,0000,0000*5B
$GPRMC,172427.000,A,4309.2844,N,07735.0868,W,9.96,18.08,090923,,,D*4E
$GPGGA,172427.250,4309.2851,N,07735.0864,W,2,08,1.26,162.2,M,-34.4,M,0000,0000*57
$GPRMC,172427.500,A,4309.2858,N,07735.0860,W,10.19,20.40,090923,,,D*76
$GPGGA,172427.750,4309.2866,N,07735.0856,W,2,08,1.26,161.8,M,-34.4,M,0000,0000*5E
$GPRMC,172428.000,A,4309.2874,N,07735.0852,W,10.62,20.28,090923,,,D*71
$GPGGA,172428.250,4309.2882,N,07735.0848,W,2,08,1.26,161.5,M,-34.4,M,0000,0000*5C
$GPRMC,172428.500,A,4309.2889,N,07735.0844,W,10.88,20.68,090923,,,D*71
$GPGGA,172428.750,4309.2897,N,07735.0840,W,2,08,1.26,161.3,M,-34.4,M,0000,0000*53
$GPRMC,172429.000,A,4309.2904,N,07735.0837,W,10.79,19.68,090923,,,D*71
$GPGGA,172429.250,4309.2911,N,07735.0833,W,2,08,1.26,161.1,M,-34.4,M,0000,0000*5E
$GPRMC,172429.500,A,4309.2919,N,07735.0827,W,10.79,20.80,090923,,,D*75
$GPGGA,172429.750,4309.2926,N,07735.0821,W,2,08,1.26,160.9,M,-34.4,M,0000,0000*55
$GPRMC,172430.000,A,4309.2933,N,07735.0819,W,10.49,20.18,090923,,,D*7F
$GPGGA,172430.250,4309.2940,N,07735.0815,W,2,08,1.26,160.8,M,-34.4,M,0000,0000*5E
$GPRMC,172430.500,A,4309.2947,N,07735.0811,W,10.59,18.33,090923,,,D*72
$GPGGA,172430.750,4309.2954,N,07735.0809,W,2,08,1.26,160.8,M,-34.4,M,0000,0000*53
$GPRMC,172431.000,A,4309.2960,N,07735.0806,W,10.64,18.06,090923,,,D*7D
$GPGGA,172431.250,4309.2966,N,07735.0804,W,2,08,1.26,160.8,M,-34.4,M,0000,0000*5B
$GPRMC,172431.500,A,4309.2973,N,07735.0801,W,10.64,18.00,090923,,,D*7B
$GPGGA,172431.750,4309.2979,N,07735.0797,W,2,08,1.26,160.7,M,-34.4,M,0000,0000*5A
$GPRMC,172432.000,A,4309.2986,N,07735.0793,W,10.57,19.94,090923,,,D*7F
$GPGGA,172432.250,4309.2993,N,07735.0789,W,2,08,1.26,160.7,M,-34.4,M,0000,0000*57
$GPRMC,172432.500,A,4309.3000,N,07735.0786,W,10.57,20.88,090923,,,D*7F
$GPGGA,172432.750,4309.3007,N,07735.0783,W,2,08,1.26,160.7,M,-34.4,M,0000,0000*5D
$GPRMC,172433.000,A,4309.3013,N,07735.0778,W,10.66,22.12,090923,,,D*7B
$GPGGA,172433.250,4309.3020,N,07735.0775,W,2,08,1.26,160.7,M,-34.4,M,0000,0000*55
$GPRMC,172433.500,A,4309.3027,N,07735.0770,W,10.74,22.66,090923,,,D*71
$GPGGA,172433.750,4309.3034,N,07735.0766,W,2,08,1.26,160.6,M,-34.4,M,0000,0000*56
$GPRMC,172434.000,A,4309.3041,N,07735.0763,W,10.95,21.78,090923,,,D*72
$GPGGA,172434.250,4309.3048,N,07735.0759,W,2,08,1.26,160.7,M,-34.4,M,0000,0000*52
$GPRMC,172434.500,A,4309.3054,N,07735.0756,W,10.62,18.91,090923,,,D*70
$GPGGA,172434.750,4309.3061,N,07735.0753,W,2,08,1.26,160.9,M,-34.4,M,0000,0000*58
$GPRMC,172435.000,A,4309.3068,N,07735.0750,W,10.59,17.72,090923,,,D*77
$GPGGA,172435.250,4309.3075,N,07735.0747,W,2,08,1.26,161.0,M,-34.4,M,0000,0000*54
$GPRMC,172435.500,A,4309.3083,N,07735.0743,W,11.03,18.81,090923,,,D*78
$GPGGA,172435.750,4309.3091,N,07735.0740,W,2,08,1.26,161.1,M,-34.4,M,0000,0000*5D
$GPRMC,172436.000,A,4309.3098,N,07735.0737,W,11.32,18.45,090923,,,D*7D
$GPGGA,172436.250,4309.3107,N,07735.0734,W,2,08,1.26,161.2,M,-34.4,M,0000,0000*55
$GPRMC,172436.500,A,4309.3114,N,07735.0730,W,11.66,18.89,090923,,,D*7B
$GPGGA,172436.750,4309.3123,N,07735.0727,W,2,08,1.26,161.4,M,-34.4,M,0000,0000*52
$GPRMC,172437.000,A,4309.3131,N,07735.0725,W,11.59,18.49,090923,,,D*7C
$GPGGA,172437.250,4309.3142,N,07735.0722,W,2,08,1.26,161.9,M,-34.4,M,0000,0000*59
$GPRMC,172437.500,A,4309.3152,N,07735.0719,W,11.68,17.95,090923,,,D*7F
$GPGGA,172437.750,4309.3159,N,07735.0717,W,2,08,1.26,162.1,M,-34.4,M,0000,0000*5B
$GPRMC,172438.000,A,4309.3166,N,07735.0714,W,11.64,16.80,090923,,,D*76
$GPGGA,172438.250,4309.3174,N,07735.0711,W,2,08,1.26,162.2,M,-34.4,M,0000,0000*5B
$GPRMC,172438.500,A,4309.3182,N,07735.0707,W,11.89,18.32,090923,,,D*7F
$GPGGA,172438.750,4309.3190,N,07735.0704,W,2,08,1.26,162.4,M,-34.4,M,0000,0000*56
$GPRMC,172439.000,A,4309.3197,N,07735.0701,W,11.85,19.05,090923,,,D*70
$GPGGA,172439.250,4309.3204,N,07735.0698,W,2,08,1.26,162.4,M,-34.4,M,0000,0000*58
$GPRMC,172439.500,A,4309.3213,N,07735.0694,W,12.08,18.88,090923,,,D*75
$GPGGA,172439.750,4309.3220,N,07735.0691,W,2,08,1.26,162.6,M,-34.4,M,0000,0000*50
$GPRMC,172440.000,A,4309.3227,N,07735.0688,W,11.98,18.50,090923,,,D*7B
$GPGGA,172440.250,4309.3234,N,07735.0685,W,2,08,1.26,162.6,M,-34.4,M,0000,0000*5B
$GPRMC,172440.500,A,4309.3241,N,07735.0683,W,11.75,17.10,090923,,,D*7D
$GPGGA,172440.750,4309.3248,N,07735.0680,W,2,08,1.26,162.7,M,-34.4,M,0000,0000*51
$GPRMC,172441.000,A,4309.3256,N,07735.0677,W,11.84,17.47,090923,,,D*78
$GPGGA,172441.250,4309.3264,N,07735.0674,W,2,08,1.26,162.7,M,-34.4,M,0000,0000*50
$GPRMC,172441.500,A,4309.3271,N,07735.0671,W,11.79,18.91,090923,,,D*78
$GPGGA,172441.750,4309.3278,N,07735.0668,W,2,08,1.26,162.7,M,-34.4,M,0000,0000*55
$GPRMC,172442.000,A,4309.3286,N,07735.0666,W,11.94,19.97,090923,,,D*74
$GPGGA,172442.250,4309.3293,N,07735.0662,W,2,08,1.26,162.8,M,-34.4,M,0000,0000*53
$GPRMC,172442.500,A,4309.3301,N,07735.0658,W,11.64,21.77,090923,,,D*78
$GPGGA,172442.750,4309.3308,N,07735.0655,W,2,08,1.26,163.0,M,-34.4,M,0000,0000*58
$GPRMC,172443.000,A,4309.3315,N,07735.0651,W,11.57,21.72,090923,,,D*75
$GPGGA,172443.250,4309.3322,N,07735.0647,W,2,08,1.26,163.0,M,-34.4,M,0000,0000*57
$GPRMC,172443.500,A,4309.3329,N,07735.0643,W,11.16,22.38,090923,,,D*74
$GPGGA,172443.750,4309.3336,N,07735.0639,W,2,08,1.26,163.0,M,-34.4,M,0000,0000*5E
$GPRMC,172444.000,A,4309.3343,N,07735.0635,W,10.64,22.82,090923,,,D*7E
$GPGGA,172444.250,4309.3348,N,07735.0632,W,2,08,1.26,163.0,M,-34.4,M,0000,0000*5E
$GPRMC,172444.500,A,4309.3355,N,07735.0629,W,9.61,22.22,090923,,,D*46
$GPGGA,172444.750,4309.3360,N,07735.0626,W,2,08,1.26,163.0,M,-34.4,M,0000,0000*54
$GPRMC,172445.000,A,4309.3367,N,07735.0624,W,8.42,21.22,090923,,,D*4D
$GPGGA,172445.250,4309.3373,N,07735.0620,W,2,08,1.26,163.0,M,-34.4,M,0000,0000*54
$GPRMC,172445.500,A,4309.3379,N,07735.0618,W,6.71,17.98,090923,,,D*42
$GPGGA,172445.750,4309.3384,N,07735.0618,W,2,08,1.26,163.3,M,-34.4,M,0000,0000*51
$GPRMC,172446.000,A,4309.3387,N,07735.0616,W,5.12,16.18,090923,,,D*44
$GPGGA,172446.250,4309.3390,N,07735.0615,W,2,08,1.26,163.4,M,-34.4,M,0000,0000*58
$GPRMC,172446.500,A,4309.3392,N,07735.0614,W,3.47,17.93,090923,,,D*43
$GPGGA,172446.750,4309.3394,N,07735.0612,W,2,08,1.21,163.2,M,-34.4,M,0000,0000*5F
$GPRMC,172447.000,A,4309.3395,N,07735.0611,W,1.79,17.93,090923,,,D*4A
$GPGGA,172447.250,4309.3395,N,07735.0609,W,2,08,1.21,163.3,M,-34.4,M,0000,0000*51
$GPRMC,172447.500,A,4309.3394,N,07735.0608,W,0.75,17.93,090923,,,D*4B
$GPGGA,172447.750,4309.3392,N,07735.0607,W,2,08,1.26,163.3,M,-34.4,M,0000,0000*5A
$GPRMC,172448.000,A,4309.3392,N,07735.0606,W,0.36,17.93,090923,,,D*4E
$GPGGA,172448.250,4309.3391,N,07735.0606,W,2,08,1.26,163.0,M,-34.4,M,0000,0000*51
$GPRMC,172448.500,A,4309.3390,N,07735.0604,W,0.12,17.93,090923,,,D*4D
$GPGGA,172448.750,4309.3389,N,07735.0603,W,2,08,1.21,163.1,M,-34.4,M,0000,0000*5E
$GPRMC,172449.000,A,4309.3389,N,07735.0603,W,0.05,17.93,090923,,,D*40
$GPGGA,172449.250,4309.3388,N,07735.0603,W,2,08,1.21,163.1,M,-34.4,M,0000,0000*5B
$GPRMC,172449.500,A,4309.3388,N,07735.0602,W,0.03,17.93,090923,,,D*43
$GPGGA,172449.750,4309.3387,N,07735.0602,W,2,08,1.21,163.1,M,-34.4,M,0000,0000*50
$GPRMC,172450.000,A,4309.3386,N,07735.0602,W,0.02,17.93,090923,,,D*41
$GPGGA,172450.250,4309.3385,N,07735.0602,W,2,08,1.21,163.0,M,-34.4,M,0000,0000*5E
$GPRMC,172450.500,A,4309.3385,N,07735.0602,W,0.07,17.93,090923,,,D*42
$GPGGA,172450.750,4309.3385,N,07735.0602,W,2,08,1.21,163.0,M,-34.4,M,0000,0000*5B
$GPRMC,172451.000,A,4309.3385,N,07735.0602,W,0.04,17.93,090923,,,D*45
$GPGGA,172451.250,4309.3385,N,07735.0602,W,2,08,1.26,163.0,M,-34.4,M,0000,0000*58
$GPRMC,172451.500,A,4309.3385,N,07735.0602,W,0.02,17.93,090923,,,D*46
$GPGGA,172451.750,4309.3385,N,07735.0602,W,2,08,1.21,163.0,M,-34.4,M,0000,0000*5A
$GPRMC,172452.000,A,4309.3385,N,07735.0602,W,0.05,17.93,090923,,,D*47
$GPGGA,172452.250,4309.3385,N,07735.0602,W,2,08,1.21,163.0,M,-34.4,M,0000,0000*5C
$GPRMC,172452.500,A,4309.3385,N,07735.0602,W,0.04,17.93,090923,,,D*43
$GPGGA,172452.750,4309.3385,N,07735.0602,W,2,08,1.21,163.0,M,-34.4,M,0000,0000*59
$GPRMC,172453.000,A,4309.3385,N,07735.0602,W,0.02,17.93,090923,,,D*41
$GPGGA,172453.250,4309.3385,N,07735.0602,W,2,08,1.21,163.0,M,-34.4,M,0000,0000*5D
$GPRMC,172453.500,A,4309.3385,N,07735.0602,W,0.02,17.93,090923,,,D*44
$GPGGA,172453.750,4309.3385,N,07735.0602,W,2,08,1.21,162.9,M,-34.4,M,0000,0000*50
$GPRMC,172454.000,A,4309.3385,N,07735.0602,W,0.01,17.93,090923,,,D*45
$GPGGA,172454.250,4309.3385,N,07735.0602,W,2,08,1.21,162.9,M,-34.4,M,0000,0000*52
$GPRMC,172454.500,A,4309.3385,N,07735.0602,W,0.03,17.93,090923,,,D*42
$GPGGA,172454.750,4309.3385,N,07735.0602,W,2,08,1.21,162.9,M,-34.4,M,0000,0000*57
$GPRMC,172455.000,A,4309.3385,N,07735.0602,W,0.04,17.93,090923,,,D*41
$GPGGA,172455.250,4309.3385,N,07735.0602,W,2,08,1.21,162.9,M,-34.4,M,0000,0000*53
$GPRMC,172455.500,A,4309.3385,N,07735.0602,W,0.03,17.93,090923,,,D*43
$GPGGA,172455.750,4309.3385,N,07735.0602,W,2,08,1.21,163.0,M,-34.4,M,0000,0000*5E
$GPRMC,172456.000,A,4309.3385,N,07735.0602,W,0.03,17.93,090923,,,D*45
$GPGGA,172456.250,4309.3385,N,07735.0602,W,2,08,1.21,163.0,M,-34.4,M,0000,0000*58
$GPRMC,172456.500,A,4309.3385,N,07735.0602,W,0.04,17.93,090923,,,D*47
$GPGGA,172456.750,4309.3385,N,07735.0602,W,2,08,1.21,163.0,M,-34.4,M,0000,0000*5D
$GPRMC,172457.000,A,4309.3385,N,07735.0602,W,0.05,17.93,090923,,,D*42
$GPGGA,172457.250,4309.3385,N,07735.0602,W,2,08,1.26,163.0,M,-34.4,M,0000,0000*5E
$GPRMC,172457.500,A,4309.3385,N,07735.0602,W,0.07,17.93,090923,,,D*45
$GPGGA,172457.750,4309.3385,N,07735.0602,W,2,08,1.21,163.0,M,-34.4,M,0000,0000*5C
$GPRMC,172458.000,A,4309.3385,N,07735.0602,W,0.01,17.93,090923,,,D*49
$GPGGA,172458.250,4309.3385,N,07735.0602,W,2,08,1.21,163.0,M,-34.4,M,0000,0000*56
$GPRMC,172458.500,A,4309.3385,N,07735.0602,W,0.02,17.93,090923,,,D*4F
$GPGGA,172458.750,4309.3385,N,07735.0602,W,2,08,1.21,162.9,M,-34.4,M,0000,0000*5B
$GPRMC,172459.000,A,4309.3385,N,07735.0602,W,0.01,17.93,090923,,,D*48
$GPGGA,172459.250,4309.3385,N,07735.0602,W,2,08,1.21,162.9,M,-34.4,M,0000,0000*5F
$GPRMC,172459.500,A,4309.3385,N,07735.0602,W,0.03,17.93,090923,,,D*4F
$GPGGA,172459.750,4309.3385,N,07735.0602,W,2,08,1.21,162.9,M,-34.4,M,0000,0000*5A
$GPRMC,172500.000,A,4309.3385,N,07735.0602,W,0.06,17.93,090923,,,D*42
$GPGGA,172500.250,4309.3385,N,07735.0602,W,2,08,1.26,162.9,M,-34.4,M,0000,0000*55
$GPRMC,172500.500,A,4309.3385,N,07735.0602,W,0.12,17.93,090923,,,D*42
$GPGGA,172500.750,4309.3386,N,07735.0602,W,2,08,1.26,163.0,M,-34.4,M,0000,0000*5B
$GPRMC,172501.000,A,4309.3386,N,07735.0602,W,0.00,17.93,090923,,,D*46
$GPGGA,172501.250,4309.3386,N,07735.0602,W,2,08,1.26,163.0,M,-34.4,M,0000,0000*5F
$GPRMC,172501.500,A,4309.3386,N,07735.0602,W,0.10,17.93,090923,,,D*42
$GPGGA,172501.750,4309.3386,N,07735.0602,W,2,08,1.26,163.0,M,-34.4,M,0000,0000*5A
$GPRMC,172502.000,A,4309.3386,N,07735.0602,W,0.00,17.93,090923,,,D*45
$GPGGA,172502.250,4309.3386,N,07735.0602,W,2,08,1.26,163.0,M,-34.4,M,0000,0000*5C
$GPRMC,172502.500,A,4309.3386,N,07735.0602,W,0.00,17.93,090923,,,D*40
$GPGGA,172502.750,4309.3386,N,07735.0602,W,2,08,1.26,163.0,M,-34.4,M,0000,0000*59
$GPRMC,172503.000,A,4309.3386,N,07735.0602,W,0.00,17.93,090923,,,D*44
$GPGGA,172503.250,4309.3386,N,07735.0602,W,2,08,1.26,163.0,M,-34.4,M,0000,0000*5D
$GPRMC,172503.500,A,4309.3386,N,07735.0602,W,0.12,17.93,090923,,,D*42
$GPGGA,172503.750,4309.3386,N,07735.0602,W,2,08,1.26,162.9,M,-34.4,M,0000,0000*50
$GPRMC,172504.000,A,4309.3386,N,07735.0602,W,0.06,17.93,090923,,,D*45
$GPGGA,172504.250,4309.3386,N,07735.0602,W,2,08,1.26,162.9,M,-34.4,M,0000,0000*52
$GPRMC,172504.500,A,4309.3386,N,07735.0602,W,0.08,17.93,090923,,,D*4E
$GPGGA,172504.750,4309.3386,N,07735.0602,W,2,08,1.26,162.9,M,-34.4,M,0000,0000*57
$GPRMC,172505.000,A,4309.3386,N,07735.0602,W,0.03,17.93,090923,,,D*41
$GPGGA,172505.250,4309.3386,N,07735.0602,W,2,08,1.26,162.9,M,-34.4,M,0000,0000*53
$GPRMC,172505.500,A,4309.3386,N,07735.0602,W,0.02,17.93,090923,,,D*45
$GPGGA,172505.750,4309.3386,N,07735.0602,W,2,08,1.26,162.9,M,-34.4,M,0000,0000*56
$GPRMC,172506.000,A,4309.3386,N,07735.0602,W,0.01,17.93,090923,,,D*40
$GPGGA,172506.250,4309.3386,N,07735.0602,W,2,08,1.26,162.9,M,-34.4,M,0000,0000*50
$GPRMC,172506.500,A,4309.3386,N,07735.0602,W,0.01,17.93,090923,,,D*45
$GPGGA,172506.750,4309.3386,N,07735.0602,W,2,08,1.26,162.9,M,-34.4,M,0000,0000*55
$GPRMC,172507.000,A,4309.3386,N,07735.0602,W,0.01,17.93,090923,,,D*41
$GPGGA,172507.250,4309.3386,N,07735.0602,W,2,08,1.26,162.9,M,-34.4,M,0000,0000*51
$GPRMC,172507.500,A,4309.3386,N,07735.0601,W,0.03,17.93,090923,,,D*45
$GPGGA,172507.750,4309.3386,N,07735.0601,W,2,08,1.26,162.9,M,-34.4,M,0000,0000*57
$GPRMC,172508.000,A,4309.3386,N,07735.0601,W,0.01,17.93,090923,,,D*4D
$GPGGA,172508.250,4309.3386,N,07735.0601,W,2,08,1.26,162.9,M,-34.4,M,0000,0000*5D
$GPRMC,172508.500,A,4309.3386,N,07735.0601,W,0.05,17.93,090923,,,D*4C
$GPGGA,172508.750,4309.3386,N,07735.0601,W,2,08,1.26,162.9,M,-34.4,M,0000,0000*58
$GPRMC,172509.000,A,4309.3386,N,07735.0601,W,0.02,17.93,090923,,,D*4F
$GPGGA,172509.250,4309.3386,N,07735.0601,W,2,08,1.26,162.9,M,-34.4,M,0000,0000*5C
$GPRMC,172509.500,A,4309.3386,N,07735.0601,W,0.04,17.93,090923,,,D*4C
$GPGGA,172509.750,4309.3386,N,07735.0601,W,2,08,1.26,162.9,M,-34.4,M,0000,0000*59
$GPRMC,172510.000,A,4309.3386,N,07735.0601,W,0.01,17.93,090923,,,D*44
$GPGGA,172510.250,4309.3386,N,07735.0601,W,2,08,1.26,162.9,M,-34.4,M,0000,0000*54
$GPRMC,172510.500,A,4309.3386,N,07735.0601,W,0.05,17.93,090923,,,D*45
$GPGGA,172510.750,4309.3386,N,07735.0601,W,2,08,1.26,162.9,M,-34.4,M,0000,0000*51
$GPRMC,172511.000,A,4309.3386,N,07735.0601,W,0.09,17.93,090923,,,D*4D
$GPGGA,172511.250,4309.3386,N,07735.0601,W,2,08,1.26,162.9,M,-34.4,M,0000,0000*55
$GPRMC,172511.500,A,4309.3386,N,07735.0601,W,0.40,17.93,090923,,,D*45
$GPGGA,172511.750,4309.3386,N,07735.0601,W,2,08,1.21,162.9,M,-34.4,M,0000,0000*57
$GPRMC,172512.000,A,4309.3387,N,07735.0601,W,2.14,17.93,090923,,,D*41
$GPGGA,172512.250,4309.3388,N,07735.0599,W,2,08,1.21,162.9,M,-34.4,M,0000,0000*5D
$GPRMC,172512.500,A,4309.3390,N,07735.0597,W,2.21,43.45,090923,,,D*42
$GPGGA,172512.750,4309.3391,N,07735.0595,W,2,08,1.21,162.8,M,-34.4,M,0000,0000*5D
$GPRMC,172513.000,A,4309.3392,N,07735.0593,W,2.71,49.35,090923,,,D*48
$GPGGA,172513.250,4309.3393,N,07735.0591,W,2,08,1.21,162.8,M,-34.4,M,0000,0000*5F
$GPRMC,172513.500,A,4309.3395,N,07735.0588,W,3.20,56.15,090923,,,D*49
$GPGGA,172513.750,4309.3396,N,07735.0585,W,2,08,1.21,162.7,M,-34.4,M,0000,0000*55
$GPRMC,172514.000,A,4309.3397,N,07735.0582,W,3.81,59.85,090923,,,D*4E
$GPGGA,172514.250,4309.3398,N,07735.0578,W,2,08,1.21,162.8,M,-34.4,M,0000,0000*54
$GPRMC,172514.500,A,4309.3400,N,07735.0574,W,4.44,62.42,090923,,,D*46
$GPGGA,172514.750,4309.3400,N,07735.0570,W,2,08,1.26,162.9,M,-34.4,M,0000,0000*59
$GPRMC,172515.000,A,4309.3401,N,07735.0565,W,4.86,74.48,090923,,,D*40
$GPGGA,172515.250,4309.3402,N,07735.0560,W,2,08,1.26,163.1,M,-34.4,M,0000,0000*57
$GPRMC,172515.500,A,4309.3402,N,07735.0556,W,4.95,82.89,090923,,,D*40
$GPGGA,172515.750,4309.3401,N,07735.0552,W,2,08,1.26,163.3,M,-34.4,M,0000,0000*52
$GPRMC,172516.000,A,4309.3401,N,07735.0546,W,5.15,89.99,090923,,,D*47
$GPGGA,172516.250,4309.3400,N,07735.0541,W,2,08,1.26,163.5,M,-34.4,M,0000,0000*51
$GPRMC,172516.500,A,4309.3399,N,07735.0535,W,6.16,98.19,090923,,,D*48
$GPGGA,172516.750,4309.3397,N,07735.0529,W,2,08,1.26,163.8,M,-34.4,M,0000,0000*5E
$GPRMC,172517.000,A,4309.3395,N,07735.0523,W,6.77,103.83,090923,,,D*70
$GPGGA,172517.250,4309.3393,N,07735.0517,W,2,08,1.26,164.0,M,-34.4,M,0000,0000*5C
$GPRMC,172517.500,A,4309.3392,N,07735.0510,W,7.42,104.97,090923,,,D*77
$GPGGA,172517.750,4309.3390,N,07735.0503,W,2,07,1.65,164.2,M,-34.4,M,0000,0000*55
$GPRMC,172518.000,A,4309.3388,N,07735.0496,W,7.97,105.55,090923,,,D*7E
$GPGGA,172518.250,4309.3386,N,07735.0488,W,2,08,1.26,164.5,M,-34.4,M,0000,0000*55
$GPRMC,172518.500,A,4309.3384,N,07735.0480,W,8.41,105.81,090923,,,D*7D
$GPGGA,172518.750,4309.3382,N,07735.0472,W,2,07,1.65,164.7,M,-34.4,M,0000,0000*5B
$GPRMC,172519.000,A,4309.3380,N,07735.0464,W,9.01,107.36,090923,,,D*7C
$GPGGA,172519.250,4309.3376,N,07735.0455,W,2,07,1.65,164.9,M,-34.4,M,0000,0000*5F
$GPRMC,172519.500,A,4309.3373,N,07735.0445,W,9.97,109.19,090923,,,D*7A
$GPGGA,172519.750,4309.3370,N,07735.0436,W,2,08,1.26,165.0,M,-34.4,M,0000,0000*59
$GPRMC,172520.000,A,4309.3367,N,07735.0427,W,10.78,109.35,090923,,,D*43
$GPGGA,172520.250,4309.3364,N,07735.0416,W,2,08,1.26,165.1,M,-34.4,M,0000,0000*50
$GPRMC,172520.500,A,4309.3360,N,07735.0405,W,11.88,110.33,090923,,,D*41
$GPGGA,172520.750,4309.3357,N,07735.0394,W,2,08,1.26,165.2,M,-34.4,M,0000,0000*5B
$GPRMC,172521.000,A,4309.3354,N,07735.0384,W,12.49,111.54,090923,,,D*42
$GPGGA,172521.250,4309.3351,N,07735.0372,W,2,08,1.26,165.2,M,-34.4,M,0000,0000*51
$GPRMC,172521.500,A,4309.3348,N,07735.0360,W,13.43,111.64,090923,,,D*48
$GPGGA,172521.750,4309.3344,N,07735.0347,W,2,08,1.26,165.1,M,-34.4,M,0000,0000*55
$GPRMC,172522.000,A,4309.3341,N,07735.0334,W,14.06,111.08,090923,,,D*4A
$GPGGA,172522.250,4309.3338,N,07735.0321,W,2,08,1.26,165.1,M,-34.4,M,0000,0000*58
$GPRMC,172522.500,A,4309.3334,N,07735.0308,W,14.63,110.79,090923,,,D*46
$GPGGA,172522.750,4309.3331,N,07735.0294,W,2,08,1.26,165.1,M,-34.4,M,0000,0000*5B
$GPRMC,172523.000,A,4309.3328,N,07735.0281,W,14.91,110.45,090923,,,D*4D
$GPGGA,172523.250,4309.3324,N,07735.0267,W,2,08,1.26,165.1,M,-34.4,M,0000,0000*57
$GPRMC,172523.500,A,4309.3321,N,07735.0253,W,15.17,110.47,090923,,,D*43
$GPGGA,172523.750,4309.3319,N,07735.0238,W,2,08,1.26,165.0,M,-34.4,M,0000,0000*57
$GPRMC,172524.000,A,4309.3316,N,07735.0223,W,15.43,112.43,090923,,,D*45
$GPGGA,172524.250,4309.3313,N,07735.0209,W,2,08,1.26,164.9,M,-34.4,M,0000,0000*55
$GPRMC,172524.500,A,4309.3309,N,07735.0194,W,15.62,113.68,090923,,,D*4A
$GPGGA,172524.750,4309.3306,N,07735.0178,W,2,08,1.26,164.7,M,-34.4,M,0000,0000*5F
$GPRMC,172525.000,A,4309.3303,N,07735.0163,W,15.68,113.19,090923,,,D*40
$GPGGA,172525.250,4309.3300,N,07735.0148,W,2,08,1.26,164.5,M,-34.4,M,0000,0000*5C
$GPRMC,172525.500,A,4309.3296,N,07735.0132,W,16.16,113.39,090923,,,D*44
$GPGGA,172525.750,4309.3292,N,07735.0116,W,2,08,1.26,164.2,M,-34.4,M,0000,0000*5F
$GPRMC,172526.000,A,4309.3289,N,07735.0101,W,16.54,113.52,090923,,,D*47
$GPGGA,172526.250,4309.3285,N,07735.0085,W,2,08,1.26,163.9,M,-34.4,M,0000,0000*58
$GPRMC,172526.500,A,4309.3281,N,07735.0070,W,16.85,113.19,090923,,,D*4E
$GPGGA,172526.750,4309.3278,N,07735.0054,W,2,08,1.26,163.7,M,-34.4,M,0000,0000*5D
$GPRMC,172527.000,A,4309.3276,N,07735.0037,W,16.89,112.88,090923,,,D*44
$GPGGA,172527.250,4309.3274,N,07735.0020,W,2,08,1.26,163.5,M,-34.4,M,0000,0000*54
$GPRMC,172527.500,A,4309.3272,N,07735.0005,W,16.73,112.07,090923,,,D*46
$GPGGA,172527.750,4309.3269,N,07734.9990,W,2,08,1.26,163.3,M,-34.4,M,0000,0000*51
$GPRMC,172528.000,A,4309.3266,N,07734.9975,W,16.63,111.93,090923,,,D*40
$GPGGA,172528.250,4309.3263,N,07734.9960,W,2,08,1.26,163.1,M,-34.4,M,0000,0000*5C
$GPRMC,172528.500,A,4309.3259,N,07734.9945,W,16.27,111.59,090923,,,D*4C
$GPGGA,172528.750,4309.3256,N,07734.9931,W,2,08,1.26,162.9,M,-34.4,M,0000,0000*52
$GPRMC,172529.000,A,4309.3253,N,07734.9917,W,16.18,111.73,090923,,,D*41
$GPGGA,172529.250,4309.3249,N,07734.9903,W,2,08,1.26,162.8,M,-34.4,M,0000,0000*58
$GPRMC,172529.500,A,4309.3244,N,07734.9889,W,15.72,112.23,090923,,,D*4D
$GPGGA,172529.750,4309.3240,N,07734.9876,W,2,08,1.26,162.7,M,-34.4,M,0000,0000*58
$GPRMC,172530.000,A,4309.3235,N,07734.9863,W,15.29,112.32,090923,,,D*4C
$GPGGA,172530.250,4309.3230,N,07734.9850,W,2,08,1.26,162.6,M,-34.4,M,0000,0000*57
$GPRMC,172530.500,A,4309.3225,N,07734.9838,W,14.37,112.66,090923,,,D*49
$GPGGA,172530.750,4309.3221,N,07734.9826,W,2,08,1.26,162.7,M,-34.4,M,0000,0000*52
$GPRMC,172531.000,A,4309.3217,N,07734.9814,W,13.69,112.34,090923,,,D*49
$GPGGA,172531.250,4309.3213,N,07734.9803,W,2,08,1.26,162.8,M,-34.4,M,0000,0000*5F
$GPRMC,172531.500,A,4309.3209,N,07734.9792,W,12.84,110.42,090923,,,D*43
$GPGGA,172531.750,4309.3205,N,07734.9782,W,2,08,1.26,162.9,M,-34.4,M,0000,0000*5A
$GPRMC,172532.000,A,4309.3201,N,07734.9771,W,12.12,110.88,090923,,,D*49
$GPGGA,172532.250,4309.3197,N,07734.9761,W,2,08,1.26,162.9,M,-34.4,M,0000,0000*59
$GPRMC,172532.500,A,4309.3193,N,07734.9752,W,11.39,112.10,090923,,,D*4C
$GPGGA,172532.750,4309.3190,N,07734.9743,W,2,08,1.26,163.0,M,-34.4,M,0000,0000*53
$GPRMC,172533.000,A,4309.3186,N,07734.9733,W,10.73,113.66,090923,,,D*44
$GPGGA,172533.250,4309.3182,N,07734.9725,W,2,08,1.26,163.1,M,-34.4,M,0000,0000*55
$GPRMC,172533.500,A,4309.3177,N,07734.9717,W,9.92,116.16,090923,,,D*7C
$GPGGA,172533.750,4309.3173,N,07734.9709,W,2,08,1.26,163.2,M,-34.4,M,0000,0000*53
$GPRMC,172534.000,A,4309.3169,N,07734.9701,W,9.18,116.51,090923,,,D*77
$GPGGA,172534.250,4309.3165,N,07734.9695,W,2,08,1.26,163.1,M,-34.4,M,0000,0000*51
$GPRMC,172534.500,A,4309.3162,N,07734.9688,W,8.14,118.62,090923,,,D*7A
$GPGGA,172534.750,4309.3156,N,07734.9683,W,2,08,1.26,163.1,M,-34.4,M,0000,0000*53
$GPRMC,172535.000,A,4309.3152,N,07734.9678,W,6.88,118.51,090923,,,D*79
$GPGGA,172535.250,4309.3149,N,07734.9673,W,2,08,1.26,163.2,M,-34.4,M,0000,0000*55
$GPRMC,172535.500,A,4309.3146,N,07734.9668,W,5.69,117.62,090923,,,D*7B
$GPGGA,172535.750,4309.3144,N,07734.9663,W,2,08,1.26,163.1,M,-34.4,M,0000,0000*5F
$GPRMC,172536.000,A,4309.3142,N,07734.9659,W,4.69,121.23,090923,,,D*7A
$GPGGA,172536.250,4309.3140,N,07734.9656,W,2,08,1.26,163.0,M,-34.4,M,0000,0000*5A
$GPRMC,172536.500,A,4309.3139,N,07734.9653,W,3.92,124.66,090923,,,D*7E
$GPGGA,172536.750,4309.3138,N,07734.9651,W,2,08,1.26,163.1,M,-34.4,M,0000,0000*56
$GPRMC,172537.000,A,4309.3138,N,07734.9648,W,3.03,126.27,090923,,,D*7E
$GPGGA,172537.250,4309.3137,N,07734.9647,W,2,08,1.21,162.9,M,-34.4,M,0000,0000*54
$GPRMC,172537.500,A,4309.3137,N,07734.9646,W,2.02,126.27,090923,,,D*7A
$GPGGA,172537.750,4309.3138,N,07734.9645,W,2,08,1.21,162.8,M,-34.4,M,0000,0000*5D
$GPRMC,172538.000,A,4309.3139,N,07734.9644,W,1.17,126.27,090923,,,D*7B
$GPGGA,172538.250,4309.3140,N,07734.9643,W,2,08,1.21,162.5,M,-34.4,M,0000,0000*53
$GPRMC,172538.500,A,4309.3141,N,07734.9643,W,0.51,126.27,090923,,,D*75
$GPGGA,172538.750,4309.3143,N,07734.9643,W,2,08,1.21,162.3,M,-34.4,M,0000,0000*53
$GPRMC,172539.000,A,4309.3145,N,07734.9644,W,0.37,126.27,090923,,,D*72
$GPGGA,172539.250,4309.3146,N,07734.9644,W,2,08,1.21,162.2,M,-34.4,M,0000,0000*54
$GPRMC,172539.500,A,4309.3148,N,07734.9645,W,0.33,126.27,090923,,,D*7F
$GPGGA,172539.750,4309.3150,N,07734.9645,W,2,08,1.21,162.1,M,-34.4,M,0000,0000*54
$GPRMC,172540.000,A,4309.3151,N,07734.9646,W,0.35,126.27,090923,,,D*79
$GPGGA,172540.250,4309.3152,N,07734.9646,W,2,08,1.21,162.0,M,-34.4,M,0000,0000*5F
$GPRMC,172540.500,A,4309.3152,N,07734.9646,W,0.40,245.55,090923,,,D*7E
$GPGGA,172540.750,4309.3153,N,07734.9647,W,2,08,1.21,161.9,M,-34.4,M,0000,0000*50
$GPRMC,172541.000,A,4309.3152,N,07734.9647,W,0.41,262.23,090923,,,D*7E
$GPGGA,172541.250,4309.3152,N,07734.9648,W,2,08,1.21,161.9,M,-34.4,M,0000,0000*5A
$GPRMC,172541.500,A,4309.3152,N,07734.9648,W,0.42,274.99,090923,,,D*71
$GPGGA,172541.750,4309.3152,N,07734.9648,W,2,08,1.21,161.9,M,-34.4,M,0000,0000*5F
$GPRMC,172542.000,A,4309.3152,N,07734.9649,W,0.43,276.52,090923,,,D*72
$GPGGA,172542.250,4309.3152,N,07734.9649,W,2,08,1.21,161.9,M,-34.4,M,0000,0000*58
$GPRMC,172542.500,A,4309.3153,N,07734.9650,W,0.38,277.72,090923,,,D*71
$GPGGA,172542.750,4309.3153,N,07734.9650,W,2,08,1.21,161.9,M,-34.4,M,0000,0000*54
$GPRMC,172543.000,A,4309.3153,N,07734.9650,W,0.31,278.04,090923,,,D*72
$GPGGA,172543.250,4309.3153,N,07734.9650,W,2,08,1.21,161.9,M,-34.4,M,0000,0000*50
$GPRMC,172543.500,A,4309.3153,N,07734.9651,W,0.21,277.34,090923,,,D*7B
$GPGGA,172543.750,4309.3152,N,07734.9651,W,2,08,1.21,161.9,M,-34.4,M,0000,0000*55
$GPRMC,172544.000,A,4309.3152,N,07734.9651,W,0.14,276.19,090923,,,D*70
$GPGGA,172544.250,4309.3152,N,07734.9651,W,2,08,1.21,161.9,M,-34.4,M,0000,0000*57
$GPRMC,172544.500,A,4309.3152,N,07734.9651,W,0.05,275.22,090923,,,D*7E
$GPGGA,172544.750,4309.3152,N,07734.9651,W,2,08,1.21,161.9,M,-34.4,M,0000,0000*52
$GPRMC,172545.000,A,4309.3152,N,07734.9651,W,0.06,274.19,090923,,,D*70
$GPGGA,172545.250,4309.3152,N,07734.9651,W,2,08,1.21,161.9,M,-34.4,M,0000,0000*56
$GPRMC,172545.500,A,4309.3152,N,07734.9651,W,0.14,271.15,090923,,,D*7F
$GPGGA,172545.750,4309.3152,N,07734.9651,W,2,08,1.21,161.9,M,-34.4,M,0000,0000*53
$GPRMC,172546.000,A,4309.3152,N,07734.9651,W,0.20,265.02,090923,,,D*7D
$GPGGA,172546.250,4309.3152,N,07734.9651,W,2,08,1.21,161.9,M,-34.4,M,0000,0000*55
$GPRMC,172546.500,A,4309.3151,N,07734.9651,W,0.21,261.27,090923,,,D*79
$GPGGA,172546.750,4309.3151,N,07734.9651,W,2,08,1.21,161.9,M,-34.4,M,0000,0000*53
$GPRMC,172547.000,A,4309.3151,N,07734.9651,W,0.23,261.27,090923,,,D*7F
$GPGGA,172547.250,4309.3151,N,07734.9651,W,2,08,1.21,161.8,M,-34.4,M,0000,0000*56
$GPRMC,172547.500,A,4309.3151,N,07734.9651,W,0.32,261.27,090923,,,D*7A
$GPGGA,172547.750,4309.3151,N,07734.9650,W,2,08,1.21,161.8,M,-34.4,M,0000,0000*52
$GPRMC,172548.000,A,4309.3151,N,07734.9650,W,0.00,261.27,090923,,,D*70
$GPGGA,172548.250,4309.3151,N,07734.9650,W,2,08,1.26,161.8,M,-34.4,M,0000,0000*5F
$GPRMC,172548.500,A,4309.3151,N,07734.9650,W,0.00,261.27,090923,,,D*75
$GPGGA,172548.750,4309.3151,N,07734.9650,W,2,08,1.21,161.8,M,-34.4,M,0000,0000*5D
$GPRMC,172549.000,A,4309.3151,N,07734.9650,W,0.73,261.27,090923,,,D*75
$GPGGA,172549.250,4309.3151,N,07734.9649,W,2,08,1.21,161.8,M,-34.4,M,0000,0000*51
$GPRMC,172549.500,A,4309.3151,N,07734.9647,W,1.84,110.16,090923,,,D*78
$GPGGA,172549.750,4309.3150,N,07734.9646,W,2,08,1.21,161.8,M,-34.4,M,0000,0000*5A
$GPRMC,172550.000,A,4309.3150,N,07734.9641,W,4.29,104.07,090923,,,D*75
$GPGGA,172550.250,4309.3155,N,07734.9634,W,2,08,1.26,161.8,M,-34.4,M,0000,0000*50
$GPRMC,172550.500,A,4309.3156,N,07734.9627,W,6.17,109.19,090923,,,D*7B
$GPGGA,172550.750,4309.3155,N,07734.9620,W,2,08,1.26,161.8,M,-34.4,M,0000,0000*50
$GPRMC,172551.000,A,4309.3154,N,07734.9613,W,7.36,111.10,090923,,,D*78
$GPGGA,172551.250,4309.3152,N,07734.9605,W,2,08,1.26,161.8,M,-34.4,M,0000,0000*54
$GPRMC,172551.500,A,4309.3150,N,07734.9598,W,8.64,109.91,090923,,,D*71
$GPGGA,172551.750,4309.3148,N,07734.9589,W,2,08,1.26,161.8,M,-34.4,M,0000,0000*5D
$GPRMC,172552.000,A,4309.3144,N,07734.9581,W,9.35,108.89,090923,,,D*77
$GPGGA,172552.250,4309.3141,N,07734.9572,W,2,08,1.26,161.9,M,-34.4,M,0000,0000*57
$GPRMC,172552.500,A,4309.3137,N,07734.9563,W,10.16,109.35,090923,,,D*45
$GPGGA,172552.750,4309.3134,N,07734.9554,W,2,08,1.26,162.0,M,-34.4,M,0000,0000*5E
$GPRMC,172553.000,A,4309.3130,N,07734.9544,W,10.67,109.87,090923,,,D*4C
$GPGGA,172553.250,4309.3126,N,07734.9535,W,2,08,1.26,162.1,M,-34.4,M,0000,0000*5F
$GPRMC,172553.500,A,4309.3122,N,07734.9525,W,11.30,110.59,090923,,,D*45
$GPGGA,172553.750,4309.3117,N,07734.9515,W,2,08,1.26,162.3,M,-34.4,M,0000,0000*58
$GPRMC,172554.000,A,4309.3114,N,07734.9505,W,11.44,110.99,090923,,,D*4F
$GPGGA,172554.250,4309.3110,N,07734.9494,W,2,08,1.26,162.4,M,-34.4,M,0000,0000*52
$GPRMC,172554.500,A,4309.3107,N,07734.9484,W,11.93,111.90,090923,,,D*42
$GPGGA,172554.750,4309.3104,N,07734.9473,W,2,08,1.26,162.5,M,-34.4,M,0000,0000*5A
$GPRMC,172555.000,A,4309.3100,N,07734.9462,W,12.21,112.22,090923,,,D*49
$GPGGA,172555.250,4309.3097,N,07734.9450,W,2,08,1.26,162.6,M,-34.4,M,0000,0000*57
$GPRMC,172555.500,A,4309.3094,N,07734.9438,W,13.33,111.97,090923,,,D*40
$GPGGA,172555.750,4309.3090,N,07734.9426,W,2,08,1.26,162.7,M,-34.4,M,0000,0000*55
$GPRMC,172556.000,A,4309.3086,N,07734.9413,W,14.06,111.90,090923,,,D*4A
$GPGGA,172556.250,4309.3082,N,07734.9400,W,2,08,1.26,162.8,M,-34.4,M,0000,0000*5B
$GPRMC,172556.500,A,4309.3079,N,07734.9386,W,14.98,111.16,090923,,,D*4D
$GPGGA,172556.750,4309.3075,N,07734.9372,W,2,08,1.26,162.8,M,-34.4,M,0000,0000*54
$GPRMC,172557.000,A,4309.3071,N,07734.9358,W,15.96,111.23,090923,,,D*4B
$GPGGA,172557.250,4309.3067,N,07734.9343,W,2,08,1.26,162.8,M,-34.4,M,0000,0000*51
$GPRMC,172557.500,A,4309.3063,N,07734.9328,W,16.45,110.84,090923,,,D*4B
$GPGGA,172557.750,4309.3059,N,07734.9313,W,2,08,1.26,162.8,M,-34.4,M,0000,0000*5C
$GPRMC,172558.000,A,4309.3057,N,07734.9297,W,16.90,110.26,090923,,,D*43
$GPGGA,172558.250,4309.3055,N,07734.9281,W,2,08,1.26,162.8,M,-34.4,M,0000,0000*50
$GPRMC,172558.500,A,4309.3052,N,07734.9265,W,17.02,109.40,090923,,,D*4C
$GPGGA,172558.750,4309.3050,N,07734.9249,W,2,08,1.26,162.8,M,-34.4,M,0000,0000*54
$GPRMC,172559.000,A,4309.3047,N,07734.9233,W,16.80,109.58,090923,,,D*4D
$GPGGA,172559.250,4309.3044,N,07734.9218,W,2,08,1.26,162.8,M,-34.4,M,0000,0000*51
$GPRMC,172559.500,A,4309.3039,N,07734.9203,W,16.32,109.80,090923,,,D*4E
$GPGGA,172559.750,4309.3035,N,07734.9189,W,2,08,1.26,162.8,M,-34.4,M,0000,0000*59
$GPRMC,172600.000,A,4309.3030,N,07734.9175,W,15.91,110.27,090923,,,D*40
$GPGGA,172600.250,4309.3025,N,07734.9161,W,2,08,1.26,162.9,M,-34.4,M,0000,0000*55
$GPRMC,172600.500,A,4309.3021,N,07734.9147,W,15.24,110.88,090923,,,D*4F
$GPGGA,172600.750,4309.3017,N,07734.9134,W,2,08,1.26,162.9,M,-34.4,M,0000,0000*51
$GPRMC,172601.000,A,4309.3013,N,07734.9121,W,14.68,111.22,090923,,,D*42
$GPGGA,172601.250,4309.3008,N,07734.9108,W,2,08,1.26,162.8,M,-34.4,M,0000,0000*55
$GPRMC,172601.500,A,4309.3004,N,07734.9096,W,13.87,112.06,090923,,,D*4F
$GPGGA,172601.750,4309.3000,N,07734.9084,W,2,08,1.26,162.8,M,-34.4,M,0000,0000*5D
$GPRMC,172602.000,A,4309.2996,N,07734.9073,W,13.23,112.10,090923,,,D*48
$GPGGA,172602.250,4309.2992,N,07734.9062,W,2,08,1.26,162.8,M,-34.4,M,0000,0000*50
$GPRMC,172602.500,A,4309.2988,N,07734.9050,W,12.65,112.03,090923,,,D*42
$GPGGA,172602.750,4309.2984,N,07734.9040,W,2,08,1.26,162.8,M,-34.4,M,0000,0000*52
$GPRMC,172603.000,A,4309.2980,N,07734.9029,W,12.48,112.15,090923,,,D*48
$GPGGA,172603.250,4309.2977,N,07734.9018,W,2,08,1.26,162.8,M,-34.4,M,0000,0000*57
$GPRMC,172603.500,A,4309.2974,N,07734.9007,W,12.72,111.75,090923,,,D*46
$GPGGA,172603.750,4309.2971,N,07734.8995,W,2,08,1.26,162.9,M,-34.4,M,0000,0000*58
$GPRMC,172604.000,A,4309.2967,N,07734.8984,W,13.11,111.32,090923,,,D*42
$GPGGA,172604.250,4309.2964,N,07734.8972,W,2,08,1.26,162.9,M,-34.4,M,0000,0000*57
$GPRMC,172604.500,A,4309.2961,N,07734.8960,W,13.74,110.96,090923,,,D*47
$GPGGA,172604.750,4309.2958,N,07734.8948,W,2,08,1.26,163.0,M,-34.4,M,0000,0000*5C
$GPRMC,172605.000,A,4309.2955,N,07734.8935,W,14.11,111.49,090923,,,D*43
$GPGGA,172605.250,4309.2952,N,07734.8923,W,2,08,1.26,163.1,M,-34.4,M,0000,0000*5E
$GPRMC,172605.500,A,4309.2949,N,07734.8910,W,14.46,111.98,090923,,,D*42
$GPGGA,172605.750,4309.2947,N,07734.8898,W,2,08,1.26,163.3,M,-34.4,M,0000,0000*5C
$GPRMC,172606.000,A,4309.2946,N,07734.8885,W,14.47,113.96,090923,,,D*4B
$GPGGA,172606.250,4309.2944,N,07734.8873,W,2,08,1.26,163.5,M,-34.4,M,0000,0000*5A
$GPRMC,172606.500,A,4309.2941,N,07734.8862,W,14.25,112.77,090923,,,D*4A
$GPGGA,172606.750,4309.2939,N,07734.8850,W,2,08,1.26,163.7,M,-34.4,M,0000,0000*56
$GPRMC,172607.000,A,4309.2934,N,07734.8838,W,14.10,112.88,090923,,,D*45
$GPGGA,172607.250,4309.2929,N,07734.8825,W,2,08,1.26,163.9,M,-34.4,M,0000,0000*5F
$GPRMC,172607.500,A,4309.2925,N,07734.8813,W,14.04,113.38,090923,,,D*46
$GPGGA,172607.750,4309.2920,N,07734.8801,W,2,08,1.26,164.1,M,-34.4,M,0000,0000*5A
$GPRMC,172608.000,A,4309.2916,N,07734.8790,W,13.73,112.69,090923,,,D*4A
$GPGGA,172608.250,4309.2913,N,07734.8778,W,2,08,1.26,164.3,M,-34.4,M,0000,0000*53
$GPRMC,172608.500,A,4309.2909,N,07734.8766,W,13.62,111.76,090923,,,D*45
$GPGGA,172608.750,4309.2904,N,07734.8754,W,2,08,1.26,164.5,M,-34.4,M,0000,0000*58
$GPRMC,172609.000,A,4309.2900,N,07734.8743,W,13.61,111.39,090923,,,D*47
$GPGGA,172609.250,4309.2896,N,07734.8731,W,2,08,1.26,164.7,M,-34.4,M,0000,0000*57
$GPRMC,172609.500,A,4309.2892,N,07734.8718,W,13.60,110.82,090923,,,D*46
$GPGGA,172609.750,4309.2888,N,07734.8706,W,2,08,1.26,164.8,M,-34.4,M,0000,0000*56
$GPRMC,172610.000,A,4309.2884,N,07734.8693,W,13.59,110.52,090923,,,D*49
$GPGGA,172610.250,4309.2880,N,07734.8681,W,2,08,1.26,164.9,M,-34.4,M,0000,0000*5C
$GPRMC,172610.500,A,4309.2877,N,07734.8669,W,13.50,110.11,090923,,,D*4B
$GPGGA,172610.750,4309.2873,N,07734.8656,W,2,08,1.26,164.9,M,-34.4,M,0000,0000*5F
$GPRMC,172611.000,A,4309.2870,N,07734.8644,W,13.24,110.78,090923,,,D*4B
$GPGGA,172611.250,4309.2866,N,07734.8632,W,2,08,1.26,164.9,M,-34.4,M,0000,0000*5D
$GPRMC,172611.500,A,4309.2862,N,07734.8620,W,12.95,110.62,090923,,,D*4F
$GPGGA,172611.750,4309.2858,N,07734.8608,W,2,08,1.26,164.7,M,-34.4,M,0000,0000*52
$GPRMC,172612.000,A,4309.2855,N,07734.8597,W,13.02,111.34,090923,,,D*4F
$GPGGA,172612.250,4309.2852,N,07734.8585,W,2,08,1.26,164.6,M,-34.4,M,0000,0000*59
$GPRMC,172612.500,A,4309.2848,N,07734.8573,W,13.57,113.01,090923,,,D*48
$GPGGA,172612.750,4309.2845,N,07734.8560,W,2,08,1.26,164.6,M,-34.4,M,0000,0000*51
$GPRMC,172613.000,A,4309.2841,N,07734.8548,W,13.87,113.03,090923,,,D*42
$GPGGA,172613.250,4309.2837,N,07734.8536,W,2,08,1.26,164.6,M,-34.4,M,0000,0000*53
$GPRMC,172613.500,A,4309.2832,N,07734.8523,W,13.97,112.15,090923,,,D*49
$GPGGA,172613.750,4309.2827,N,07734.8509,W,2,08,1.26,164.5,M,-34.4,M,0000,0000*58
$GPRMC,172614.000,A,4309.2823,N,07734.8496,W,13.97,111.25,090923,,,D*44
$GPGGA,172614.250,4309.2819,N,07734.8483,W,2,08,1.26,164.6,M,-34.4,M,0000,0000*57
$GPRMC,172614.500,A,4309.2816,N,07734.8470,W,13.96,110.48,090923,,,D*44
$GPGGA,172614.750,4309.2811,N,07734.8457,W,2,08,1.26,164.7,M,-34.4,M,0000,0000*52
$GPRMC,172615.000,A,4309.2806,N,07734.8445,W,13.50,110.06,090923,,,D*47
$GPGGA,172615.250,4309.2802,N,07734.8433,W,2,08,1.26,164.7,M,-34.4,M,0000,0000*56
$GPRMC,172615.500,A,4309.2798,N,07734.8421,W,12.72,110.07,090923,,,D*48
$GPGGA,172615.750,4309.2792,N,07734.8410,W,2,08,1.26,164.6,M,-34.4,M,0000,0000*55
$GPRMC,172616.000,A,4309.2789,N,07734.8399,W,11.76,110.48,090923,,,D*46
$GPGGA,172616.250,4309.2785,N,07734.8390,W,2,08,1.26,164.5,M,-34.4,M,0000,0000*59
$GPRMC,172616.500,A,4309.2782,N,07734.8381,W,9.80,111.12,090923,,,D*7F
$GPGGA,172616.750,4309.2779,N,07734.8374,W,2,08,1.26,164.2,M,-34.4,M,0000,0000*52
$GPRMC,172617.000,A,4309.2776,N,07734.8367,W,8.33,113.31,090923,,,D*72
$GPGGA,172617.250,4309.2773,N,07734.8361,W,2,08,1.26,164.0,M,-34.4,M,0000,0000*5A
$GPRMC,172617.500,A,4309.2771,N,07734.8355,W,6.66,116.32,090923,,,D*79
$GPGGA,172617.750,4309.2770,N,07734.8350,W,2,08,1.26,163.8,M,-34.4,M,0000,0000*51
$GPRMC,172618.000,A,4309.2769,N,07734.8346,W,5.15,117.64,090923,,,D*7D
$GPGGA,172618.250,4309.2769,N,07734.8341,W,2,08,1.26,163.5,M,-34.4,M,0000,0000*5E
$GPRMC,172618.500,A,4309.2768,N,07734.8337,W,4.18,116.43,090923,,,D*77
$GPGGA,172618.750,4309.2766,N,07734.8334,W,2,08,1.26,163.1,M,-34.4,M,0000,0000*52
$GPRMC,172619.000,A,4309.2765,N,07734.8331,W,3.58,117.37,090923,,,D*79
$GPGGA,172619.250,4309.2764,N,07734.8329,W,2,08,1.21,162.9,M,-34.4,M,0000,0000*56
$GPRMC,172619.500,A,4309.2763,N,07734.8326,W,3.10,118.89,090923,,,D*7A
$GPGGA,172619.750,4309.2762,N,07734.8324,W,2,08,1.21,162.8,M,-34.4,M,0000,0000*59
$GPRMC,172620.000,A,4309.2761,N,07734.8322,W,3.11,116.71,090923,,,D*7B
$GPGGA,172620.250,4309.2760,N,07734.8319,W,2,08,1.21,162.7,M,-34.4,M,0000,0000*55
$GPRMC,172620.500,A,4309.2759,N,07734.8316,W,3.56,110.58,090923,,,D*7C
$GPGGA,172620.750,4309.2758,N,07734.8313,W,2,08,1.21,162.7,M,-34.4,M,0000,0000*51
$GPRMC,172621.000,A,4309.2756,N,07734.8309,W,4.32,108.96,090923,,,D*77
$GPGGA,172621.250,4309.2753,N,07734.8305,W,2,08,1.26,162.8,M,-34.4,M,0000,0000*51
$GPRMC,172621.500,A,4309.2750,N,07734.8301,W,5.73,109.09,090923,,,D*7F
$GPGGA,172621.750,4309.2748,N,07734.8296,W,2,08,1.26,162.9,M,-34.4,M,0000,0000*54
$GPRMC,172622.000,A,4309.2746,N,07734.8290,W,6.68,108.12,090923,,,D*75
$GPGGA,172622.250,4309.2745,N,07734.8283,W,2,08,1.26,162.9,M,-34.4,M,0000,0000*5B
$GPRMC,172622.500,A,4309.2743,N,07734.8275,W,8.10,107.76,090923,,,D*72
$GPGGA,172622.750,4309.2741,N,07734.8267,W,2,08,1.26,162.9,M,-34.4,M,0000,0000*50
$GPRMC,172623.000,A,4309.2739,N,07734.8257,W,9.31,108.45,090923,,,D*76
$GPGGA,172623.250,4309.2736,N,07734.8248,W,2,08,1.26,162.9,M,-34.4,M,0000,0000*59
$GPRMC,172623.500,A,4309.2734,N,07734.8238,W,10.75,109.06,090923,,,D*49
$GPGGA,172623.750,4309.2732,N,07734.8228,W,2,08,1.26,163.0,M,-34.4,M,0000,0000*56
$GPRMC,172624.000,A,4309.2729,N,07734.8217,W,11.76,108.85,090923,,,D*42
$GPGGA,172624.250,4309.2727,N,07734.8206,W,2,08,1.26,163.0,M,-34.4,M,0000,0000*5C
$GPRMC,172624.500,A,4309.2725,N,07734.8194,W,12.73,107.97,090923,,,D*49
$GPGGA,172624.750,4309.2723,N,07734.8182,W,2,08,1.26,163.0,M,-34.4,M,0000,0000*52
$GPRMC,172625.000,A,4309.2721,N,07734.8169,W,13.59,107.93,090923,,,D*46
$GPGGA,172625.250,4309.2718,N,07734.8156,W,2,08,1.26,163.1,M,-34.4,M,0000,0000*56
$GPRMC,172625.500,A,4309.2715,N,07734.8143,W,14.62,109.54,090923,,,D*46
$GPGGA,172625.750,4309.2711,N,07734.8129,W,2,08,1.26,163.1,M,-34.4,M,0000,0000*52
$GPRMC,172626.000,A,4309.2707,N,07734.8116,W,15.11,110.29,090923,,,D*44
$GPGGA,172626.250,4309.2702,N,07734.8102,W,2,08,1.26,163.2,M,-34.4,M,0000,0000*5C
$GPRMC,172626.500,A,4309.2698,N,07734.8088,W,16.16,111.20,090923,,,D*4C
$GPGGA,172626.750,4309.2693,N,07734.8073,W,2,08,1.26,163.4,M,-34.4,M,0000,0000*51
$GPRMC,172627.000,A,4309.2688,N,07734.8059,W,16.90,112.06,090923,,,D*4C
$GPGGA,172627.250,4309.2682,N,07734.8044,W,2,08,1.26,163.6,M,-34.4,M,0000,0000*53
$GPRMC,172627.500,A,4309.2676,N,07734.8028,W,17.79,113.24,090923,,,D*49
$GPGGA,172627.750,4309.2671,N,07734.8012,W,2,08,1.26,163.8,M,-34.4,M,0000,0000*57
$GPRMC,172628.000,A,4309.2666,N,07734.7996,W,18.13,113.17,090923,,,D*42
$GPGGA,172628.250,4309.2661,N,07734.7980,W,2,08,1.26,164.0,M,-34.4,M,0000,0000*5E
$GPRMC,172628.500,A,4309.2656,N,07734.7963,W,18.63,112.22,090923,,,D*4E
$GPGGA,172628.750,4309.2651,N,07734.7947,W,2,08,1.26,164.2,M,-34.4,M,0000,0000*51
$GPRMC,172629.000,A,4309.2647,N,07734.7930,W,18.99,112.17,090923,,,D*4F
$GPGGA,172629.250,4309.2642,N,07734.7913,W,2,08,1.26,164.4,M,-34.4,M,0000,0000*50
$GPRMC,172629.500,A,4309.2637,N,07734.7895,W,19.36,112.21,090923,,,D*42
$GPGGA,172629.750,4309.2633,N,07734.7878,W,2,08,1.26,164.6,M,-34.4,M,0000,0000*5D
$GPRMC,172630.000,A,4309.2628,N,07734.7860,W,19.80,112.56,090923,,,D*46
$GPGGA,172630.250,4309.2624,N,07734.7842,W,2,08,1.26,164.7,M,-34.4,M,0000,0000*5E
$GPRMC,172630.500,A,4309.2619,N,07734.7825,W,20.18,112.69,090923,,,D*47
$GPGGA,172630.750,4309.2614,N,07734.7807,W,2,08,1.26,164.8,M,-34.4,M,0000,0000*56
$GPRMC,172631.000,A,4309.2609,N,07734.7789,W,20.40,112.45,090923,,,D*48
$GPGGA,172631.250,4309.2604,N,07734.7771,W,2,08,1.26,165.0,M,-34.4,M,0000,0000*54
$GPRMC,172631.500,A,4309.2599,N,07734.7753,W,20.49,111.61,090923,,,D*4C
$GPGGA,172631.750,4309.2593,N,07734.7735,W,2,08,1.26,165.2,M,-34.4,M,0000,0000*5E
$GPRMC,172632.000,A,4309.2588,N,07734.7717,W,20.73,111.43,090923,,,D*43
$GPGGA,172632.250,4309.2582,N,07734.7698,W,2,08,1.26,165.4,M,-34.4,M,0000,0000*58
$GPRMC,172632.500,A,4309.2577,N,07734.7680,W,20.98,111.22,090923,,,D*4B
$GPGGA,172632.750,4309.2571,N,07734.7662,W,2,08,1.26,165.6,M,-34.4,M,0000,0000*56
$GPRMC,172633.000,A,4309.2566,N,07734.7643,W,21.11,111.20,090923,,,D*42
$GPGGA,172633.250,4309.2561,N,07734.7625,W,2,08,1.26,165.7,M,-34.4,M,0000,0000*51
$GPRMC,172633.500,A,4309.2556,N,07734.7606,W,21.16,110.73,090923,,,D*45
$GPGGA,172633.750,4309.2550,N,07734.7588,W,2,08,1.26,166.0,M,-34.4,M,0000,0000*56
$GPRMC,172634.000,A,4309.2545,N,07734.7569,W,21.45,111.03,090923,,,D*4F
$GPGGA,172634.250,4309.2539,N,07734.7549,W,2,08,1.26,166.1,M,-34.4,M,0000,0000*57
$GPRMC,172634.500,A,4309.2533,N,07734.7530,W,21.88,111.46,090923,,,D*47
$GPGGA,172634.750,4309.2528,N,07734.7511,W,2,08,1.26,166.2,M,-34.4,M,0000,0000*5C
$GPRMC,172635.000,A,4309.2523,N,07734.7491,W,22.25,111.47,090923,,,D*4D
$GPGGA,172635.250,4309.2517,N,07734.7471,W,2,08,1.26,166.3,M,-34.4,M,0000,0000*52
$GPRMC,172635.500,A,4309.2512,N,07734.7450,W,22.77,111.81,090923,,,D*4A
$GPGGA,172635.750,4309.2506,N,07734.7430,W,2,08,1.26,166.2,M,-34.4,M,0000,0000*53
$GPRMC,172636.000,A,4309.2500,N,07734.7409,W,23.03,111.95,090923,,,D*44
$GPGGA,172636.250,4309.2494,N,07734.7389,W,2,08,1.26,166.3,M,-34.4,M,0000,0000*5B
$GPRMC,172636.500,A,4309.2487,N,07734.7368,W,23.42,111.37,090923,,,D*42
$GPGGA,172636.750,4309.2481,N,07734.7347,W,2,08,1.26,166.1,M,-34.4,M,0000,0000*5A
$GPRMC,172637.000,A,4309.2474,N,07734.7326,W,23.67,111.56,090923,,,D*40
$GPGGA,172637.250,4309.2467,N,07734.7305,W,2,08,1.26,166.1,M,-34.4,M,0000,0000*50
$GPRMC,172637.500,A,4309.2461,N,07734.7284,W,23.89,111.74,090923,,,D*48
$GPGGA,172637.750,4309.2454,N,07734.7262,W,2,08,1.26,166.1,M,-34.4,M,0000,0000*55
$GPRMC,172638.000,A,4309.2447,N,07734.7241,W,24.08,112.29,090923,,,D*4A
$GPGGA,172638.250,4309.2440,N,07734.7220,W,2,08,1.26,166.1,M,-34.4,M,0000,0000*5C
$GPRMC,172638.500,A,4309.2433,N,07734.7199,W,23.76,112.27,090923,,,D*4A
$GPGGA,172638.750,4309.2426,N,07734.7178,W,2,08,1.26,166.0,M,-34.4,M,0000,0000*56
$GPRMC,172639.000,A,4309.2420,N,07734.7157,W,23.69,111.78,090923,,,D*49
$GPGGA,172639.250,4309.2414,N,07734.7135,W,2,08,1.26,165.7,M,-34.4,M,0000,0000*5E
$GPRMC,172639.500,A,4309.2407,N,07734.7114,W,23.60,111.69,090923,,,D*47
$GPGGA,172639.750,4309.2401,N,07734.7093,W,2,08,1.26,165.5,M,-34.4,M,0000,0000*50
$GPRMC,172640.000,A,4309.2395,N,07734.7072,W,23.40,111.48,090923,,,D*40
$GPGGA,172640.250,4309.2389,N,07734.7051,W,2,08,1.26,165.3,M,-34.4,M,0000,0000*54
$GPRMC,172640.500,A,4309.2383,N,07734.7029,W,23.76,111.11,090923,,,D*45
$GPGGA,172640.750,4309.2377,N,07734.7008,W,2,08,1.26,165.1,M,-34.4,M,0000,0000*5E
$GPRMC,172641.000,A,4309.2371,N,07734.6985,W,24.16,110.63,090923,,,D*47
$GPGGA,172641.250,4309.2365,N,07734.6963,W,2,07,1.32,165.0,M,-34.4,M,0000,0000*57
$GPRMC,172641.500,A,4309.2358,N,07734.6941,W,24.90,111.36,090923,,,D*4E
$GPGGA,172641.750,4309.2351,N,07734.6919,W,2,07,1.32,165.0,M,-34.4,M,0000,0000*58
$GPRMC,172642.000,A,4309.2345,N,07734.6896,W,25.11,111.79,090923,,,D*4C
$GPGGA,172642.250,4309.2338,N,07734.6874,W,2,08,1.26,165.0,M,-34.4,M,0000,0000*51
$GPRMC,172642.500,A,4309.2331,N,07734.6851,W,25.12,111.26,090923,,,D*48
$GPGGA,172642.750,4309.2325,N,07734.6829,W,2,08,1.26,165.0,M,-34.4,M,0000,0000*50
$GPRMC,172643.000,A,4309.2318,N,07734.6807,W,25.01,111.66,090923,,,D*42
$GPGGA,172643.250,4309.2310,N,07734.6785,W,2,08,1.26,165.0,M,-34.4,M,0000,0000*5B
$GPRMC,172643.500,A,4309.2304,N,07734.6763,W,24.96,112.46,090923,,,D*49
$GPGGA,172643.750,4309.2296,N,07734.6742,W,2,08,1.26,165.1,M,-34.4,M,0000,0000*5B
$GPRMC,172644.000,A,4309.2289,N,07734.6720,W,24.72,113.00,090923,,,D*41
$GPGGA,172644.250,4309.2282,N,07734.6698,W,2,08,1.26,164.9,M,-34.4,M,0000,0000*53
$GPRMC,172644.500,A,4309.2276,N,07734.6676,W,24.37,112.38,090923,,,D*4D
$GPGGA,172644.750,4309.2269,N,07734.6655,W,2,08,1.26,164.7,M,-34.4,M,0000,0000*5C
$GPRMC,172645.000,A,4309.2262,N,07734.6633,W,24.29,112.12,090923,,,D*4A
$GPGGA,172645.250,4309.2256,N,07734.6611,W,2,08,1.26,164.5,M,-34.4,M,0000,0000*56
$GPRMC,172645.500,A,4309.2248,N,07734.6589,W,24.53,112.27,090923,,,D*4E
$GPGGA,172645.750,4309.2242,N,07734.6567,W,2,08,1.26,164.3,M,-34.4,M,0000,0000*52
$GPRMC,172646.000,A,4309.2236,N,07734.6545,W,24.49,111.68,090923,,,D*42
$GPGGA,172646.250,4309.2230,N,07734.6523,W,2,08,1.26,164.2,M,-34.4,M,0000,0000*50
$GPRMC,172646.500,A,4309.2224,N,07734.6502,W,24.19,111.84,090923,,,D*40
$GPGGA,172646.750,4309.2217,N,07734.6481,W,2,08,1.26,164.3,M,-34.4,M,0000,0000*58
$GPRMC,172647.000,A,4309.2211,N,07734.6460,W,23.86,112.11,090923,,,D*49
$GPGGA,172647.250,4309.2204,N,07734.6439,W,2,08,1.26,164.5,M,-34.4,M,0000,0000*5B
$GPRMC,172647.500,A,4309.2198,N,07734.6418,W,23.58,111.95,090923,,,D*4D
$GPGGA,172647.750,4309.2192,N,07734.6398,W,2,08,1.26,164.4,M,-34.4,M,0000,0000*5F
$GPRMC,172648.000,A,4309.2185,N,07734.6377,W,23.28,111.97,090923,,,D*40
$GPGGA,172648.250,4309.2179,N,07734.6357,W,2,08,1.26,164.3,M,-34.4,M,0000,0000*54
$GPRMC,172648.500,A,4309.2172,N,07734.6337,W,22.96,112.81,090923,,,D*49
$GPGGA,172648.750,4309.2166,N,07734.6317,W,2,08,1.26,164.2,M,-34.4,M,0000,0000*5A
$GPRMC,172649.000,A,4309.2160,N,07734.6298,W,22.62,112.78,090923,,,D*47
$GPGGA,172649.250,4309.2154,N,07734.6278,W,2,08,1.26,164.2,M,-34.4,M,0000,0000*57
$GPRMC,172649.500,A,4309.2148,N,07734.6259,W,21.84,112.77,090923,,,D*41
$GPGGA,172649.750,4309.2143,N,07734.6240,W,2,08,1.26,164.3,M,-34.4,M,0000,0000*5E
$GPRMC,172650.000,A,4309.2137,N,07734.6221,W,21.58,112.86,090923,,,D*44
$GPGGA,172650.250,4309.2131,N,07734.6202,W,2,07,1.32,164.3,M,-34.4,M,0000,0000*5A
$GPRMC,172650.500,A,4309.2125,N,07734.6183,W,21.60,113.23,090923,,,D*4C
$GPGGA,172650.750,4309.2119,N,07734.6164,W,2,08,1.26,164.4,M,-34.4,M,0000,0000*5B
$GPRMC,172651.000,A,4309.2113,N,07734.6145,W,21.69,113.02,090923,,,D*4D
$GPGGA,172651.250,4309.2107,N,07734.6125,W,2,08,1.26,164.4,M,-34.4,M,0000,0000*55
$GPRMC,172651.500,A,4309.2101,N,07734.6106,W,21.92,112.31,090923,,,D*49
$GPGGA,172651.750,4309.2095,N,07734.6086,W,2,08,1.26,164.3,M,-34.4,M,0000,0000*55
