Vers 81
USE_SERIAL_FEEDBACK=true
DEVELOPMENT_MODE=false
USE_RMC_ONLY=false

$GPRMC,184853.000,A,4305.1785,N,07740.8745,W,0.13,40.20,080923,,,A*48
$GPGGA,184853.250,4305.1785,N,07740.8744,W,1,05,1.65,253.2,M,-34.4,M,,*57
$GPRMC,184853.500,A,4305.1784,N,07740.8743,W,0.20,12.28,080923,,,A*45
$GPGGA,184853.750,4305.1782,N,07740.8742,W,1,05,2.84,252.9,M,-34.4,M,,*55
$GPRMC,184854.000,A,4305.1780,N,07740.8742,W,0.20,353.79,080923,,,A*70
$GPGGA,184854.250,4305.1777,N,07740.8742,W,1,05,2.84,252.6,M,-34.4,M,,*52
$GPRMC,184854.500,A,4305.1775,N,07740.8741,W,0.08,348.81,080923,,,A*7B
$GPGGA,184854.750,4305.1772,N,07740.8741,W,1,05,2.84,252.2,M,-34.4,M,,*55
$GPRMC,184855.000,A,4305.1769,N,07740.8741,W,0.04,233.22,080923,,,A*7A
$GPGGA,184855.250,4305.1767,N,07740.8741,W,1,05,1.65,251.8,M,-34.4,M,,*50
$GPRMC,184855.500,A,4305.1766,N,07740.8741,W,0.19,19.05,080923,,,A*43
$GPGGA,184855.750,4305.1765,N,07740.8740,W,1,05,1.65,251.4,M,-34.4,M,,*5A
$GPRMC,184856.000,A,4305.1764,N,07740.8739,W,0.21,28.06,080923,,,A*42
$GPGGA,184856.250,4305.1763,N,07740.8739,W,1,05,1.65,250.9,M,-34.4,M,,*58
$GPRMC,184856.500,A,4305.1762,N,07740.8738,W,0.21,14.34,080923,,,A*4E
$GPGGA,184856.750,4305.1761,N,07740.8738,W,1,05,2.84,250.5,M,-34.4,M,,*5E
$GPRMC,184857.000,A,4305.1759,N,07740.8737,W,0.10,13.52,080923,,,A*48
$GPGGA,184857.250,4305.1758,N,07740.8736,W,1,05,2.84,250.1,M,-34.4,M,,*5A
$GPRMC,184857.500,A,4305.1757,N,07740.8735,W,0.12,62.47,080923,,,A*41
$GPGGA,184857.750,4305.1756,N,07740.8735,W,1,05,1.65,249.7,M,-34.4,M,,*50
$GPRMC,184858.000,A,4305.1755,N,07740.8734,W,0.12,60.64,080923,,,A*4B
$GPGGA,184858.250,4305.1755,N,07740.8733,W,1,05,1.65,249.3,M,-34.4,M,,*5B
$GPRMC,184858.500,A,4305.1754,N,07740.8733,W,0.09,54.07,080923,,,A*40
$GPGGA,184858.750,4305.1754,N,07740.8732,W,1,05,1.65,248.8,M,-34.4,M,,*54
$GPRMC,184859.000,A,4305.1753,N,07740.8731,W,0.08,48.10,080923,,,A*4B
$GPGGA,184859.250,4305.1752,N,07740.8731,W,1,05,1.65,248.3,M,-34.4,M,,*5E
$GPRMC,184859.500,A,4305.1751,N,07740.8730,W,0.05,17.41,080923,,,A*4E
$GPGGA,184859.750,4305.1751,N,07740.8730,W,1,05,1.65,247.9,M,-34.4,M,,*5C
$GPRMC,184900.000,A,4305.1750,N,07740.8729,W,0.03,129.73,080923,,,A*74
$GPGGA,184900.250,4305.1749,N,07740.8729,W,1,05,1.65,247.3,M,-34.4,M,,*5F
$GPRMC,184900.500,A,4305.1748,N,07740.8728,W,0.02,213.63,080923,,,A*73
$GPGGA,184900.750,4305.1747,N,07740.8728,W,1,05,1.65,246.8,M,-34.4,M,,*5F
$GPRMC,184901.000,A,4305.1747,N,07740.8727,W,0.02,233.19,080923,,,A*78
$GPGGA,184901.250,4305.1746,N,07740.8727,W,1,05,1.65,246.3,M,-34.4,M,,*5E
$GPRMC,184901.500,A,4305.1745,N,07740.8726,W,0.05,190.12,080923,,,A*78
$GPGGA,184901.750,4305.1744,N,07740.8726,W,1,05,1.65,245.8,M,-34.4,M,,*50
$GPRMC,184902.000,A,4305.1743,N,07740.8725,W,0.09,181.50,080923,,,A*71
$GPGGA,184902.250,4305.1730,N,07740.8712,W,1,04,2.67,235.3,M,-34.4,M,,*5E
$GPRMC,184902.500,A,4305.1720,N,07740.8702,W,0.05,81.52,080923,,,A*4B
$GPGGA,184902.750,4305.1719,N,07740.8701,W,1,03,2.69,227.3,M,-34.4,M,,*58
$GPRMC,184903.000,A,4305.1719,N,07740.8701,W,0.03,92.76,080923,,,A*44
$GPGGA,184903.250,4305.1719,N,07740.8701,W,1,03,2.69,227.3,M,-34.4,M,,*5C
$GPRMC,184903.500,A,4305.1719,N,07740.8701,W,0.03,73.46,080923,,,A*4D
$GPGGA,184903.750,4305.1718,N,07740.8700,W,1,03,2.69,227.3,M,-34.4,M,,*59
$GPRMC,184904.000,A,4305.1718,N,07740.8700,W,0.03,129.22,080923,,,A*73
$GPGGA,184904.250,4305.1718,N,07740.8700,W,1,03,2.69,227.3,M,-34.4,M,,*5B
$GPRMC,184904.500,A,4305.1718,N,07740.8700,W,0.04,123.94,080923,,,A*76
$GPGGA,184904.750,4305.1718,N,07740.8700,W,1,03,2.69,227.2,M,-34.4,M,,*5F
$GPRMC,184905.000,A,4305.1718,N,07740.8699,W,0.11,117.87,080923,,,A*72
$GPGGA,184905.250,4305.1718,N,07740.8699,W,1,03,2.69,227.2,M,-34.4,M,,*5A
$GPRMC,184905.500,A,4305.1718,N,07740.8699,W,0.10,103.53,080923,,,A*7A
$GPGGA,184905.750,4305.1718,N,07740.8699,W,1,03,2.69,227.2,M,-34.4,M,,*5F
$GPRMC,184906.000,A,4305.1718,N,07740.8699,W,0.11,111.54,080923,,,A*79
$GPGGA,184906.250,4305.1718,N,07740.8698,W,1,03,2.70,227.2,M,-34.4,M,,*50
$GPRMC,184906.500,A,4305.1718,N,07740.8698,W,0.12,94.82,080923,,,A*49
$GPGGA,184906.750,4305.1718,N,07740.8698,W,1,03,2.69,227.2,M,-34.4,M,,*5D
$GPRMC,184907.000,A,4305.1719,N,07740.8697,W,0.17,66.41,080923,,,A*44
$GPGGA,184907.250,4305.1719,N,07740.8697,W,1,03,2.69,227.2,M,-34.4,M,,*57
$GPRMC,184907.500,A,4305.1719,N,07740.8697,W,0.15,52.89,080923,,,A*40
$GPGGA,184907.750,4305.1719,N,07740.8697,W,1,03,2.69,227.2,M,-34.4,M,,*52
$GPRMC,184908.000,A,4305.1719,N,07740.8697,W,0.12,40.93,080923,,,A*45
$GPGGA,184908.250,4305.1720,N,07740.8697,W,1,03,2.70,227.2,M,-34.4,M,,*5A
$GPRMC,184908.500,V,,,,,0.11,349.40,080923,,,E*45
$GPGGA,184908.750,4305.1720,N,07740.8698,W,6,03,2.69,227.2,M,-34.4,M,,*5F
$GPRMC,184908.750,V,,,,,0.10,342.72,080923,,,E*49
$GPGGA,184909.000,4305.1720,N,07740.8698,W,1,03,2.70,227.3,M,-34.4,M,,*52
$GPRMC,184909.250,V,,,,,0.08,17.18,080923,,,E*7B
$GPGGA,184909.500,4305.1721,N,07740.8698,W,1,03,2.69,227.3,M,-34.4,M,,*5E
$GPRMC,184909.750,V,,,,,0.10,353.02,080923,,,E*4F
$GPGGA,184910.000,4305.1721,N,07740.8699,W,6,03,2.69,227.3,M,-34.4,M,,*55
$GPRMC,184910.000,V,,,,,0.14,328.17,080923,,,E*49
$GPGGA,184910.250,4305.1722,N,07740.8699,W,1,03,2.69,227.3,M,-34.4,M,,*56
$GPRMC,184910.500,A,4305.1723,N,07740.8700,W,0.20,315.41,080923,,,A*72
$GPGGA,184910.750,4305.1723,N,07740.8700,W,1,03,2.70,227.3,M,-34.4,M,,*5B
$GPRMC,184911.000,A,4305.1724,N,07740.8700,W,0.21,332.34,080923,,,A*77
$GPGGA,184911.250,4305.1725,N,07740.8700,W,1,03,2.70,227.3,M,-34.4,M,,*59
$GPRMC,184911.500,A,4305.1725,N,07740.8700,W,0.25,335.92,080923,,,A*7C
$GPGGA,184911.750,4305.1726,N,07740.8699,W,1,03,2.69,227.3,M,-34.4,M,,*56
$GPRMC,184912.000,V,,,,,0.20,355.82,080923,,,E*4A
$GPGGA,184912.250,4305.1726,N,07740.8699,W,6,03,2.69,227.3,M,-34.4,M,,*57
$GPRMC,184912.250,V,,,,,0.19,352.80,080923,,,E*42
$GPGGA,184912.500,4305.1727,N,07740.8699,W,6,03,2.69,227.3,M,-34.4,M,,*54
$GPRMC,184912.500,V,,,,,0.19,1.22,080923,,,E*4D
$GPGGA,184912.750,4305.1728,N,07740.8699,W,6,03,2.69,227.3,M,-34.4,M,,*5C
$GPRMC,184912.750,V,,,,,0.18,0.05,080923,,,E*4F
$GPGGA,184913.000,4305.1728,N,07740.8699,W,6,03,2.70,227.3,M,-34.4,M,,*57
$GPRMC,184913.000,V,,,,,0.15,359.41,080923,,,E*4E
$GPGGA,184913.250,4305.1728,N,07740.8699,W,6,03,2.70,227.3,M,-34.4,M,,*50
$GPRMC,184913.250,V,,,,,0.13,9.91,080923,,,E*44
$GPGGA,184913.500,4305.1728,N,07740.8699,W,6,03,2.69,227.3,M,-34.4,M,,*5A
$GPRMC,184913.500,V,,,,,0.12,25.83,080923,,,E*7A
$GPGGA,184913.750,4305.1729,N,07740.8699,W,1,03,2.69,227.3,M,-34.4,M,,*5B
$GPRMC,184914.000,A,4305.1729,N,07740.8700,W,0.12,21.63,080923,,,A*4C
$GPGGA,184914.250,4305.1729,N,07740.8700,W,1,03,2.70,227.3,M,-34.4,M,,*50
$GPRMC,184914.500,A,4305.1729,N,07740.8700,W,0.06,3.17,080923,,,A*7F
$GPGGA,184914.750,4305.1729,N,07740.8700,W,6,03,2.69,227.3,M,-34.4,M,,*5A
$GPRMC,184914.750,V,,,,,0.06,356.80,080923,,,E*4B
$GPGGA,184915.000,4305.1729,N,07740.8700,W,6,03,2.69,227.3,M,-34.4,M,,*59
$GPRMC,184915.000,V,,,,,0.06,2.97,080923,,,E*4C
$GPGGA,184915.250,4305.1730,N,07740.8700,W,6,03,2.69,227.3,M,-34.4,M,,*56
$GPRMC,184915.250,V,,,,,0.08,5.18,080923,,,E*45
$GPGGA,184915.500,4305.1730,N,07740.8700,W,6,03,2.69,227.3,M,-34.4,M,,*54
$GPRMC,184915.500,V,,,,,0.09,10.66,080923,,,E*7B
$GPGGA,184915.750,4305.1730,N,07740.8700,W,6,03,2.69,227.3,M,-34.4,M,,*53
$GPRMC,184915.750,V,,,,,0.08,15.42,080923,,,E*7E
$GPGGA,184916.000,4305.1731,N,07740.8700,W,1,03,2.69,227.3,M,-34.4,M,,*54
$GPRMC,184916.250,V,,,,,0.13,16.13,080923,,,E*75
$GPGGA,184916.500,4305.1732,N,07740.8700,W,1,03,2.70,227.3,M,-34.4,M,,*5A
$GPRMC,184916.750,A,4305.1733,N,07740.8699,W,0.21,35.34,080923,,,A*41
$GPGGA,184917.000,4305.1733,N,07740.8699,W,1,03,2.69,227.3,M,-34.4,M,,*56
$GPRMC,184917.250,A,4305.1733,N,07740.8699,W,0.19,39.64,080923,,,A*47
$GPGGA,184917.500,4305.1732,N,07740.8700,W,1,03,2.69,227.3,M,-34.4,M,,*53
$GPRMC,184917.750,A,4305.1733,N,07740.8700,W,0.10,25.62,080923,,,A*41
$GPGGA,184918.000,4305.1733,N,07740.8700,W,1,03,2.69,227.3,M,-34.4,M,,*58
$GPRMC,184918.250,V,,,,,0.13,37.87,080923,,,E*75
$GPGGA,184918.500,4305.1733,N,07740.8700,W,1,03,2.69,227.3,M,-34.4,M,,*5D
$GPRMC,184918.750,A,4305.1734,N,07740.8700,W,0.18,45.05,080923,,,A*46
$GPGGA,184919.000,4305.1735,N,07740.8700,W,1,03,2.69,227.3,M,-34.4,M,,*5F
$GPRMC,184919.250,A,4305.1736,N,07740.8700,W,0.23,7.11,080923,,,A*7B
$GPGGA,184919.500,4305.1736,N,07740.8700,W,6,03,2.69,227.3,M,-34.4,M,,*5E
$GPRMC,184919.500,V,,,,,0.23,3.66,080923,,,E*4D
$GPGGA,184919.750,4305.1736,N,07740.8701,W,6,03,2.69,227.3,M,-34.4,M,,*58
$GPRMC,184919.750,V,,,,,0.23,2.91,080923,,,E*43
$GPGGA,184920.000,4305.1736,N,07740.8701,W,6,03,2.69,227.2,M,-34.4,M,,*51
$GPRMC,184920.000,V,,,,,0.23,0.36,080923,,,E*44
$GPGGA,184920.250,4305.1736,N,07740.8699,W,1,04,2.68,225.9,M,-34.4,M,,*5E
$GPRMC,184920.500,A,4305.1736,N,07740.8696,W,0.32,4.20,080923,,,A*7C
$GPGGA,184920.750,4305.1735,N,07740.8694,W,1,04,2.68,223.1,M,-34.4,M,,*5B
$GPRMC,184921.000,A,4305.1735,N,07740.8692,W,0.40,6.82,080923,,,A*70
$GPGGA,184921.250,4305.1736,N,07740.8690,W,1,04,2.68,220.4,M,-34.4,M,,*5E
$GPRMC,184921.500,A,4305.1734,N,07740.8688,W,0.37,24.86,080923,,,A*4B
$GPGGA,184921.750,4305.1735,N,07740.8686,W,1,04,2.67,218.0,M,-34.4,M,,*5F
$GPRMC,184922.000,A,4305.1734,N,07740.8684,W,0.42,16.13,080923,,,A*4E
$GPGGA,184922.250,4305.1734,N,07740.8683,W,1,04,2.67,215.8,M,-34.4,M,,*58
$GPRMC,184922.500,A,4305.1733,N,07740.8681,W,0.42,23.00,080923,,,A*4D
$GPGGA,184922.750,4305.1733,N,07740.8679,W,1,04,2.67,213.9,M,-34.4,M,,*58
$GPRMC,184923.000,A,4305.1734,N,07740.8678,W,0.47,20.89,080923,,,A*4F
$GPGGA,184923.250,4305.1733,N,07740.8677,W,1,04,2.67,212.0,M,-34.4,M,,*5A
$GPRMC,184923.500,A,4305.1734,N,07740.8677,W,0.41,18.90,080923,,,A*40
$GPGGA,184923.750,4305.1734,N,07740.8677,W,1,04,2.67,211.9,M,-34.4,M,,*52
$GPRMC,184924.000,A,4305.1734,N,07740.8676,W,0.36,17.93,080923,,,A*4F
$GPGGA,184924.250,4305.1734,N,07740.8676,W,1,04,2.67,211.9,M,-34.4,M,,*51
$GPRMC,184924.500,A,4305.1734,N,07740.8676,W,0.30,23.27,080923,,,A*44
$GPGGA,184924.750,4305.1735,N,07740.8676,W,1,04,2.67,211.9,M,-34.4,M,,*55
$GPRMC,184925.000,A,4305.1735,N,07740.8676,W,0.26,22.59,080923,,,A*4E
$GPGGA,184925.250,4305.1735,N,07740.8676,W,1,04,2.67,211.8,M,-34.4,M,,*50
$GPRMC,184925.500,A,4305.1735,N,07740.8676,W,0.24,16.82,080923,,,A*48
$GPGGA,184925.750,4305.1735,N,07740.8676,W,1,04,2.67,211.8,M,-34.4,M,,*55
$GPRMC,184926.000,A,4305.1735,N,07740.8676,W,0.21,20.56,080923,,,A*47
$GPGGA,184926.250,4305.1736,N,07740.8675,W,1,06,1.72,211.8,M,-34.4,M,,*56
$GPRMC,184926.500,A,4305.1733,N,07740.8677,W,0.03,257.34,080923,,,A*73
$GPGGA,184926.750,4305.1734,N,07740.8676,W,1,06,1.72,210.1,M,-34.4,M,,*5A
$GPRMC,184927.000,A,4305.1734,N,07740.8677,W,0.06,339.26,080923,,,A*7F
$GPGGA,184927.250,4305.1734,N,07740.8677,W,1,06,1.72,208.8,M,-34.4,M,,*5F
$GPRMC,184927.500,A,4305.1734,N,07740.8677,W,0.04,318.86,080923,,,A*71
$GPGGA,184927.750,4305.1734,N,07740.8677,W,1,06,1.72,208.8,M,-34.4,M,,*5A
$GPRMC,184928.000,A,4305.1734,N,07740.8677,W,0.06,7.04,080923,,,A*7E
$GPGGA,184928.250,4305.1734,N,07740.8677,W,1,06,1.80,208.8,M,-34.4,M,,*5D
$GPRMC,184928.500,A,4305.1734,N,07740.8677,W,0.03,1.87,080923,,,A*73
$GPGGA,184928.750,4305.1734,N,07740.8677,W,1,06,1.80,208.7,M,-34.4,M,,*57
$GPRMC,184929.000,A,4305.1734,N,07740.8677,W,0.04,315.51,080923,,,A*7D
$GPGGA,184929.250,4305.1734,N,07740.8677,W,1,06,1.72,208.7,M,-34.4,M,,*5E
$GPRMC,184929.500,A,4305.1734,N,07740.8677,W,0.01,165.62,080923,,,A*78
$GPGGA,184929.750,4305.1734,N,07740.8677,W,1,06,1.72,208.7,M,-34.4,M,,*5B
$GPRMC,184930.000,A,4305.1734,N,07740.8677,W,0.04,337.59,080923,,,A*7D
$GPGGA,184930.250,4305.1734,N,07740.8677,W,1,06,1.72,208.7,M,-34.4,M,,*56
$GPRMC,184930.500,A,4305.1734,N,07740.8677,W,0.04,297.05,080923,,,A*7A
$GPGGA,184930.750,4305.1734,N,07740.8677,W,1,06,1.72,208.7,M,-34.4,M,,*53
$GPRMC,184931.000,A,4305.1734,N,07740.8677,W,0.02,39.19,080923,,,A*43
$GPGGA,184931.250,4305.1734,N,07740.8677,W,1,06,1.72,208.6,M,-34.4,M,,*56
$GPRMC,184931.500,A,4305.1734,N,07740.8677,W,0.02,344.39,080923,,,A*7D
$GPGGA,184931.750,4305.1734,N,07740.8677,W,1,06,1.72,208.6,M,-34.4,M,,*53
$GPRMC,184932.000,A,4305.1734,N,07740.8677,W,0.04,59.70,080923,,,A*4F
$GPGGA,184932.250,4305.1734,N,07740.8677,W,1,08,1.07,208.6,M,-34.4,M,,*59
$GPRMC,184932.500,A,4305.1733,N,07740.8677,W,0.04,47.39,080923,,,A*4F
$GPGGA,184932.750,4305.1733,N,07740.8677,W,1,08,1.07,208.6,M,-34.4,M,,*5B
$GPRMC,184933.000,A,4305.1733,N,07740.8677,W,0.05,57.56,080923,,,A*42
$GPGGA,184933.250,4305.1733,N,07740.8677,W,1,08,1.07,208.5,M,-34.4,M,,*5C
$GPRMC,184933.500,A,4305.1733,N,07740.8677,W,0.02,108.19,080923,,,A*70
$GPGGA,184933.750,4305.1733,N,07740.8677,W,1,08,1.07,208.5,M,-34.4,M,,*59
$GPRMC,184934.000,A,4305.1733,N,07740.8677,W,0.05,158.31,080923,,,A*7A
$GPGGA,184934.250,4305.1733,N,07740.8677,W,1,08,1.07,208.5,M,-34.4,M,,*5B
$GPRMC,184934.500,A,4305.1733,N,07740.8677,W,0.05,296.61,080923,,,A*7B
$GPGGA,184934.750,4305.1733,N,07740.8677,W,1,08,1.07,208.5,M,-34.4,M,,*5E
$GPRMC,184935.000,A,4305.1733,N,07740.8677,W,0.40,5.40,080923,,,A*75
$GPGGA,184935.250,4305.1733,N,07740.8677,W,1,08,1.13,208.4,M,-34.4,M,,*5E
$GPRMC,184935.500,A,4305.1731,N,07740.8677,W,0.90,355.72,080923,,,A*78
$GPGGA,184935.750,4305.1730,N,07740.8677,W,1,08,1.13,207.5,M,-34.4,M,,*56
$GPRMC,184936.000,A,4305.1727,N,07740.8677,W,1.39,2.46,080923,,,A*7D
$GPGGA,184936.250,4305.1725,N,07740.8677,W,1,08,1.13,206.0,M,-34.4,M,,*50
$GPRMC,184936.500,A,4305.1723,N,07740.8677,W,1.74,1.50,080923,,,A*71
$GPGGA,184936.750,4305.1723,N,07740.8677,W,1,08,1.13,204.5,M,-34.4,M,,*54
$GPRMC,184937.000,A,4305.1723,N,07740.8677,W,2.07,11.43,080923,,,A*41
$GPGGA,184937.250,4305.1721,N,07740.8677,W,1,08,1.13,202.8,M,-34.4,M,,*59
$GPRMC,184937.500,A,4305.1719,N,07740.8678,W,2.43,19.36,080923,,,A*48
$GPGGA,184937.750,4305.1717,N,07740.8678,W,1,08,1.07,201.1,M,-34.4,M,,*59
$GPRMC,184938.000,A,4305.1715,N,07740.8678,W,2.49,25.62,080923,,,A*4A
$GPGGA,184938.250,4305.1713,N,07740.8677,W,1,08,1.07,199.4,M,-34.4,M,,*5F
$GPRMC,184938.500,A,4305.1712,N,07740.8675,W,3.17,30.34,080923,,,A*48
$GPGGA,184938.750,4305.1710,N,07740.8673,W,1,08,1.07,197.8,M,-34.4,M,,*5F
$GPRMC,184939.000,A,4305.1710,N,07740.8670,W,3.47,32.85,080923,,,A*46
$GPGGA,184939.250,4305.1709,N,07740.8667,W,1,08,1.07,196.6,M,-34.4,M,,*59
$GPRMC,184939.500,A,4305.1707,N,07740.8664,W,3.54,43.71,080923,,,A*4F
$GPGGA,184939.750,4305.1706,N,07740.8662,W,1,08,1.07,195.5,M,-34.4,M,,*56
$GPRMC,184940.000,A,4305.1705,N,07740.8660,W,3.31,49.10,080923,,,A*4C
$GPGGA,184940.250,4305.1703,N,07740.8658,W,1,08,1.07,194.6,M,-34.4,M,,*53
$GPRMC,184940.500,A,4305.1700,N,07740.8657,W,2.53,60.16,080923,,,A*40
$GPGGA,184940.750,4305.1699,N,07740.8654,W,1,08,1.07,193.4,M,-34.4,M,,*5D
$GPRMC,184941.000,A,4305.1698,N,07740.8653,W,1.47,52.77,080923,,,A*40
$GPGGA,184941.250,4305.1696,N,07740.8652,W,1,08,1.07,192.5,M,-34.4,M,,*50
$GPRMC,184941.500,A,4305.1694,N,07740.8652,W,0.17,35.18,080923,,,A*44
$GPGGA,184941.750,4305.1693,N,07740.8653,W,1,08,1.07,191.8,M,-34.4,M,,*5F
$GPRMC,184942.000,A,4305.1692,N,07740.8653,W,0.46,249.16,080923,,,A*76
$GPGGA,184942.250,4305.1692,N,07740.8655,W,1,08,1.07,191.2,M,-34.4,M,,*54
$GPRMC,184942.500,A,4305.1690,N,07740.8657,W,1.19,255.79,080923,,,A*7A
$GPGGA,184942.750,4305.1686,N,07740.8658,W,1,08,1.07,190.6,M,-34.4,M,,*5C
$GPRMC,184943.000,A,4305.1684,N,07740.8660,W,2.89,249.99,080923,,,A*76
$GPGGA,184943.250,4305.1682,N,07740.8662,W,1,08,1.07,190.1,M,-34.4,M,,*52
$GPRMC,184943.500,A,4305.1680,N,07740.8664,W,3.78,248.07,080923,,,A*7A
$GPGGA,184943.750,4305.1677,N,07740.8667,W,1,07,1.11,189.6,M,-34.4,M,,*5F
$GPRMC,184944.000,A,4305.1675,N,07740.8670,W,3.98,251.48,080923,,,A*7A
$GPGGA,184944.250,4305.1674,N,07740.8673,W,1,07,1.15,189.2,M,-34.4,M,,*5B
$GPRMC,184944.500,A,4305.1673,N,07740.8676,W,4.08,257.38,080923,,,A*70
$GPGGA,184944.750,4305.1672,N,07740.8679,W,1,08,1.13,188.8,M,-34.4,M,,*50
$GPRMC,184945.000,A,4305.1671,N,07740.8682,W,4.19,260.79,080923,,,A*7C
$GPGGA,184945.250,4305.1670,N,07740.8686,W,1,08,1.13,188.4,M,-34.4,M,,*5A
$GPRMC,184945.500,A,4305.1670,N,07740.8690,W,4.37,263.71,080923,,,A*7C
$GPGGA,184945.750,4305.1669,N,07740.8694,W,1,08,1.13,188.0,M,-34.4,M,,*50
$GPRMC,184946.000,A,4305.1669,N,07740.8697,W,4.44,267.27,080923,,,A*76
$GPGGA,184946.250,4305.1668,N,07740.8701,W,1,08,1.13,187.6,M,-34.4,M,,*53
$GPRMC,184946.500,A,4305.1668,N,07740.8705,W,4.50,270.38,080923,,,A*75
$GPGGA,184946.750,4305.1668,N,07740.8709,W,1,08,1.13,187.3,M,-34.4,M,,*5B
$GPRMC,184947.000,A,4305.1668,N,07740.8713,W,4.83,271.88,080923,,,A*72
$GPGGA,184947.250,4305.1668,N,07740.8717,W,1,08,1.13,187.0,M,-34.4,M,,*53
$GPRMC,184947.500,A,4305.1667,N,07740.8721,W,4.98,271.81,080923,,,A*7A
$GPGGA,184947.750,4305.1667,N,07740.8726,W,1,08,1.13,186.7,M,-34.4,M,,*5D
$GPRMC,184948.000,A,4305.1668,N,07740.8731,W,5.56,276.16,080923,,,A*74
$GPGGA,184948.250,4305.1668,N,07740.8736,W,1,08,1.13,186.5,M,-34.4,M,,*5B
$GPRMC,184948.500,A,4305.1668,N,07740.8742,W,5.78,276.52,080923,,,A*79
$GPGGA,184948.750,4305.1668,N,07740.8747,W,1,08,1.13,186.2,M,-34.4,M,,*5F
$GPRMC,184949.000,A,4305.1669,N,07740.8753,W,6.28,279.68,080923,,,A*7C
$GPGGA,184949.250,4305.1669,N,07740.8759,W,1,08,1.13,186.1,M,-34.4,M,,*56
$GPRMC,184949.500,A,4305.1670,N,07740.8765,W,6.27,282.47,080923,,,A*72
$GPGGA,184949.750,4305.1671,N,07740.8770,W,1,07,1.15,185.9,M,-34.4,M,,*53
$GPRMC,184950.000,A,4305.1671,N,07740.8775,W,5.42,279.81,080923,,,A*71
$GPGGA,184950.250,4305.1672,N,07740.8780,W,1,08,1.13,185.6,M,-34.4,M,,*54
$GPRMC,184950.500,A,4305.1671,N,07740.8784,W,4.43,270.76,080923,,,A*7B
$GPGGA,184950.750,4305.1671,N,07740.8788,W,1,08,1.13,185.4,M,-34.4,M,,*58
$GPRMC,184951.000,A,4305.1672,N,07740.8792,W,4.58,271.01,080923,,,A*70
$GPGGA,184951.250,4305.1672,N,07740.8797,W,1,08,1.13,185.2,M,-34.4,M,,*57
$GPRMC,184951.500,A,4305.1672,N,07740.8802,W,5.35,273.26,080923,,,A*7E
$GPGGA,184951.750,4305.1672,N,07740.8808,W,1,08,1.13,185.0,M,-34.4,M,,*59
$GPRMC,184952.000,A,4305.1673,N,07740.8813,W,5.67,279.06,080923,,,A*76
$GPGGA,184952.250,4305.1674,N,07740.8819,W,1,08,1.13,184.9,M,-34.4,M,,*51
$GPRMC,184952.500,A,4305.1677,N,07740.8824,W,6.17,291.98,080923,,,A*76
$GPGGA,184952.750,4305.1678,N,07740.8829,W,1,08,1.13,184.6,M,-34.4,M,,*54
$GPRMC,184953.000,A,4305.1680,N,07740.8835,W,6.52,291.96,080923,,,A*75
$GPGGA,184953.250,4305.1684,N,07740.8840,W,1,08,1.13,184.6,M,-34.4,M,,*5C
$GPRMC,184953.500,A,4305.1687,N,07740.8844,W,6.47,311.73,080923,,,A*77
$GPGGA,184953.750,4305.1690,N,07740.8849,W,1,08,1.13,184.4,M,-34.4,M,,*57
$GPRMC,184954.000,A,4305.1695,N,07740.8852,W,6.91,323.05,080923,,,A*7A
$GPGGA,184954.250,4305.1701,N,07740.8854,W,1,08,1.13,184.3,M,-34.4,M,,*57
$GPRMC,184954.500,A,4305.1706,N,07740.8856,W,8.01,344.67,080923,,,A*72
$GPGGA,184954.750,4305.1712,N,07740.8858,W,1,08,1.13,184.1,M,-34.4,M,,*5E
$GPRMC,184955.000,A,4305.1719,N,07740.8859,W,9.22,352.61,080923,,,A*76
$GPGGA,184955.250,4305.1725,N,07740.8859,W,1,08,1.13,183.9,M,-34.4,M,,*50
$GPRMC,184955.500,A,4305.1732,N,07740.8859,W,10.44,1.25,080923,,,A*47
$GPGGA,184955.750,4305.1737,N,07740.8858,W,1,08,1.13,183.7,M,-34.4,M,,*59
$GPRMC,184956.000,A,4305.1743,N,07740.8857,W,11.59,5.20,080923,,,A*45
$GPGGA,184956.250,4305.1750,N,07740.8855,W,1,08,1.13,183.6,M,-34.4,M,,*52
$GPRMC,184956.500,A,4305.1758,N,07740.8854,W,12.42,6.06,080923,,,A*47
$GPGGA,184956.750,4305.1766,N,07740.8851,W,1,08,1.13,183.5,M,-34.4,M,,*55
$GPRMC,184957.000,A,4305.1775,N,07740.8849,W,12.84,4.77,080923,,,A*4E
$GPGGA,184957.250,4305.1784,N,07740.8848,W,1,08,1.13,183.3,M,-34.4,M,,*53
$GPRMC,184957.500,A,4305.1792,N,07740.8847,W,12.93,3.04,080923,,,A*49
$GPGGA,184957.750,4305.1801,N,07740.8847,W,1,08,1.13,183.0,M,-34.4,M,,*58
$GPRMC,184958.000,A,4305.1810,N,07740.8846,W,13.19,1.79,080923,,,A*4C
$GPGGA,184958.250,4305.1819,N,07740.8846,W,1,08,1.13,182.8,M,-34.4,M,,*53
$GPRMC,184958.500,A,4305.1829,N,07740.8846,W,13.40,0.79,080923,,,A*4E
$GPGGA,184958.750,4305.1838,N,07740.8846,W,1,08,1.13,182.5,M,-34.4,M,,*58
$GPRMC,184959.000,A,4305.1848,N,07740.8846,W,13.41,359.40,080923,,,A*49
$GPGGA,184959.250,4305.1857,N,07740.8846,W,1,08,1.13,182.1,M,-34.4,M,,*51
$GPRMC,184959.500,A,4305.1866,N,07740.8846,W,13.16,358.49,080923,,,A*4A
$GPGGA,184959.750,4305.1874,N,07740.8846,W,1,08,1.13,181.9,M,-34.4,M,,*5E
$GPRMC,185000.000,A,4305.1883,N,07740.8847,W,12.49,357.49,080923,,,A*45
$GPGGA,185000.250,4305.1891,N,07740.8848,W,1,08,1.13,181.7,M,-34.4,M,,*54
$GPRMC,185000.500,A,4305.1899,N,07740.8849,W,11.43,355.97,080923,,,A*4D
$GPGGA,185000.750,4305.1906,N,07740.8850,W,1,08,1.13,181.5,M,-34.4,M,,*55
$GPRMC,185001.000,A,4305.1913,N,07740.8852,W,10.52,351.53,080923,,,A*4D
$GPGGA,185001.250,4305.1919,N,07740.8854,W,1,08,1.13,181.5,M,-34.4,M,,*5B
$GPRMC,185001.500,A,4305.1925,N,07740.8856,W,9.76,343.29,080923,,,A*79
$GPGGA,185001.750,4305.1932,N,07740.8859,W,1,08,1.13,181.3,M,-34.4,M,,*5C
$GPRMC,185002.000,A,4305.1939,N,07740.8863,W,9.97,339.51,080923,,,A*79
$GPGGA,185002.250,4305.1944,N,07740.8867,W,1,08,1.13,181.1,M,-34.4,M,,*54
$GPRMC,185002.500,A,4305.1949,N,07740.8872,W,9.90,328.78,080923,,,A*77
$GPGGA,185002.750,4305.1955,N,07740.8877,W,1,08,1.13,180.9,M,-34.4,M,,*59
$GPRMC,185003.000,A,4305.1961,N,07740.8883,W,10.45,320.03,080923,,,A*43
$GPGGA,185003.250,4305.1966,N,07740.8890,W,1,08,1.13,180.7,M,-34.4,M,,*5A
$GPRMC,185003.500,A,4305.1970,N,07740.8897,W,10.74,312.79,080923,,,A*4D
$GPGGA,185003.750,4305.1971,N,07740.8906,W,1,08,1.13,180.4,M,-34.4,M,,*54
$GPRMC,185004.000,A,4305.1973,N,07740.8914,W,10.41,299.80,080923,,,A*44
$GPGGA,185004.250,4305.1977,N,07740.8922,W,1,08,1.13,180.4,M,-34.4,M,,*56
$GPRMC,185004.500,A,4305.1980,N,07740.8931,W,10.72,293.42,080923,,,A*4E
$GPGGA,185004.750,4305.1983,N,07740.8940,W,1,08,1.07,180.2,M,-34.4,M,,*5F
$GPRMC,185005.000,A,4305.1985,N,07740.8950,W,10.71,287.90,080923,,,A*41
$GPGGA,185005.250,4305.1987,N,07740.8959,W,1,08,1.13,180.1,M,-34.4,M,,*51
$GPRMC,185005.500,A,4305.1988,N,07740.8970,W,10.42,280.49,080923,,,A*48
$GPGGA,185005.750,4305.1988,N,07740.8980,W,1,08,1.13,179.8,M,-34.4,M,,*50
$GPRMC,185006.000,A,4305.1989,N,07740.8990,W,10.36,275.36,080923,,,A*40
$GPGGA,185006.250,4305.1989,N,07740.9001,W,1,08,1.13,179.7,M,-34.4,M,,*59
$GPRMC,185006.500,A,4305.1988,N,07740.9011,W,10.30,271.35,080923,,,A*44
$GPGGA,185006.750,4305.1988,N,07740.9021,W,1,08,1.13,179.5,M,-34.4,M,,*5D
$GPRMC,185007.000,A,4305.1988,N,07740.9031,W,10.51,269.16,080923,,,A*4D
$GPGGA,185007.250,4305.1988,N,07740.9042,W,1,08,1.13,179.3,M,-34.4,M,,*5A
$GPRMC,185007.500,A,4305.1988,N,07740.9052,W,10.74,267.95,080923,,,A*4F
$GPGGA,185007.750,4305.1987,N,07740.9063,W,1,08,1.07,179.1,M,-34.4,M,,*54
$GPRMC,185008.000,A,4305.1986,N,07740.9074,W,11.05,266.76,080923,,,A*44
$GPGGA,185008.250,4305.1985,N,07740.9086,W,1,08,1.13,178.9,M,-34.4,M,,*5B
$GPRMC,185008.500,A,4305.1984,N,07740.9097,W,11.17,266.44,080923,,,A*4C
$GPGGA,185008.750,4305.1982,N,07740.9108,W,1,08,1.13,178.8,M,-34.4,M,,*5F
$GPRMC,185009.000,A,4305.1980,N,07740.9119,W,11.12,266.13,080923,,,A*4C
$GPGGA,185009.250,4305.1978,N,07740.9130,W,1,08,1.13,178.6,M,-34.4,M,,*5B
$GPRMC,185009.500,A,4305.1976,N,07740.9141,W,11.09,265.32,080923,,,A*47
$GPGGA,185009.750,4305.1975,N,07740.9152,W,1,08,1.13,178.4,M,-34.4,M,,*55
$GPRMC,185010.000,A,4305.1974,N,07740.9163,W,10.59,265.82,080923,,,A*47
$GPGGA,185010.250,4305.1973,N,07740.9173,W,1,08,1.13,178.3,M,-34.4,M,,*5A
$GPRMC,185010.500,A,4305.1971,N,07740.9183,W,9.38,264.62,080923,,,A*79
$GPGGA,185010.750,4305.1970,N,07740.9192,W,1,08,1.13,178.1,M,-34.4,M,,*51
$GPRMC,185011.000,A,4305.1968,N,07740.9200,W,8.53,263.43,080923,,,A*75
$GPGGA,185011.250,4305.1964,N,07740.9208,W,1,08,1.13,177.8,M,-34.4,M,,*56
$GPRMC,185011.500,A,4305.1962,N,07740.9215,W,7.44,257.73,080923,,,A*73
$GPGGA,185011.750,4305.1960,N,07740.9222,W,1,08,1.13,177.7,M,-34.4,M,,*50
$GPRMC,185012.000,A,4305.1958,N,07740.9227,W,6.02,252.91,080923,,,A*77
$GPGGA,185012.250,4305.1957,N,07740.9232,W,1,08,1.13,177.7,M,-34.4,M,,*53
$GPRMC,185012.500,A,4305.1955,N,07740.9236,W,4.06,251.65,080923,,,A*71
$GPGGA,185012.750,4305.1953,N,07740.9240,W,1,07,1.15,177.5,M,-34.4,M,,*5C
$GPRMC,185013.000,A,4305.1951,N,07740.9242,W,2.74,248.32,080923,,,A*7B
$GPGGA,185013.250,4305.1950,N,07740.9244,W,1,07,1.11,177.4,M,-34.4,M,,*5A
$GPRMC,185013.500,A,4305.1950,N,07740.9245,W,1.38,248.32,080923,,,A*73
$GPGGA,185013.750,4305.1950,N,07740.9246,W,1,08,1.07,177.3,M,-34.4,M,,*52
$GPRMC,185014.000,A,4305.1950,N,07740.9246,W,0.24,248.32,080923,,,A*7E
$GPGGA,185014.250,4305.1950,N,07740.9245,W,1,07,1.10,177.1,M,-34.4,M,,*58
$GPRMC,185014.500,A,4305.1951,N,07740.9245,W,0.03,248.32,080923,,,A*7C
$GPGGA,185014.750,4305.1951,N,07740.9245,W,1,08,1.07,176.9,M,-34.4,M,,*5C
$GPRMC,185015.000,A,4305.1951,N,07740.9245,W,0.02,248.32,080923,,,A*79
$GPGGA,185015.250,4305.1951,N,07740.9245,W,1,08,1.07,176.8,M,-34.4,M,,*59
$GPRMC,185015.500,A,4305.1950,N,07740.9245,W,0.04,248.32,080923,,,A*7B
$GPGGA,185015.750,4305.1950,N,07740.9245,W,1,08,1.07,176.6,M,-34.4,M,,*53
$GPRMC,185016.000,A,4305.1950,N,07740.9245,W,0.03,248.32,080923,,,A*7A
$GPGGA,185016.250,4305.1950,N,07740.9245,W,1,07,1.11,176.4,M,-34.4,M,,*5F
$GPRMC,185016.500,A,4305.1950,N,07740.9245,W,0.02,248.32,080923,,,A*7E
$GPGGA,185016.750,4305.1950,N,07740.9245,W,1,07,1.11,176.3,M,-34.4,M,,*5D
$GPRMC,185017.000,A,4305.1950,N,07740.9245,W,0.01,248.32,080923,,,A*79
$GPGGA,185017.250,4305.1950,N,07740.9245,W,1,07,1.11,176.3,M,-34.4,M,,*59
$GPRMC,185017.500,A,4305.1950,N,07740.9245,W,0.01,248.32,080923,,,A*7C
$GPGGA,185017.750,4305.1950,N,07740.9245,W,1,07,1.11,176.3,M,-34.4,M,,*5C
$GPRMC,185018.000,A,4305.1950,N,07740.9245,W,0.02,248.32,080923,,,A*75
$GPGGA,185018.250,4305.1950,N,07740.9245,W,1,07,1.11,176.2,M,-34.4,M,,*57
$GPRMC,185018.500,A,4305.1950,N,07740.9245,W,0.01,248.32,080923,,,A*73
$GPGGA,185018.750,4305.1950,N,07740.9245,W,1,07,1.11,176.2,M,-34.4,M,,*52
$GPRMC,185019.000,A,4305.1950,N,07740.9245,W,0.04,248.32,080923,,,A*72
$GPGGA,185019.250,4305.1950,N,07740.9245,W,1,08,1.07,176.2,M,-34.4,M,,*5E
$GPRMC,185019.500,A,4305.1950,N,07740.9245,W,0.02,248.32,080923,,,A*71
$GPGGA,185019.750,4305.1950,N,07740.9245,W,1,08,1.07,176.2,M,-34.4,M,,*5B
$GPRMC,185020.000,A,4305.1950,N,07740.9245,W,0.04,248.32,080923,,,A*78
$GPGGA,185020.250,4305.1950,N,07740.9245,W,1,08,1.07,176.2,M,-34.4,M,,*54
$GPRMC,185020.500,A,4305.1950,N,07740.9245,W,0.04,248.32,080923,,,A*7D
$GPGGA,185020.750,4305.1950,N,07740.9245,W,1,07,1.11,176.2,M,-34.4,M,,*59
$GPRMC,185021.000,A,4305.1950,N,07740.9245,W,0.05,248.32,080923,,,A*78
$GPGGA,185021.250,4305.1950,N,07740.9245,W,1,07,1.11,176.2,M,-34.4,M,,*5D
$GPRMC,185021.500,A,4305.1950,N,07740.9245,W,0.02,248.32,080923,,,A*7A
$GPGGA,185021.750,4305.1950,N,07740.9245,W,1,07,1.11,176.2,M,-34.4,M,,*58
$GPRMC,185022.000,A,4305.1950,N,07740.9245,W,0.05,248.32,080923,,,A*7B
$GPGGA,185022.250,4305.1950,N,07740.9245,W,1,07,1.10,176.2,M,-34.4,M,,*5F
$GPRMC,185022.500,A,4305.1950,N,07740.9245,W,0.02,248.32,080923,,,A*79
$GPGGA,185022.750,4305.1950,N,07740.9245,W,1,07,1.11,176.2,M,-34.4,M,,*5B
$GPRMC,185023.000,A,4305.1950,N,07740.9245,W,0.01,248.32,080923,,,A*7E
$GPGGA,185023.250,4305.1950,N,07740.9245,W,1,07,1.10,176.2,M,-34.4,M,,*5E
$GPRMC,185023.500,A,4305.1950,N,07740.9245,W,0.04,248.32,080923,,,A*7E
$GPGGA,185023.750,4305.1950,N,07740.9245,W,1,07,1.10,176.2,M,-34.4,M,,*5B
$GPRMC,185024.000,A,4305.1950,N,07740.9245,W,0.01,248.32,080923,,,A*79
$GPGGA,185024.250,4305.1950,N,07740.9245,W,1,07,1.10,176.2,M,-34.4,M,,*59
$GPRMC,185024.500,A,4305.1950,N,07740.9245,W,0.04,248.32,080923,,,A*79
$GPGGA,185024.750,4305.1950,N,07740.9245,W,1,07,1.11,176.2,M,-34.4,M,,*5D
$GPRMC,185025.000,A,4305.1950,N,07740.9245,W,0.01,248.32,080923,,,A*78
$GPGGA,185025.250,4305.1950,N,07740.9245,W,1,08,1.07,176.2,M,-34.4,M,,*51
$GPRMC,185025.500,A,4305.1950,N,07740.9245,W,0.01,248.32,080923,,,A*7D
$GPGGA,185025.750,4305.1950,N,07740.9245,W,1,08,1.07,176.2,M,-34.4,M,,*54
$GPRMC,185026.000,A,4305.1950,N,07740.9245,W,0.01,248.32,080923,,,A*7B
$GPGGA,185026.250,4305.1950,N,07740.9245,W,1,08,1.13,176.2,M,-34.4,M,,*57
$GPRMC,185026.500,A,4305.1950,N,07740.9245,W,0.01,248.32,080923,,,A*7E
$GPGGA,185026.750,4305.1950,N,07740.9245,W,1,08,1.13,176.2,M,-34.4,M,,*52
$GPRMC,185027.000,A,4305.1950,N,07740.9245,W,0.01,248.32,080923,,,A*7A
$GPGGA,185027.250,4305.1950,N,07740.9245,W,1,07,1.15,176.2,M,-34.4,M,,*5F
$GPRMC,185027.500,A,4305.1950,N,07740.9245,W,0.01,248.32,080923,,,A*7F
$GPGGA,185027.750,4305.1949,N,07740.9245,W,1,08,1.13,176.2,M,-34.4,M,,*5B
$GPRMC,185028.000,A,4305.1949,N,07740.9245,W,0.00,248.32,080923,,,A*7C
$GPGGA,185028.250,4305.1949,N,07740.9245,W,1,08,1.13,176.2,M,-34.4,M,,*51
$GPRMC,185028.500,A,4305.1949,N,07740.9245,W,0.01,248.32,080923,,,A*78
$GPGGA,185028.750,4305.1949,N,07740.9245,W,1,07,1.15,176.2,M,-34.4,M,,*5D
$GPRMC,185029.000,A,4305.1949,N,07740.9245,W,0.00,248.32,080923,,,A*7D
$GPGGA,185029.250,4305.1949,N,07740.9245,W,1,07,1.15,176.2,M,-34.4,M,,*59
$GPRMC,185029.500,A,4305.1949,N,07740.9245,W,0.00,248.32,080923,,,A*78
$GPGGA,185029.750,4305.1949,N,07740.9245,W,1,07,1.15,176.2,M,-34.4,M,,*5C
$GPRMC,185030.000,A,4305.1949,N,07740.9245,W,0.00,248.32,080923,,,A*75
$GPGGA,185030.250,4305.1949,N,07740.9245,W,1,07,1.15,176.2,M,-34.4,M,,*51
$GPRMC,185030.500,A,4305.1950,N,07740.9245,W,0.01,248.32,080923,,,A*79
$GPGGA,185030.750,4305.1950,N,07740.9245,W,1,07,1.15,176.2,M,-34.4,M,,*5C
$GPRMC,185031.000,A,4305.1950,N,07740.9245,W,0.01,248.32,080923,,,A*7D
$GPGGA,185031.250,4305.1950,N,07740.9245,W,1,08,1.13,176.2,M,-34.4,M,,*51
$GPRMC,185031.500,A,4305.1950,N,07740.9245,W,0.01,248.32,080923,,,A*78
$GPGGA,185031.750,4305.1950,N,07740.9245,W,1,08,1.13,176.1,M,-34.4,M,,*57
$GPRMC,185032.000,A,4305.1950,N,07740.9245,W,0.01,248.32,080923,,,A*7E
$GPGGA,185032.250,4305.1950,N,07740.9245,W,1,08,1.13,176.1,M,-34.4,M,,*51
$GPRMC,185032.500,A,4305.1950,N,07740.9245,W,0.01,248.32,080923,,,A*7B
$GPGGA,185032.750,4305.1949,N,07740.9245,W,1,08,1.13,176.1,M,-34.4,M,,*5C
$GPRMC,185033.000,A,4305.1949,N,07740.9245,W,0.01,248.32,080923,,,A*77
$GPGGA,185033.250,4305.1949,N,07740.9245,W,1,08,1.13,176.1,M,-34.4,M,,*58
$GPRMC,185033.500,A,4305.1949,N,07740.9245,W,0.00,248.32,080923,,,A*73
$GPGGA,185033.750,4305.1949,N,07740.9245,W,1,07,1.15,176.1,M,-34.4,M,,*54
$GPRMC,185034.000,A,4305.1949,N,07740.9245,W,0.01,248.32,080923,,,A*70
$GPGGA,185034.250,4305.1949,N,07740.9245,W,1,07,1.15,176.1,M,-34.4,M,,*56
$GPRMC,185034.500,A,4305.1949,N,07740.9245,W,0.01,248.32,080923,,,A*75
$GPGGA,185034.750,4305.1949,N,07740.9245,W,1,07,1.15,176.1,M,-34.4,M,,*53
$GPRMC,185035.000,A,4305.1949,N,07740.9245,W,0.00,248.32,080923,,,A*70
$GPGGA,185035.250,4305.1949,N,07740.9245,W,1,08,1.13,176.1,M,-34.4,M,,*5E
$GPRMC,185035.500,A,4305.1949,N,07740.9245,W,0.00,248.32,080923,,,A*75
$GPGGA,185035.750,4305.1949,N,07740.9245,W,1,07,1.15,176.1,M,-34.4,M,,*52
$GPRMC,185036.000,A,4305.1949,N,07740.9245,W,0.01,248.32,080923,,,A*72
$GPGGA,185036.250,4305.1949,N,07740.9245,W,1,07,1.15,176.1,M,-34.4,M,,*54
$GPRMC,185036.500,A,4305.1949,N,07740.9245,W,0.00,248.32,080923,,,A*76
$GPGGA,185036.750,4305.1949,N,07740.9245,W,1,07,1.15,176.1,M,-34.4,M,,*51
$GPRMC,185037.000,A,4305.1949,N,07740.9245,W,0.00,248.32,080923,,,A*72
$GPGGA,185037.250,4305.1949,N,07740.9245,W,1,08,1.13,176.1,M,-34.4,M,,*5C
$GPRMC,185037.500,A,4305.1949,N,07740.9245,W,0.01,248.32,080923,,,A*76
$GPGGA,185037.750,4305.1949,N,07740.9245,W,1,08,1.13,176.1,M,-34.4,M,,*59
$GPRMC,185038.000,A,4305.1949,N,07740.9245,W,0.00,248.32,080923,,,A*7D
$GPGGA,185038.250,4305.1949,N,07740.9245,W,1,08,1.13,176.1,M,-34.4,M,,*53
$GPRMC,185038.500,A,4305.1949,N,07740.9245,W,0.00,248.32,080923,,,A*78
$GPGGA,185038.750,4305.1949,N,07740.9245,W,1,08,1.13,176.1,M,-34.4,M,,*56
$GPRMC,185039.000,A,4305.1949,N,07740.9245,W,0.00,248.32,080923,,,A*7C
$GPGGA,185039.250,4305.1949,N,07740.9245,W,1,08,1.13,176.1,M,-34.4,M,,*52
$GPRMC,185039.500,A,4305.1949,N,07740.9245,W,0.00,248.32,080923,,,A*79
$GPGGA,185039.750,4305.1949,N,07740.9245,W,1,08,1.13,176.1,M,-34.4,M,,*57
$GPRMC,185040.000,A,4305.1949,N,07740.9245,W,0.01,248.32,080923,,,A*73
$GPGGA,185040.250,4305.1949,N,07740.9245,W,1,07,1.15,176.1,M,-34.4,M,,*55
$GPRMC,185040.500,A,4305.1949,N,07740.9245,W,0.01,248.32,080923,,,A*76
$GPGGA,185040.750,4305.1949,N,07740.9245,W,1,08,1.13,176.1,M,-34.4,M,,*59
$GPRMC,185041.000,A,4305.1949,N,07740.9245,W,0.01,248.32,080923,,,A*72
$GPGGA,185041.250,4305.1949,N,07740.9245,W,1,08,1.13,176.1,M,-34.4,M,,*5D
$GPRMC,185041.500,A,4305.1949,N,07740.9245,W,0.00,248.32,080923,,,A*76
$GPGGA,185041.750,4305.1949,N,07740.9245,W,1,08,1.13,176.1,M,-34.4,M,,*58
$GPRMC,185042.000,A,4305.1949,N,07740.9245,W,0.00,248.32,080923,,,A*70
$GPGGA,185042.250,4305.1949,N,07740.9245,W,1,08,1.13,176.1,M,-34.4,M,,*5E
$GPRMC,185042.500,A,4305.1949,N,07740.9245,W,0.01,248.32,080923,,,A*74
$GPGGA,185042.750,4305.1949,N,07740.9245,W,1,08,1.13,176.1,M,-34.4,M,,*5B
$GPRMC,185043.000,A,4305.1949,N,07740.9245,W,0.00,248.32,080923,,,A*71
$GPGGA,185043.250,4305.1949,N,07740.9245,W,1,08,1.13,176.1,M,-34.4,M,,*5F
$GPRMC,185043.500,A,4305.1949,N,07740.9245,W,0.01,248.32,080923,,,A*75
$GPGGA,185043.750,4305.1949,N,07740.9245,W,1,08,1.13,176.1,M,-34.4,M,,*5A
$GPRMC,185044.000,A,4305.1949,N,07740.9245,W,0.00,248.32,080923,,,A*76
$GPGGA,185044.250,4305.1949,N,07740.9245,W,1,08,1.13,176.1,M,-34.4,M,,*58
$GPRMC,185044.500,A,4305.1949,N,07740.9245,W,0.00,248.32,080923,,,A*73
$GPGGA,185044.750,4305.1949,N,07740.9245,W,1,08,1.13,176.1,M,-34.4,M,,*5D
$GPRMC,185045.000,A,4305.1949,N,07740.9245,W,0.01,248.32,080923,,,A*76
$GPGGA,185045.250,4305.1949,N,07740.9245,W,1,08,1.13,176.1,M,-34.4,M,,*59
$GPRMC,185045.500,A,4305.1949,N,07740.9245,W,0.01,248.32,080923,,,A*73
$GPGGA,185045.750,4305.1949,N,07740.9245,W,1,08,1.13,176.1,M,-34.4,M,,*5C
$GPRMC,185046.000,A,4305.1949,N,07740.9245,W,0.01,248.32,080923,,,A*75
$GPGGA,185046.250,4305.1949,N,07740.9245,W,1,08,1.13,176.1,M,-34.4,M,,*5A
$GPRMC,185046.500,A,4305.1949,N,07740.9245,W,0.00,248.32,080923,,,A*71
$GPGGA,185046.750,4305.1949,N,07740.9245,W,1,08,1.13,176.1,M,-34.4,M,,*5F
$GPRMC,185047.000,A,4305.1949,N,07740.9245,W,0.00,248.32,080923,,,A*75
$GPGGA,185047.250,4305.1949,N,07740.9245,W,1,08,1.13,176.1,M,-34.4,M,,*5B
$GPRMC,185047.500,A,4305.1949,N,07740.9245,W,0.00,248.32,080923,,,A*70
$GPGGA,185047.750,4305.1949,N,07740.9245,W,1,08,1.13,176.1,M,-34.4,M,,*5E
$GPRMC,185048.000,A,4305.1949,N,07740.9245,W,0.01,248.32,080923,,,A*7B
$GPGGA,185048.250,4305.1949,N,07740.9245,W,1,08,1.13,176.1,M,-34.4,M,,*54
$GPRMC,185048.500,A,4305.1949,N,07740.9245,W,0.00,248.32,080923,,,A*7F
$GPGGA,185048.750,4305.1949,N,07740.9245,W,1,08,1.13,176.1,M,-34.4,M,,*51
$GPRMC,185049.000,A,4305.1949,N,07740.9245,W,0.00,248.32,080923,,,A*7B
$GPGGA,185049.250,4305.1949,N,07740.9245,W,1,08,1.13,176.1,M,-34.4,M,,*55
$GPRMC,185049.500,A,4305.1949,N,07740.9245,W,0.01,248.32,080923,,,A*7F
$GPGGA,185049.750,4305.1949,N,07740.9245,W,1,08,1.13,176.1,M,-34.4,M,,*50
$GPRMC,185050.000,A,4305.1949,N,07740.9245,W,0.01,248.32,080923,,,A*72
$GPGGA,185050.250,4305.1949,N,07740.9245,W,1,08,1.13,176.1,M,-34.4,M,,*5D
$GPRMC,185050.500,A,4305.1949,N,07740.9245,W,0.00,248.32,080923,,,A*76
$GPGGA,185050.750,4305.1949,N,07740.9245,W,1,08,1.13,176.1,M,-34.4,M,,*58
$GPRMC,185051.000,A,4305.1949,N,07740.9245,W,0.00,248.32,080923,,,A*72
$GPGGA,185051.250,4305.1949,N,07740.9245,W,1,08,1.13,176.1,M,-34.4,M,,*5C
$GPRMC,185051.500,A,4305.1949,N,07740.9245,W,0.01,248.32,080923,,,A*76
$GPGGA,185051.750,4305.1949,N,07740.9245,W,1,08,1.13,176.1,M,-34.4,M,,*59
$GPRMC,185052.000,A,4305.1949,N,07740.9245,W,0.00,248.32,080923,,,A*71
$GPGGA,185052.250,4305.1949,N,07740.9245,W,1,08,1.13,176.1,M,-34.4,M,,*5F
$GPRMC,185052.500,A,4305.1949,N,07740.9245,W,0.01,248.32,080923,,,A*75
$GPGGA,185052.750,4305.1949,N,07740.9245,W,1,08,1.13,176.1,M,-34.4,M,,*5A
$GPRMC,185053.000,A,4305.1949,N,07740.9245,W,0.00,248.32,080923,,,A*70
$GPGGA,185053.250,4305.1949,N,07740.9245,W,1,08,1.13,176.1,M,-34.4,M,,*5E
$GPRMC,185053.500,A,4305.1949,N,07740.9245,W,0.00,248.32,080923,,,A*75
$GPGGA,185053.750,4305.1949,N,07740.9245,W,1,08,1.13,176.1,M,-34.4,M,,*5B
$GPRMC,185054.000,A,4305.1949,N,07740.9245,W,0.01,248.32,080923,,,A*76
$GPGGA,185054.250,4305.1949,N,07740.9245,W,1,08,1.13,176.1,M,-34.4,M,,*59
$GPRMC,185054.500,A,4305.1949,N,07740.9245,W,0.01,248.32,080923,,,A*73
$GPGGA,185054.750,4305.1949,N,07740.9245,W,1,08,1.13,176.1,M,-34.4,M,,*5C
$GPRMC,185055.000,A,4305.1949,N,07740.9245,W,0.00,248.32,080923,,,A*76
$GPGGA,185055.250,4305.1949,N,07740.9245,W,1,08,1.13,176.1,M,-34.4,M,,*58
$GPRMC,185055.500,A,4305.1949,N,07740.9245,W,0.01,248.32,080923,,,A*72
$GPGGA,185055.750,4305.1950,N,07740.9245,W,1,08,1.13,176.1,M,-34.4,M,,*55
$GPRMC,185056.000,A,4305.1950,N,07740.9245,W,0.00,248.32,080923,,,A*7D
$GPGGA,185056.250,4305.1950,N,07740.9245,W,1,08,1.13,176.1,M,-34.4,M,,*53
$GPRMC,185056.500,A,4305.1950,N,07740.9245,W,0.00,248.32,080923,,,A*78
$GPGGA,185056.750,4305.1950,N,07740.9245,W,1,08,1.13,176.1,M,-34.4,M,,*56
$GPRMC,185057.000,A,4305.1950,N,07740.9245,W,0.00,248.32,080923,,,A*7C
$GPGGA,185057.250,4305.1950,N,07740.9245,W,1,08,1.13,176.1,M,-34.4,M,,*52
$GPRMC,185057.500,A,4305.1950,N,07740.9245,W,0.01,248.32,080923,,,A*78
$GPGGA,185057.750,4305.1950,N,07740.9245,W,1,08,1.13,176.1,M,-34.4,M,,*57
$GPRMC,185058.000,A,4305.1950,N,07740.9245,W,0.00,248.32,080923,,,A*73
$GPGGA,185058.250,4305.1950,N,07740.9245,W,1,08,1.13,176.1,M,-34.4,M,,*5D
$GPRMC,185058.500,A,4305.1950,N,07740.9245,W,0.00,248.32,080923,,,A*76
$GPGGA,185058.750,4305.1950,N,07740.9245,W,1,08,1.13,176.1,M,-34.4,M,,*58
$GPRMC,185059.000,A,4305.1950,N,07740.9245,W,0.00,248.32,080923,,,A*72
$GPGGA,185059.250,4305.1950,N,07740.9245,W,1,08,1.13,176.1,M,-34.4,M,,*5C
$GPRMC,185059.500,A,4305.1950,N,07740.9245,W,0.01,248.32,080923,,,A*76
$GPGGA,185059.750,4305.1950,N,07740.9245,W,1,08,1.13,176.1,M,-34.4,M,,*59
$GPRMC,185100.000,A,4305.1950,N,07740.9245,W,0.00,248.32,080923,,,A*7F
$GPGGA,185100.250,4305.1950,N,07740.9245,W,1,08,1.13,176.1,M,-34.4,M,,*51
$GPRMC,185100.500,A,4305.1950,N,07740.9245,W,0.00,248.32,080923,,,A*7A
$GPGGA,185100.750,4305.1950,N,07740.9245,W,1,08,1.13,176.1,M,-34.4,M,,*54
$GPRMC,185101.000,A,4305.1950,N,07740.9245,W,0.00,248.32,080923,,,A*7E
$GPGGA,185101.250,4305.1950,N,07740.9245,W,1,08,1.13,176.1,M,-34.4,M,,*50
$GPRMC,185101.500,A,4305.1950,N,07740.9245,W,0.01,248.32,080923,,,A*7A
$GPGGA,185101.750,4305.1950,N,07740.9245,W,1,08,1.13,176.1,M,-34.4,M,,*55
$GPRMC,185102.000,A,4305.1950,N,07740.9245,W,0.00,248.32,080923,,,A*7D
$GPGGA,185102.250,4305.1950,N,07740.9245,W,1,08,1.13,176.0,M,-34.4,M,,*52
$GPRMC,185102.500,A,4305.1950,N,07740.9245,W,0.00,248.32,080923,,,A*78
$GPGGA,185102.750,4305.1949,N,07740.9245,W,1,08,1.13,176.0,M,-34.4,M,,*5F
$GPRMC,185103.000,A,4305.1949,N,07740.9245,W,0.00,248.32,080923,,,A*74
$GPGGA,185103.250,4305.1949,N,07740.9245,W,1,08,1.13,176.0,M,-34.4,M,,*5B
$GPRMC,185103.500,A,4305.1949,N,07740.9245,W,0.00,248.32,080923,,,A*71
$GPGGA,185103.750,4305.1949,N,07740.9245,W,1,08,1.13,176.0,M,-34.4,M,,*5E
$GPRMC,185104.000,A,4305.1949,N,07740.9245,W,0.00,248.32,080923,,,A*73
$GPGGA,185104.250,4305.1949,N,07740.9245,W,1,08,1.13,176.0,M,-34.4,M,,*5C
$GPRMC,185104.500,A,4305.1949,N,07740.9245,W,0.00,248.32,080923,,,A*76
$GPGGA,185104.750,4305.1949,N,07740.9245,W,1,08,1.13,176.0,M,-34.4,M,,*59
$GPRMC,185105.000,A,4305.1949,N,07740.9245,W,0.01,248.32,080923,,,A*73
$GPGGA,185105.250,4305.1949,N,07740.9245,W,1,08,1.13,176.0,M,-34.4,M,,*5D
$GPRMC,185105.500,A,4305.1949,N,07740.9245,W,0.01,248.32,080923,,,A*76
$GPGGA,185105.750,4305.1949,N,07740.9245,W,1,08,1.13,176.0,M,-34.4,M,,*58
$GPRMC,185106.000,A,4305.1949,N,07740.9245,W,0.00,248.32,080923,,,A*71
$GPGGA,185106.250,4305.1949,N,07740.9245,W,1,08,1.13,176.0,M,-34.4,M,,*5E
$GPRMC,185106.500,A,4305.1949,N,07740.9245,W,0.01,248.32,080923,,,A*75
$GPGGA,185106.750,4305.1949,N,07740.9245,W,1,08,1.13,176.0,M,-34.4,M,,*5B
$GPRMC,185107.000,A,4305.1949,N,07740.9245,W,0.01,248.32,080923,,,A*71
$GPGGA,185107.250,4305.1949,N,07740.9245,W,1,08,1.13,176.0,M,-34.4,M,,*5F
$GPRMC,185107.500,A,4305.1949,N,07740.9245,W,0.01,248.32,080923,,,A*74
$GPGGA,185107.750,4305.1949,N,07740.9245,W,1,08,1.13,176.0,M,-34.4,M,,*5A
$GPRMC,185108.000,A,4305.1949,N,07740.9245,W,0.00,248.32,080923,,,A*7F
$GPGGA,185108.250,4305.1949,N,07740.9245,W,1,08,1.13,176.0,M,-34.4,M,,*50
$GPRMC,185108.500,A,4305.1949,N,07740.9245,W,0.00,248.32,080923,,,A*7A
$GPGGA,185108.750,4305.1949,N,07740.9245,W,1,08,1.13,176.0,M,-34.4,M,,*55
$GPRMC,185109.000,A,4305.1949,N,07740.9245,W,0.01,248.32,080923,,,A*7F
$GPGGA,185109.250,4305.1949,N,07740.9245,W,1,08,1.13,176.0,M,-34.4,M,,*51
$GPRMC,185109.500,A,4305.1949,N,07740.9245,W,0.00,248.32,080923,,,A*7B
$GPGGA,185109.750,4305.1949,N,07740.9245,W,1,08,1.13,176.0,M,-34.4,M,,*54
$GPRMC,185110.000,A,4305.1949,N,07740.9245,W,0.00,248.32,080923,,,A*76
$GPGGA,185110.250,4305.1949,N,07740.9245,W,1,08,1.13,176.0,M,-34.4,M,,*59
$GPRMC,185110.500,A,4305.1949,N,07740.9245,W,0.00,248.32,080923,,,A*73
$GPGGA,185110.750,4305.1949,N,07740.9245,W,1,08,1.13,176.0,M,-34.4,M,,*5C
$GPRMC,185111.000,A,4305.1949,N,07740.9245,W,0.01,248.32,080923,,,A*76
$GPGGA,185111.250,4305.1949,N,07740.9245,W,1,08,1.13,176.0,M,-34.4,M,,*58
$GPRMC,185111.500,A,4305.1949,N,07740.9245,W,0.01,248.32,080923,,,A*73
$GPGGA,185111.750,4305.1949,N,07740.9245,W,1,08,1.13,176.0,M,-34.4,M,,*5D
$GPRMC,185112.000,A,4305.1949,N,07740.9245,W,0.01,248.32,080923,,,A*75
$GPGGA,185112.250,4305.1949,N,07740.9245,W,1,08,1.13,176.0,M,-34.4,M,,*5B
$GPRMC,185112.500,A,4305.1949,N,07740.9245,W,0.01,248.32,080923,,,A*70
$GPGGA,185112.750,4305.1949,N,07740.9245,W,1,08,1.12,176.0,M,-34.4,M,,*5F
$GPRMC,185113.000,A,4305.1949,N,07740.9245,W,0.00,248.32,080923,,,A*75
$GPGGA,185113.250,4305.1949,N,07740.9245,W,1,08,1.13,176.0,M,-34.4,M,,*5A
$GPRMC,185113.500,A,4305.1949,N,07740.9245,W,0.01,248.32,080923,,,A*71
$GPGGA,185113.750,4305.1949,N,07740.9245,W,1,08,1.13,176.0,M,-34.4,M,,*5F
$GPRMC,185114.000,A,4305.1949,N,07740.9245,W,0.01,248.32,080923,,,A*73
$GPGGA,185114.250,4305.1949,N,07740.9245,W,1,08,1.13,176.0,M,-34.4,M,,*5D
$GPRMC,185114.500,A,4305.1949,N,07740.9245,W,0.01,248.32,080923,,,A*76
$GPGGA,185114.750,4305.1949,N,07740.9245,W,1,08,1.13,176.0,M,-34.4,M,,*58
$GPRMC,185115.000,A,4305.1949,N,07740.9245,W,0.00,248.32,080923,,,A*73
$GPGGA,185115.250,4305.1949,N,07740.9245,W,1,08,1.13,176.0,M,-34.4,M,,*5C
$GPRMC,185115.500,A,4305.1949,N,07740.9245,W,0.01,248.32,080923,,,A*77
$GPGGA,185115.750,4305.1949,N,07740.9245,W,1,08,1.13,176.0,M,-34.4,M,,*59
$GPRMC,185116.000,A,4305.1949,N,07740.9245,W,0.01,248.32,080923,,,A*71
$GPGGA,185116.250,4305.1949,N,07740.9245,W,1,08,1.13,176.0,M,-34.4,M,,*5F
$GPRMC,185116.500,A,4305.1949,N,07740.9245,W,0.01,248.32,080923,,,A*74
$GPGGA,185116.750,4305.1949,N,07740.9245,W,1,08,1.13,176.0,M,-34.4,M,,*5A
$GPRMC,185117.000,A,4305.1949,N,07740.9245,W,0.00,248.32,080923,,,A*71
$GPGGA,185117.250,4305.1949,N,07740.9245,W,1,08,1.12,176.0,M,-34.4,M,,*5F
$GPRMC,185117.500,A,4305.1949,N,07740.9245,W,0.00,248.32,080923,,,A*74
$GPGGA,185117.750,4305.1949,N,07740.9245,W,1,08,1.12,176.0,M,-34.4,M,,*5A
$GPRMC,185118.000,A,4305.1949,N,07740.9245,W,0.00,248.32,080923,,,A*7E
$GPGGA,185118.250,4305.1949,N,07740.9245,W,1,08,1.13,176.0,M,-34.4,M,,*51
$GPRMC,185118.500,A,4305.1949,N,07740.9245,W,0.01,248.32,080923,,,A*7A
$GPGGA,185118.750,4305.1949,N,07740.9245,W,1,08,1.12,176.0,M,-34.4,M,,*55
$GPRMC,185119.000,A,4305.1949,N,07740.9245,W,0.01,248.32,080923,,,A*7E
$GPGGA,185119.250,4305.1949,N,07740.9244,W,1,08,1.13,176.0,M,-34.4,M,,*51
$GPRMC,185119.500,A,4305.1949,N,07740.9244,W,0.00,248.32,080923,,,A*7B
$GPGGA,185119.750,4305.1949,N,07740.9244,W,1,08,1.13,176.0,M,-34.4,M,,*54
$GPRMC,185120.000,A,4305.1949,N,07740.9244,W,0.00,248.32,080923,,,A*74
$GPGGA,185120.250,4305.1949,N,07740.9244,W,1,08,1.13,176.0,M,-34.4,M,,*5B
$GPRMC,185120.500,A,4305.1949,N,07740.9244,W,0.00,248.32,080923,,,A*71
$GPGGA,185120.750,4305.1949,N,07740.9244,W,1,08,1.12,176.0,M,-34.4,M,,*5F
$GPRMC,185121.000,A,4305.1949,N,07740.9244,W,0.01,248.32,080923,,,A*74
$GPGGA,185121.250,4305.1949,N,07740.9244,W,1,08,1.13,176.0,M,-34.4,M,,*5A
$GPRMC,185121.500,A,4305.1949,N,07740.9244,W,0.01,248.32,080923,,,A*71
$GPGGA,185121.750,4305.1949,N,07740.9244,W,1,08,1.13,176.0,M,-34.4,M,,*5F
$GPRMC,185122.000,A,4305.1949,N,07740.9244,W,0.01,248.32,080923,,,A*77
$GPGGA,185122.250,4305.1949,N,07740.9244,W,1,08,1.12,176.0,M,-34.4,M,,*58
$GPRMC,185122.500,A,4305.1949,N,07740.9244,W,0.01,248.32,080923,,,A*72
$GPGGA,185122.750,4305.1949,N,07740.9244,W,1,08,1.13,176.0,M,-34.4,M,,*5C
$GPRMC,185123.000,A,4305.1949,N,07740.9244,W,0.00,248.32,080923,,,A*77
$GPGGA,185123.250,4305.1949,N,07740.9244,W,1,08,1.12,176.0,M,-34.4,M,,*59
$GPRMC,185123.500,A,4305.1949,N,07740.9244,W,0.00,248.32,080923,,,A*72
$GPGGA,185123.750,4305.1949,N,07740.9244,W,1,08,1.12,176.0,M,-34.4,M,,*5C
$GPRMC,185124.000,A,4305.1949,N,07740.9244,W,0.01,248.32,080923,,,A*71
$GPGGA,185124.250,4305.1949,N,07740.9244,W,1,08,1.12,176.0,M,-34.4,M,,*5E
$GPRMC,185124.500,A,4305.1949,N,07740.9244,W,0.01,248.32,080923,,,A*74
$GPGGA,185124.750,4305.1949,N,07740.9244,W,1,08,1.12,176.0,M,-34.4,M,,*5B
$GPRMC,185125.000,A,4305.1949,N,07740.9244,W,0.01,248.32,080923,,,A*70
$GPGGA,185125.250,4305.1949,N,07740.9244,W,1,08,1.12,176.0,M,-34.4,M,,*5F
$GPRMC,185125.500,A,4305.1949,N,07740.9244,W,0.01,248.32,080923,,,A*75
$GPGGA,185125.750,4305.1949,N,07740.9244,W,1,08,1.12,176.0,M,-34.4,M,,*5A
$GPRMC,185126.000,A,4305.1949,N,07740.9244,W,0.01,248.32,080923,,,A*73
$GPGGA,185126.250,4305.1949,N,07740.9244,W,1,08,1.12,176.0,M,-34.4,M,,*5C
$GPRMC,185126.500,A,4305.1949,N,07740.9244,W,0.01,248.32,080923,,,A*76
$GPGGA,185126.750,4305.1949,N,07740.9244,W,1,08,1.12,176.0,M,-34.4,M,,*59
$GPRMC,185127.000,A,4305.1949,N,07740.9244,W,0.01,248.32,080923,,,A*72
$GPGGA,185127.250,4305.1949,N,07740.9244,W,1,08,1.12,176.0,M,-34.4,M,,*5D
$GPRMC,185127.500,A,4305.1949,N,07740.9244,W,0.00,248.32,080923,,,A*76
$GPGGA,185127.750,4305.1949,N,07740.9244,W,1,08,1.12,176.0,M,-34.4,M,,*58
$GPRMC,185128.000,A,4305.1949,N,07740.9244,W,0.01,248.32,080923,,,A*7D
$GPGGA,185128.250,4305.1949,N,07740.9244,W,1,08,1.12,176.0,M,-34.4,M,,*52
$GPRMC,185128.500,A,4305.1949,N,07740.9244,W,0.01,248.32,080923,,,A*78
$GPGGA,185128.750,4305.1949,N,07740.9244,W,1,08,1.12,176.0,M,-34.4,M,,*57
$GPRMC,185129.000,A,4305.1949,N,07740.9244,W,0.01,248.32,080923,,,A*7C
$GPGGA,185129.250,4305.1949,N,07740.9244,W,1,08,1.12,176.0,M,-34.4,M,,*53
$GPRMC,185129.500,A,4305.1949,N,07740.9244,W,0.00,248.32,080923,,,A*78
$GPGGA,185129.750,4305.1949,N,07740.9244,W,1,08,1.12,176.0,M,-34.4,M,,*56
$GPRMC,185130.000,A,4305.1949,N,07740.9244,W,0.01,248.32,080923,,,A*74
$GPGGA,185130.250,4305.1949,N,07740.9244,W,1,08,1.12,176.0,M,-34.4,M,,*5B
$GPRMC,185130.500,A,4305.1949,N,07740.9244,W,0.00,248.32,080923,,,A*70
$GPGGA,185130.750,4305.1949,N,07740.9244,W,1,08,1.12,176.0,M,-34.4,M,,*5E
$GPRMC,185131.000,A,4305.1949,N,07740.9244,W,0.00,248.32,080923,,,A*74
$GPGGA,185131.250,4305.1949,N,07740.9244,W,1,08,1.12,176.0,M,-34.4,M,,*5A
$GPRMC,185131.500,A,4305.1949,N,07740.9244,W,0.00,248.32,080923,,,A*71
$GPGGA,185131.750,4305.1949,N,07740.9244,W,1,08,1.12,176.0,M,-34.4,M,,*5F
$GPRMC,185132.000,A,4305.1949,N,07740.9244,W,0.00,248.32,080923,,,A*77
$GPGGA,185132.250,4305.1949,N,07740.9244,W,1,08,1.12,176.0,M,-34.4,M,,*59
$GPRMC,185132.500,A,4305.1949,N,07740.9244,W,0.00,248.32,080923,,,A*72
$GPGGA,185132.750,4305.1949,N,07740.9244,W,1,08,1.12,176.0,M,-34.4,M,,*5C
$GPRMC,185133.000,A,4305.1949,N,07740.9244,W,0.00,248.32,080923,,,A*76
$GPGGA,185133.250,4305.1949,N,07740.9244,W,1,08,1.12,176.0,M,-34.4,M,,*58
$GPRMC,185133.500,A,4305.1949,N,07740.9244,W,0.01,248.32,080923,,,A*72
$GPGGA,185133.750,4305.1949,N,07740.9244,W,1,08,1.12,176.0,M,-34.4,M,,*5D
$GPRMC,185134.000,A,4305.1949,N,07740.9244,W,0.01,248.32,080923,,,A*70
$GPGGA,185134.250,4305.1949,N,07740.9244,W,1,08,1.12,176.0,M,-34.4,M,,*5F
$GPRMC,185134.500,A,4305.1949,N,07740.9244,W,0.01,248.32,080923,,,A*75
$GPGGA,185134.750,4305.1949,N,07740.9244,W,1,08,1.12,175.9,M,-34.4,M,,*50
$GPRMC,185135.000,A,4305.1949,N,07740.9244,W,0.00,248.32,080923,,,A*70
$GPGGA,185135.250,4305.1949,N,07740.9244,W,1,08,1.12,175.9,M,-34.4,M,,*54
$GPRMC,185135.500,A,4305.1949,N,07740.9244,W,0.01,248.32,080923,,,A*74
$GPGGA,185135.750,4305.1949,N,07740.9244,W,1,08,1.12,175.9,M,-34.4,M,,*51
$GPRMC,185136.000,A,4305.1949,N,07740.9244,W,0.00,248.32,080923,,,A*73
$GPGGA,185136.250,4305.1949,N,07740.9244,W,1,08,1.12,175.9,M,-34.4,M,,*57
$GPRMC,185136.500,A,4305.1949,N,07740.9244,W,0.01,248.32,080923,,,A*77
$GPGGA,185136.750,4305.1949,N,07740.9244,W,1,08,1.12,175.9,M,-34.4,M,,*52
$GPRMC,185137.000,A,4305.1949,N,07740.9244,W,0.01,248.32,080923,,,A*73
$GPGGA,185137.250,4305.1949,N,07740.9244,W,1,08,1.12,175.9,M,-34.4,M,,*56
$GPRMC,185137.500,A,4305.1949,N,07740.9244,W,0.01,248.32,080923,,,A*76
$GPGGA,185137.750,4305.1949,N,07740.9244,W,1,08,1.12,175.9,M,-34.4,M,,*53
$GPRMC,185138.000,A,4305.1949,N,07740.9244,W,0.00,248.32,080923,,,A*7D
$GPGGA,185138.250,4305.1949,N,07740.9244,W,1,08,1.12,175.9,M,-34.4,M,,*59
$GPRMC,185138.500,A,4305.1949,N,07740.9244,W,0.01,248.32,080923,,,A*79
$GPGGA,185138.750,4305.1949,N,07740.9244,W,1,08,1.12,175.9,M,-34.4,M,,*5C
$GPRMC,185139.000,A,4305.1949,N,07740.9244,W,0.00,248.32,080923,,,A*7C
$GPGGA,185139.250,4305.1949,N,07740.9244,W,1,08,1.12,175.9,M,-34.4,M,,*58
$GPRMC,185139.500,A,4305.1949,N,07740.9244,W,0.01,248.32,080923,,,A*78
$GPGGA,185139.750,4305.1949,N,07740.9244,W,1,08,1.12,175.9,M,-34.4,M,,*5D
$GPRMC,185140.000,A,4305.1949,N,07740.9244,W,0.00,248.32,080923,,,A*72
$GPGGA,185140.250,4305.1949,N,07740.9244,W,1,08,1.12,175.9,M,-34.4,M,,*56
$GPRMC,185140.500,A,4305.1949,N,07740.9244,W,0.01,248.32,080923,,,A*76
$GPGGA,185140.750,4305.1949,N,07740.9244,W,1,08,1.12,175.9,M,-34.4,M,,*53
$GPRMC,185141.000,A,4305.1949,N,07740.9244,W,0.01,248.32,080923,,,A*72
$GPGGA,185141.250,4305.1949,N,07740.9244,W,1,08,1.12,175.9,M,-34.4,M,,*57
$GPRMC,185141.500,A,4305.1949,N,07740.9244,W,0.01,248.32,080923,,,A*77
$GPGGA,185141.750,4305.1949,N,07740.9244,W,1,08,1.12,175.9,M,-34.4,M,,*52
$GPRMC,185142.000,A,4305.1949,N,07740.9244,W,0.01,248.32,080923,,,A*71
$GPGGA,185142.250,4305.1949,N,07740.9244,W,1,08,1.12,175.9,M,-34.4,M,,*54
$GPRMC,185142.500,A,4305.1949,N,07740.9244,W,0.00,248.32,080923,,,A*75
$GPGGA,185142.750,4305.1949,N,07740.9244,W,1,08,1.12,175.9,M,-34.4,M,,*51
$GPRMC,185143.000,A,4305.1949,N,07740.9244,W,0.00,248.32,080923,,,A*71
$GPGGA,185143.250,4305.1949,N,07740.9244,W,1,08,1.12,175.9,M,-34.4,M,,*55
$GPRMC,185143.500,A,4305.1949,N,07740.9244,W,0.01,248.32,080923,,,A*75
$GPGGA,185143.750,4305.1949,N,07740.9244,W,1,08,1.12,175.9,M,-34.4,M,,*50
$GPRMC,185144.000,A,4305.1949,N,07740.9244,W,0.00,248.32,080923,,,A*76
$GPGGA,185144.250,4305.1949,N,07740.9244,W,1,08,1.12,175.9,M,-34.4,M,,*52
$GPRMC,185144.500,A,4305.1949,N,07740.9244,W,0.01,248.32,080923,,,A*72
$GPGGA,185144.750,4305.1949,N,07740.9244,W,1,08,1.12,175.9,M,-34.4,M,,*57
$GPRMC,185145.000,A,4305.1949,N,07740.9244,W,0.00,248.32,080923,,,A*77
$GPGGA,185145.250,4305.1949,N,07740.9244,W,1,08,1.12,175.9,M,-34.4,M,,*53
$GPRMC,185145.500,A,4305.1949,N,07740.9244,W,0.00,248.32,080923,,,A*72
$GPGGA,185145.750,4305.1949,N,07740.9244,W,1,08,1.12,175.9,M,-34.4,M,,*56
$GPRMC,185146.000,A,4305.1949,N,07740.9244,W,0.00,248.32,080923,,,A*74
$GPGGA,185146.250,4305.1949,N,07740.9244,W,1,08,1.12,175.9,M,-34.4,M,,*50
$GPRMC,185146.500,A,4305.1949,N,07740.9244,W,0.00,248.32,080923,,,A*71
$GPGGA,185146.750,4305.1949,N,07740.9244,W,1,08,1.12,175.9,M,-34.4,M,,*55
$GPRMC,185147.000,A,4305.1949,N,07740.9244,W,0.01,248.32,080923,,,A*74
$GPGGA,185147.250,4305.1949,N,07740.9244,W,1,08,1.12,175.9,M,-34.4,M,,*51
$GPRMC,185147.500,A,4305.1949,N,07740.9244,W,0.00,248.32,080923,,,A*70
$GPGGA,185147.750,4305.1949,N,07740.9244,W,1,08,1.12,175.9,M,-34.4,M,,*54
$GPRMC,185148.000,A,4305.1949,N,07740.9244,W,0.00,248.32,080923,,,A*7A
$GPGGA,185148.250,4305.1949,N,07740.9244,W,1,08,1.12,175.9,M,-34.4,M,,*5E
$GPRMC,185148.500,A,4305.1949,N,07740.9244,W,0.00,248.32,080923,,,A*7F
$GPGGA,185148.750,4305.1949,N,07740.9244,W,1,08,1.12,175.9,M,-34.4,M,,*5B
$GPRMC,185149.000,A,4305.1949,N,07740.9244,W,0.00,248.32,080923,,,A*7B
$GPGGA,185149.250,4305.1949,N,07740.9244,W,1,08,1.12,175.9,M,-34.4,M,,*5F
$GPRMC,185149.500,A,4305.1949,N,07740.9244,W,0.00,248.32,080923,,,A*7E
$GPGGA,185149.750,4305.1949,N,07740.9244,W,1,08,1.12,175.9,M,-34.4,M,,*5A
$GPRMC,185150.000,A,4305.1949,N,07740.9244,W,0.01,248.32,080923,,,A*72
$GPGGA,185150.250,4305.1949,N,07740.9244,W,1,08,1.12,175.9,M,-34.4,M,,*57
$GPRMC,185150.500,A,4305.1949,N,07740.9244,W,0.06,248.32,080923,,,A*70
$GPGGA,185150.750,4305.1949,N,07740.9244,W,1,08,1.12,175.9,M,-34.4,M,,*52
$GPRMC,185151.000,A,4305.1949,N,07740.9244,W,0.44,248.32,080923,,,A*72
$GPGGA,185151.250,4305.1949,N,07740.9244,W,1,08,1.12,175.9,M,-34.4,M,,*56
$GPRMC,185151.500,A,4305.1949,N,07740.9245,W,1.95,245.12,080923,,,A*74
$GPGGA,185151.750,4305.1948,N,07740.9247,W,1,08,1.07,175.9,M,-34.4,M,,*55
$GPRMC,185152.000,A,4305.1947,N,07740.9249,W,2.93,240.08,080923,,,A*7B
$GPGGA,185152.250,4305.1946,N,07740.9251,W,1,08,1.07,175.8,M,-34.4,M,,*5B
$GPRMC,185152.500,A,4305.1945,N,07740.9254,W,3.76,236.94,080923,,,A*7E
$GPGGA,185152.750,4305.1943,N,07740.9257,W,1,08,1.07,175.8,M,-34.4,M,,*5D
$GPRMC,185153.000,A,4305.1941,N,07740.9260,W,4.33,236.76,080923,,,A*73
$GPGGA,185153.250,4305.1940,N,07740.9264,W,1,08,1.12,175.8,M,-34.4,M,,*5E
$GPRMC,185153.500,A,4305.1937,N,07740.9268,W,4.84,236.69,080923,,,A*7D
$GPGGA,185153.750,4305.1935,N,07740.9272,W,1,08,1.12,175.8,M,-34.4,M,,*5E
$GPRMC,185154.000,A,4305.1933,N,07740.9276,W,5.54,230.28,080923,,,A*7B
$GPGGA,185154.250,4305.1930,N,07740.9280,W,1,08,1.12,175.8,M,-34.4,M,,*54
$GPRMC,185154.500,A,4305.1926,N,07740.9285,W,6.25,227.51,080923,,,A*7B
$GPGGA,185154.750,4305.1923,N,07740.9289,W,1,08,1.12,175.8,M,-34.4,M,,*5A
$GPRMC,185155.000,A,4305.1920,N,07740.9295,W,7.00,227.52,080923,,,A*7D
$GPGGA,185155.250,4305.1916,N,07740.9300,W,1,08,1.12,175.8,M,-34.4,M,,*58
$GPRMC,185155.500,A,4305.1911,N,07740.9307,W,8.60,228.48,080923,,,A*7D
$GPGGA,185155.750,4305.1907,N,07740.9314,W,1,08,1.12,175.9,M,-34.4,M,,*59
$GPRMC,185156.000,A,4305.1902,N,07740.9321,W,9.70,228.25,080923,,,A*76
$GPGGA,185156.250,4305.1897,N,07740.9329,W,1,08,1.12,176.0,M,-34.4,M,,*53
$GPRMC,185156.500,A,4305.1892,N,07740.9338,W,10.99,230.11,080923,,,A*42
$GPGGA,185156.750,4305.1887,N,07740.9347,W,1,08,1.12,176.0,M,-34.4,M,,*5F
$GPRMC,185157.000,A,4305.1881,N,07740.9357,W,12.33,232.68,080923,,,A*43
$GPGGA,185157.250,4305.1876,N,07740.9367,W,1,08,1.12,175.9,M,-34.4,M,,*5D
$GPRMC,185157.500,A,4305.1870,N,07740.9379,W,13.95,235.41,080923,,,A*45
$GPGGA,185157.750,4305.1864,N,07740.9391,W,1,08,1.12,175.8,M,-34.4,M,,*53
$GPRMC,185158.000,A,4305.1858,N,07740.9403,W,15.27,236.53,080923,,,A*40
$GPGGA,185158.250,4305.1851,N,07740.9417,W,1,08,1.12,175.5,M,-34.4,M,,*5B
$GPRMC,185158.500,A,4305.1845,N,07740.9430,W,16.68,237.07,080923,,,A*41
$GPGGA,185158.750,4305.1838,N,07740.9444,W,1,08,1.12,175.4,M,-34.4,M,,*56
$GPRMC,185159.000,A,4305.1831,N,07740.9458,W,17.62,237.41,080923,,,A*41
$GPGGA,185159.250,4305.1826,N,07740.9473,W,1,08,1.12,175.2,M,-34.4,M,,*5F
$GPRMC,185159.500,A,4305.1820,N,07740.9487,W,18.22,238.78,080923,,,A*48
$GPGGA,185159.750,4305.1814,N,07740.9503,W,1,08,1.12,175.1,M,-34.4,M,,*5E
$GPRMC,185200.000,A,4305.1808,N,07740.9518,W,18.31,239.01,080923,,,A*42
$GPGGA,185200.250,4305.1802,N,07740.9533,W,1,08,1.12,175.0,M,-34.4,M,,*51
$GPRMC,185200.500,A,4305.1795,N,07740.9549,W,18.64,239.06,080923,,,A*4F
$GPGGA,185200.750,4305.1788,N,07740.9566,W,1,08,1.12,174.8,M,-34.4,M,,*50
$GPRMC,185201.000,A,4305.1780,N,07740.9582,W,19.21,238.80,080923,,,A*47
$GPGGA,185201.250,4305.1772,N,07740.9598,W,1,08,1.12,174.7,M,-34.4,M,,*5F
$GPRMC,185201.500,A,4305.1763,N,07740.9614,W,19.27,237.34,080923,,,A*45
$GPGGA,185201.750,4305.1754,N,07740.9629,W,1,08,1.12,174.6,M,-34.4,M,,*56
$GPRMC,185202.000,A,4305.1746,N,07740.9644,W,19.12,234.32,080923,,,A*42
$GPGGA,185202.250,4305.1736,N,07740.9658,W,1,08,1.12,174.5,M,-34.4,M,,*51
$GPRMC,185202.500,A,4305.1727,N,07740.9672,W,19.22,228.89,080923,,,A*4B
$GPGGA,185202.750,4305.1717,N,07740.9686,W,1,08,1.12,174.4,M,-34.4,M,,*55
$GPRMC,185203.000,A,4305.1707,N,07740.9699,W,19.27,226.15,080923,,,A*46
$GPGGA,185203.250,4305.1698,N,07740.9711,W,1,08,1.12,174.4,M,-34.4,M,,*58
$GPRMC,185203.500,A,4305.1688,N,07740.9723,W,19.05,222.86,080923,,,A*4B
$GPGGA,185203.750,4305.1678,N,07740.9735,W,1,08,1.12,174.4,M,-34.4,M,,*55
$GPRMC,185204.000,A,4305.1669,N,07740.9746,W,18.35,220.37,080923,,,A*4F
$GPGGA,185204.250,4305.1659,N,07740.9756,W,1,08,1.12,174.4,M,-34.4,M,,*51
$GPRMC,185204.500,A,4305.1648,N,07740.9766,W,18.02,215.38,080923,,,A*46
$GPGGA,185204.750,4305.1637,N,07740.9775,W,1,08,1.12,174.4,M,-34.4,M,,*5D
$GPRMC,185205.000,A,4305.1626,N,07740.9784,W,17.36,211.65,080923,,,A*42
$GPGGA,185205.250,4305.1615,N,07740.9793,W,1,08,1.12,174.5,M,-34.4,M,,*50
$GPRMC,185205.500,A,4305.1604,N,07740.9800,W,16.99,207.08,080923,,,A*4C
$GPGGA,185205.750,4305.1593,N,07740.9807,W,1,08,1.12,174.4,M,-34.4,M,,*5B
$GPRMC,185206.000,A,4305.1581,N,07740.9814,W,16.72,203.40,080923,,,A*4C
$GPGGA,185206.250,4305.1570,N,07740.9820,W,1,08,1.12,174.3,M,-34.4,M,,*52
$GPRMC,185206.500,A,4305.1559,N,07740.9826,W,16.43,199.65,080923,,,A*48
$GPGGA,185206.750,4305.1548,N,07740.9831,W,1,08,1.12,174.3,M,-34.4,M,,*5C
$GPRMC,185207.000,A,4305.1535,N,07740.9835,W,16.44,195.42,080923,,,A*4A
$GPGGA,185207.250,4305.1525,N,07740.9838,W,1,08,1.12,174.3,M,-34.4,M,,*5A
$GPRMC,185207.500,A,4305.1514,N,07740.9841,W,16.38,190.70,080923,,,A*40
$GPGGA,185207.750,4305.1502,N,07740.9844,W,1,08,1.12,174.6,M,-34.4,M,,*54
$GPRMC,185208.000,A,4305.1490,N,07740.9845,W,16.66,186.69,080923,,,A*47
$GPGGA,185208.250,4305.1478,N,07740.9846,W,1,08,1.12,175.1,M,-34.4,M,,*56
$GPRMC,185208.500,A,4305.1466,N,07740.9847,W,16.71,182.55,080923,,,A*44
$GPGGA,185208.750,4305.1454,N,07740.9847,W,1,08,1.12,175.6,M,-34.4,M,,*5B
$GPRMC,185209.000,A,4305.1442,N,07740.9846,W,16.35,179.18,080923,,,A*4A
$GPGGA,185209.250,4305.1431,N,07740.9845,W,1,08,1.12,175.9,M,-34.4,M,,*51
$GPRMC,185209.500,A,4305.1420,N,07740.9844,W,15.82,176.49,080923,,,A*4D
$GPGGA,185209.750,4305.1409,N,07740.9843,W,1,08,1.12,176.2,M,-34.4,M,,*51
$GPRMC,185210.000,A,4305.1398,N,07740.9843,W,16.02,180.82,080923,,,A*46
$GPGGA,185210.250,4305.1387,N,07740.9844,W,1,08,1.12,176.8,M,-34.4,M,,*50
$GPRMC,185210.500,A,4305.1377,N,07740.9845,W,14.75,184.60,080923,,,A*4E
$GPGGA,185210.750,4305.1367,N,07740.9847,W,1,08,1.07,177.3,M,-34.4,M,,*56
$GPRMC,185211.000,A,4305.1356,N,07740.9850,W,15.86,195.85,080923,,,A*4B
$GPGGA,185211.250,4305.1346,N,07740.9854,W,1,08,1.12,178.1,M,-34.4,M,,*5A
$GPRMC,185211.500,A,4305.1335,N,07740.9860,W,16.50,203.94,080923,,,A*4C
$GPGGA,185211.750,4305.1325,N,07740.9867,W,1,08,1.12,178.4,M,-34.4,M,,*5F
$GPRMC,185212.000,A,4305.1314,N,07740.9874,W,16.92,208.59,080923,,,A*48
$GPGGA,185212.250,4305.1304,N,07740.9883,W,1,08,1.12,178.4,M,-34.4,M,,*50
$GPRMC,185212.500,A,4305.1295,N,07740.9891,W,16.22,213.50,080923,,,A*46
$GPGGA,185212.750,4305.1286,N,07740.9901,W,1,08,1.12,178.4,M,-34.4,M,,*55
$GPRMC,185213.000,A,4305.1277,N,07740.9913,W,16.64,220.24,080923,,,A*44
$GPGGA,185213.250,4305.1268,N,07740.9925,W,1,08,1.12,178.3,M,-34.4,M,,*50
$GPRMC,185213.500,A,4305.1260,N,07740.9937,W,16.90,226.13,080923,,,A*48
$GPGGA,185213.750,4305.1252,N,07740.9949,W,1,08,1.12,178.2,M,-34.4,M,,*57
$GPRMC,185214.000,A,4305.1245,N,07740.9962,W,17.50,229.88,080923,,,A*4D
$GPGGA,185214.250,4305.1237,N,07740.9976,W,1,08,1.12,178.0,M,-34.4,M,,*58
$GPRMC,185214.500,A,4305.1230,N,07740.9990,W,18.25,234.21,080923,,,A*45
$GPGGA,185214.750,4305.1222,N,07741.0004,W,1,08,1.12,177.7,M,-34.4,M,,*55
$GPRMC,185215.000,A,4305.1215,N,07741.0019,W,18.99,235.32,080923,,,A*42
$GPGGA,185215.250,4305.1207,N,07741.0034,W,1,08,1.12,177.3,M,-34.4,M,,*51
$GPRMC,185215.500,A,4305.1199,N,07741.0050,W,19.72,235.54,080923,,,A*49
$GPGGA,185215.750,4305.1191,N,07741.0066,W,1,08,1.07,177.0,M,-34.4,M,,*58
$GPRMC,185216.000,A,4305.1183,N,07741.0082,W,20.31,235.37,080923,,,A*43
$GPGGA,185216.250,4305.1174,N,07741.0098,W,1,07,1.14,176.8,M,-34.4,M,,*50
$GPRMC,185216.500,A,4305.1166,N,07741.0115,W,20.33,235.21,080923,,,A*47
$GPGGA,185216.750,4305.1158,N,07741.0131,W,1,07,1.10,176.5,M,-34.4,M,,*50
$GPRMC,185217.000,A,4305.1150,N,07741.0147,W,20.55,234.09,080923,,,A*4A
