Vers 81
USE_SERIAL_FEEDBACK=true
DEVELOPMENT_MODE=false
USE_RMC_ONLY=false

$GPRMC,155927.500,A,4308.3042,N,07726.2655,W,0.06,7.74,050923,,,A*71
$GPGGA,155927.750,4308.3041,N,07726.2655,W,1,07,1.40,164.2,M,-34.4,M,,*55
$GPRMC,155928.000,A,4308.3041,N,07726.2655,W,0.05,322.36,050923,,,A*79
$GPGGA,155928.250,4308.3041,N,07726.2655,W,1,07,1.36,164.2,M,-34.4,M,,*5E
$GPRMC,155928.500,A,4308.3041,N,07726.2655,W,0.04,10.11,050923,,,A*4A
$GPGGA,155928.750,4308.3041,N,07726.2655,W,1,07,1.40,163.9,M,-34.4,M,,*56
$GPRMC,155929.000,A,4308.3041,N,07726.2655,W,0.06,195.67,050923,,,A*71
$GPGGA,155929.250,4308.3041,N,07726.2655,W,1,07,1.36,163.8,M,-34.4,M,,*52
$GPRMC,155929.500,A,4308.3041,N,07726.2655,W,0.05,70.15,050923,,,A*48
$GPGGA,155929.750,4308.3040,N,07726.2655,W,1,07,1.35,163.7,M,-34.4,M,,*5A
$GPRMC,155930.000,A,4308.3040,N,07726.2656,W,0.01,293.67,050923,,,A*79
$GPGGA,155930.250,4308.3040,N,07726.2656,W,1,07,1.36,163.6,M,-34.4,M,,*56
$GPRMC,155930.500,A,4308.3039,N,07726.2656,W,0.03,358.31,050923,,,A*75
$GPGGA,155930.750,4308.3039,N,07726.2656,W,1,07,1.40,163.4,M,-34.4,M,,*5E
$GPRMC,155931.000,A,4308.3039,N,07726.2657,W,0.05,16.22,050923,,,A*4D
$GPGGA,155931.250,4308.3039,N,07726.2657,W,1,07,1.36,163.3,M,-34.4,M,,*5D
$GPRMC,155931.500,A,4308.3038,N,07726.2657,W,0.04,24.16,050923,,,A*4E
$GPGGA,155931.750,4308.3038,N,07726.2657,W,1,07,1.35,163.2,M,-34.4,M,,*5B
$GPRMC,155932.000,A,4308.3038,N,07726.2657,W,0.02,138.91,050923,,,A*7D
$GPGGA,155932.250,4308.3038,N,07726.2657,W,1,08,1.25,162.8,M,-34.4,M,,*58
$GPRMC,155932.500,A,4308.3039,N,07726.2657,W,0.02,346.39,050923,,,A*70
$GPGGA,155932.750,4308.3039,N,07726.2657,W,1,08,1.35,162.4,M,-34.4,M,,*51
$GPRMC,155933.000,A,4308.3039,N,07726.2657,W,0.02,326.78,050923,,,A*77
$GPGGA,155933.250,4308.3039,N,07726.2656,W,1,08,1.25,162.1,M,-34.4,M,,*50
$GPRMC,155933.500,A,4308.3039,N,07726.2656,W,0.04,22.19,050923,,,A*45
$GPGGA,155933.750,4308.3039,N,07726.2656,W,1,08,1.25,161.7,M,-34.4,M,,*50
$GPRMC,155934.000,A,4308.3039,N,07726.2656,W,0.02,55.80,050923,,,A*41
$GPGGA,155934.250,4308.3039,N,07726.2656,W,1,08,1.25,161.7,M,-34.4,M,,*52
$GPRMC,155934.500,A,4308.3039,N,07726.2656,W,0.03,77.50,050923,,,A*48
$GPGGA,155934.750,4308.3038,N,07726.2656,W,1,08,1.25,161.7,M,-34.4,M,,*56
$GPRMC,155935.000,A,4308.3038,N,07726.2656,W,0.03,123.48,050923,,,A*74
$GPGGA,155935.250,4308.3038,N,07726.2656,W,1,08,1.25,161.8,M,-34.4,M,,*5D
$GPRMC,155935.500,A,4308.3038,N,07726.2656,W,0.02,41.53,050923,,,A*4F
$GPGGA,155935.750,4308.3038,N,07726.2656,W,1,08,1.25,161.6,M,-34.4,M,,*56
$GPRMC,155936.000,A,4308.3038,N,07726.2656,W,0.01,3.58,050923,,,A*77
$GPGGA,155936.250,4308.3038,N,07726.2655,W,1,08,1.35,161.4,M,-34.4,M,,*50
$GPRMC,155936.500,A,4308.3038,N,07726.2655,W,0.05,162.66,050923,,,A*7E
$GPGGA,155936.750,4308.3038,N,07726.2655,W,1,08,1.25,161.5,M,-34.4,M,,*55
$GPRMC,155937.000,A,4308.3038,N,07726.2655,W,0.03,64.57,050923,,,A*49
$GPGGA,155937.250,4308.3038,N,07726.2655,W,1,08,1.25,161.8,M,-34.4,M,,*5C
$GPRMC,155937.500,A,4308.3038,N,07726.2655,W,0.03,334.49,050923,,,A*75
$GPGGA,155937.750,4308.3039,N,07726.2655,W,1,08,1.25,162.1,M,-34.4,M,,*52
$GPRMC,155938.000,A,4308.3039,N,07726.2655,W,0.05,347.39,050923,,,A*7B
$GPGGA,155938.250,4308.3039,N,07726.2654,W,1,08,1.35,162.4,M,-34.4,M,,*5D
$GPRMC,155938.500,A,4308.3039,N,07726.2654,W,0.06,316.64,050923,,,A*70
$GPGGA,155938.750,4308.3039,N,07726.2654,W,1,08,1.25,162.7,M,-34.4,M,,*5A
$GPRMC,155939.000,A,4308.3039,N,07726.2654,W,0.04,211.81,050923,,,A*7B
$GPGGA,155939.250,4308.3039,N,07726.2654,W,1,08,1.25,163.1,M,-34.4,M,,*59
$GPRMC,155939.500,A,4308.3040,N,07726.2653,W,0.05,125.87,050923,,,A*74
$GPGGA,155939.750,4308.3040,N,07726.2653,W,1,08,1.25,163.4,M,-34.4,M,,*50
$GPRMC,155940.000,A,4308.3040,N,07726.2653,W,0.07,121.52,050923,,,A*71
$GPGGA,155940.250,4308.3040,N,07726.2652,W,1,08,1.25,163.7,M,-34.4,M,,*59
$GPRMC,155940.500,A,4308.3039,N,07726.2652,W,0.08,164.16,050923,,,A*75
$GPGGA,155940.750,4308.3040,N,07726.2652,W,1,08,1.25,163.9,M,-34.4,M,,*52
$GPRMC,155941.000,A,4308.3039,N,07726.2651,W,0.04,120.66,050923,,,A*79
$GPGGA,155941.250,4308.3039,N,07726.2651,W,1,08,1.25,164.1,M,-34.4,M,,*54
$GPRMC,155941.500,A,4308.3039,N,07726.2651,W,0.16,208.24,050923,,,A*70
$GPGGA,155941.750,4308.3039,N,07726.2650,W,1,08,1.25,164.2,M,-34.4,M,,*53
$GPRMC,155942.000,A,4308.3039,N,07726.2650,W,0.12,144.96,050923,,,A*71
$GPGGA,155942.250,4308.3039,N,07726.2650,W,1,08,1.25,164.1,M,-34.4,M,,*56
$GPRMC,155942.500,A,4308.3039,N,07726.2649,W,0.16,155.90,050923,,,A*7E
$GPGGA,155942.750,4308.3039,N,07726.2649,W,1,08,1.25,164.2,M,-34.4,M,,*58
$GPRMC,155943.000,A,4308.3040,N,07726.2648,W,0.11,155.00,050923,,,A*7B
$GPGGA,155943.250,4308.3040,N,07726.2648,W,1,08,1.25,164.0,M,-34.4,M,,*51
$GPRMC,155943.500,A,4308.3040,N,07726.2648,W,0.09,307.81,050923,,,A*7B
$GPGGA,155943.750,4308.3040,N,07726.2648,W,1,08,1.25,164.0,M,-34.4,M,,*54
$GPRMC,155944.000,A,4308.3040,N,07726.2648,W,0.07,283.95,050923,,,A*7F
$GPGGA,155944.250,4308.3040,N,07726.2648,W,1,08,1.25,164.0,M,-34.4,M,,*56
$GPRMC,155944.500,A,4308.3040,N,07726.2648,W,0.04,297.26,050923,,,A*74
$GPGGA,155944.750,4308.3040,N,07726.2648,W,1,08,1.25,163.9,M,-34.4,M,,*5D
$GPRMC,155945.000,A,4308.3040,N,07726.2648,W,0.15,336.57,050923,,,A*7C
$GPGGA,155945.250,4308.3040,N,07726.2648,W,1,08,1.25,163.9,M,-34.4,M,,*59
$GPRMC,155945.500,A,4308.3040,N,07726.2648,W,0.17,15.73,050923,,,A*4F
$GPGGA,155945.750,4308.3041,N,07726.2648,W,1,08,1.25,163.8,M,-34.4,M,,*5C
$GPRMC,155946.000,A,4308.3041,N,07726.2648,W,0.17,39.50,050923,,,A*47
$GPGGA,155946.250,4308.3041,N,07726.2648,W,1,08,1.25,163.6,M,-34.4,M,,*54
$GPRMC,155946.500,A,4308.3040,N,07726.2648,W,0.08,102.47,050923,,,A*72
$GPGGA,155946.750,4308.3040,N,07726.2648,W,1,08,1.25,163.5,M,-34.4,M,,*53
$GPRMC,155947.000,A,4308.3040,N,07726.2648,W,0.07,111.16,050923,,,A*7F
$GPGGA,155947.250,4308.3040,N,07726.2648,W,1,08,1.25,163.4,M,-34.4,M,,*56
$GPRMC,155947.500,A,4308.3040,N,07726.2648,W,0.05,119.68,050923,,,A*79
$GPGGA,155947.750,4308.3040,N,07726.2648,W,1,08,1.25,163.2,M,-34.4,M,,*55
$GPRMC,155948.000,A,4308.3040,N,07726.2648,W,0.04,106.15,050923,,,A*76
$GPGGA,155948.250,4308.3040,N,07726.2649,W,1,08,1.25,163.1,M,-34.4,M,,*5D
$GPRMC,155948.500,A,4308.3040,N,07726.2649,W,0.02,211.12,050923,,,A*76
$GPGGA,155948.750,4308.3040,N,07726.2649,W,1,08,1.25,162.9,M,-34.4,M,,*51
$GPRMC,155949.000,A,4308.3041,N,07726.2649,W,0.13,30.28,050923,,,A*4B
$GPGGA,155949.250,4308.3041,N,07726.2649,W,1,08,1.25,162.7,M,-34.4,M,,*5A
$GPRMC,155949.500,A,4308.3041,N,07726.2649,W,0.05,334.05,050923,,,A*71
$GPGGA,155949.750,4308.3041,N,07726.2650,W,1,08,1.25,162.6,M,-34.4,M,,*56
$GPRMC,155950.000,A,4308.3041,N,07726.2650,W,0.03,32.27,050923,,,A*47
$GPGGA,155950.250,4308.3041,N,07726.2650,W,1,08,1.25,162.4,M,-34.4,M,,*59
$GPRMC,155950.500,A,4308.3041,N,07726.2650,W,0.02,199.27,050923,,,A*73
$GPGGA,155950.750,4308.3041,N,07726.2651,W,1,08,1.25,162.3,M,-34.4,M,,*5A
$GPRMC,155951.000,A,4308.3041,N,07726.2651,W,0.04,191.55,050923,,,A*7D
$GPGGA,155951.250,4308.3041,N,07726.2651,W,1,08,1.25,162.1,M,-34.4,M,,*5C
$GPRMC,155951.500,A,4308.3041,N,07726.2651,W,0.02,98.14,050923,,,A*43
$GPGGA,155951.750,4308.3041,N,07726.2652,W,1,08,1.25,161.9,M,-34.4,M,,*51
$GPRMC,155952.000,A,4308.3041,N,07726.2652,W,0.01,358.11,050923,,,A*7F
$GPGGA,155952.250,4308.3041,N,07726.2652,W,1,08,1.35,161.8,M,-34.4,M,,*57
$GPRMC,155952.500,A,4308.3041,N,07726.2653,W,0.03,111.47,050923,,,A*75
$GPGGA,155952.750,4308.3041,N,07726.2653,W,1,08,1.25,161.6,M,-34.4,M,,*5C
$GPRMC,155953.000,A,4308.3041,N,07726.2653,W,0.06,206.34,050923,,,A*75
$GPGGA,155953.250,4308.3041,N,07726.2653,W,1,08,1.25,161.5,M,-34.4,M,,*5B
$GPRMC,155953.500,A,4308.3041,N,07726.2654,W,0.03,79.26,050923,,,A*4B
$GPGGA,155953.750,4308.3041,N,07726.2654,W,1,08,1.25,161.4,M,-34.4,M,,*58
$GPRMC,155954.000,A,4308.3041,N,07726.2654,W,0.02,90.39,050923,,,A*41
$GPGGA,155954.250,4308.3041,N,07726.2654,W,1,08,1.25,161.4,M,-34.4,M,,*5A
$GPRMC,155954.500,A,4308.3041,N,07726.2654,W,0.05,311.29,050923,,,A*78
$GPGGA,155954.750,4308.3041,N,07726.2655,W,1,08,1.25,161.3,M,-34.4,M,,*59
$GPRMC,155955.000,A,4308.3041,N,07726.2655,W,0.06,33.76,050923,,,A*47
$GPGGA,155955.250,4308.3041,N,07726.2655,W,1,08,1.25,161.2,M,-34.4,M,,*5C
$GPRMC,155955.500,A,4308.3041,N,07726.2655,W,0.01,270.02,050923,,,A*73
$GPGGA,155955.750,4308.3041,N,07726.2655,W,1,08,1.25,161.1,M,-34.4,M,,*5A
$GPRMC,155956.000,A,4308.3041,N,07726.2655,W,0.01,315.68,050923,,,A*7B
$GPGGA,155956.250,4308.3041,N,07726.2655,W,1,08,1.25,161.0,M,-34.4,M,,*5D
$GPRMC,155956.500,A,4308.3041,N,07726.2656,W,0.03,217.46,050923,,,A*70
$GPGGA,155956.750,4308.3041,N,07726.2656,W,1,08,1.25,160.9,M,-34.4,M,,*53
$GPRMC,155957.000,A,4308.3042,N,07726.2656,W,0.03,13.20,050923,,,A*41
$GPGGA,155957.250,4308.3042,N,07726.2656,W,1,08,1.35,160.9,M,-34.4,M,,*55
$GPRMC,155957.500,A,4308.3042,N,07726.2656,W,0.02,17.55,050923,,,A*43
$GPGGA,155957.750,4308.3042,N,07726.2656,W,1,08,1.25,160.8,M,-34.4,M,,*50
$GPRMC,155958.000,A,4308.3042,N,07726.2656,W,0.05,55.21,050923,,,A*4B
$GPGGA,155958.250,4308.3042,N,07726.2656,W,1,08,1.25,160.8,M,-34.4,M,,*5A
$GPRMC,155958.500,A,4308.3043,N,07726.2657,W,0.03,107.26,050923,,,A*79
$GPGGA,155958.750,4308.3043,N,07726.2656,W,1,08,1.25,160.8,M,-34.4,M,,*5E
$GPRMC,155959.000,A,4308.3043,N,07726.2657,W,0.02,199.90,050923,,,A*76
$GPGGA,155959.250,4308.3043,N,07726.2657,W,1,08,1.25,160.8,M,-34.4,M,,*5B
$GPRMC,155959.500,A,4308.3043,N,07726.2657,W,0.03,185.05,050923,,,A*73
$GPGGA,155959.750,4308.3043,N,07726.2657,W,1,08,1.25,160.8,M,-34.4,M,,*5E
$GPRMC,160000.000,A,4308.3043,N,07726.2657,W,0.04,56.83,050923,,,A*43
$GPGGA,160000.250,4308.3043,N,07726.2657,W,1,08,1.25,160.8,M,-34.4,M,,*58
$GPRMC,160000.500,A,4308.3043,N,07726.2657,W,0.05,303.14,050923,,,A*7A
$GPGGA,160000.750,4308.3043,N,07726.2657,W,1,08,1.25,160.8,M,-34.4,M,,*5D
$GPRMC,160001.000,A,4308.3043,N,07726.2657,W,0.04,280.17,050923,,,A*76
$GPGGA,160001.250,4308.3043,N,07726.2657,W,1,08,1.25,160.8,M,-34.4,M,,*59
$GPRMC,160001.500,A,4308.3043,N,07726.2657,W,0.01,150.74,050923,,,A*7D
$GPGGA,160001.750,4308.3043,N,07726.2657,W,1,08,1.25,160.8,M,-34.4,M,,*5C
$GPRMC,160002.000,A,4308.3043,N,07726.2657,W,0.02,330.85,050923,,,A*72
$GPGGA,160002.250,4308.3043,N,07726.2657,W,1,08,1.25,160.8,M,-34.4,M,,*5A
$GPRMC,160002.500,A,4308.3043,N,07726.2657,W,0.03,171.27,050923,,,A*79
$GPGGA,160002.750,4308.3043,N,07726.2657,W,1,08,1.25,160.8,M,-34.4,M,,*5F
$GPRMC,160003.000,A,4308.3043,N,07726.2657,W,0.08,326.35,050923,,,A*75
$GPGGA,160003.250,4308.3043,N,07726.2657,W,1,08,1.25,160.8,M,-34.4,M,,*5B
$GPRMC,160003.500,A,4308.3044,N,07726.2657,W,0.03,122.46,050923,,,A*7E
$GPGGA,160003.750,4308.3044,N,07726.2657,W,1,08,1.25,160.8,M,-34.4,M,,*59
$GPRMC,160004.000,A,4308.3043,N,07726.2657,W,0.01,279.01,050923,,,A*77
$GPGGA,160004.250,4308.3044,N,07726.2657,W,1,08,1.25,160.8,M,-34.4,M,,*5B
$GPRMC,160004.500,A,4308.3044,N,07726.2657,W,0.01,203.88,050923,,,A*79
$GPGGA,160004.750,4308.3044,N,07726.2657,W,1,08,1.25,160.8,M,-34.4,M,,*5E
$GPRMC,160005.000,A,4308.3044,N,07726.2657,W,0.04,65.90,050923,,,A*43
$GPGGA,160005.250,4308.3044,N,07726.2657,W,1,08,1.25,160.8,M,-34.4,M,,*5A
$GPRMC,160005.500,A,4308.3044,N,07726.2657,W,0.01,76.81,050923,,,A*41
$GPGGA,160005.750,4308.3044,N,07726.2657,W,1,08,1.25,160.8,M,-34.4,M,,*5F
$GPRMC,160006.000,A,4308.3044,N,07726.2657,W,0.02,225.86,050923,,,A*77
$GPGGA,160006.250,4308.3044,N,07726.2657,W,1,08,1.25,160.8,M,-34.4,M,,*59
$GPRMC,160006.500,A,4308.3044,N,07726.2657,W,0.08,209.82,050923,,,A*72
$GPGGA,160006.750,4308.3044,N,07726.2657,W,1,08,1.25,160.8,M,-34.4,M,,*5C
$GPRMC,160007.000,A,4308.3044,N,07726.2657,W,0.05,46.90,050923,,,A*41
$GPGGA,160007.250,4308.3044,N,07726.2657,W,1,08,1.25,160.9,M,-34.4,M,,*59
$GPRMC,160007.500,A,4308.3045,N,07726.2657,W,0.04,44.44,050923,,,A*4F
$GPGGA,160007.750,4308.3045,N,07726.2657,W,1,08,1.25,160.9,M,-34.4,M,,*5D
$GPRMC,160008.000,A,4308.3045,N,07726.2656,W,0.06,278.01,050923,,,A*7A
$GPGGA,160008.250,4308.3046,N,07726.2656,W,1,08,1.25,160.9,M,-34.4,M,,*55
$GPRMC,160008.500,A,4308.3046,N,07726.2657,W,0.08,274.61,050923,,,A*79
$GPGGA,160008.750,4308.3046,N,07726.2657,W,1,08,1.35,160.9,M,-34.4,M,,*50
$GPRMC,160009.000,A,4308.3047,N,07726.2657,W,0.04,302.62,050923,,,A*73
$GPGGA,160009.250,4308.3047,N,07726.2657,W,1,08,1.35,160.9,M,-34.4,M,,*55
$GPRMC,160009.500,A,4308.3048,N,07726.2657,W,0.02,302.32,050923,,,A*7A
$GPGGA,160009.750,4308.3048,N,07726.2657,W,1,08,1.35,160.9,M,-34.4,M,,*5F
$GPRMC,160010.000,A,4308.3048,N,07726.2657,W,0.02,5.97,050923,,,A*7C
$GPGGA,160010.250,4308.3048,N,07726.2657,W,1,08,1.35,160.9,M,-34.4,M,,*52
$GPRMC,160010.500,A,4308.3048,N,07726.2657,W,0.02,219.35,050923,,,A*7E
$GPGGA,160010.750,4308.3048,N,07726.2657,W,1,08,1.35,160.9,M,-34.4,M,,*57
$GPRMC,160011.000,A,4308.3048,N,07726.2657,W,0.01,280.71,050923,,,A*79
$GPGGA,160011.250,4308.3048,N,07726.2657,W,1,08,1.35,160.9,M,-34.4,M,,*53
$GPRMC,160011.500,A,4308.3048,N,07726.2657,W,0.00,357.88,050923,,,A*70
$GPGGA,160011.750,4308.3048,N,07726.2657,W,1,08,1.35,160.9,M,-34.4,M,,*56
$GPRMC,160012.000,A,4308.3048,N,07726.2657,W,0.01,47.96,050923,,,A*4A
$GPGGA,160012.250,4308.3048,N,07726.2657,W,1,08,1.35,160.9,M,-34.4,M,,*50
$GPRMC,160012.500,A,4308.3048,N,07726.2657,W,0.00,9.57,050923,,,A*79
$GPGGA,160012.750,4308.3048,N,07726.2657,W,1,08,1.35,160.9,M,-34.4,M,,*55
$GPRMC,160013.000,A,4308.3048,N,07726.2657,W,0.00,4.94,050923,,,A*7F
$GPGGA,160013.250,4308.3048,N,07726.2657,W,1,08,1.35,160.9,M,-34.4,M,,*51
$GPRMC,160013.500,A,4308.3048,N,07726.2657,W,0.03,146.79,050923,,,A*7D
$GPGGA,160013.750,4308.3048,N,07726.2657,W,1,08,1.35,160.9,M,-34.4,M,,*54
$GPRMC,160014.000,A,4308.3048,N,07726.2657,W,0.01,26.25,050923,,,A*43
$GPGGA,160014.250,4308.3048,N,07726.2657,W,1,08,1.35,160.9,M,-34.4,M,,*56
$GPRMC,160014.500,A,4308.3048,N,07726.2657,W,0.01,313.83,050923,,,A*7F
$GPGGA,160014.750,4308.3048,N,07726.2657,W,1,08,1.35,160.9,M,-34.4,M,,*53
$GPRMC,160015.000,A,4308.3048,N,07726.2657,W,0.01,187.25,050923,,,A*78
$GPGGA,160015.250,4308.3048,N,07726.2657,W,1,08,1.35,160.9,M,-34.4,M,,*57
$GPRMC,160015.500,A,4308.3048,N,07726.2657,W,0.01,22.50,050923,,,A*41
$GPGGA,160015.750,4308.3048,N,07726.2657,W,1,08,1.35,160.9,M,-34.4,M,,*52
$GPRMC,160016.000,A,4308.3048,N,07726.2657,W,0.01,349.99,050923,,,A*7C
$GPGGA,160016.250,4308.3048,N,07726.2657,W,1,08,1.35,160.9,M,-34.4,M,,*54
$GPRMC,160016.500,A,4308.3048,N,07726.2657,W,0.00,203.55,050923,,,A*77
$GPGGA,160016.750,4308.3048,N,07726.2657,W,1,08,1.35,160.9,M,-34.4,M,,*51
$GPRMC,160017.000,A,4308.3048,N,07726.2657,W,0.01,322.34,050923,,,A*77
$GPGGA,160017.250,4308.3048,N,07726.2657,W,1,08,1.35,160.9,M,-34.4,M,,*55
$GPRMC,160017.500,A,4308.3048,N,07726.2657,W,0.00,18.44,050923,,,A*4E
$GPGGA,160017.750,4308.3048,N,07726.2657,W,1,08,1.35,160.9,M,-34.4,M,,*50
$GPRMC,160018.000,A,4308.3048,N,07726.2657,W,0.01,208.82,050923,,,A*7C
$GPGGA,160018.250,4308.3048,N,07726.2657,W,1,08,1.35,160.9,M,-34.4,M,,*5A
$GPRMC,160018.500,A,4308.3048,N,07726.2657,W,0.01,212.23,050923,,,A*79
$GPGGA,160018.750,4308.3048,N,07726.2657,W,1,08,1.35,160.9,M,-34.4,M,,*5F
$GPRMC,160019.000,A,4308.3048,N,07726.2657,W,0.00,105.04,050923,,,A*7C
$GPGGA,160019.250,4308.3048,N,07726.2657,W,1,08,1.35,160.9,M,-34.4,M,,*5B
$GPRMC,160019.500,A,4308.3048,N,07726.2657,W,0.01,119.43,050923,,,A*76
$GPGGA,160019.750,4308.3048,N,07726.2657,W,1,08,1.35,160.9,M,-34.4,M,,*5E
$GPRMC,160020.000,A,4308.3048,N,07726.2657,W,0.00,50.23,050923,,,A*42
$GPGGA,160020.250,4308.3048,N,07726.2657,W,1,08,1.35,160.9,M,-34.4,M,,*51
$GPRMC,160020.500,A,4308.3048,N,07726.2657,W,0.01,343.08,050923,,,A*7E
$GPGGA,160020.750,4308.3048,N,07726.2657,W,1,08,1.35,160.9,M,-34.4,M,,*54
$GPRMC,160021.000,A,4308.3048,N,07726.2657,W,0.00,148.37,050923,,,A*7E
$GPGGA,160021.250,4308.3048,N,07726.2657,W,1,08,1.35,160.9,M,-34.4,M,,*50
$GPRMC,160021.500,A,4308.3048,N,07726.2657,W,0.00,99.27,050923,,,A*47
$GPGGA,160021.750,4308.3048,N,07726.2657,W,1,08,1.35,160.9,M,-34.4,M,,*55
$GPRMC,160022.000,A,4308.3048,N,07726.2657,W,0.00,280.68,050923,,,A*70
$GPGGA,160022.250,4308.3048,N,07726.2657,W,1,08,1.35,160.9,M,-34.4,M,,*53
$GPRMC,160022.500,A,4308.3048,N,07726.2657,W,0.00,318.90,050923,,,A*72
$GPGGA,160022.750,4308.3048,N,07726.2657,W,1,08,1.35,160.9,M,-34.4,M,,*56
$GPRMC,160023.000,A,4308.3048,N,07726.2657,W,0.00,91.56,050923,,,A*4E
$GPGGA,160023.250,4308.3048,N,07726.2657,W,1,08,1.35,160.9,M,-34.4,M,,*52
$GPRMC,160023.500,A,4308.3048,N,07726.2657,W,0.00,35.76,050923,,,A*47
$GPGGA,160023.750,4308.3048,N,07726.2657,W,1,08,1.35,160.9,M,-34.4,M,,*57
$GPRMC,160024.000,A,4308.3048,N,07726.2657,W,0.00,27.44,050923,,,A*47
$GPGGA,160024.250,4308.3048,N,07726.2657,W,1,08,1.35,160.9,M,-34.4,M,,*55
$GPRMC,160024.500,A,4308.3048,N,07726.2657,W,0.00,87.97,050923,,,A*46
$GPGGA,160024.750,4308.3048,N,07726.2657,W,1,08,1.35,160.9,M,-34.4,M,,*50
$GPRMC,160025.000,A,4308.3048,N,07726.2657,W,0.00,287.97,050923,,,A*70
$GPGGA,160025.250,4308.3048,N,07726.2657,W,1,08,1.35,160.9,M,-34.4,M,,*54
$GPRMC,160025.500,A,4308.3048,N,07726.2657,W,0.00,155.08,050923,,,A*7F
$GPGGA,160025.750,4308.3048,N,07726.2657,W,1,08,1.35,160.9,M,-34.4,M,,*51
$GPRMC,160026.000,A,4308.3048,N,07726.2657,W,0.00,0.00,050923,,,A*70
$GPGGA,160026.250,4308.3048,N,07726.2657,W,1,08,1.35,160.9,M,-34.4,M,,*57
$GPRMC,160026.500,A,4308.3048,N,07726.2657,W,0.00,255.89,050923,,,A*76
$GPGGA,160026.750,4308.3048,N,07726.2657,W,1,08,1.35,160.9,M,-34.4,M,,*52
$GPRMC,160027.000,A,4308.3048,N,07726.2657,W,0.01,50.89,050923,,,A*44
$GPGGA,160027.250,4308.3048,N,07726.2657,W,1,08,1.35,160.9,M,-34.4,M,,*56
$GPRMC,160027.500,A,4308.3048,N,07726.2657,W,0.00,78.56,050923,,,A*48
$GPGGA,160027.750,4308.3048,N,07726.2657,W,1,08,1.35,160.9,M,-34.4,M,,*53
$GPRMC,160028.000,A,4308.3048,N,07726.2657,W,0.01,171.85,050923,,,A*75
$GPGGA,160028.250,4308.3048,N,07726.2657,W,1,08,1.35,160.9,M,-34.4,M,,*59
$GPRMC,160028.500,A,4308.3048,N,07726.2657,W,0.01,212.27,050923,,,A*7E
$GPGGA,160028.750,4308.3048,N,07726.2657,W,1,08,1.35,160.9,M,-34.4,M,,*5C
$GPRMC,160029.000,A,4308.3048,N,07726.2657,W,0.01,1.27,050923,,,A*7A
$GPGGA,160029.250,4308.3048,N,07726.2657,W,1,08,1.35,160.9,M,-34.4,M,,*58
$GPRMC,160029.500,A,4308.3048,N,07726.2657,W,0.01,244.26,050923,,,A*7D
$GPGGA,160029.750,4308.3048,N,07726.2657,W,1,08,1.35,160.9,M,-34.4,M,,*5D
$GPRMC,160030.000,A,4308.3048,N,07726.2657,W,0.01,308.05,050923,,,A*78
$GPGGA,160030.250,4308.3048,N,07726.2657,W,1,08,1.35,160.9,M,-34.4,M,,*50
$GPRMC,160030.500,A,4308.3048,N,07726.2657,W,0.00,96.93,050923,,,A*47
$GPGGA,160030.750,4308.3048,N,07726.2657,W,1,08,1.35,160.9,M,-34.4,M,,*55
$GPRMC,160031.000,A,4308.3048,N,07726.2657,W,0.01,247.14,050923,,,A*73
$GPGGA,160031.250,4308.3048,N,07726.2657,W,1,08,1.35,160.9,M,-34.4,M,,*51
$GPRMC,160031.500,A,4308.3048,N,07726.2657,W,0.00,107.66,050923,,,A*75
$GPGGA,160031.750,4308.3049,N,07726.2657,W,1,08,1.35,160.9,M,-34.4,M,,*55
$GPRMC,160032.000,A,4308.3049,N,07726.2657,W,0.01,314.28,050923,,,A*79
$GPGGA,160032.250,4308.3049,N,07726.2657,W,1,08,1.35,160.9,M,-34.4,M,,*53
$GPRMC,160032.500,A,4308.3049,N,07726.2657,W,0.01,223.87,050923,,,A*7C
$GPGGA,160032.750,4308.3049,N,07726.2657,W,1,08,1.35,160.9,M,-34.4,M,,*56
$GPRMC,160033.000,A,4308.3049,N,07726.2657,W,0.00,35.34,050923,,,A*44
$GPGGA,160033.250,4308.3049,N,07726.2657,W,1,08,1.34,160.9,M,-34.4,M,,*53
$GPRMC,160033.500,A,4308.3049,N,07726.2657,W,0.01,354.21,050923,,,A*70
$GPGGA,160033.750,4308.3049,N,07726.2657,W,1,08,1.34,160.9,M,-34.4,M,,*56
$GPRMC,160034.000,A,4308.3049,N,07726.2657,W,0.01,196.61,050923,,,A*7A
$GPGGA,160034.250,4308.3049,N,07726.2657,W,1,08,1.34,160.9,M,-34.4,M,,*54
$GPRMC,160034.500,A,4308.3049,N,07726.2657,W,0.01,45.40,050923,,,A*43
$GPGGA,160034.750,4308.3049,N,07726.2657,W,1,08,1.34,160.9,M,-34.4,M,,*51
$GPRMC,160035.000,A,4308.3049,N,07726.2657,W,0.01,159.00,050923,,,A*7F
$GPGGA,160035.250,4308.3049,N,07726.2657,W,1,08,1.35,160.9,M,-34.4,M,,*54
$GPRMC,160035.500,A,4308.3049,N,07726.2657,W,0.00,0.00,050923,,,A*76
$GPGGA,160035.750,4308.3049,N,07726.2657,W,1,08,1.34,160.9,M,-34.4,M,,*50
$GPRMC,160036.000,A,4308.3049,N,07726.2657,W,0.01,205.11,050923,,,A*76
$GPGGA,160036.250,4308.3049,N,07726.2657,W,1,08,1.35,160.9,M,-34.4,M,,*57
$GPRMC,160036.500,A,4308.3049,N,07726.2657,W,0.01,121.74,050923,,,A*75
$GPGGA,160036.750,4308.3049,N,07726.2657,W,1,08,1.35,160.9,M,-34.4,M,,*52
$GPRMC,160037.000,A,4308.3049,N,07726.2657,W,0.01,8.15,050923,,,A*7C
$GPGGA,160037.250,4308.3049,N,07726.2657,W,1,08,1.34,160.9,M,-34.4,M,,*57
$GPRMC,160037.500,A,4308.3049,N,07726.2657,W,0.00,200.22,050923,,,A*76
$GPGGA,160037.750,4308.3049,N,07726.2657,W,1,08,1.34,160.9,M,-34.4,M,,*52
$GPRMC,160038.000,A,4308.3049,N,07726.2657,W,0.01,340.02,050923,,,A*7A
$GPGGA,160038.250,4308.3049,N,07726.2657,W,1,08,1.34,160.9,M,-34.4,M,,*58
$GPRMC,160038.500,A,4308.3049,N,07726.2657,W,0.00,130.65,050923,,,A*7A
$GPGGA,160038.750,4308.3049,N,07726.2657,W,1,08,1.34,160.9,M,-34.4,M,,*5D
$GPRMC,160039.000,A,4308.3049,N,07726.2657,W,0.00,145.95,050923,,,A*73
$GPGGA,160039.250,4308.3049,N,07726.2657,W,1,08,1.34,160.9,M,-34.4,M,,*59
$GPRMC,160039.500,A,4308.3049,N,07726.2657,W,0.00,0.00,050923,,,A*7A
$GPGGA,160039.750,4308.3049,N,07726.2657,W,1,08,1.34,160.9,M,-34.4,M,,*5C
$GPRMC,160040.000,A,4308.3049,N,07726.2657,W,0.00,238.37,050923,,,A*7C
$GPGGA,160040.250,4308.3049,N,07726.2657,W,1,08,1.34,160.9,M,-34.4,M,,*57
$GPRMC,160040.500,A,4308.3049,N,07726.2657,W,0.00,299.60,050923,,,A*70
$GPGGA,160040.750,4308.3049,N,07726.2657,W,1,08,1.34,160.9,M,-34.4,M,,*52
$GPRMC,160041.000,A,4308.3049,N,07726.2657,W,0.01,323.82,050923,,,A*79
$GPGGA,160041.250,4308.3049,N,07726.2657,W,1,08,1.34,160.9,M,-34.4,M,,*56
$GPRMC,160041.500,A,4308.3049,N,07726.2657,W,0.01,186.96,050923,,,A*74
$GPGGA,160041.750,4308.3049,N,07726.2657,W,1,08,1.35,160.9,M,-34.4,M,,*52
$GPRMC,160042.000,A,4308.3049,N,07726.2657,W,0.00,283.15,050923,,,A*7E
$GPGGA,160042.250,4308.3049,N,07726.2657,W,1,08,1.34,160.9,M,-34.4,M,,*55
$GPRMC,160042.500,A,4308.3049,N,07726.2657,W,0.01,154.88,050923,,,A*77
$GPGGA,160042.750,4308.3049,N,07726.2657,W,1,08,1.34,160.9,M,-34.4,M,,*50
$GPRMC,160043.000,A,4308.3049,N,07726.2657,W,0.00,350.38,050923,,,A*7F
$GPGGA,160043.250,4308.3049,N,07726.2657,W,1,08,1.34,160.9,M,-34.4,M,,*54
$GPRMC,160043.500,A,4308.3049,N,07726.2657,W,0.00,148.93,050923,,,A*70
$GPGGA,160043.750,4308.3049,N,07726.2657,W,1,08,1.35,160.9,M,-34.4,M,,*50
$GPRMC,160044.000,A,4308.3049,N,07726.2657,W,0.01,71.46,050923,,,A*40
$GPGGA,160044.250,4308.3049,N,07726.2657,W,1,08,1.34,160.9,M,-34.4,M,,*53
$GPRMC,160044.500,A,4308.3049,N,07726.2657,W,0.01,211.25,050923,,,A*74
$GPGGA,160044.750,4308.3049,N,07726.2657,W,1,08,1.34,160.9,M,-34.4,M,,*56
$GPRMC,160045.000,A,4308.3049,N,07726.2657,W,0.01,201.33,050923,,,A*76
$GPGGA,160045.250,4308.3049,N,07726.2657,W,1,08,1.34,160.9,M,-34.4,M,,*52
$GPRMC,160045.500,A,4308.3049,N,07726.2657,W,0.00,336.64,050923,,,A*75
$GPGGA,160045.750,4308.3049,N,07726.2657,W,1,08,1.34,160.9,M,-34.4,M,,*57
$GPRMC,160046.000,A,4308.3049,N,07726.2657,W,0.00,314.70,050923,,,A*76
$GPGGA,160046.250,4308.3049,N,07726.2657,W,1,08,1.34,160.9,M,-34.4,M,,*51
$GPRMC,160046.500,A,4308.3049,N,07726.2657,W,0.01,19.75,050923,,,A*49
$GPGGA,160046.750,4308.3049,N,07726.2657,W,1,08,1.34,160.9,M,-34.4,M,,*54
$GPRMC,160047.000,A,4308.3049,N,07726.2657,W,0.01,160.10,050923,,,A*71
$GPGGA,160047.250,4308.3049,N,07726.2657,W,1,08,1.34,160.9,M,-34.4,M,,*50
$GPRMC,160047.500,A,4308.3049,N,07726.2657,W,0.00,29.43,050923,,,A*4F
$GPGGA,160047.750,4308.3049,N,07726.2657,W,1,08,1.34,160.9,M,-34.4,M,,*55
$GPRMC,160048.000,A,4308.3049,N,07726.2657,W,0.01,10.76,050923,,,A*48
$GPGGA,160048.250,4308.3049,N,07726.2657,W,1,08,1.34,160.9,M,-34.4,M,,*5F
$GPRMC,160048.500,A,4308.3049,N,07726.2657,W,0.01,313.74,050923,,,A*7F
$GPGGA,160048.750,4308.3049,N,07726.2657,W,1,08,1.34,160.9,M,-34.4,M,,*5A
$GPRMC,160049.000,A,4308.3049,N,07726.2657,W,0.01,117.05,050923,,,A*7B
$GPGGA,160049.250,4308.3049,N,07726.2657,W,1,08,1.34,160.9,M,-34.4,M,,*5E
$GPRMC,160049.500,A,4308.3049,N,07726.2657,W,0.01,192.93,050923,,,A*7C
$GPGGA,160049.750,4308.3049,N,07726.2657,W,1,08,1.34,160.9,M,-34.4,M,,*5B
$GPRMC,160050.000,A,4308.3049,N,07726.2657,W,0.00,239.21,050923,,,A*7B
$GPGGA,160050.250,4308.3049,N,07726.2657,W,1,08,1.34,160.9,M,-34.4,M,,*56
$GPRMC,160050.500,A,4308.3049,N,07726.2657,W,0.00,268.29,050923,,,A*72
$GPGGA,160050.750,4308.3049,N,07726.2657,W,1,08,1.34,160.9,M,-34.4,M,,*53
$GPRMC,160051.000,A,4308.3049,N,07726.2657,W,0.00,11.22,050923,,,A*41
$GPGGA,160051.250,4308.3049,N,07726.2657,W,1,08,1.34,160.9,M,-34.4,M,,*57
$GPRMC,160051.500,A,4308.3049,N,07726.2657,W,0.00,350.45,050923,,,A*73
$GPGGA,160051.750,4308.3049,N,07726.2657,W,1,08,1.34,160.9,M,-34.4,M,,*52
$GPRMC,160052.000,A,4308.3049,N,07726.2657,W,0.00,0.00,050923,,,A*72
$GPGGA,160052.250,4308.3049,N,07726.2657,W,1,08,1.34,160.9,M,-34.4,M,,*54
$GPRMC,160052.500,A,4308.3049,N,07726.2657,W,0.00,221.66,050923,,,A*76
$GPGGA,160052.750,4308.3049,N,07726.2657,W,1,08,1.34,160.9,M,-34.4,M,,*51
$GPRMC,160053.000,A,4308.3049,N,07726.2657,W,0.00,209.60,050923,,,A*7E
$GPGGA,160053.250,4308.3049,N,07726.2657,W,1,08,1.34,160.9,M,-34.4,M,,*55
$GPRMC,160053.500,A,4308.3049,N,07726.2657,W,0.01,98.25,050923,,,A*41
$GPGGA,160053.750,4308.3049,N,07726.2657,W,1,08,1.34,160.9,M,-34.4,M,,*50
$GPRMC,160054.000,A,4308.3049,N,07726.2657,W,0.00,216.80,050923,,,A*79
$GPGGA,160054.250,4308.3049,N,07726.2657,W,1,08,1.34,160.9,M,-34.4,M,,*52
$GPRMC,160054.500,A,4308.3049,N,07726.2657,W,0.01,6.15,050923,,,A*72
$GPGGA,160054.750,4308.3049,N,07726.2657,W,1,08,1.34,160.9,M,-34.4,M,,*57
$GPRMC,160055.000,A,4308.3049,N,07726.2657,W,0.03,29.87,050923,,,A*42
$GPGGA,160055.250,4308.3049,N,07726.2657,W,1,08,1.25,160.9,M,-34.4,M,,*53
$GPRMC,160055.500,A,4308.3049,N,07726.2657,W,0.19,18.32,050923,,,A*40
$GPGGA,160055.750,4308.3049,N,07726.2657,W,1,08,1.25,160.9,M,-34.4,M,,*56
$GPRMC,160056.000,A,4308.3049,N,07726.2657,W,0.59,13.35,050923,,,A*4E
$GPGGA,160056.250,4308.3050,N,07726.2657,W,1,08,1.34,160.9,M,-34.4,M,,*58
$GPRMC,160056.500,A,4308.3051,N,07726.2656,W,1.06,12.95,050923,,,A*43
$GPGGA,160056.750,4308.3055,N,07726.2657,W,1,08,1.34,160.9,M,-34.4,M,,*58
$GPRMC,160057.000,A,4308.3059,N,07726.2657,W,5.45,353.49,050923,,,A*7A
$GPGGA,160057.250,4308.3063,N,07726.2657,W,1,08,1.34,161.0,M,-34.4,M,,*51
$GPRMC,160057.500,A,4308.3068,N,07726.2657,W,6.64,357.11,050923,,,A*74
$GPGGA,160057.750,4308.3073,N,07726.2657,W,1,08,1.34,160.9,M,-34.4,M,,*5D
$GPRMC,160058.000,A,4308.3077,N,07726.2657,W,6.59,356.55,050923,,,A*7F
$GPGGA,160058.250,4308.3082,N,07726.2658,W,1,08,1.34,161.0,M,-34.4,M,,*5E
$GPRMC,160058.500,A,4308.3086,N,07726.2658,W,5.95,354.61,050923,,,A*7D
$GPGGA,160058.750,4308.3090,N,07726.2658,W,1,08,1.34,161.0,M,-34.4,M,,*58
$GPRMC,160059.000,A,4308.3094,N,07726.2658,W,5.35,357.19,050923,,,A*7C
$GPGGA,160059.250,4308.3097,N,07726.2659,W,1,08,1.34,161.1,M,-34.4,M,,*5B
$GPRMC,160059.500,A,4308.3100,N,07726.2658,W,4.52,358.53,050923,,,A*74
$GPGGA,160059.750,4308.3103,N,07726.2658,W,1,08,1.34,161.1,M,-34.4,M,,*53
$GPRMC,160100.000,A,4308.3106,N,07726.2658,W,3.39,1.81,050923,,,A*70
$GPGGA,160100.250,4308.3108,N,07726.2658,W,1,08,1.34,161.2,M,-34.4,M,,*53
$GPRMC,160100.500,A,4308.3110,N,07726.2657,W,2.42,1.23,050923,,,A*78
$GPGGA,160100.750,4308.3112,N,07726.2657,W,1,08,1.34,161.2,M,-34.4,M,,*52
$GPRMC,160101.000,A,4308.3113,N,07726.2656,W,2.41,5.94,050923,,,A*75
$GPGGA,160101.250,4308.3115,N,07726.2656,W,1,08,1.34,161.3,M,-34.4,M,,*51
$GPRMC,160101.500,A,4308.3117,N,07726.2655,W,1.98,6.74,050923,,,A*7D
$GPGGA,160101.750,4308.3118,N,07726.2655,W,1,08,1.34,161.5,M,-34.4,M,,*5C
$GPRMC,160102.000,A,4308.3120,N,07726.2654,W,1.93,6.54,050923,,,A*77
$GPGGA,160102.250,4308.3121,N,07726.2654,W,1,08,1.34,161.6,M,-34.4,M,,*52
$GPRMC,160102.500,A,4308.3122,N,07726.2654,W,2.03,7.56,050923,,,A*79
$GPGGA,160102.750,4308.3123,N,07726.2653,W,1,08,1.34,161.6,M,-34.4,M,,*52
$GPRMC,160103.000,A,4308.3125,N,07726.2652,W,2.78,16.55,050923,,,A*43
$GPGGA,160103.250,4308.3127,N,07726.2650,W,1,08,1.25,161.5,M,-34.4,M,,*52
$GPRMC,160103.500,A,4308.3129,N,07726.2649,W,2.70,21.55,050923,,,A*4C
$GPGGA,160103.750,4308.3131,N,07726.2648,W,1,08,1.25,161.6,M,-34.4,M,,*5A
$GPRMC,160104.000,A,4308.3134,N,07726.2647,W,3.12,26.42,050923,,,A*48
$GPGGA,160104.250,4308.3136,N,07726.2645,W,1,08,1.25,161.7,M,-34.4,M,,*53
$GPRMC,160104.500,A,4308.3138,N,07726.2643,W,3.00,33.77,050923,,,A*44
$GPGGA,160104.750,4308.3139,N,07726.2641,W,1,08,1.25,161.8,M,-34.4,M,,*52
$GPRMC,160105.000,A,4308.3141,N,07726.2638,W,3.21,46.64,050923,,,A*41
$GPGGA,160105.250,4308.3143,N,07726.2636,W,1,08,1.25,161.8,M,-34.4,M,,*5B
$GPRMC,160105.500,A,4308.3144,N,07726.2633,W,3.47,53.34,050923,,,A*4B
$GPGGA,160105.750,4308.3146,N,07726.2630,W,1,08,1.25,161.8,M,-34.4,M,,*5D
$GPRMC,160106.000,A,4308.3146,N,07726.2627,W,3.40,67.59,050923,,,A*41
$GPGGA,160106.250,4308.3147,N,07726.2624,W,1,08,1.25,161.9,M,-34.4,M,,*5E
$GPRMC,160106.500,A,4308.3148,N,07726.2621,W,3.25,77.44,050923,,,A*42
$GPGGA,160106.750,4308.3148,N,07726.2618,W,1,08,1.25,161.9,M,-34.4,M,,*5B
$GPRMC,160107.000,A,4308.3148,N,07726.2615,W,3.12,83.70,050923,,,A*49
$GPGGA,160107.250,4308.3148,N,07726.2612,W,1,08,1.25,162.0,M,-34.4,M,,*5F
$GPRMC,160107.500,A,4308.3147,N,07726.2609,W,2.44,98.90,050923,,,A*48
$GPGGA,160107.750,4308.3147,N,07726.2608,W,1,08,1.25,162.0,M,-34.4,M,,*5E
$GPRMC,160108.000,A,4308.3147,N,07726.2608,W,0.66,123.87,050923,,,A*76
$GPGGA,160108.250,4308.3147,N,07726.2608,W,1,08,1.25,162.0,M,-34.4,M,,*54
$GPRMC,160108.500,A,4308.3147,N,07726.2609,W,0.43,239.81,050923,,,A*7B
$GPGGA,160108.750,4308.3147,N,07726.2611,W,1,08,1.25,161.9,M,-34.4,M,,*53
$GPRMC,160109.000,A,4308.3146,N,07726.2613,W,1.30,244.41,050923,,,A*76
$GPGGA,160109.250,4308.3146,N,07726.2616,W,1,08,1.25,161.9,M,-34.4,M,,*51
$GPRMC,160109.500,A,4308.3146,N,07726.2619,W,1.98,253.52,050923,,,A*7F
$GPGGA,160109.750,4308.3145,N,07726.2623,W,1,08,1.25,161.9,M,-34.4,M,,*51
$GPRMC,160110.000,A,4308.3144,N,07726.2627,W,4.06,254.94,050923,,,A*72
$GPGGA,160110.250,4308.3144,N,07726.2631,W,1,08,1.34,161.8,M,-34.4,M,,*5F
$GPRMC,160110.500,A,4308.3144,N,07726.2637,W,5.45,259.89,050923,,,A*71
$GPGGA,160110.750,4308.3143,N,07726.2642,W,1,08,1.34,161.8,M,-34.4,M,,*59
$GPRMC,160111.000,A,4308.3143,N,07726.2649,W,6.79,260.78,050923,,,A*73
$GPGGA,160111.250,4308.3142,N,07726.2655,W,1,08,1.34,161.8,M,-34.4,M,,*5A
$GPRMC,160111.500,A,4308.3142,N,07726.2663,W,7.41,263.05,050923,,,A*7C
$GPGGA,160111.750,4308.3142,N,07726.2671,W,1,08,1.34,161.8,M,-34.4,M,,*59
$GPRMC,160112.000,A,4308.3144,N,07726.2680,W,8.64,272.40,050923,,,A*78
$GPGGA,160112.250,4308.3145,N,07726.2689,W,1,08,1.34,161.7,M,-34.4,M,,*50
$GPRMC,160112.500,A,4308.3146,N,07726.2698,W,9.54,278.84,050923,,,A*76
$GPGGA,160112.750,4308.3149,N,07726.2708,W,1,08,1.34,161.7,M,-34.4,M,,*51
$GPRMC,160113.000,A,4308.3150,N,07726.2718,W,10.76,280.52,050923,,,A*48
$GPGGA,160113.250,4308.3152,N,07726.2726,W,1,08,1.34,161.7,M,-34.4,M,,*53
$GPRMC,160113.500,A,4308.3154,N,07726.2736,W,11.08,279.80,050923,,,A*44
$GPGGA,160113.750,4308.3156,N,07726.2745,W,1,08,1.34,161.8,M,-34.4,M,,*58
$GPRMC,160114.000,A,4308.3158,N,07726.2755,W,11.65,280.13,050923,,,A*48
$GPGGA,160114.250,4308.3160,N,07726.2765,W,1,08,1.34,161.9,M,-34.4,M,,*5C
$GPRMC,160114.500,A,4308.3162,N,07726.2775,W,12.01,282.05,050923,,,A*42
$GPGGA,160114.750,4308.3166,N,07726.2786,W,1,08,1.34,162.2,M,-34.4,M,,*5A
$GPRMC,160115.000,A,4308.3170,N,07726.2797,W,12.75,286.07,050923,,,A*4C
$GPGGA,160115.250,4308.3175,N,07726.2809,W,1,08,1.25,162.5,M,-34.4,M,,*53
$GPRMC,160115.500,A,4308.3180,N,07726.2821,W,13.55,289.40,050923,,,A*4B
$GPGGA,160115.750,4308.3185,N,07726.2835,W,1,08,1.34,162.7,M,-34.4,M,,*54
$GPRMC,160116.000,A,4308.3189,N,07726.2848,W,14.38,290.06,050923,,,A*4D
$GPGGA,160116.250,4308.3194,N,07726.2862,W,1,08,1.34,162.9,M,-34.4,M,,*5E
$GPRMC,160116.500,A,4308.3199,N,07726.2875,W,15.23,291.88,050923,,,A*4B
$GPGGA,160116.750,4308.3204,N,07726.2889,W,1,08,1.34,163.1,M,-34.4,M,,*5D
$GPRMC,160117.000,A,4308.3210,N,07726.2903,W,16.05,294.77,050923,,,A*4F
$GPGGA,160117.250,4308.3215,N,07726.2918,W,1,08,1.34,163.3,M,-34.4,M,,*52
$GPRMC,160117.500,A,4308.3221,N,07726.2932,W,16.84,295.76,050923,,,A*43
$GPGGA,160117.750,4308.3227,N,07726.2947,W,1,08,1.34,163.6,M,-34.4,M,,*59
$GPRMC,160118.000,A,4308.3233,N,07726.2961,W,17.53,297.05,050923,,,A*41
$GPGGA,160118.250,4308.3239,N,07726.2975,W,1,08,1.34,164.0,M,-34.4,M,,*5C
$GPRMC,160118.500,A,4308.3246,N,07726.2990,W,17.96,298.84,050923,,,A*47
$GPGGA,160118.750,4308.3252,N,07726.3005,W,1,08,1.34,164.3,M,-34.4,M,,*58
$GPRMC,160119.000,A,4308.3259,N,07726.3020,W,18.51,298.37,050923,,,A*42
$GPGGA,160119.250,4308.3265,N,07726.3035,W,1,08,1.34,164.6,M,-34.4,M,,*5E
$GPRMC,160119.500,A,4308.3272,N,07726.3050,W,18.85,299.24,050923,,,A*43
$GPGGA,160119.750,4308.3279,N,07726.3065,W,1,08,1.34,164.9,M,-34.4,M,,*5C
$GPRMC,160120.000,A,4308.3286,N,07726.3081,W,19.28,300.41,050923,,,A*4F
$GPGGA,160120.250,4308.3292,N,07726.3096,W,1,08,1.34,165.1,M,-34.4,M,,*53
$GPRMC,160120.500,A,4308.3299,N,07726.3112,W,19.64,301.38,050923,,,A*48
$GPGGA,160120.750,4308.3307,N,07726.3127,W,1,08,1.34,165.1,M,-34.4,M,,*50
$GPRMC,160121.000,A,4308.3314,N,07726.3143,W,19.92,301.99,050923,,,A*4E
$GPGGA,160121.250,4308.3321,N,07726.3159,W,1,08,1.34,165.3,M,-34.4,M,,*5B
$GPRMC,160121.500,A,4308.3328,N,07726.3176,W,20.21,302.25,050923,,,A*44
$GPGGA,160121.750,4308.3336,N,07726.3192,W,1,08,1.34,165.4,M,-34.4,M,,*58
$GPRMC,160122.000,A,4308.3344,N,07726.3209,W,21.18,303.01,050923,,,A*4F
$GPGGA,160122.250,4308.3351,N,07726.3226,W,1,08,1.34,165.6,M,-34.4,M,,*51
$GPRMC,160122.500,A,4308.3359,N,07726.3243,W,21.43,302.95,050923,,,A*4A
$GPGGA,160122.750,4308.3367,N,07726.3261,W,1,08,1.34,165.9,M,-34.4,M,,*5D
$GPRMC,160123.000,A,4308.3374,N,07726.3278,W,21.60,302.86,050923,,,A*4A
$GPGGA,160123.250,4308.3382,N,07726.3296,W,1,08,1.34,166.1,M,-34.4,M,,*51
$GPRMC,160123.500,A,4308.3390,N,07726.3313,W,21.63,303.19,050923,,,A*4D
$GPGGA,160123.750,4308.3398,N,07726.3330,W,1,08,1.34,166.5,M,-34.4,M,,*56
$GPRMC,160124.000,A,4308.3406,N,07726.3347,W,21.61,303.63,050923,,,A*49
$GPGGA,160124.250,4308.3415,N,07726.3365,W,1,08,1.34,166.8,M,-34.4,M,,*5B
$GPRMC,160124.500,A,4308.3423,N,07726.3382,W,21.61,305.64,050923,,,A*43
$GPGGA,160124.750,4308.3430,N,07726.3399,W,1,08,1.25,165.9,M,-34.4,M,,*58
$GPRMC,160125.000,A,4308.3438,N,07726.3415,W,21.31,305.31,050923,,,A*41
$GPGGA,160125.250,4308.3447,N,07726.3432,W,1,08,1.34,166.1,M,-34.4,M,,*51
$GPRMC,160125.500,A,4308.3455,N,07726.3448,W,21.26,305.51,050923,,,A*47
$GPGGA,160125.750,4308.3464,N,07726.3464,W,1,08,1.34,166.3,M,-34.4,M,,*54
$GPRMC,160126.000,A,4308.3472,N,07726.3480,W,21.02,306.48,050923,,,A*4D
$GPGGA,160126.250,4308.3480,N,07726.3496,W,1,08,1.34,166.6,M,-34.4,M,,*50
$GPRMC,160126.500,A,4308.3489,N,07726.3512,W,20.77,306.26,050923,,,A*4D
$GPGGA,160126.750,4308.3498,N,07726.3528,W,1,08,1.34,166.9,M,-34.4,M,,*57
$GPRMC,160127.000,A,4308.3507,N,07726.3544,W,20.75,307.67,050923,,,A*4B
$GPGGA,160127.250,4308.3517,N,07726.3559,W,1,08,1.34,167.2,M,-34.4,M,,*59
$GPRMC,160127.500,A,4308.3527,N,07726.3575,W,21.07,309.79,050923,,,A*4B
$GPGGA,160127.750,4308.3537,N,07726.3591,W,1,08,1.34,167.6,M,-34.4,M,,*5E
$GPRMC,160128.000,A,4308.3548,N,07726.3607,W,21.65,311.17,050923,,,A*4B
$GPGGA,160128.250,4308.3560,N,07726.3622,W,1,08,1.34,168.0,M,-34.4,M,,*54
$GPRMC,160128.500,A,4308.3573,N,07726.3637,W,22.46,315.59,050923,,,A*49
$GPGGA,160128.750,4308.3586,N,07726.3652,W,1,08,1.34,168.4,M,-34.4,M,,*5A
$GPRMC,160129.000,A,4308.3599,N,07726.3665,W,22.63,321.24,050923,,,A*44
$GPGGA,160129.250,4308.3612,N,07726.3678,W,1,08,1.34,168.8,M,-34.4,M,,*54
$GPRMC,160129.500,A,4308.3625,N,07726.3690,W,22.56,325.64,050923,,,A*49
$GPGGA,160129.750,4308.3639,N,07726.3701,W,1,08,1.34,169.3,M,-34.4,M,,*5D
$GPRMC,160130.000,A,4308.3654,N,07726.3712,W,22.85,330.48,050923,,,A*4D
$GPGGA,160130.250,4308.3669,N,07726.3722,W,1,08,1.34,169.7,M,-34.4,M,,*50
$GPRMC,160130.500,A,4308.3684,N,07726.3732,W,23.37,335.25,050923,,,A*41
$GPGGA,160130.750,4308.3700,N,07726.3740,W,1,08,1.34,170.2,M,-34.4,M,,*52
$GPRMC,160131.000,A,4308.3717,N,07726.3747,W,24.05,341.20,050923,,,A*4C
$GPGGA,160131.250,4308.3732,N,07726.3753,W,1,08,1.25,169.7,M,-34.4,M,,*58
$GPRMC,160131.500,A,4308.3749,N,07726.3759,W,24.37,344.53,050923,,,A*4D
$GPGGA,160131.750,4308.3767,N,07726.3765,W,1,08,1.34,170.1,M,-34.4,M,,*56
$GPRMC,160132.000,A,4308.3785,N,07726.3769,W,25.25,349.39,050923,,,A*4B
$GPGGA,160132.250,4308.3803,N,07726.3773,W,1,08,1.24,170.5,M,-34.4,M,,*5F
$GPRMC,160132.500,A,4308.3821,N,07726.3776,W,26.04,353.46,050923,,,A*42
$GPGGA,160132.750,4308.3838,N,07726.3776,W,1,08,1.24,170.6,M,-34.4,M,,*54
$GPRMC,160133.000,A,4308.3856,N,07726.3777,W,25.57,358.67,050923,,,A*4A
$GPGGA,160133.250,4308.3874,N,07726.3778,W,1,08,1.25,171.0,M,-34.4,M,,*50
$GPRMC,160133.500,A,4308.3891,N,07726.3777,W,25.03,1.26,050923,,,A*4F
$GPGGA,160133.750,4308.3908,N,07726.3775,W,1,08,1.34,171.5,M,-34.4,M,,*57
$GPRMC,160134.000,A,4308.3924,N,07726.3774,W,24.10,4.51,050923,,,A*47
$GPGGA,160134.250,4308.3941,N,07726.3772,W,1,08,1.34,172.1,M,-34.4,M,,*58
$GPRMC,160134.500,A,4308.3958,N,07726.3769,W,24.37,6.31,050923,,,A*44
$GPGGA,160134.750,4308.3975,N,07726.3767,W,1,08,1.34,172.6,M,-34.4,M,,*59
$GPRMC,160135.000,A,4308.3991,N,07726.3764,W,24.34,8.11,050923,,,A*47
$GPGGA,160135.250,4308.4008,N,07726.3760,W,1,08,1.34,173.2,M,-34.4,M,,*5B
$GPRMC,160135.500,A,4308.4024,N,07726.3756,W,24.42,8.31,050923,,,A*40
$GPGGA,160135.750,4308.4041,N,07726.3752,W,1,08,1.34,173.7,M,-34.4,M,,*57
$GPRMC,160136.000,A,4308.4059,N,07726.3748,W,24.96,8.89,050923,,,A*49
$GPGGA,160136.250,4308.4075,N,07726.3743,W,1,08,1.34,174.3,M,-34.4,M,,*55
$GPRMC,160136.500,A,4308.4092,N,07726.3738,W,25.05,9.71,050923,,,A*41
$GPGGA,160136.750,4308.4109,N,07726.3734,W,1,08,1.34,174.5,M,-34.4,M,,*5C
$GPRMC,160137.000,A,4308.4125,N,07726.3730,W,25.31,9.15,050923,,,A*45
$GPGGA,160137.250,4308.4141,N,07726.3725,W,1,08,1.24,174.2,M,-34.4,M,,*52
$GPRMC,160137.500,A,4308.4158,N,07726.3720,W,25.88,8.75,050923,,,A*4E
$GPGGA,160137.750,4308.4175,N,07726.3716,W,1,08,1.34,174.5,M,-34.4,M,,*56
$GPRMC,160138.000,A,4308.4192,N,07726.3712,W,25.99,8.99,050923,,,A*41
$GPGGA,160138.250,4308.4209,N,07726.3707,W,1,08,1.25,174.3,M,-34.4,M,,*52
$GPRMC,160138.500,A,4308.4226,N,07726.3702,W,26.36,9.46,050923,,,A*4C
$GPGGA,160138.750,4308.4243,N,07726.3698,W,1,08,1.34,174.5,M,-34.4,M,,*58
$GPRMC,160139.000,A,4308.4260,N,07726.3693,W,26.01,9.93,050923,,,A*4F
$GPGGA,160139.250,4308.4276,N,07726.3688,W,1,08,1.24,175.0,M,-34.4,M,,*5E
$GPRMC,160139.500,A,4308.4293,N,07726.3683,W,25.70,9.49,050923,,,A*45
$GPGGA,160139.750,4308.4309,N,07726.3678,W,1,08,1.24,175.0,M,-34.4,M,,*5D
$GPRMC,160140.000,A,4308.4325,N,07726.3673,W,25.12,9.29,050923,,,A*4F
$GPGGA,160140.250,4308.4342,N,07726.3669,W,1,08,1.34,175.5,M,-34.4,M,,*5D
$GPRMC,160140.500,A,4308.4359,N,07726.3664,W,25.15,9.54,050923,,,A*4A
$GPGGA,160140.750,4308.4375,N,07726.3659,W,1,08,1.34,176.0,M,-34.4,M,,*59
$GPRMC,160141.000,A,4308.4391,N,07726.3654,W,24.75,9.04,050923,,,A*4B
$GPGGA,160141.250,4308.4406,N,07726.3650,W,1,08,1.34,176.4,M,-34.4,M,,*53
$GPRMC,160141.500,A,4308.4421,N,07726.3646,W,23.71,8.46,050923,,,A*45
$GPGGA,160141.750,4308.4434,N,07726.3642,W,1,08,1.34,176.8,M,-34.4,M,,*58
$GPRMC,160142.000,A,4308.4448,N,07726.3638,W,22.31,7.42,050923,,,A*4B
$GPGGA,160142.250,4308.4461,N,07726.3635,W,1,08,1.34,177.3,M,-34.4,M,,*54
$GPRMC,160142.500,A,4308.4473,N,07726.3632,W,20.81,6.17,050923,,,A*44
$GPGGA,160142.750,4308.4484,N,07726.3629,W,1,08,1.34,177.8,M,-34.4,M,,*5C
$GPRMC,160143.000,A,4308.4495,N,07726.3627,W,18.86,5.46,050923,,,A*47
$GPGGA,160143.250,4308.4505,N,07726.3624,W,1,08,1.34,178.3,M,-34.4,M,,*59
$GPRMC,160143.500,A,4308.4514,N,07726.3622,W,16.81,5.23,050923,,,A*45
$GPGGA,160143.750,4308.4521,N,07726.3620,W,1,08,1.34,178.7,M,-34.4,M,,*5A
$GPRMC,160144.000,A,4308.4531,N,07726.3616,W,9.61,8.55,050923,,,A*7B
$GPGGA,160144.250,4308.4537,N,07726.3612,W,1,08,1.34,179.0,M,-34.4,M,,*58
$GPRMC,160144.500,A,4308.4541,N,07726.3608,W,8.12,10.14,050923,,,A*4F
$GPGGA,160144.750,4308.4544,N,07726.3604,W,1,08,1.34,179.0,M,-34.4,M,,*5E
$GPRMC,160145.000,A,4308.4547,N,07726.3602,W,6.39,10.54,050923,,,A*44
$GPGGA,160145.250,4308.4550,N,07726.3599,W,1,08,1.34,179.1,M,-34.4,M,,*59
$GPRMC,160145.500,A,4308.4551,N,07726.3597,W,5.12,9.41,050923,,,A*7F
$GPGGA,160145.750,4308.4552,N,07726.3595,W,1,08,1.34,179.3,M,-34.4,M,,*50
$GPRMC,160146.000,A,4308.4553,N,07726.3594,W,3.48,10.67,050923,,,A*4D
$GPGGA,160146.250,4308.4554,N,07726.3592,W,1,08,1.34,179.3,M,-34.4,M,,*57
$GPRMC,160146.500,A,4308.4557,N,07726.3591,W,3.44,12.01,050923,,,A*47
$GPGGA,160146.750,4308.4559,N,07726.3589,W,1,08,1.34,179.2,M,-34.4,M,,*54
$GPRMC,160147.000,A,4308.4562,N,07726.3588,W,3.86,12.26,050923,,,A*46
$GPGGA,160147.250,4308.4566,N,07726.3587,W,1,08,1.34,179.1,M,-34.4,M,,*51
$GPRMC,160147.500,A,4308.4570,N,07726.3588,W,4.65,357.36,050923,,,A*79
$GPGGA,160147.750,4308.4575,N,07726.3590,W,1,08,1.34,178.9,M,-34.4,M,,*59
$GPRMC,160148.000,A,4308.4580,N,07726.3593,W,6.24,342.10,050923,,,A*71
$GPGGA,160148.250,4308.4584,N,07726.3595,W,1,08,1.24,178.6,M,-34.4,M,,*56
$GPRMC,160148.500,A,4308.4589,N,07726.3598,W,6.65,336.56,050923,,,A*72
$GPGGA,160148.750,4308.4594,N,07726.3605,W,1,08,1.24,178.6,M,-34.4,M,,*58
$GPRMC,160149.000,A,4308.4601,N,07726.3613,W,9.40,316.91,050923,,,A*74
$GPGGA,160149.250,4308.4605,N,07726.3620,W,1,08,1.24,178.6,M,-34.4,M,,*50
$GPRMC,160149.500,A,4308.4609,N,07726.3630,W,10.99,302.64,050923,,,A*4B
$GPGGA,160149.750,4308.4614,N,07726.3641,W,1,08,1.24,178.6,M,-34.4,M,,*52
$GPRMC,160150.000,A,4308.4617,N,07726.3653,W,12.59,293.71,050923,,,A*4F
$GPGGA,160150.250,4308.4620,N,07726.3665,W,1,08,1.24,178.4,M,-34.4,M,,*5C
$GPRMC,160150.500,A,4308.4622,N,07726.3678,W,14.05,285.71,050923,,,A*4D
$GPGGA,160150.750,4308.4624,N,07726.3693,W,1,08,1.34,178.2,M,-34.4,M,,*53
$GPRMC,160151.000,A,4308.4627,N,07726.3709,W,15.78,281.39,050923,,,A*48
$GPGGA,160151.250,4308.4629,N,07726.3725,W,1,08,1.24,177.8,M,-34.4,M,,*52
$GPRMC,160151.500,A,4308.4630,N,07726.3742,W,17.36,275.48,050923,,,A*41
$GPGGA,160151.750,4308.4631,N,07726.3761,W,1,08,1.34,177.5,M,-34.4,M,,*52
$GPRMC,160152.000,A,4308.4632,N,07726.3780,W,18.92,273.70,050923,,,A*47
$GPGGA,160152.250,4308.4634,N,07726.3801,W,1,08,1.34,177.2,M,-34.4,M,,*5F
$GPRMC,160152.500,A,4308.4636,N,07726.3821,W,20.47,273.42,050923,,,A*40
$GPGGA,160152.750,4308.4637,N,07726.3844,W,1,08,1.34,176.8,M,-34.4,M,,*53
$GPRMC,160153.000,A,4308.4639,N,07726.3866,W,21.91,272.93,050923,,,A*4F
$GPGGA,160153.250,4308.4642,N,07726.3893,W,1,08,1.24,176.4,M,-34.4,M,,*52
$GPRMC,160153.500,A,4308.4644,N,07726.3919,W,25.18,274.08,050923,,,A*48
$GPGGA,160153.750,4308.4647,N,07726.3947,W,1,08,1.34,176.1,M,-34.4,M,,*5E
$GPRMC,160154.000,A,4308.4651,N,07726.3975,W,27.53,275.30,050923,,,A*43
$GPGGA,160154.250,4308.4653,N,07726.4003,W,1,08,1.24,175.7,M,-34.4,M,,*53
$GPRMC,160154.500,A,4308.4656,N,07726.4032,W,28.74,275.94,050923,,,A*48
$GPGGA,160154.750,4308.4659,N,07726.4061,W,1,08,1.34,175.4,M,-34.4,M,,*5A
$GPRMC,160155.000,A,4308.4662,N,07726.4090,W,29.45,275.86,050923,,,A*43
$GPGGA,160155.250,4308.4665,N,07726.4120,W,1,08,1.24,175.0,M,-34.4,M,,*50
$GPRMC,160155.500,A,4308.4669,N,07726.4151,W,30.51,277.58,050923,,,A*4D
$GPGGA,160155.750,4308.4673,N,07726.4182,W,1,08,1.34,174.7,M,-34.4,M,,*5D
$GPRMC,160156.000,A,4308.4676,N,07726.4213,W,31.14,277.12,050923,,,A*4E
$GPGGA,160156.250,4308.4679,N,07726.4243,W,1,08,1.24,174.3,M,-34.4,M,,*5A
$GPRMC,160156.500,A,4308.4682,N,07726.4274,W,31.45,277.18,050923,,,A*4F
$GPGGA,160156.750,4308.4686,N,07726.4305,W,1,08,1.24,173.9,M,-34.4,M,,*51
$GPRMC,160157.000,A,4308.4689,N,07726.4337,W,31.69,277.48,050923,,,A*4D
$GPGGA,160157.250,4308.4693,N,07726.4369,W,1,08,1.24,173.5,M,-34.4,M,,*57
$GPRMC,160157.500,A,4308.4697,N,07726.4400,W,32.71,277.81,050923,,,A*4B
$GPGGA,160157.750,4308.4700,N,07726.4432,W,1,08,1.24,173.3,M,-34.4,M,,*56
$GPRMC,160158.000,A,4308.4703,N,07726.4464,W,32.78,278.36,050923,,,A*45
$GPGGA,160158.250,4308.4706,N,07726.4496,W,1,08,1.24,173.2,M,-34.4,M,,*55
$GPRMC,160158.500,A,4308.4709,N,07726.4529,W,33.96,276.64,050923,,,A*4A
$GPGGA,160158.750,4308.4713,N,07726.4562,W,1,08,1.24,173.1,M,-34.4,M,,*5D
$GPRMC,160159.000,A,4308.4716,N,07726.4596,W,34.37,276.81,050923,,,A*43
$GPGGA,160159.250,4308.4718,N,07726.4629,W,1,08,1.24,173.1,M,-34.4,M,,*5E
$GPRMC,160159.500,A,4308.4721,N,07726.4662,W,34.56,276.78,050923,,,A*4B
$GPGGA,160159.750,4308.4724,N,07726.4696,W,1,08,1.33,173.3,M,-34.4,M,,*54
$GPRMC,160200.000,A,4308.4728,N,07726.4731,W,34.84,277.52,050923,,,A*49
$GPGGA,160200.250,4308.4732,N,07726.4765,W,1,08,1.24,173.6,M,-34.4,M,,*57
$GPRMC,160200.500,A,4308.4735,N,07726.4799,W,35.18,277.43,050923,,,A*46
$GPGGA,160200.750,4308.4738,N,07726.4834,W,1,08,1.33,173.7,M,-34.4,M,,*54
$GPRMC,160201.000,A,4308.4741,N,07726.4869,W,35.36,276.46,050923,,,A*49
$GPGGA,160201.250,4308.4744,N,07726.4904,W,1,08,1.24,174.0,M,-34.4,M,,*5F
$GPRMC,160201.500,A,4308.4746,N,07726.4940,W,35.60,275.33,050923,,,A*43
$GPGGA,160201.750,4308.4748,N,07726.4975,W,1,08,1.34,174.1,M,-34.4,M,,*50
$GPRMC,160202.000,A,4308.4750,N,07726.5012,W,37.02,274.63,050923,,,A*4F
$GPGGA,160202.250,4308.4751,N,07726.5048,W,1,08,1.24,174.2,M,-34.4,M,,*5A
$GPRMC,160202.500,A,4308.4753,N,07726.5084,W,37.63,273.74,050923,,,A*40
$GPGGA,160202.750,4308.4754,N,07726.5121,W,1,08,1.24,174.2,M,-34.4,M,,*54
$GPRMC,160203.000,A,4308.4756,N,07726.5159,W,38.11,272.95,050923,,,A*44
$GPGGA,160203.250,4308.4757,N,07726.5196,W,1,08,1.24,174.2,M,-34.4,M,,*5F
$GPRMC,160203.500,A,4308.4758,N,07726.5234,W,38.39,272.44,050923,,,A*41
$GPGGA,160203.750,4308.4759,N,07726.5272,W,1,08,1.24,174.2,M,-34.4,M,,*5D
$GPRMC,160204.000,A,4308.4761,N,07726.5310,W,38.83,272.20,050923,,,A*4D
$GPGGA,160204.250,4308.4762,N,07726.5348,W,1,08,1.24,174.4,M,-34.4,M,,*59
$GPRMC,160204.500,A,4308.4763,N,07726.5385,W,39.01,271.99,050923,,,A*4C
$GPGGA,160204.750,4308.4763,N,07726.5423,W,1,08,1.24,174.5,M,-34.4,M,,*56
$GPRMC,160205.000,A,4308.4764,N,07726.5461,W,39.38,271.46,050923,,,A*4A
$GPGGA,160205.250,4308.4765,N,07726.5500,W,1,08,1.24,174.7,M,-34.4,M,,*56
$GPRMC,160205.500,A,4308.4767,N,07726.5539,W,39.61,271.50,050923,,,A*4B
$GPGGA,160205.750,4308.4769,N,07726.5578,W,1,08,1.24,174.9,M,-34.4,M,,*5E
$GPRMC,160206.000,A,4308.4771,N,07726.5618,W,40.69,272.23,050923,,,A*4B
$GPGGA,160206.250,4308.4772,N,07726.5656,W,1,08,1.24,175.1,M,-34.4,M,,*54
$GPRMC,160206.500,A,4308.4773,N,07726.5695,W,40.77,272.16,050923,,,A*40
$GPGGA,160206.750,4308.4774,N,07726.5735,W,1,08,1.24,175.3,M,-34.4,M,,*51
$GPRMC,160207.000,A,4308.4775,N,07726.5774,W,41.11,271.82,050923,,,A*43
$GPGGA,160207.250,4308.4776,N,07726.5814,W,1,08,1.24,175.5,M,-34.4,M,,*5D
$GPRMC,160207.500,A,4308.4777,N,07726.5854,W,41.62,271.19,050923,,,A*4F
$GPGGA,160207.750,4308.4778,N,07726.5894,W,1,08,1.24,175.5,M,-34.4,M,,*5E
$GPRMC,160208.000,A,4308.4779,N,07726.5935,W,41.95,270.61,050923,,,A*4B
$GPGGA,160208.250,4308.4780,N,07726.5975,W,1,08,1.24,175.6,M,-34.4,M,,*5E
$GPRMC,160208.500,A,4308.4780,N,07726.6015,W,42.00,270.21,050923,,,A*4B
$GPGGA,160208.750,4308.4781,N,07726.6055,W,1,08,1.24,175.6,M,-34.4,M,,*52
$GPRMC,160209.000,A,4308.4780,N,07726.6095,W,42.07,269.25,050923,,,A*4C
$GPGGA,160209.250,4308.4781,N,07726.6136,W,1,08,1.24,175.6,M,-34.4,M,,*52
$GPRMC,160209.500,A,4308.4783,N,07726.6178,W,42.17,269.99,050923,,,A*4E
$GPGGA,160209.750,4308.4785,N,07726.6221,W,1,08,1.33,175.5,M,-34.4,M,,*53
$GPRMC,160210.000,A,4308.4786,N,07726.6263,W,42.27,269.57,050923,,,A*4E
$GPGGA,160210.250,4308.4786,N,07726.6305,W,1,08,1.24,175.6,M,-34.4,M,,*5F
$GPRMC,160210.500,A,4308.4788,N,07726.6347,W,42.41,269.35,050923,,,A*46
$GPGGA,160210.750,4308.4788,N,07726.6390,W,1,08,1.33,175.7,M,-34.4,M,,*5F
$GPRMC,160211.000,A,4308.4789,N,07726.6432,W,42.54,269.31,050923,,,A*46
$GPGGA,160211.250,4308.4789,N,07726.6474,W,1,08,1.24,175.8,M,-34.4,M,,*5E
$GPRMC,160211.500,A,4308.4789,N,07726.6516,W,42.94,268.73,050923,,,A*4F
$GPGGA,160211.750,4308.4789,N,07726.6558,W,1,08,1.33,176.1,M,-34.4,M,,*58
$GPRMC,160212.000,A,4308.4789,N,07726.6600,W,42.58,268.04,050923,,,A*4D
$GPGGA,160212.250,4308.4788,N,07726.6641,W,1,08,1.24,176.2,M,-34.4,M,,*51
$GPRMC,160212.500,A,4308.4787,N,07726.6682,W,41.93,267.17,050923,,,A*45
$GPGGA,160212.750,4308.4785,N,07726.6723,W,1,08,1.33,176.5,M,-34.4,M,,*5D
$GPRMC,160213.000,A,4308.4783,N,07726.6763,W,41.81,266.54,050923,,,A*4E
$GPGGA,160213.250,4308.4782,N,07726.6804,W,1,08,1.24,176.4,M,-34.4,M,,*53
$GPRMC,160213.500,A,4308.4781,N,07726.6844,W,41.50,266.48,050923,,,A*42
$GPGGA,160213.750,4308.4779,N,07726.6885,W,1,08,1.33,176.6,M,-34.4,M,,*5F
$GPRMC,160214.000,A,4308.4777,N,07726.6925,W,41.53,265.93,050923,,,A*49
$GPGGA,160214.250,4308.4775,N,07726.6966,W,1,08,1.24,175.9,M,-34.4,M,,*57
$GPRMC,160214.500,A,4308.4773,N,07726.7005,W,41.42,265.81,050923,,,A*41
$GPGGA,160214.750,4308.4771,N,07726.7045,W,1,08,1.33,175.8,M,-34.4,M,,*58
$GPRMC,160215.000,A,4308.4769,N,07726.7084,W,41.06,265.84,050923,,,A*42
$GPGGA,160215.250,4308.4766,N,07726.7124,W,1,08,1.33,175.6,M,-34.4,M,,*52
$GPRMC,160215.500,A,4308.4764,N,07726.7163,W,40.86,265.60,050923,,,A*41
$GPGGA,160215.750,4308.4762,N,07726.7202,W,1,08,1.33,175.5,M,-34.4,M,,*57
$GPRMC,160216.000,A,4308.4760,N,07726.7241,W,40.94,265.43,050923,,,A*42
$GPGGA,160216.250,4308.4758,N,07726.7280,W,1,08,1.33,175.6,M,-34.4,M,,*51
$GPRMC,160216.500,A,4308.4755,N,07726.7319,W,40.88,265.14,050923,,,A*42
$GPGGA,160216.750,4308.4753,N,07726.7358,W,1,08,1.33,175.8,M,-34.4,M,,*55
$GPRMC,160217.000,A,4308.4750,N,07726.7397,W,40.86,265.45,050923,,,A*4F
$GPGGA,160217.250,4308.4748,N,07726.7436,W,1,08,1.24,176.0,M,-34.4,M,,*59
$GPRMC,160217.500,A,4308.4746,N,07726.7475,W,40.86,265.77,050923,,,A*47
$GPGGA,160217.750,4308.4745,N,07726.7514,W,1,08,1.33,176.2,M,-34.4,M,,*54
$GPRMC,160218.000,A,4308.4743,N,07726.7553,W,40.91,265.77,050923,,,A*4B
$GPGGA,160218.250,4308.4740,N,07726.7592,W,1,08,1.24,176.5,M,-34.4,M,,*54
$GPRMC,160218.500,A,4308.4738,N,07726.7631,W,40.70,265.31,050923,,,A*48
$GPGGA,160218.750,4308.4736,N,07726.7669,W,1,08,1.33,176.9,M,-34.4,M,,*5D
$GPRMC,160219.000,A,4308.4733,N,07726.7708,W,40.69,265.10,050923,,,A*47
$GPGGA,160219.250,4308.4731,N,07726.7747,W,1,08,1.33,177.1,M,-34.4,M,,*5A
$GPRMC,160219.500,A,4308.4729,N,07726.7786,W,40.73,265.27,050923,,,A*40
$GPGGA,160219.750,4308.4727,N,07726.7825,W,1,08,1.33,177.3,M,-34.4,M,,*51
$GPRMC,160220.000,A,4308.4725,N,07726.7864,W,40.79,265.32,050923,,,A*4E
$GPGGA,160220.250,4308.4722,N,07726.7903,W,1,08,1.33,177.5,M,-34.4,M,,*58
$GPRMC,160220.500,A,4308.4720,N,07726.7942,W,40.84,264.85,050923,,,A*44
$GPGGA,160220.750,4308.4717,N,07726.7981,W,1,08,1.33,177.5,M,-34.4,M,,*51
$GPRMC,160221.000,A,4308.4715,N,07726.8020,W,40.93,264.45,050923,,,A*4E
$GPGGA,160221.250,4308.4712,N,07726.8060,W,1,08,1.24,177.6,M,-34.4,M,,*5C
$GPRMC,160221.500,A,4308.4710,N,07726.8100,W,41.48,264.50,050923,,,A*4E
$GPGGA,160221.750,4308.4707,N,07726.8139,W,1,08,1.33,177.6,M,-34.4,M,,*56
$GPRMC,160222.000,A,4308.4704,N,07726.8179,W,41.63,264.28,050923,,,A*45
$GPGGA,160222.250,4308.4701,N,07726.8219,W,1,08,1.33,177.6,M,-34.4,M,,*57
$GPRMC,160222.500,A,4308.4699,N,07726.8260,W,42.14,264.82,050923,,,A*4D
$GPGGA,160222.750,4308.4697,N,07726.8300,W,1,08,1.33,177.6,M,-34.4,M,,*55
$GPRMC,160223.000,A,4308.4695,N,07726.8341,W,42.55,265.15,050923,,,A*4D
$GPGGA,160223.250,4308.4692,N,07726.8381,W,1,08,1.33,177.6,M,-34.4,M,,*5D
$GPRMC,160223.500,A,4308.4690,N,07726.8422,W,42.61,265.25,050923,,,A*4B
$GPGGA,160223.750,4308.4688,N,07726.8463,W,1,08,1.33,177.7,M,-34.4,M,,*59
$GPRMC,160224.000,A,4308.4685,N,07726.8504,W,42.83,264.87,050923,,,A*4D
$GPGGA,160224.250,4308.4683,N,07726.8545,W,1,08,1.33,177.7,M,-34.4,M,,*55
$GPRMC,160224.500,A,4308.4680,N,07726.8586,W,43.06,264.99,050923,,,A*44
$GPGGA,160224.750,4308.4678,N,07726.8627,W,1,08,1.33,177.0,M,-34.4,M,,*54
$GPRMC,160225.000,A,4308.4676,N,07726.8668,W,43.10,265.38,050923,,,A*47
$GPGGA,160225.250,4308.4673,N,07726.8710,W,1,08,1.33,176.6,M,-34.4,M,,*59
$GPRMC,160225.500,A,4308.4671,N,07726.8751,W,43.52,265.29,050923,,,A*48
$GPGGA,160225.750,4308.4669,N,07726.8793,W,1,08,1.33,176.4,M,-34.4,M,,*5E
$GPRMC,160226.000,A,4308.4667,N,07726.8834,W,43.53,265.57,050923,,,A*4D
$GPGGA,160226.250,4308.4665,N,07726.8875,W,1,08,1.33,175.9,M,-34.4,M,,*5D
$GPRMC,160226.500,A,4308.4662,N,07726.8917,W,43.58,265.74,050923,,,A*47
$GPGGA,160226.750,4308.4660,N,07726.8958,W,1,08,1.33,175.3,M,-34.4,M,,*59
$GPRMC,160227.000,A,4308.4658,N,07726.8999,W,43.54,265.79,050923,,,A*4D
$GPGGA,160227.250,4308.4656,N,07726.9040,W,1,08,1.33,174.8,M,-34.4,M,,*53
$GPRMC,160227.500,A,4308.4653,N,07726.9081,W,43.29,265.48,050923,,,A*4A
$GPGGA,160227.750,4308.4651,N,07726.9122,W,1,08,1.33,174.3,M,-34.4,M,,*5F
$GPRMC,160228.000,A,4308.4649,N,07726.9164,W,43.42,265.61,050923,,,A*47
$GPGGA,160228.250,4308.4646,N,07726.9205,W,1,08,1.33,173.9,M,-34.4,M,,*58
$GPRMC,160228.500,A,4308.4644,N,07726.9246,W,43.64,265.50,050923,,,A*4A
$GPGGA,160228.750,4308.4642,N,07726.9288,W,1,08,1.33,173.5,M,-34.4,M,,*50
$GPRMC,160229.000,A,4308.4639,N,07726.9329,W,43.58,265.12,050923,,,A*45
$GPGGA,160229.250,4308.4636,N,07726.9370,W,1,08,1.33,173.2,M,-34.4,M,,*56
$GPRMC,160229.500,A,4308.4634,N,07726.9411,W,43.49,265.10,050923,,,A*43
$GPGGA,160229.750,4308.4631,N,07726.9452,W,1,08,1.33,172.9,M,-34.4,M,,*59
$GPRMC,160230.000,A,4308.4628,N,07726.9492,W,43.26,264.77,050923,,,A*41
$GPGGA,160230.250,4308.4625,N,07726.9533,W,1,08,1.33,172.3,M,-34.4,M,,*5D
$GPRMC,160230.500,A,4308.4622,N,07726.9574,W,43.19,265.14,050923,,,A*4F
$GPGGA,160230.750,4308.4620,N,07726.9614,W,1,08,1.33,171.8,M,-34.4,M,,*53
$GPRMC,160231.000,A,4308.4617,N,07726.9655,W,43.20,265.02,050923,,,A*40
$GPGGA,160231.250,4308.4614,N,07726.9696,W,1,08,1.33,171.2,M,-34.4,M,,*50
$GPRMC,160231.500,A,4308.4612,N,07726.9736,W,43.15,265.14,050923,,,A*45
$GPGGA,160231.750,4308.4609,N,07726.9777,W,1,08,1.33,170.8,M,-34.4,M,,*5C
$GPRMC,160232.000,A,4308.4607,N,07726.9818,W,43.06,265.16,050923,,,A*44
$GPGGA,160232.250,4308.4604,N,07726.9859,W,1,08,1.33,170.2,M,-34.4,M,,*5E
$GPRMC,160232.500,A,4308.4602,N,07726.9899,W,42.94,265.30,050923,,,A*43
$GPGGA,160232.750,4308.4600,N,07726.9940,W,1,08,1.33,169.9,M,-34.4,M,,*55
$GPRMC,160233.000,A,4308.4598,N,07726.9981,W,42.92,266.14,050923,,,A*4C
$GPGGA,160233.250,4308.4596,N,07727.0022,W,1,08,1.33,169.5,M,-34.4,M,,*54
$GPRMC,160233.500,A,4308.4594,N,07727.0062,W,42.82,266.26,050923,,,A*49
$GPGGA,160233.750,4308.4592,N,07727.0103,W,1,08,1.33,169.0,M,-34.4,M,,*52
$GPRMC,160234.000,A,4308.4590,N,07727.0144,W,42.81,266.45,050923,,,A*4C
$GPGGA,160234.250,4308.4588,N,07727.0185,W,1,08,1.33,168.8,M,-34.4,M,,*5C
$GPRMC,160234.500,A,4308.4587,N,07727.0226,W,43.00,267.25,050923,,,A*47
$GPGGA,160234.750,4308.4586,N,07727.0266,W,1,08,1.33,168.7,M,-34.4,M,,*56
$GPRMC,160235.000,A,4308.4584,N,07727.0307,W,42.61,267.30,050923,,,A*40
$GPGGA,160235.250,4308.4583,N,07727.0347,W,1,08,1.33,168.5,M,-34.4,M,,*57
$GPRMC,160235.500,A,4308.4582,N,07727.0388,W,42.58,268.27,050923,,,A*47
$GPGGA,160235.750,4308.4582,N,07727.0429,W,1,08,1.33,168.4,M,-34.4,M,,*5D
$GPRMC,160236.000,A,4308.4582,N,07727.0470,W,42.71,269.48,050923,,,A*42
$GPGGA,160236.250,4308.4581,N,07727.0510,W,1,08,1.33,168.2,M,-34.4,M,,*55
$GPRMC,160236.500,A,4308.4581,N,07727.0551,W,42.73,269.97,050923,,,A*46
$GPGGA,160236.750,4308.4582,N,07727.0592,W,1,08,1.33,168.0,M,-34.4,M,,*5B
$GPRMC,160237.000,A,4308.4582,N,07727.0632,W,42.45,270.59,050923,,,A*48
$GPGGA,160237.250,4308.4583,N,07727.0673,W,1,08,1.24,167.9,M,-34.4,M,,*52
$GPRMC,160237.500,A,4308.4584,N,07727.0713,W,42.43,271.55,050923,,,A*42
$GPGGA,160237.750,4308.4586,N,07727.0753,W,1,08,1.24,167.7,M,-34.4,M,,*5F
$GPRMC,160238.000,A,4308.4588,N,07727.0794,W,42.37,272.34,050923,,,A*4C
$GPGGA,160238.250,4308.4590,N,07727.0834,W,1,08,1.24,167.5,M,-34.4,M,,*5E
$GPRMC,160238.500,A,4308.4592,N,07727.0875,W,42.36,273.71,050923,,,A*43
$GPGGA,160238.750,4308.4595,N,07727.0916,W,1,08,1.33,167.3,M,-34.4,M,,*5F
$GPRMC,160239.000,A,4308.4598,N,07727.0956,W,42.60,274.77,050923,,,A*4F
$GPGGA,160239.250,4308.4601,N,07727.0997,W,1,08,1.24,167.1,M,-34.4,M,,*58
$GPRMC,160239.500,A,4308.4604,N,07727.1037,W,42.41,275.46,050923,,,A*43
$GPGGA,160239.750,4308.4607,N,07727.1077,W,1,08,1.33,167.0,M,-34.4,M,,*5A
$GPRMC,160240.000,A,4308.4611,N,07727.1117,W,42.14,276.65,050923,,,A*4D
$GPGGA,160240.250,4308.4615,N,07727.1157,W,1,08,1.24,166.9,M,-34.4,M,,*5F
$GPRMC,160240.500,A,4308.4619,N,07727.1197,W,41.90,277.61,050923,,,A*42
$GPGGA,160240.750,4308.4624,N,07727.1236,W,1,08,1.33,166.9,M,-34.4,M,,*5A
$GPRMC,160241.000,A,4308.4629,N,07727.1276,W,42.08,278.56,050923,,,A*40
$GPGGA,160241.250,4308.4634,N,07727.1316,W,1,08,1.24,166.9,M,-34.4,M,,*5A
$GPRMC,160241.500,A,4308.4639,N,07727.1355,W,42.03,278.85,050923,,,A*41
$GPGGA,160241.750,4308.4643,N,07727.1395,W,1,08,1.33,167.0,M,-34.4,M,,*5A
$GPRMC,160242.000,A,4308.4648,N,07727.1434,W,41.73,279.02,050923,,,A*4B
$GPGGA,160242.250,4308.4654,N,07727.1473,W,1,08,1.24,167.0,M,-34.4,M,,*53
$GPRMC,160242.500,A,4308.4659,N,07727.1513,W,41.73,279.38,050923,,,A*43
$GPGGA,160242.750,4308.4664,N,07727.1552,W,1,08,1.33,167.1,M,-34.4,M,,*50
$GPRMC,160243.000,A,4308.4670,N,07727.1591,W,41.64,279.50,050923,,,A*4E
$GPGGA,160243.250,4308.4675,N,07727.1630,W,1,08,1.24,167.2,M,-34.4,M,,*56
$GPRMC,160243.500,A,4308.4681,N,07727.1670,W,41.67,279.62,050923,,,A*4B
$GPGGA,160243.750,4308.4686,N,07727.1710,W,1,08,1.24,167.3,M,-34.4,M,,*5D
$GPRMC,160244.000,A,4308.4691,N,07727.1749,W,41.91,279.62,050923,,,A*4A
$GPGGA,160244.250,4308.4697,N,07727.1788,W,1,08,1.24,167.4,M,-34.4,M,,*59
$GPRMC,160244.500,A,4308.4702,N,07727.1828,W,41.86,279.55,050923,,,A*4E
$GPGGA,160244.750,4308.4708,N,07727.1868,W,1,08,1.33,167.6,M,-34.4,M,,*5E
$GPRMC,160245.000,A,4308.4713,N,07727.1908,W,42.04,279.30,050923,,,A*43
$GPGGA,160245.250,4308.4719,N,07727.1948,W,1,08,1.24,167.8,M,-34.4,M,,*51
$GPRMC,160245.500,A,4308.4724,N,07727.1988,W,42.41,279.45,050923,,,A*49
$GPGGA,160245.750,4308.4730,N,07727.2028,W,1,08,1.33,167.9,M,-34.4,M,,*54
$GPRMC,160246.000,A,4308.4735,N,07727.2068,W,42.51,279.53,050923,,,A*4D
$GPGGA,160246.250,4308.4741,N,07727.2107,W,1,08,1.33,168.0,M,-34.4,M,,*5E
$GPRMC,160246.500,A,4308.4746,N,07727.2147,W,42.45,279.53,050923,,,A*45
$GPGGA,160246.750,4308.4750,N,07727.2186,W,1,08,1.33,168.1,M,-34.4,M,,*53
$GPRMC,160247.000,A,4308.4755,N,07727.2225,W,42.32,279.26,050923,,,A*46
$GPGGA,160247.250,4308.4760,N,07727.2265,W,1,08,1.24,168.2,M,-34.4,M,,*5F
$GPRMC,160247.500,A,4308.4765,N,07727.2305,W,42.42,279.27,050923,,,A*45
$GPGGA,160247.750,4308.4770,N,07727.2345,W,1,08,1.33,168.3,M,-34.4,M,,*5F
$GPRMC,160248.000,A,4308.4775,N,07727.2385,W,42.76,279.64,050923,,,A*46
$GPGGA,160248.250,4308.4781,N,07727.2426,W,1,08,1.24,168.4,M,-34.4,M,,*58
$GPRMC,160248.500,A,4308.4786,N,07727.2466,W,43.16,280.12,050923,,,A*45
$GPGGA,160248.750,4308.4791,N,07727.2507,W,1,08,1.33,168.5,M,-34.4,M,,*59
$GPRMC,160249.000,A,4308.4796,N,07727.2547,W,43.21,279.73,050923,,,A*47
$GPGGA,160249.250,4308.4801,N,07727.2588,W,1,08,1.24,168.5,M,-34.4,M,,*5A
$GPRMC,160249.500,A,4308.4805,N,07727.2627,W,42.90,279.36,050923,,,A*48
$GPGGA,160249.750,4308.4810,N,07727.2667,W,1,08,1.33,168.4,M,-34.4,M,,*5A
$GPRMC,160250.000,A,4308.4815,N,07727.2707,W,42.87,279.08,050923,,,A*4C
$GPGGA,160250.250,4308.4819,N,07727.2747,W,1,08,1.24,168.5,M,-34.4,M,,*5A
$GPRMC,160250.500,A,4308.4824,N,07727.2787,W,42.83,279.15,050923,,,A*4B
$GPGGA,160250.750,4308.4829,N,07727.2826,W,1,08,1.33,168.5,M,-34.4,M,,*52
$GPRMC,160251.000,A,4308.4834,N,07727.2866,W,42.75,279.25,050923,,,A*44
$GPGGA,160251.250,4308.4839,N,07727.2906,W,1,08,1.24,168.5,M,-34.4,M,,*52
$GPRMC,160251.500,A,4308.4844,N,07727.2946,W,42.67,279.09,050923,,,A*48
$GPGGA,160251.750,4308.4849,N,07727.2986,W,1,08,1.33,168.7,M,-34.4,M,,*5C
$GPRMC,160252.000,A,4308.4854,N,07727.3025,W,42.43,279.57,050923,,,A*4F
$GPGGA,160252.250,4308.4859,N,07727.3065,W,1,08,1.33,168.9,M,-34.4,M,,*50
$GPRMC,160252.500,A,4308.4864,N,07727.3106,W,42.63,280.46,050923,,,A*4D
$GPGGA,160252.750,4308.4870,N,07727.3146,W,1,08,1.33,169.2,M,-34.4,M,,*54
$GPRMC,160253.000,A,4308.4876,N,07727.3186,W,42.63,280.64,050923,,,A*42
$GPGGA,160253.250,4308.4881,N,07727.3226,W,1,08,1.24,169.4,M,-34.4,M,,*5B
$GPRMC,160253.500,A,4308.4886,N,07727.3266,W,42.61,280.49,050923,,,A*48
