Vers 81
USE_SERIAL_FEEDBACK=true
DEVELOPMENT_MODE=false
USE_RMC_ONLY=false

$GPRMC,012322.250,A,4308.3103,N,07726.2604,W,0.20,235.46,290823,,,A*77
$GPGGA,012322.500,4308.3102,N,07726.2604,W,1,06,1.30,165.0,M,-34.4,M,,*58
$GPRMC,012322.750,A,4308.3102,N,07726.2604,W,0.24,210.16,290823,,,A*75
$GPGGA,012323.000,4308.3102,N,07726.2604,W,1,06,1.30,165.0,M,-34.4,M,,*5C
$GPRMC,012323.250,A,4308.3102,N,07726.2604,W,0.23,211.86,290823,,,A*7E
$GPGGA,012323.500,4308.3103,N,07726.2604,W,1,06,1.30,165.0,M,-34.4,M,,*58
$GPRMC,012323.750,A,4308.3103,N,07726.2604,W,0.12,235.81,290823,,,A*79
$GPGGA,012324.000,4308.3104,N,07726.2603,W,1,06,1.30,164.9,M,-34.4,M,,*52
$GPRMC,012324.250,A,4308.3104,N,07726.2602,W,0.05,168.03,290823,,,A*7D
$GPGGA,012324.500,4308.3105,N,07726.2602,W,1,06,1.30,164.8,M,-34.4,M,,*56
$GPRMC,012324.750,A,4308.3105,N,07726.2603,W,0.04,325.44,290823,,,A*71
$GPGGA,012325.000,4308.3105,N,07726.2603,W,1,06,1.30,164.9,M,-34.4,M,,*52
$GPRMC,012325.250,A,4308.3105,N,07726.2603,W,0.14,187.45,290823,,,A*7F
$GPGGA,012325.500,4308.3103,N,07726.2603,W,1,06,1.30,165.0,M,-34.4,M,,*59
$GPRMC,012325.750,A,4308.3101,N,07726.2604,W,0.78,183.99,290823,,,A*76
$GPGGA,012326.000,4308.3098,N,07726.2604,W,1,06,1.30,165.1,M,-34.4,M,,*5A
$GPRMC,012326.250,A,4308.3095,N,07726.2609,W,1.44,191.02,290823,,,A*7E
$GPGGA,012326.500,4308.3091,N,07726.2610,W,1,07,1.27,165.0,M,-34.4,M,,*55
$GPRMC,012326.750,A,4308.3088,N,07726.2611,W,2.59,186.84,290823,,,A*79
$GPGGA,012327.000,4308.3085,N,07726.2612,W,1,07,1.27,164.7,M,-34.4,M,,*50
$GPRMC,012327.250,A,4308.3083,N,07726.2614,W,3.37,185.11,290823,,,A*75
$GPGGA,012327.500,4308.3079,N,07726.2615,W,1,07,1.27,164.3,M,-34.4,M,,*55
$GPRMC,012327.750,A,4308.3077,N,07726.2617,W,3.81,191.24,290823,,,A*76
$GPGGA,012328.000,4308.3074,N,07726.2619,W,1,07,1.27,163.9,M,-34.4,M,,*53
$GPRMC,012328.250,A,4308.3070,N,07726.2622,W,4.23,196.79,290823,,,A*7D
$GPGGA,012328.500,4308.3067,N,07726.2624,W,1,07,1.54,163.6,M,-34.4,M,,*51
$GPRMC,012328.750,A,4308.3063,N,07726.2625,W,4.49,191.81,290823,,,A*71
$GPGGA,012329.000,4308.3060,N,07726.2627,W,1,07,1.54,163.3,M,-34.4,M,,*54
$GPRMC,012329.250,A,4308.3057,N,07726.2629,W,4.34,193.88,290823,,,A*7F
$GPGGA,012329.500,4308.3055,N,07726.2630,W,1,07,1.54,163.1,M,-34.4,M,,*53
$GPRMC,012329.750,A,4308.3052,N,07726.2631,W,3.73,189.03,290823,,,A*7A
$GPGGA,012330.000,4308.3050,N,07726.2632,W,1,07,1.27,162.9,M,-34.4,M,,*54
$GPRMC,012330.250,A,4308.3048,N,07726.2633,W,3.19,190.52,290823,,,A*7E
$GPGGA,012330.500,4308.3046,N,07726.2634,W,1,07,1.27,162.8,M,-34.4,M,,*51
$GPRMC,012330.750,A,4308.3046,N,07726.2634,W,1.77,198.04,290823,,,A*73
$GPGGA,012331.000,4308.3046,N,07726.2635,W,1,07,1.27,162.8,M,-34.4,M,,*54
$GPRMC,012331.250,A,4308.3045,N,07726.2635,W,1.03,211.36,290823,,,A*75
$GPGGA,012331.500,4308.3046,N,07726.2635,W,1,07,1.27,162.8,M,-34.4,M,,*51
$GPRMC,012331.750,A,4308.3046,N,07726.2636,W,0.56,229.33,290823,,,A*7F
$GPGGA,012332.000,4308.3046,N,07726.2637,W,1,07,1.27,162.7,M,-34.4,M,,*5A
$GPRMC,012332.250,A,4308.3046,N,07726.2637,W,0.55,239.41,290823,,,A*7F
$GPGGA,012332.500,4308.3046,N,07726.2638,W,1,07,1.27,162.7,M,-34.4,M,,*50
$GPRMC,012332.750,A,4308.3046,N,07726.2638,W,0.44,236.19,290823,,,A*77
$GPGGA,012333.000,4308.3046,N,07726.2638,W,1,07,1.27,162.7,M,-34.4,M,,*54
$GPRMC,012333.250,A,4308.3046,N,07726.2638,W,0.36,245.73,290823,,,A*7E
$GPGGA,012333.500,4308.3046,N,07726.2639,W,1,07,1.27,162.6,M,-34.4,M,,*51
$GPRMC,012333.750,A,4308.3046,N,07726.2638,W,0.28,231.44,290823,,,A*73
$GPGGA,012334.000,4308.3046,N,07726.2638,W,1,07,1.27,162.6,M,-34.4,M,,*52
$GPRMC,012334.250,A,4308.3045,N,07726.2638,W,0.26,214.49,290823,,,A*76
$GPGGA,012334.500,4308.3046,N,07726.2638,W,1,07,1.27,162.6,M,-34.4,M,,*57
$GPRMC,012334.750,A,4308.3046,N,07726.2639,W,0.25,235.94,290823,,,A*71
$GPGGA,012335.000,4308.3046,N,07726.2639,W,1,07,1.27,162.6,M,-34.4,M,,*52
$GPRMC,012335.250,A,4308.3046,N,07726.2640,W,0.31,244.18,290823,,,A*7C
$GPGGA,012335.500,4308.3046,N,07726.2640,W,1,07,1.27,162.7,M,-34.4,M,,*58
$GPRMC,012335.750,A,4308.3046,N,07726.2640,W,0.32,246.22,290823,,,A*71
$GPGGA,012336.000,4308.3046,N,07726.2640,W,1,07,1.27,162.7,M,-34.4,M,,*5E
$GPRMC,012336.250,A,4308.3046,N,07726.2641,W,0.34,250.49,290823,,,A*7A
$GPGGA,012336.500,4308.3046,N,07726.2641,W,1,07,1.27,162.7,M,-34.4,M,,*5A
$GPRMC,012336.750,A,4308.3046,N,07726.2641,W,0.22,250.53,290823,,,A*73
$GPGGA,012337.000,4308.3046,N,07726.2641,W,1,07,1.27,162.7,M,-34.4,M,,*5E
$GPRMC,012337.250,A,4308.3046,N,07726.2641,W,0.14,251.53,290823,,,A*73
$GPGGA,012337.500,4308.3046,N,07726.2641,W,1,07,1.27,162.7,M,-34.4,M,,*5B
$GPRMC,012337.750,A,4308.3046,N,07726.2642,W,0.34,337.80,290823,,,A*78
$GPGGA,012338.000,4308.3046,N,07726.2642,W,1,07,1.27,162.7,M,-34.4,M,,*52
$GPRMC,012338.250,A,4308.3048,N,07726.2641,W,0.94,2.49,290823,,,A*75
$GPGGA,012338.500,4308.3052,N,07726.2640,W,1,07,1.54,162.6,M,-34.4,M,,*55
$GPRMC,012338.750,A,4308.3055,N,07726.2639,W,1.55,10.72,290823,,,A*44
$GPGGA,012339.000,4308.3057,N,07726.2637,W,1,07,1.54,162.6,M,-34.4,M,,*54
$GPRMC,012339.250,A,4308.3060,N,07726.2636,W,2.28,21.18,290823,,,A*4E
$GPGGA,012339.500,4308.3062,N,07726.2634,W,1,07,1.27,162.4,M,-34.4,M,,*52
$GPRMC,012339.750,A,4308.3065,N,07726.2633,W,3.12,20.00,290823,,,A*4B
$GPGGA,012340.000,4308.3067,N,07726.2632,W,1,07,1.27,162.4,M,-34.4,M,,*5A
$GPRMC,012340.250,A,4308.3070,N,07726.2631,W,3.76,12.84,290823,,,A*49
$GPGGA,012340.500,4308.3074,N,07726.2630,W,1,07,1.54,162.2,M,-34.4,M,,*5D
$GPRMC,012340.750,A,4308.3077,N,07726.2629,W,4.42,12.61,290823,,,A*49
$GPGGA,012341.000,4308.3081,N,07726.2628,W,1,07,1.54,162.0,M,-34.4,M,,*58
$GPRMC,012341.250,A,4308.3084,N,07726.2628,W,4.48,7.76,290823,,,A*78
$GPGGA,012341.500,4308.3087,N,07726.2627,W,1,07,1.54,161.9,M,-34.4,M,,*5E
$GPRMC,012341.750,A,4308.3088,N,07726.2627,W,3.07,11.58,290823,,,A*49
$GPGGA,012342.000,4308.3090,N,07726.2626,W,1,07,1.54,161.8,M,-34.4,M,,*5E
$GPRMC,012342.250,A,4308.3092,N,07726.2626,W,2.46,5.70,290823,,,A*7E
$GPGGA,012342.500,4308.3093,N,07726.2626,W,1,07,1.54,161.8,M,-34.4,M,,*58
$GPRMC,012342.750,A,4308.3095,N,07726.2626,W,2.05,10.84,290823,,,A*44
$GPGGA,012343.000,4308.3096,N,07726.2625,W,1,07,1.54,161.6,M,-34.4,M,,*54
$GPRMC,012343.250,A,4308.3097,N,07726.2625,W,1.31,19.04,290823,,,A*44
$GPGGA,012343.500,4308.3097,N,07726.2624,W,1,06,1.58,161.5,M,-34.4,M,,*5F
$GPRMC,012343.750,A,4308.3096,N,07726.2624,W,0.59,20.11,290823,,,A*40
$GPGGA,012344.000,4308.3096,N,07726.2624,W,1,06,1.58,161.4,M,-34.4,M,,*5D
$GPRMC,012344.250,A,4308.3096,N,07726.2625,W,0.35,10.04,290823,,,A*4E
$GPGGA,012344.500,4308.3096,N,07726.2625,W,1,06,1.72,161.3,M,-34.4,M,,*56
$GPRMC,012344.750,A,4308.3096,N,07726.2625,W,0.27,2.92,290823,,,A*74
$GPGGA,012345.000,4308.3096,N,07726.2625,W,1,06,1.72,161.2,M,-34.4,M,,*53
$GPRMC,012345.250,A,4308.3096,N,07726.2626,W,0.20,348.38,290823,,,A*79
$GPGGA,012345.500,4308.3096,N,07726.2626,W,1,06,1.72,161.2,M,-34.4,M,,*55
$GPRMC,012345.750,A,4308.3096,N,07726.2626,W,0.19,356.17,290823,,,A*74
$GPGGA,012346.000,4308.3096,N,07726.2626,W,1,06,1.72,161.1,M,-34.4,M,,*50
$GPRMC,012346.250,A,4308.3096,N,07726.2627,W,0.17,349.92,290823,,,A*7E
$GPGGA,012346.500,4308.3096,N,07726.2627,W,1,06,1.72,161.0,M,-34.4,M,,*55
$GPRMC,012346.750,A,4308.3096,N,07726.2627,W,0.20,352.05,290823,,,A*7B
$GPGGA,012347.000,4308.3096,N,07726.2628,W,1,06,1.72,160.8,M,-34.4,M,,*57
$GPRMC,012347.250,A,4308.3096,N,07726.2628,W,0.18,3.18,290823,,,A*70
$GPGGA,012347.500,4308.3096,N,07726.2628,W,1,06,1.72,160.7,M,-34.4,M,,*5D
$GPRMC,012347.750,A,4308.3096,N,07726.2628,W,0.20,15.65,290823,,,A*43
$GPGGA,012348.000,4308.3096,N,07726.2628,W,1,06,1.72,160.7,M,-34.4,M,,*57
$GPRMC,012348.250,A,4308.3096,N,07726.2628,W,0.16,14.15,290823,,,A*4A
$GPGGA,012348.500,4308.3096,N,07726.2628,W,1,07,1.54,160.7,M,-34.4,M,,*57
$GPRMC,012348.750,A,4308.3097,N,07726.2628,W,0.16,10.92,290823,,,A*45
$GPGGA,012349.000,4308.3097,N,07726.2628,W,1,06,1.58,160.7,M,-34.4,M,,*5F
$GPRMC,012349.250,A,4308.3097,N,07726.2628,W,0.12,337.52,290823,,,A*7F
$GPGGA,012349.500,4308.3097,N,07726.2628,W,1,07,1.27,160.7,M,-34.4,M,,*53
$GPRMC,012349.750,A,4308.3097,N,07726.2628,W,0.10,321.25,290823,,,A*7F
$GPGGA,012350.000,4308.3097,N,07726.2628,W,1,06,1.58,160.7,M,-34.4,M,,*57
$GPRMC,012350.250,A,4308.3097,N,07726.2628,W,0.12,309.16,290823,,,A*7A
$GPGGA,012350.500,4308.3097,N,07726.2628,W,1,06,1.58,160.7,M,-34.4,M,,*52
$GPRMC,012350.750,A,4308.3097,N,07726.2628,W,0.16,261.78,290823,,,A*7C
$GPGGA,012351.000,4308.3097,N,07726.2628,W,1,06,1.58,160.7,M,-34.4,M,,*56
$GPRMC,012351.250,A,4308.3097,N,07726.2629,W,0.17,261.06,290823,,,A*71
$GPGGA,012351.500,4308.3097,N,07726.2629,W,1,07,1.27,160.7,M,-34.4,M,,*5B
$GPRMC,012351.750,A,4308.3097,N,07726.2629,W,0.13,307.26,290823,,,A*73
$GPGGA,012352.000,4308.3097,N,07726.2629,W,1,07,1.27,160.7,M,-34.4,M,,*5D
$GPRMC,012352.250,A,4308.3097,N,07726.2629,W,0.24,359.48,290823,,,A*72
$GPGGA,012352.500,4308.3097,N,07726.2629,W,1,07,1.54,160.7,M,-34.4,M,,*5C
$GPRMC,012352.750,A,4308.3097,N,07726.2629,W,0.49,6.44,290823,,,A*79
$GPGGA,012353.000,4308.3098,N,07726.2629,W,1,07,1.54,160.7,M,-34.4,M,,*57
$GPRMC,012353.250,A,4308.3098,N,07726.2629,W,0.73,354.69,290823,,,A*70
$GPGGA,012353.500,4308.3100,N,07726.2629,W,1,07,1.54,160.6,M,-34.4,M,,*53
$GPRMC,012353.750,A,4308.3101,N,07726.2629,W,1.11,357.77,290823,,,A*7D
$GPGGA,012354.000,4308.3102,N,07726.2629,W,1,07,1.53,160.5,M,-34.4,M,,*57
$GPRMC,012354.250,A,4308.3104,N,07726.2629,W,1.36,358.94,290823,,,A*7D
$GPGGA,012354.500,4308.3105,N,07726.2629,W,1,07,1.54,160.4,M,-34.4,M,,*53
$GPRMC,012354.750,A,4308.3107,N,07726.2630,W,1.60,0.06,290823,,,A*75
$GPGGA,012355.000,4308.3108,N,07726.2630,W,1,07,1.54,160.4,M,-34.4,M,,*52
$GPRMC,012355.250,A,4308.3110,N,07726.2630,W,2.15,4.97,290823,,,A*7A
$GPGGA,012355.500,4308.3112,N,07726.2630,W,1,07,1.54,160.3,M,-34.4,M,,*5B
$GPRMC,012355.750,A,4308.3114,N,07726.2631,W,2.75,352.91,290823,,,A*7A
$GPGGA,012356.000,4308.3116,N,07726.2631,W,1,07,1.54,160.3,M,-34.4,M,,*58
$GPRMC,012356.250,A,4308.3119,N,07726.2631,W,3.19,356.82,290823,,,A*7C
$GPGGA,012356.500,4308.3121,N,07726.2631,W,1,07,1.54,160.2,M,-34.4,M,,*58
$GPRMC,012356.750,A,4308.3122,N,07726.2631,W,2.79,356.50,290823,,,A*79
$GPGGA,012357.000,4308.3124,N,07726.2630,W,1,07,1.54,160.0,M,-34.4,M,,*5A
$GPRMC,012357.250,A,4308.3126,N,07726.2630,W,2.74,352.60,290823,,,A*72
$GPGGA,012357.500,4308.3128,N,07726.2630,W,1,07,1.54,159.9,M,-34.4,M,,*50
$GPRMC,012357.750,A,4308.3130,N,07726.2631,W,2.78,337.57,290823,,,A*7A
$GPGGA,012358.000,4308.3132,N,07726.2632,W,1,07,1.27,159.7,M,-34.4,M,,*59
$GPRMC,012358.250,A,4308.3134,N,07726.2633,W,3.07,328.03,290823,,,A*70
$GPGGA,012358.500,4308.3137,N,07726.2634,W,1,07,1.27,159.5,M,-34.4,M,,*5D
$GPRMC,012358.750,A,4308.3139,N,07726.2635,W,3.31,330.33,290823,,,A*71
$GPGGA,012359.000,4308.3141,N,07726.2637,W,1,07,1.27,159.4,M,-34.4,M,,*5A
$GPRMC,012359.250,A,4308.3143,N,07726.2638,W,3.17,328.76,290823,,,A*79
$GPGGA,012359.500,4308.3145,N,07726.2640,W,1,07,1.27,159.4,M,-34.4,M,,*5B
$GPRMC,012359.750,A,4308.3147,N,07726.2641,W,3.14,319.17,290823,,,A*70
$GPGGA,012400.000,4308.3148,N,07726.2643,W,1,07,1.27,159.3,M,-34.4,M,,*5C
$GPRMC,012400.250,A,4308.3150,N,07726.2645,W,2.80,312.28,290823,,,A*77
$GPGGA,012400.500,4308.3150,N,07726.2646,W,1,07,1.27,159.3,M,-34.4,M,,*55
$GPRMC,012400.750,A,4308.3151,N,07726.2648,W,2.51,301.51,290823,,,A*7E
$GPGGA,012401.000,4308.3152,N,07726.2650,W,1,07,1.27,159.2,M,-34.4,M,,*55
$GPRMC,012401.250,A,4308.3153,N,07726.2651,W,2.06,292.84,290823,,,A*71
$GPGGA,012401.500,4308.3154,N,07726.2652,W,1,07,1.27,159.1,M,-34.4,M,,*57
$GPRMC,012401.750,A,4308.3154,N,07726.2652,W,1.14,304.16,290823,,,A*75
$GPGGA,012402.000,4308.3155,N,07726.2652,W,1,07,1.27,159.0,M,-34.4,M,,*51
$GPRMC,012402.250,A,4308.3154,N,07726.2651,W,0.31,290.84,290823,,,A*71
$GPGGA,012402.500,4308.3154,N,07726.2648,W,1,07,1.27,158.9,M,-34.4,M,,*56
$GPRMC,012402.750,A,4308.3154,N,07726.2645,W,0.89,106.23,290823,,,A*73
$GPGGA,012403.000,4308.3153,N,07726.2641,W,1,07,1.27,158.7,M,-34.4,M,,*52
$GPRMC,012403.250,A,4308.3153,N,07726.2637,W,1.95,103.86,290823,,,A*73
$GPGGA,012403.500,4308.3153,N,07726.2633,W,1,07,1.27,158.6,M,-34.4,M,,*53
$GPRMC,012403.750,A,4308.3152,N,07726.2628,W,4.17,96.41,290823,,,A*40
$GPGGA,012404.000,4308.3152,N,07726.2623,W,1,07,1.54,158.5,M,-34.4,M,,*56
$GPRMC,012404.250,A,4308.3152,N,07726.2616,W,5.86,95.67,290823,,,A*41
$GPGGA,012404.500,4308.3152,N,07726.2610,W,1,07,1.54,158.6,M,-34.4,M,,*50
$GPRMC,012404.750,A,4308.3152,N,07726.2602,W,7.10,92.24,290823,,,A*4C
$GPGGA,012405.000,4308.3152,N,07726.2595,W,1,07,1.54,158.6,M,-34.4,M,,*5A
$GPRMC,012405.250,A,4308.3153,N,07726.2586,W,8.25,90.09,290823,,,A*42
$GPGGA,012405.500,4308.3153,N,07726.2577,W,1,07,1.54,158.7,M,-34.4,M,,*53
$GPRMC,012405.750,A,4308.3154,N,07726.2567,W,9.62,87.11,290823,,,A*42
$GPGGA,012406.000,4308.3154,N,07726.2557,W,1,07,1.54,158.8,M,-34.4,M,,*5F
$GPRMC,012406.250,A,4308.3155,N,07726.2547,W,9.91,86.60,290823,,,A*4C
$GPGGA,012406.500,4308.3155,N,07726.2537,W,1,07,1.54,158.9,M,-34.4,M,,*5C
$GPRMC,012406.750,A,4308.3155,N,07726.2527,W,10.41,87.75,290823,,,A*7F
$GPGGA,012407.000,4308.3156,N,07726.2517,W,1,07,1.27,159.0,M,-34.4,M,,*55
$GPRMC,012407.250,A,4308.3156,N,07726.2506,W,11.00,88.17,290823,,,A*74
$GPGGA,012407.500,4308.3156,N,07726.2494,W,1,07,1.54,159.1,M,-34.4,M,,*5F
$GPRMC,012407.750,A,4308.3156,N,07726.2482,W,11.86,88.87,290823,,,A*7B
$GPGGA,012408.000,4308.3156,N,07726.2469,W,1,07,1.27,159.3,M,-34.4,M,,*51
$GPRMC,012408.250,A,4308.3157,N,07726.2457,W,12.52,88.97,290823,,,A*73
$GPGGA,012408.500,4308.3157,N,07726.2444,W,1,07,1.54,159.4,M,-34.4,M,,*59
$GPRMC,012408.750,A,4308.3156,N,07726.2431,W,13.19,89.48,290823,,,A*7A
$GPGGA,012409.000,4308.3156,N,07726.2417,W,1,07,1.27,159.5,M,-34.4,M,,*5F
$GPRMC,012409.250,A,4308.3157,N,07726.2402,W,13.89,89.38,290823,,,A*71
$GPGGA,012409.500,4308.3157,N,07726.2388,W,1,07,1.54,159.6,M,-34.4,M,,*5D
$GPRMC,012409.750,A,4308.3157,N,07726.2374,W,14.24,88.20,290823,,,A*7A
$GPGGA,012410.000,4308.3157,N,07726.2359,W,1,07,1.27,159.6,M,-34.4,M,,*58
$GPRMC,012410.250,A,4308.3158,N,07726.2345,W,14.73,87.69,290823,,,A*7A
$GPGGA,012410.500,4308.3158,N,07726.2329,W,1,07,1.54,159.6,M,-34.4,M,,*51
$GPRMC,012410.750,A,4308.3159,N,07726.2314,W,15.21,87.05,290823,,,A*76
$GPGGA,012411.000,4308.3159,N,07726.2298,W,1,07,1.27,159.7,M,-34.4,M,,*5A
$GPRMC,012411.250,A,4308.3159,N,07726.2283,W,15.48,86.87,290823,,,A*79
$GPGGA,012411.500,4308.3159,N,07726.2267,W,1,07,1.54,159.7,M,-34.4,M,,*5B
$GPRMC,012411.750,A,4308.3159,N,07726.2251,W,15.73,87.76,290823,,,A*74
$GPGGA,012412.000,4308.3159,N,07726.2235,W,1,07,1.27,159.8,M,-34.4,M,,*51
$GPRMC,012412.250,A,4308.3159,N,07726.2219,W,15.96,87.97,290823,,,A*7A
$GPGGA,012412.500,4308.3159,N,07726.2202,W,1,07,1.27,159.8,M,-34.4,M,,*50
$GPRMC,012412.750,A,4308.3159,N,07726.2186,W,16.22,88.04,290823,,,A*73
$GPGGA,012413.000,4308.3158,N,07726.2169,W,1,07,1.27,159.8,M,-34.4,M,,*5B
$GPRMC,012413.250,A,4308.3158,N,07726.2152,W,16.59,88.93,290823,,,A*7D
$GPGGA,012413.500,4308.3157,N,07726.2135,W,1,07,1.54,159.9,M,-34.4,M,,*5D
$GPRMC,012413.750,A,4308.3157,N,07726.2118,W,16.83,89.47,290823,,,A*76
$GPGGA,012414.000,4308.3157,N,07726.2102,W,1,07,1.27,160.0,M,-34.4,M,,*5C
$GPRMC,012414.250,A,4308.3156,N,07726.2085,W,17.11,89.66,290823,,,A*79
$GPGGA,012414.500,4308.3157,N,07726.2068,W,1,07,1.54,160.1,M,-34.4,M,,*51
$GPRMC,012414.750,A,4308.3157,N,07726.2051,W,17.46,89.33,290823,,,A*76
$GPGGA,012415.000,4308.3157,N,07726.2034,W,1,07,1.27,160.1,M,-34.4,M,,*58
$GPRMC,012415.250,A,4308.3157,N,07726.2018,W,17.42,89.21,290823,,,A*78
$GPGGA,012415.500,4308.3156,N,07726.2001,W,1,07,1.27,160.1,M,-34.4,M,,*5A
$GPRMC,012415.750,A,4308.3155,N,07726.1984,W,17.42,90.70,290823,,,A*7C
$GPGGA,012416.000,4308.3155,N,07726.1967,W,1,07,1.27,160.1,M,-34.4,M,,*55
$GPRMC,012416.250,A,4308.3154,N,07726.1951,W,17.21,91.27,290823,,,A*75
$GPGGA,012416.500,4308.3154,N,07726.1934,W,1,07,1.54,160.2,M,-34.4,M,,*50
$GPRMC,012416.750,A,4308.3153,N,07726.1918,W,17.04,91.52,290823,,,A*7F
$GPGGA,012417.000,4308.3152,N,07726.1901,W,1,07,1.27,160.2,M,-34.4,M,,*50
$GPRMC,012417.250,A,4308.3151,N,07726.1884,W,17.01,92.01,290823,,,A*7D
$GPGGA,012417.500,4308.3150,N,07726.1869,W,1,07,1.54,160.2,M,-34.4,M,,*5C
$GPRMC,012417.750,A,4308.3150,N,07726.1852,W,16.65,92.85,290823,,,A*7D
$GPGGA,012418.000,4308.3149,N,07726.1836,W,1,07,1.54,160.3,M,-34.4,M,,*55
$GPRMC,012418.250,A,4308.3149,N,07726.1819,W,16.37,92.67,290823,,,A*7B
$GPGGA,012418.500,4308.3148,N,07726.1804,W,1,07,1.54,160.3,M,-34.4,M,,*50
$GPRMC,012418.750,A,4308.3148,N,07726.1788,W,16.08,93.03,290823,,,A*77
$GPGGA,012419.000,4308.3148,N,07726.1772,W,1,07,1.27,160.4,M,-34.4,M,,*59
$GPRMC,012419.250,A,4308.3148,N,07726.1757,W,16.01,92.90,290823,,,A*73
$GPGGA,012419.500,4308.3147,N,07726.1741,W,1,07,1.54,160.4,M,-34.4,M,,*57
$GPRMC,012419.750,A,4308.3147,N,07726.1725,W,16.04,92.54,290823,,,A*71
$GPGGA,012420.000,4308.3147,N,07726.1709,W,1,07,1.27,160.5,M,-34.4,M,,*51
$GPRMC,012420.250,A,4308.3148,N,07726.1693,W,16.13,91.63,290823,,,A*7C
$GPGGA,012420.500,4308.3148,N,07726.1677,W,1,07,1.54,160.5,M,-34.4,M,,*57
$GPRMC,012420.750,A,4308.3148,N,07726.1661,W,16.25,90.86,290823,,,A*7B
$GPGGA,012421.000,4308.3148,N,07726.1646,W,1,07,1.54,160.5,M,-34.4,M,,*51
$GPRMC,012421.250,A,4308.3149,N,07726.1630,W,16.32,90.06,290823,,,A*74
$GPGGA,012421.500,4308.3150,N,07726.1614,W,1,07,1.27,160.6,M,-34.4,M,,*5D
$GPRMC,012421.750,A,4308.3150,N,07726.1599,W,16.35,88.62,290823,,,A*75
$GPGGA,012422.000,4308.3151,N,07726.1583,W,1,07,1.27,160.6,M,-34.4,M,,*57
$GPRMC,012422.250,A,4308.3152,N,07726.1568,W,16.29,86.81,290823,,,A*71
$GPGGA,012422.500,4308.3154,N,07726.1553,W,1,07,1.54,160.6,M,-34.4,M,,*5E
$GPRMC,012422.750,A,4308.3155,N,07726.1537,W,16.25,84.03,290823,,,A*7D
$GPGGA,012423.000,4308.3157,N,07726.1522,W,1,07,1.27,160.6,M,-34.4,M,,*5B
$GPRMC,012423.250,A,4308.3160,N,07726.1507,W,16.28,81.62,290823,,,A*73
$GPGGA,012423.500,4308.3163,N,07726.1492,W,1,07,1.54,160.6,M,-34.4,M,,*57
$GPRMC,012423.750,A,4308.3166,N,07726.1476,W,16.47,78.98,290823,,,A*7D
$GPGGA,012424.000,4308.3169,N,07726.1461,W,1,07,1.27,160.6,M,-34.4,M,,*57
$GPRMC,012424.250,A,4308.3172,N,07726.1445,W,16.52,76.02,290823,,,A*73
$GPGGA,012424.500,4308.3175,N,07726.1429,W,1,07,1.53,160.6,M,-34.4,M,,*50
$GPRMC,012424.750,A,4308.3179,N,07726.1413,W,16.66,74.30,290823,,,A*7A
$GPGGA,012425.000,4308.3182,N,07726.1398,W,1,07,1.27,160.7,M,-34.4,M,,*53
$GPRMC,012425.250,A,4308.3186,N,07726.1382,W,16.75,70.74,290823,,,A*77
$GPGGA,012425.500,4308.3190,N,07726.1367,W,1,07,1.54,160.6,M,-34.4,M,,*50
$GPRMC,012425.750,A,4308.3195,N,07726.1352,W,16.82,68.99,290823,,,A*7F
$GPGGA,012426.000,4308.3199,N,07726.1337,W,1,07,1.27,160.6,M,-34.4,M,,*5E
$GPRMC,012426.250,A,4308.3205,N,07726.1323,W,16.89,65.02,290823,,,A*71
$GPGGA,012426.500,4308.3211,N,07726.1309,W,1,07,1.54,160.5,M,-34.4,M,,*52
$GPRMC,012426.750,A,4308.3218,N,07726.1296,W,16.71,61.02,290823,,,A*74
$GPGGA,012427.000,4308.3224,N,07726.1282,W,1,07,1.27,160.4,M,-34.4,M,,*57
$GPRMC,012427.250,A,4308.3230,N,07726.1268,W,16.49,59.15,290823,,,A*7D
$GPGGA,012427.500,4308.3237,N,07726.1255,W,1,07,1.54,160.4,M,-34.4,M,,*5E
$GPRMC,012427.750,A,4308.3244,N,07726.1242,W,16.20,56.38,290823,,,A*7C
$GPGGA,012428.000,4308.3251,N,07726.1230,W,1,07,1.54,160.3,M,-34.4,M,,*50
$GPRMC,012428.250,A,4308.3261,N,07726.1220,W,16.20,51.16,290823,,,A*7E
$GPGGA,012428.500,4308.3271,N,07726.1210,W,1,07,1.54,160.3,M,-34.4,M,,*55
$GPRMC,012428.750,A,4308.3282,N,07726.1201,W,16.28,44.76,290823,,,A*7F
$GPGGA,012429.000,4308.3292,N,07726.1192,W,1,07,1.27,160.3,M,-34.4,M,,*51
$GPRMC,012429.250,A,4308.3301,N,07726.1182,W,16.50,41.52,290823,,,A*75
$GPGGA,012429.500,4308.3310,N,07726.1172,W,1,07,1.54,160.2,M,-34.4,M,,*54
$GPRMC,012429.750,A,4308.3320,N,07726.1163,W,16.48,39.69,290823,,,A*72
$GPGGA,012430.000,4308.3329,N,07726.1154,W,1,07,1.27,160.1,M,-34.4,M,,*50
$GPRMC,012430.250,A,4308.3338,N,07726.1145,W,16.44,37.27,290823,,,A*7A
$GPGGA,012430.500,4308.3348,N,07726.1137,W,1,07,1.54,160.0,M,-34.4,M,,*52
$GPRMC,012430.750,A,4308.3360,N,07726.1132,W,16.39,31.54,290823,,,A*7A
$GPGGA,012431.000,4308.3374,N,07726.1131,W,1,07,1.27,160.1,M,-34.4,M,,*5A
$GPRMC,012431.250,A,4308.3386,N,07726.1127,W,16.65,22.67,290823,,,A*79
$GPGGA,012431.500,4308.3399,N,07726.1125,W,1,07,1.27,160.3,M,-34.4,M,,*5B
$GPRMC,012431.750,A,4308.3411,N,07726.1122,W,16.95,16.67,290823,,,A*78
$GPGGA,012432.000,4308.3424,N,07726.1121,W,1,07,1.27,160.5,M,-34.4,M,,*5E
$GPRMC,012432.250,A,4308.3438,N,07726.1120,W,17.68,11.32,290823,,,A*73
$GPGGA,012432.500,4308.3452,N,07726.1120,W,1,07,1.53,160.6,M,-34.4,M,,*5B
$GPRMC,012432.750,A,4308.3465,N,07726.1119,W,18.17,7.53,290823,,,A*43
$GPGGA,012433.000,4308.3478,N,07726.1119,W,1,07,1.54,160.8,M,-34.4,M,,*54
$GPRMC,012433.250,A,4308.3492,N,07726.1119,W,18.41,4.75,290823,,,A*4B
$GPGGA,012433.500,4308.3505,N,07726.1119,W,1,07,1.53,160.9,M,-34.4,M,,*5C
$GPRMC,012433.750,A,4308.3518,N,07726.1119,W,18.50,3.24,290823,,,A*4E
$GPGGA,012434.000,4308.3531,N,07726.1120,W,1,07,1.54,160.9,M,-34.4,M,,*54
$GPRMC,012434.250,A,4308.3546,N,07726.1120,W,19.14,2.04,290823,,,A*4F
$GPGGA,012434.500,4308.3560,N,07726.1121,W,1,07,1.54,160.9,M,-34.4,M,,*54
$GPRMC,012434.750,A,4308.3575,N,07726.1121,W,19.89,1.37,290823,,,A*4C
$GPGGA,012435.000,4308.3589,N,07726.1121,W,1,07,1.54,160.9,M,-34.4,M,,*57
$GPRMC,012435.250,A,4308.3604,N,07726.1122,W,20.14,0.96,290823,,,A*4A
$GPGGA,012435.500,4308.3618,N,07726.1122,W,1,07,1.54,161.0,M,-34.4,M,,*52
$GPRMC,012435.750,A,4308.3633,N,07726.1122,W,20.47,0.86,290823,,,A*4C
$GPGGA,012436.000,4308.3648,N,07726.1123,W,1,07,1.53,161.2,M,-34.4,M,,*55
$GPRMC,012436.250,A,4308.3663,N,07726.1124,W,20.59,0.20,290823,,,A*4A
$GPGGA,012436.500,4308.3678,N,07726.1125,W,1,07,1.54,161.3,M,-34.4,M,,*53
$GPRMC,012436.750,A,4308.3693,N,07726.1125,W,20.66,359.56,290823,,,A*43
$GPGGA,012437.000,4308.3708,N,07726.1126,W,1,07,1.54,161.4,M,-34.4,M,,*55
$GPRMC,012437.250,A,4308.3723,N,07726.1126,W,20.73,359.42,290823,,,A*4F
$GPGGA,012437.500,4308.3738,N,07726.1127,W,1,07,1.54,161.5,M,-34.4,M,,*53
$GPRMC,012437.750,A,4308.3752,N,07726.1127,W,20.75,359.69,290823,,,A*42
$GPGGA,012438.000,4308.3768,N,07726.1128,W,1,07,1.54,161.6,M,-34.4,M,,*50
$GPRMC,012438.250,A,4308.3783,N,07726.1128,W,21.14,0.16,290823,,,A*4A
$GPGGA,012438.500,4308.3798,N,07726.1128,W,1,07,1.54,161.6,M,-34.4,M,,*5A
$GPRMC,012438.750,A,4308.3813,N,07726.1128,W,21.16,0.53,290823,,,A*4A
$GPGGA,012439.000,4308.3828,N,07726.1128,W,1,07,1.54,161.6,M,-34.4,M,,*5A
$GPRMC,012439.250,A,4308.3843,N,07726.1128,W,21.12,0.82,290823,,,A*43
$GPGGA,012439.500,4308.3857,N,07726.1128,W,1,07,1.53,161.6,M,-34.4,M,,*50
$GPRMC,012439.750,A,4308.3872,N,07726.1128,W,20.74,359.93,290823,,,A*4A
$GPGGA,012440.000,4308.3886,N,07726.1128,W,1,07,1.54,161.5,M,-34.4,M,,*53
$GPRMC,012440.250,A,4308.3901,N,07726.1128,W,20.66,0.24,290823,,,A*44
$GPGGA,012440.500,4308.3915,N,07726.1128,W,1,07,1.54,161.5,M,-34.4,M,,*5D
$GPRMC,012440.750,A,4308.3929,N,07726.1128,W,20.30,0.57,290823,,,A*4C
$GPGGA,012441.000,4308.3944,N,07726.1128,W,1,07,1.54,161.6,M,-34.4,M,,*5E
$GPRMC,012441.250,A,4308.3958,N,07726.1127,W,20.03,0.93,290823,,,A*49
$GPGGA,012441.500,4308.3973,N,07726.1127,W,1,07,1.54,161.5,M,-34.4,M,,*53
$GPRMC,012441.750,A,4308.3987,N,07726.1126,W,19.67,1.18,290823,,,A*45
$GPGGA,012442.000,4308.4001,N,07726.1124,W,1,07,1.54,161.4,M,-34.4,M,,*5C
$GPRMC,012442.250,A,4308.4015,N,07726.1124,W,19.25,1.21,290823,,,A*48
$GPGGA,012442.500,4308.4029,N,07726.1122,W,1,07,1.54,161.3,M,-34.4,M,,*52
$GPRMC,012442.750,A,4308.4042,N,07726.1122,W,18.59,0.99,290823,,,A*41
$GPGGA,012443.000,4308.4055,N,07726.1122,W,1,07,1.53,161.3,M,-34.4,M,,*5A
$GPRMC,012443.250,A,4308.4069,N,07726.1122,W,17.98,359.04,290823,,,A*45
$GPGGA,012443.500,4308.4081,N,07726.1122,W,1,07,1.54,161.2,M,-34.4,M,,*50
$GPRMC,012443.750,A,4308.4093,N,07726.1122,W,17.07,358.97,290823,,,A*48
$GPGGA,012444.000,4308.4105,N,07726.1122,W,1,07,1.54,161.2,M,-34.4,M,,*5F
$GPRMC,012444.250,A,4308.4116,N,07726.1122,W,16.58,358.99,290823,,,A*43
$GPGGA,012444.500,4308.4127,N,07726.1122,W,1,07,1.54,161.3,M,-34.4,M,,*5B
$GPRMC,012444.750,A,4308.4138,N,07726.1122,W,15.92,359.88,290823,,,A*4E
$GPGGA,012445.000,4308.4150,N,07726.1123,W,1,07,1.54,161.4,M,-34.4,M,,*59
$GPRMC,012445.250,A,4308.4161,N,07726.1123,W,15.80,0.12,290823,,,A*48
$GPGGA,012445.500,4308.4171,N,07726.1123,W,1,07,1.54,161.5,M,-34.4,M,,*5E
$GPRMC,012445.750,A,4308.4182,N,07726.1123,W,15.35,0.84,290823,,,A*41
$GPGGA,012446.000,4308.4192,N,07726.1122,W,1,07,1.54,161.6,M,-34.4,M,,*57
$GPRMC,012446.250,A,4308.4202,N,07726.1122,W,15.10,1.01,290823,,,A*46
$GPGGA,012446.500,4308.4211,N,07726.1121,W,1,07,1.54,161.7,M,-34.4,M,,*58
$GPRMC,012446.750,A,4308.4220,N,07726.1121,W,14.30,1.03,290823,,,A*41
$GPGGA,012447.000,4308.4230,N,07726.1120,W,1,07,1.54,161.7,M,-34.4,M,,*5E
$GPRMC,012447.250,A,4308.4239,N,07726.1120,W,13.80,0.73,290823,,,A*46
$GPGGA,012447.500,4308.4248,N,07726.1120,W,1,07,1.54,161.7,M,-34.4,M,,*54
$GPRMC,012447.750,A,4308.4257,N,07726.1119,W,13.23,1.00,290823,,,A*4D
$GPGGA,012448.000,4308.4266,N,07726.1119,W,1,07,1.54,161.8,M,-34.4,M,,*57
$GPRMC,012448.250,A,4308.4274,N,07726.1118,W,12.54,1.60,290823,,,A*40
$GPGGA,012448.500,4308.4282,N,07726.1115,W,1,07,1.53,161.4,M,-34.4,M,,*5F
$GPRMC,012448.750,A,4308.4290,N,07726.1113,W,11.98,3.41,290823,,,A*46
$GPGGA,012449.000,4308.4298,N,07726.1111,W,1,07,1.54,161.0,M,-34.4,M,,*57
$GPRMC,012449.250,A,4308.4306,N,07726.1110,W,11.11,4.56,290823,,,A*4F
$GPGGA,012449.500,4308.4312,N,07726.1108,W,1,07,1.54,160.8,M,-34.4,M,,*50
$GPRMC,012449.750,A,4308.4318,N,07726.1107,W,9.66,7.72,290823,,,A*7F
$GPGGA,012450.000,4308.4324,N,07726.1106,W,1,07,1.54,160.8,M,-34.4,M,,*56
$GPRMC,012450.250,A,4308.4329,N,07726.1105,W,8.71,9.37,290823,,,A*7A
$GPGGA,012450.500,4308.4334,N,07726.1103,W,1,07,1.54,160.8,M,-34.4,M,,*57
$GPRMC,012450.750,A,4308.4339,N,07726.1101,W,8.15,14.30,290823,,,A*43
$GPGGA,012451.000,4308.4343,N,07726.1099,W,1,07,1.54,160.7,M,-34.4,M,,*5E
$GPRMC,012451.250,A,4308.4346,N,07726.1097,W,6.65,16.05,290823,,,A*4C
$GPGGA,012451.500,4308.4350,N,07726.1095,W,1,07,1.54,160.6,M,-34.4,M,,*54
$GPRMC,012451.750,A,4308.4354,N,07726.1091,W,7.07,24.45,290823,,,A*4C
$GPGGA,012452.000,4308.4358,N,07726.1087,W,1,07,1.53,160.2,M,-34.4,M,,*5A
$GPRMC,012452.250,A,4308.4362,N,07726.1082,W,7.79,32.94,290823,,,A*4F
$GPGGA,012452.500,4308.4365,N,07726.1077,W,1,07,1.54,159.8,M,-34.4,M,,*59
$GPRMC,012452.750,A,4308.4369,N,07726.1071,W,8.60,43.68,290823,,,A*4F
$GPGGA,012453.000,4308.4373,N,07726.1065,W,1,07,1.27,159.6,M,-34.4,M,,*53
$GPRMC,012453.250,A,4308.4376,N,07726.1057,W,9.59,50.93,290823,,,A*4C
$GPGGA,012453.500,4308.4380,N,07726.1049,W,1,07,1.53,159.6,M,-34.4,M,,*57
$GPRMC,012453.750,A,4308.4384,N,07726.1041,W,10.20,56.84,290823,,,A*75
$GPGGA,012454.000,4308.4387,N,07726.1032,W,1,07,1.54,159.8,M,-34.4,M,,*57
$GPRMC,012454.250,A,4308.4390,N,07726.1021,W,11.11,61.72,290823,,,A*7A
$GPGGA,012454.500,4308.4393,N,07726.1010,W,1,07,1.54,160.0,M,-34.4,M,,*55
$GPRMC,012454.750,A,4308.4396,N,07726.0998,W,12.60,66.39,290823,,,A*7E
$GPGGA,012455.000,4308.4398,N,07726.0985,W,1,07,1.27,160.0,M,-34.4,M,,*5A
$GPRMC,012455.250,A,4308.4400,N,07726.0971,W,13.78,69.43,290823,,,A*7F
$GPGGA,012455.500,4308.4403,N,07726.0957,W,1,07,1.54,159.9,M,-34.4,M,,*52
$GPRMC,012455.750,A,4308.4404,N,07726.0942,W,14.87,72.11,290823,,,A*74
$GPGGA,012456.000,4308.4406,N,07726.0927,W,1,07,1.54,159.7,M,-34.4,M,,*58
$GPRMC,012456.250,A,4308.4408,N,07726.0911,W,16.17,73.35,290823,,,A*74
$GPGGA,012456.500,4308.4410,N,07726.0893,W,1,07,1.53,159.5,M,-34.4,M,,*51
$GPRMC,012456.750,A,4308.4412,N,07726.0876,W,17.68,73.77,290823,,,A*75
$GPGGA,012457.000,4308.4415,N,07726.0858,W,1,07,1.53,159.4,M,-34.4,M,,*56
$GPRMC,012457.250,A,4308.4417,N,07726.0839,W,19.27,74.18,290823,,,A*74
$GPGGA,012457.500,4308.4420,N,07726.0819,W,1,07,1.53,159.4,M,-34.4,M,,*50
$GPRMC,012457.750,A,4308.4422,N,07726.0800,W,20.33,75.28,290823,,,A*70
$GPGGA,012458.000,4308.4424,N,07726.0779,W,1,07,1.54,159.4,M,-34.4,M,,*50
$GPRMC,012458.250,A,4308.4427,N,07726.0758,W,21.34,76.01,290823,,,A*73
$GPGGA,012458.500,4308.4429,N,07726.0737,W,1,07,1.53,159.5,M,-34.4,M,,*54
$GPRMC,012458.750,A,4308.4432,N,07726.0715,W,22.41,75.58,290823,,,A*75
$GPGGA,012459.000,4308.4435,N,07726.0693,W,1,06,1.46,159.8,M,-34.4,M,,*5A
$GPRMC,012459.250,A,4308.4438,N,07726.0670,W,23.03,75.01,290823,,,A*72
$GPGGA,012459.500,4308.4442,N,07726.0647,W,1,07,1.54,160.2,M,-34.4,M,,*54
$GPRMC,012459.750,A,4308.4446,N,07726.0625,W,23.64,74.62,290823,,,A*7B
$GPGGA,012500.000,4308.4450,N,07726.0602,W,1,06,1.46,160.4,M,-34.4,M,,*5A
$GPRMC,012500.250,A,4308.4454,N,07726.0579,W,24.14,74.08,290823,,,A*76
$GPGGA,012500.500,4308.4459,N,07726.0554,W,1,06,2.25,160.7,M,-34.4,M,,*53
$GPRMC,012500.750,A,4308.4463,N,07726.0531,W,24.83,73.86,290823,,,A*74
$GPGGA,012501.000,4308.4468,N,07726.0506,W,1,06,1.46,161.0,M,-34.4,M,,*52
$GPRMC,012501.250,A,4308.4472,N,07726.0482,W,25.24,73.37,290823,,,A*7F
$GPGGA,012501.500,4308.4477,N,07726.0457,W,1,07,1.27,161.2,M,-34.4,M,,*58
$GPRMC,012501.750,A,4308.4483,N,07726.0433,W,25.79,72.71,290823,,,A*75
$GPGGA,012502.000,4308.4487,N,07726.0407,W,1,07,1.27,161.3,M,-34.4,M,,*55
$GPRMC,012502.250,A,4308.4493,N,07726.0382,W,26.30,72.03,290823,,,A*74
$GPGGA,012502.500,4308.4499,N,07726.0357,W,1,07,1.53,161.5,M,-34.4,M,,*58
$GPRMC,012502.750,A,4308.4504,N,07726.0331,W,26.36,71.55,290823,,,A*70
$GPGGA,012503.000,4308.4509,N,07726.0306,W,1,07,1.27,161.8,M,-34.4,M,,*5E
$GPRMC,012503.250,A,4308.4515,N,07726.0282,W,26.55,71.84,290823,,,A*74
$GPGGA,012503.500,4308.4521,N,07726.0257,W,1,07,1.53,162.1,M,-34.4,M,,*5D
$GPRMC,012503.750,A,4308.4526,N,07726.0231,W,26.76,71.48,290823,,,A*78
$GPGGA,012504.000,4308.4532,N,07726.0207,W,1,07,1.27,162.5,M,-34.4,M,,*5F
$GPRMC,012504.250,A,4308.4538,N,07726.0182,W,26.82,70.84,290823,,,A*74
$GPGGA,012504.500,4308.4545,N,07726.0158,W,1,07,1.53,163.0,M,-34.4,M,,*54
$GPRMC,012504.750,A,4308.4551,N,07726.0134,W,26.85,68.66,290823,,,A*71
$GPGGA,012505.000,4308.4557,N,07726.0111,W,1,07,1.27,163.4,M,-34.4,M,,*59
$GPRMC,012505.250,A,4308.4565,N,07726.0088,W,26.89,66.20,290823,,,A*74
$GPGGA,012505.500,4308.4572,N,07726.0065,W,1,07,1.53,164.0,M,-34.4,M,,*59
$GPRMC,012505.750,A,4308.4580,N,07726.0043,W,27.09,63.83,290823,,,A*78
$GPGGA,012506.000,4308.4589,N,07726.0020,W,1,07,1.27,164.5,M,-34.4,M,,*5C
$GPRMC,012506.250,A,4308.4598,N,07725.9998,W,27.12,61.00,290823,,,A*71
$GPGGA,012506.500,4308.4607,N,07725.9976,W,1,07,1.54,164.8,M,-34.4,M,,*55
$GPRMC,012506.750,A,4308.4617,N,07725.9955,W,27.11,58.34,290823,,,A*7F
$GPGGA,012507.000,4308.4627,N,07725.9933,W,1,07,1.53,165.1,M,-34.4,M,,*5D
$GPRMC,012507.250,A,4308.4638,N,07725.9911,W,27.17,56.16,290823,,,A*7E
$GPGGA,012507.500,4308.4650,N,07725.9890,W,1,07,1.54,165.3,M,-34.4,M,,*55
$GPRMC,012507.750,A,4308.4662,N,07725.9869,W,28.18,51.79,290823,,,A*74
$GPGGA,012508.000,4308.4675,N,07725.9848,W,1,07,1.27,165.3,M,-34.4,M,,*59
$GPRMC,012508.250,A,4308.4688,N,07725.9827,W,28.35,49.20,290823,,,A*7A
$GPGGA,012508.500,4308.4701,N,07725.9806,W,1,07,1.53,165.3,M,-34.4,M,,*57
$GPRMC,012508.750,A,4308.4716,N,07725.9786,W,29.54,46.34,290823,,,A*71
$GPGGA,012509.000,4308.4730,N,07725.9765,W,1,07,1.54,165.2,M,-34.4,M,,*5D
$GPRMC,012509.250,A,4308.4745,N,07725.9744,W,30.07,45.24,290823,,,A*71
$GPGGA,012509.500,4308.4758,N,07725.9723,W,1,07,1.54,165.0,M,-34.4,M,,*56
$GPRMC,012509.750,A,4308.4773,N,07725.9701,W,30.33,46.71,290823,,,A*74
$GPGGA,012510.000,4308.4787,N,07725.9680,W,1,07,1.54,164.8,M,-34.4,M,,*58
$GPRMC,012510.250,A,4308.4802,N,07725.9659,W,30.57,46.49,290823,,,A*75
$GPGGA,012510.500,4308.4817,N,07725.9637,W,1,07,1.54,164.6,M,-34.4,M,,*59
$GPRMC,012510.750,A,4308.4832,N,07725.9615,W,30.79,45.68,290823,,,A*77
$GPGGA,012511.000,4308.4847,N,07725.9594,W,1,07,1.54,164.5,M,-34.4,M,,*51
$GPRMC,012511.250,A,4308.4862,N,07725.9573,W,30.95,44.94,290823,,,A*75
$GPGGA,012511.500,4308.4877,N,07725.9551,W,1,07,1.53,164.4,M,-34.4,M,,*58
$GPRMC,012511.750,A,4308.4892,N,07725.9531,W,30.88,44.02,290823,,,A*7A
$GPGGA,012512.000,4308.4908,N,07725.9510,W,1,07,1.53,164.4,M,-34.4,M,,*52
$GPRMC,012512.250,A,4308.4923,N,07725.9489,W,30.85,43.98,290823,,,A*7C
$GPGGA,012512.500,4308.4939,N,07725.9468,W,1,07,1.54,164.4,M,-34.4,M,,*5C
$GPRMC,012512.750,A,4308.4954,N,07725.9448,W,30.81,43.98,290823,,,A*70
$GPGGA,012513.000,4308.4970,N,07725.9427,W,1,07,1.53,164.5,M,-34.4,M,,*58
$GPRMC,012513.250,A,4308.4985,N,07725.9407,W,30.75,43.61,290823,,,A*7E
$GPGGA,012513.500,4308.5001,N,07725.9386,W,1,07,1.54,164.6,M,-34.4,M,,*5B
$GPRMC,012513.750,A,4308.5016,N,07725.9365,W,30.81,43.80,290823,,,A*7E
$GPGGA,012514.000,4308.5032,N,07725.9345,W,1,07,1.53,164.7,M,-34.4,M,,*50
$GPRMC,012514.250,A,4308.5048,N,07725.9324,W,31.04,43.80,290823,,,A*7E
$GPGGA,012514.500,4308.5063,N,07725.9302,W,1,07,1.53,164.8,M,-34.4,M,,*5D
$GPRMC,012514.750,A,4308.5079,N,07725.9282,W,31.35,43.61,290823,,,A*79
$GPGGA,012515.000,4308.5095,N,07725.9261,W,1,07,1.53,165.0,M,-34.4,M,,*5D
$GPRMC,012515.250,A,4308.5111,N,07725.9240,W,31.43,43.48,290823,,,A*76
$GPGGA,012515.500,4308.5127,N,07725.9219,W,1,07,1.53,165.2,M,-34.4,M,,*5D
$GPRMC,012515.750,A,4308.5142,N,07725.9198,W,31.53,44.09,290823,,,A*70
$GPGGA,012516.000,4308.5158,N,07725.9176,W,1,07,1.53,165.5,M,-34.4,M,,*5E
$GPRMC,012516.250,A,4308.5173,N,07725.9155,W,31.55,44.72,290823,,,A*7F
$GPGGA,012516.500,4308.5189,N,07725.9134,W,1,07,1.53,165.9,M,-34.4,M,,*5D
$GPRMC,012516.750,A,4308.5204,N,07725.9112,W,31.51,44.57,290823,,,A*79
$GPGGA,012517.000,4308.5219,N,07725.9091,W,1,07,1.54,166.3,M,-34.4,M,,*53
$GPRMC,012517.250,A,4308.5235,N,07725.9069,W,31.55,44.14,290823,,,A*71
$GPGGA,012517.500,4308.5251,N,07725.9048,W,1,07,1.53,166.6,M,-34.4,M,,*5C
$GPRMC,012517.750,A,4308.5267,N,07725.9027,W,31.59,43.68,290823,,,A*79
$GPGGA,012518.000,4308.5283,N,07725.9005,W,1,07,1.53,166.8,M,-34.4,M,,*5E
$GPRMC,012518.250,A,4308.5298,N,07725.8984,W,31.57,43.73,290823,,,A*76
$GPGGA,012518.500,4308.5314,N,07725.8963,W,1,07,1.53,167.0,M,-34.4,M,,*55
$GPRMC,012518.750,A,4308.5329,N,07725.8941,W,31.51,43.73,290823,,,A*77
$GPGGA,012519.000,4308.5345,N,07725.8920,W,1,07,1.53,167.2,M,-34.4,M,,*50
$GPRMC,012519.250,A,4308.5360,N,07725.8899,W,31.50,43.74,290823,,,A*7C
$GPGGA,012519.500,4308.5375,N,07725.8877,W,1,07,1.53,167.3,M,-34.4,M,,*54
$GPRMC,012519.750,A,4308.5390,N,07725.8855,W,31.20,44.72,290823,,,A*70
$GPGGA,012520.000,4308.5405,N,07725.8834,W,1,07,1.54,167.5,M,-34.4,M,,*5D
$GPRMC,012520.250,A,4308.5419,N,07725.8813,W,31.01,44.96,290823,,,A*72
$GPGGA,012520.500,4308.5434,N,07725.8791,W,1,07,1.53,167.7,M,-34.4,M,,*5F
$GPRMC,012520.750,A,4308.5448,N,07725.8771,W,30.25,45.11,290823,,,A*71
$GPGGA,012521.000,4308.5463,N,07725.8750,W,1,07,1.53,167.8,M,-34.4,M,,*5B
$GPRMC,012521.250,A,4308.5477,N,07725.8729,W,29.98,45.58,290823,,,A*77
$GPGGA,012521.500,4308.5490,N,07725.8707,W,1,07,1.54,167.8,M,-34.4,M,,*57
$GPRMC,012521.750,A,4308.5504,N,07725.8686,W,29.86,47.32,290823,,,A*72
$GPGGA,012522.000,4308.5518,N,07725.8665,W,1,07,1.53,167.8,M,-34.4,M,,*52
$GPRMC,012522.250,A,4308.5531,N,07725.8644,W,29.82,46.95,290823,,,A*74
$GPGGA,012522.500,4308.5545,N,07725.8622,W,1,07,1.53,167.8,M,-34.4,M,,*5C
$GPRMC,012522.750,A,4308.5558,N,07725.8601,W,29.72,47.07,290823,,,A*7A
$GPGGA,012523.000,4308.5572,N,07725.8581,W,1,07,1.53,167.9,M,-34.4,M,,*57
$GPRMC,012523.250,A,4308.5586,N,07725.8560,W,29.41,46.36,290823,,,A*7A
$GPGGA,012523.500,4308.5600,N,07725.8539,W,1,07,1.54,168.0,M,-34.4,M,,*56
$GPRMC,012523.750,A,4308.5614,N,07725.8519,W,29.40,46.21,290823,,,A*7E
$GPGGA,012524.000,4308.5628,N,07725.8498,W,1,07,1.54,168.1,M,-34.4,M,,*55
$GPRMC,012524.250,A,4308.5642,N,07725.8478,W,29.64,46.47,290823,,,A*7F
$GPGGA,012524.500,4308.5656,N,07725.8457,W,1,07,1.53,168.1,M,-34.4,M,,*5D
$GPRMC,012524.750,A,4308.5670,N,07725.8436,W,29.72,46.06,290823,,,A*73
$GPGGA,012525.000,4308.5684,N,07725.8415,W,1,07,1.53,168.2,M,-34.4,M,,*53
$GPRMC,012525.250,A,4308.5698,N,07725.8395,W,29.66,45.62,290823,,,A*7B
$GPGGA,012525.500,4308.5712,N,07725.8375,W,1,07,1.53,168.2,M,-34.4,M,,*59
$GPRMC,012525.750,A,4308.5727,N,07725.8355,W,29.62,44.79,290823,,,A*78
$GPGGA,012526.000,4308.5740,N,07725.8335,W,1,07,1.27,168.2,M,-34.4,M,,*5F
$GPRMC,012526.250,A,4308.5754,N,07725.8315,W,29.48,45.11,290823,,,A*79
$GPGGA,012526.500,4308.5767,N,07725.8295,W,1,07,1.53,168.1,M,-34.4,M,,*54
$GPRMC,012526.750,A,4308.5781,N,07725.8275,W,29.35,45.64,290823,,,A*7B
$GPGGA,012527.000,4308.5794,N,07725.8255,W,1,07,1.53,167.9,M,-34.4,M,,*57
$GPRMC,012527.250,A,4308.5807,N,07725.8235,W,28.65,45.61,290823,,,A*7B
$GPGGA,012527.500,4308.5821,N,07725.8214,W,1,07,1.53,167.6,M,-34.4,M,,*59
$GPRMC,012527.750,A,4308.5835,N,07725.8195,W,28.66,44.89,290823,,,A*72
$GPGGA,012528.000,4308.5849,N,07725.8175,W,1,07,1.53,167.3,M,-34.4,M,,*5C
$GPRMC,012528.250,A,4308.5862,N,07725.8155,W,28.89,44.81,290823,,,A*7F
$GPGGA,012528.500,4308.5876,N,07725.8134,W,1,07,1.53,167.1,M,-34.4,M,,*52
$GPRMC,012528.750,A,4308.5889,N,07725.8114,W,29.01,45.38,290823,,,A*78
$GPGGA,012529.000,4308.5902,N,07725.8092,W,1,07,1.27,166.9,M,-34.4,M,,*53
$GPRMC,012529.250,A,4308.5915,N,07725.8071,W,29.13,46.69,290823,,,A*7E
$GPGGA,012529.500,4308.5928,N,07725.8050,W,1,07,1.53,166.6,M,-34.4,M,,*5C
$GPRMC,012529.750,A,4308.5940,N,07725.8028,W,28.66,47.17,290823,,,A*7C
$GPGGA,012530.000,4308.5953,N,07725.8008,W,1,07,1.53,166.3,M,-34.4,M,,*55
$GPRMC,012530.250,A,4308.5967,N,07725.7988,W,28.63,47.00,290823,,,A*7B
$GPGGA,012530.500,4308.5979,N,07725.7967,W,1,07,1.53,166.0,M,-34.4,M,,*54
$GPRMC,012530.750,A,4308.5992,N,07725.7946,W,28.56,47.29,290823,,,A*7B
$GPGGA,012531.000,4308.6005,N,07725.7926,W,1,07,1.54,165.8,M,-34.4,M,,*58
$GPRMC,012531.250,A,4308.6018,N,07725.7906,W,28.47,47.55,290823,,,A*78
$GPGGA,012531.500,4308.6032,N,07725.7886,W,1,07,1.53,165.7,M,-34.4,M,,*5A
$GPRMC,012531.750,A,4308.6045,N,07725.7865,W,28.44,47.38,290823,,,A*79
$GPGGA,012532.000,4308.6058,N,07725.7845,W,1,07,1.27,165.4,M,-34.4,M,,*5F
$GPRMC,012532.250,A,4308.6070,N,07725.7824,W,28.66,48.21,290823,,,A*7B
$GPGGA,012532.500,4308.6083,N,07725.7802,W,1,07,1.54,165.0,M,-34.4,M,,*5F
$GPRMC,012532.750,A,4308.6096,N,07725.7781,W,28.64,49.60,290823,,,A*70
$GPGGA,012533.000,4308.6107,N,07725.7760,W,1,07,1.27,165.0,M,-34.4,M,,*59
$GPRMC,012533.250,A,4308.6118,N,07725.7738,W,28.42,53.65,290823,,,A*7B
$GPGGA,012533.500,4308.6129,N,07725.7716,W,1,07,1.53,165.0,M,-34.4,M,,*52
$GPRMC,012533.750,A,4308.6139,N,07725.7692,W,28.50,57.78,290823,,,A*77
$GPGGA,012534.000,4308.6148,N,07725.7668,W,1,07,1.27,164.9,M,-34.4,M,,*54
$GPRMC,012534.250,A,4308.6157,N,07725.7644,W,28.68,61.63,290823,,,A*72
$GPGGA,012534.500,4308.6165,N,07725.7620,W,1,07,1.53,164.9,M,-34.4,M,,*51
$GPRMC,012534.750,A,4308.6174,N,07725.7595,W,28.67,63.89,290823,,,A*70
$GPGGA,012535.000,4308.6181,N,07725.7570,W,1,07,1.53,164.9,M,-34.4,M,,*59
$GPRMC,012535.250,A,4308.6188,N,07725.7545,W,28.86,66.68,290823,,,A*7F
$GPGGA,012535.500,4308.6195,N,07725.7519,W,1,07,1.53,164.9,M,-34.4,M,,*56
$GPRMC,012535.750,A,4308.6201,N,07725.7493,W,28.64,70.00,290823,,,A*77
$GPGGA,012536.000,4308.6207,N,07725.7466,W,1,07,1.53,164.9,M,-34.4,M,,*51
$GPRMC,012536.250,A,4308.6212,N,07725.7440,W,28.54,72.85,290823,,,A*71
$GPGGA,012536.500,4308.6217,N,07725.7413,W,1,07,1.53,164.9,M,-34.4,M,,*57
$GPRMC,012536.750,A,4308.6221,N,07725.7386,W,28.60,75.05,290823,,,A*71
$GPGGA,012537.000,4308.6224,N,07725.7358,W,1,07,1.27,164.8,M,-34.4,M,,*59
$GPRMC,012537.250,A,4308.6227,N,07725.7331,W,28.63,77.51,290823,,,A*7F
$GPGGA,012537.500,4308.6230,N,07725.7303,W,1,07,1.53,164.6,M,-34.4,M,,*5A
$GPRMC,012537.750,A,4308.6232,N,07725.7275,W,28.59,80.03,290823,,,A*79
$GPGGA,012538.000,4308.6234,N,07725.7247,W,1,07,1.53,164.4,M,-34.4,M,,*57
$GPRMC,012538.250,A,4308.6235,N,07725.7219,W,28.40,82.69,290823,,,A*78
$GPGGA,012538.500,4308.6236,N,07725.7192,W,1,07,1.53,164.4,M,-34.4,M,,*5B
$GPRMC,012538.750,A,4308.6237,N,07725.7164,W,28.16,84.73,290823,,,A*78
$GPGGA,012539.000,4308.6237,N,07725.7137,W,1,07,1.27,164.5,M,-34.4,M,,*53
$GPRMC,012539.250,A,4308.6237,N,07725.7110,W,28.05,86.74,290823,,,A*78
$GPGGA,012539.500,4308.6236,N,07725.7081,W,1,07,1.54,164.6,M,-34.4,M,,*5C
$GPRMC,012539.750,A,4308.6235,N,07725.7053,W,28.13,89.41,290823,,,A*77
$GPGGA,012540.000,4308.6233,N,07725.7025,W,1,07,1.27,164.6,M,-34.4,M,,*58
$GPRMC,012540.250,A,4308.6232,N,07725.6997,W,28.19,91.49,290823,,,A*70
$GPGGA,012540.500,4308.6230,N,07725.6969,W,1,07,1.54,164.6,M,-34.4,M,,*5A
$GPRMC,012540.750,A,4308.6229,N,07725.6942,W,28.22,92.07,290823,,,A*76
$GPGGA,012541.000,4308.6228,N,07725.6914,W,1,07,1.53,164.7,M,-34.4,M,,*5B
$GPRMC,012541.250,A,4308.6227,N,07725.6886,W,28.18,92.25,290823,,,A*7C
$GPGGA,012541.500,4308.6225,N,07725.6858,W,1,07,1.53,164.6,M,-34.4,M,,*5B
$GPRMC,012541.750,A,4308.6224,N,07725.6831,W,28.11,92.71,290823,,,A*7E
$GPGGA,012542.000,4308.6223,N,07725.6803,W,1,07,1.53,164.7,M,-34.4,M,,*54
$GPRMC,012542.250,A,4308.6222,N,07725.6775,W,28.15,92.43,290823,,,A*74
$GPGGA,012542.500,4308.6221,N,07725.6747,W,1,07,1.53,164.6,M,-34.4,M,,*5D
$GPRMC,012542.750,A,4308.6221,N,07725.6719,W,28.47,91.44,290823,,,A*7B
$GPGGA,012543.000,4308.6220,N,07725.6691,W,1,07,1.53,164.5,M,-34.4,M,,*51
$GPRMC,012543.250,A,4308.6220,N,07725.6663,W,28.56,89.99,290823,,,A*7B
$GPGGA,012543.500,4308.6220,N,07725.6635,W,1,07,1.53,164.2,M,-34.4,M,,*5D
$GPRMC,012543.750,A,4308.6219,N,07725.6607,W,28.44,89.42,290823,,,A*73
$GPGGA,012544.000,4308.6220,N,07725.6580,W,1,07,1.53,164.0,M,-34.4,M,,*50
$GPRMC,012544.250,A,4308.6219,N,07725.6552,W,28.36,89.03,290823,,,A*72
$GPGGA,012544.500,4308.6219,N,07725.6525,W,1,07,1.53,163.9,M,-34.4,M,,*5E
$GPRMC,012544.750,A,4308.6219,N,07725.6497,W,28.15,88.45,290823,,,A*7D
$GPGGA,012545.000,4308.6218,N,07725.6470,W,1,07,1.53,163.8,M,-34.4,M,,*5B
$GPRMC,012545.250,A,4308.6217,N,07725.6443,W,28.04,89.67,290823,,,A*7F
$GPGGA,012545.500,4308.6216,N,07725.6416,W,1,07,1.53,163.8,M,-34.4,M,,*50
$GPRMC,012545.750,A,4308.6215,N,07725.6389,W,27.21,89.96,290823,,,A*7F
$GPGGA,012546.000,4308.6214,N,07725.6363,W,1,07,1.53,163.6,M,-34.4,M,,*5F
$GPRMC,012546.250,A,4308.6213,N,07725.6337,W,27.04,90.29,290823,,,A*71
$GPGGA,012546.500,4308.6212,N,07725.6312,W,1,07,1.53,163.7,M,-34.4,M,,*5B
$GPRMC,012546.750,A,4308.6211,N,07725.6286,W,26.02,90.31,290823,,,A*73
$GPGGA,012547.000,4308.6211,N,07725.6262,W,1,07,1.53,163.6,M,-34.4,M,,*5B
$GPRMC,012547.250,A,4308.6210,N,07725.6237,W,25.55,90.23,290823,,,A*7E
$GPGGA,012547.500,4308.6209,N,07725.6212,W,1,07,1.53,163.5,M,-34.4,M,,*53
$GPRMC,012547.750,A,4308.6209,N,07725.6188,W,25.20,89.46,290823,,,A*7D
$GPGGA,012548.000,4308.6209,N,07725.6164,W,1,07,1.53,163.4,M,-34.4,M,,*5A
$GPRMC,012548.250,A,4308.6208,N,07725.6139,W,25.40,89.11,290823,,,A*78
$GPGGA,012548.500,4308.6208,N,07725.6115,W,1,07,1.53,163.6,M,-34.4,M,,*5A
$GPRMC,012548.750,A,4308.6208,N,07725.6092,W,24.90,89.20,290823,,,A*73
$GPGGA,012549.000,4308.6208,N,07725.6068,W,1,07,1.53,163.7,M,-34.4,M,,*54
$GPRMC,012549.250,A,4308.6207,N,07725.6045,W,24.47,89.03,290823,,,A*79
$GPGGA,012549.500,4308.6207,N,07725.6021,W,1,07,1.53,163.9,M,-34.4,M,,*5D
$GPRMC,012549.750,A,4308.6207,N,07725.5998,W,23.95,88.76,290823,,,A*7D
$GPGGA,012550.000,4308.6207,N,07725.5976,W,1,07,1.53,164.1,M,-34.4,M,,*57
$GPRMC,012550.250,A,4308.6206,N,07725.5955,W,23.00,88.81,290823,,,A*74
$GPGGA,012550.500,4308.6205,N,07725.5934,W,1,07,1.54,164.0,M,-34.4,M,,*50
$GPRMC,012550.750,A,4308.6204,N,07725.5915,W,21.10,88.85,290823,,,A*70
$GPGGA,012551.000,4308.6204,N,07725.5896,W,1,07,1.53,164.1,M,-34.4,M,,*5A
$GPRMC,012551.250,A,4308.6204,N,07725.5879,W,18.76,89.15,290823,,,A*7D
$GPGGA,012551.500,4308.6204,N,07725.5864,W,1,07,1.53,164.4,M,-34.4,M,,*57
$GPRMC,012551.750,A,4308.6204,N,07725.5851,W,15.26,88.04,290823,,,A*7B
$GPGGA,012552.000,4308.6204,N,07725.5838,W,1,07,1.53,164.6,M,-34.4,M,,*5A
$GPRMC,012552.250,A,4308.6204,N,07725.5826,W,13.19,88.23,290823,,,A*72
$GPGGA,012552.500,4308.6203,N,07725.5816,W,1,07,1.53,164.6,M,-34.4,M,,*54
$GPRMC,012552.750,A,4308.6203,N,07725.5806,W,10.86,89.86,290823,,,A*79
$GPGGA,012553.000,4308.6201,N,07725.5799,W,1,07,1.53,164.6,M,-34.4,M,,*5A
$GPRMC,012553.250,A,4308.6201,N,07725.5792,W,8.64,92.90,290823,,,A*45
$GPGGA,012553.500,4308.6199,N,07725.5785,W,1,07,1.53,164.7,M,-34.4,M,,*51
$GPRMC,012553.750,A,4308.6198,N,07725.5778,W,7.59,96.86,290823,,,A*45
$GPGGA,012554.000,4308.6196,N,07725.5772,W,1,07,1.27,164.8,M,-34.4,M,,*58
$GPRMC,012554.250,A,4308.6193,N,07725.5766,W,7.16,106.77,290823,,,A*7E
$GPGGA,012554.500,4308.6189,N,07725.5762,W,1,07,1.53,164.8,M,-34.4,M,,*51
$GPRMC,012554.750,A,4308.6184,N,07725.5757,W,7.04,122.93,290823,,,A*70
$GPGGA,012555.000,4308.6179,N,07725.5752,W,1,07,1.53,164.8,M,-34.4,M,,*59
$GPRMC,012555.250,A,4308.6175,N,07725.5747,W,7.95,128.45,290823,,,A*72
$GPGGA,012555.500,4308.6171,N,07725.5741,W,1,07,1.53,164.9,M,-34.4,M,,*57
$GPRMC,012555.750,A,4308.6167,N,07725.5737,W,8.28,137.32,290823,,,A*74
$GPGGA,012556.000,4308.6161,N,07725.5733,W,1,07,1.27,165.1,M,-34.4,M,,*5F
$GPRMC,012556.250,A,4308.6155,N,07725.5729,W,8.58,148.76,290823,,,A*73
$GPGGA,012556.500,4308.6148,N,07725.5726,W,1,07,1.53,165.1,M,-34.4,M,,*56
$GPRMC,012556.750,A,4308.6140,N,07725.5723,W,9.38,160.23,290823,,,A*75
$GPGGA,012557.000,4308.6133,N,07725.5720,W,1,07,1.53,165.1,M,-34.4,M,,*58
$GPRMC,012557.250,A,4308.6126,N,07725.5717,W,9.88,163.13,290823,,,A*7D
$GPGGA,012557.500,4308.6116,N,07725.5717,W,1,07,1.53,165.2,M,-34.4,M,,*5D
$GPRMC,012557.750,A,4308.6107,N,07725.5717,W,11.11,174.44,290823,,,A*46
$GPGGA,012558.000,4308.6100,N,07725.5717,W,1,07,1.27,165.3,M,-34.4,M,,*52
$GPRMC,012558.250,A,4308.6089,N,07725.5718,W,14.49,181.43,290823,,,A*41
$GPGGA,012558.500,4308.6078,N,07725.5720,W,1,07,1.53,165.3,M,-34.4,M,,*5E
$GPRMC,012558.750,A,4308.6067,N,07725.5721,W,14.82,182.05,290823,,,A*48
$GPGGA,012559.000,4308.6057,N,07725.5722,W,1,07,1.27,165.3,M,-34.4,M,,*56
$GPRMC,012559.250,A,4308.6045,N,07725.5723,W,15.25,182.12,290823,,,A*44
$GPGGA,012559.500,4308.6034,N,07725.5724,W,1,07,1.53,165.2,M,-34.4,M,,*52
$GPRMC,012559.750,A,4308.6022,N,07725.5725,W,15.85,181.76,290823,,,A*4D
$GPGGA,012600.000,4308.6010,N,07725.5726,W,1,07,1.53,165.1,M,-34.4,M,,*5F
$GPRMC,012600.250,A,4308.5996,N,07725.5727,W,16.54,181.41,290823,,,A*4B
$GPGGA,012600.500,4308.5983,N,07725.5728,W,1,07,1.53,165.1,M,-34.4,M,,*54
$GPRMC,012600.750,A,4308.5969,N,07725.5729,W,17.35,180.93,290823,,,A*48
$GPGGA,012601.000,4308.5956,N,07725.5731,W,1,07,1.27,165.0,M,-34.4,M,,*52
$GPRMC,012601.250,A,4308.5941,N,07725.5732,W,18.09,181.42,290823,,,A*41
$GPGGA,012601.500,4308.5927,N,07725.5734,W,1,07,1.53,164.8,M,-34.4,M,,*5E
$GPRMC,012601.750,A,4308.5913,N,07725.5736,W,18.46,181.75,290823,,,A*48
$GPGGA,012602.000,4308.5900,N,07725.5737,W,1,07,1.53,164.7,M,-34.4,M,,*51
$GPRMC,012602.250,A,4308.5886,N,07725.5738,W,18.79,181.99,290823,,,A*43
$GPGGA,012602.500,4308.5872,N,07725.5739,W,1,07,1.53,164.6,M,-34.4,M,,*5F
$GPRMC,012602.750,A,4308.5858,N,07725.5741,W,19.34,181.91,290823,,,A*4B
$GPGGA,012603.000,4308.5843,N,07725.5742,W,1,07,1.53,164.5,M,-34.4,M,,*56
$GPRMC,012603.250,A,4308.5828,N,07725.5743,W,19.74,181.92,290823,,,A*4D
$GPGGA,012603.500,4308.5813,N,07725.5744,W,1,07,1.53,164.4,M,-34.4,M,,*51
$GPRMC,012603.750,A,4308.5798,N,07725.5744,W,20.27,181.66,290823,,,A*4C
$GPGGA,012604.000,4308.5782,N,07725.5745,W,1,07,1.27,164.3,M,-34.4,M,,*51
$GPRMC,012604.250,A,4308.5767,N,07725.5746,W,21.12,181.22,290823,,,A*4B
$GPGGA,012604.500,4308.5751,N,07725.5746,W,1,07,1.53,164.2,M,-34.4,M,,*5B
$GPRMC,012604.750,A,4308.5735,N,07725.5747,W,22.23,180.25,290823,,,A*4F
$GPGGA,012605.000,4308.5719,N,07725.5747,W,1,07,1.27,164.2,M,-34.4,M,,*51
$GPRMC,012605.250,A,4308.5703,N,07725.5748,W,22.61,180.11,290823,,,A*40
$GPGGA,012605.500,4308.5687,N,07725.5749,W,1,07,1.53,164.1,M,-34.4,M,,*5C
$GPRMC,012605.750,A,4308.5671,N,07725.5750,W,22.89,180.69,290823,,,A*41
$GPGGA,012606.000,4308.5653,N,07725.5750,W,1,07,1.53,164.0,M,-34.4,M,,*5A
$GPRMC,012606.250,A,4308.5636,N,07725.5752,W,23.34,181.21,290823,,,A*4C
$GPGGA,012606.500,4308.5617,N,07725.5753,W,1,07,1.53,164.1,M,-34.4,M,,*5D
$GPRMC,012606.750,A,4308.5599,N,07725.5753,W,24.22,181.40,290823,,,A*49
$GPGGA,012607.000,4308.5581,N,07725.5753,W,1,07,1.53,164.2,M,-34.4,M,,*56
$GPRMC,012607.250,A,4308.5563,N,07725.5753,W,24.73,180.63,290823,,,A*4C
$GPGGA,012607.500,4308.5545,N,07725.5754,W,1,07,1.53,164.3,M,-34.4,M,,*5D
$GPRMC,012607.750,A,4308.5527,N,07725.5754,W,25.21,180.62,290823,,,A*49
$GPGGA,012608.000,4308.5508,N,07725.5755,W,1,07,1.27,164.1,M,-34.4,M,,*5E
$GPRMC,012608.250,A,4308.5490,N,07725.5756,W,25.72,180.31,290823,,,A*4C
$GPGGA,012608.500,4308.5471,N,07725.5756,W,1,07,1.53,163.9,M,-34.4,M,,*5B
$GPRMC,012608.750,A,4308.5451,N,07725.5757,W,26.26,180.58,290823,,,A*48
$GPGGA,012609.000,4308.5432,N,07725.5758,W,1,07,1.27,163.7,M,-34.4,M,,*5B
$GPRMC,012609.250,A,4308.5412,N,07725.5759,W,26.46,181.30,290823,,,A*4C
$GPGGA,012609.500,4308.5391,N,07725.5760,W,1,07,1.53,163.7,M,-34.4,M,,*58
$GPRMC,012609.750,A,4308.5370,N,07725.5761,W,27.60,181.77,290823,,,A*47
$GPGGA,012610.000,4308.5349,N,07725.5762,W,1,07,1.27,163.6,M,-34.4,M,,*50
$GPRMC,012610.250,A,4308.5328,N,07725.5763,W,28.30,182.40,290823,,,A*48
$GPGGA,012610.500,4308.5306,N,07725.5764,W,1,07,1.53,163.7,M,-34.4,M,,*5A
$GPRMC,012610.750,A,4308.5285,N,07725.5765,W,28.66,181.97,290823,,,A*47
$GPGGA,012611.000,4308.5264,N,07725.5766,W,1,07,1.53,163.8,M,-34.4,M,,*56
$GPRMC,012611.250,A,4308.5242,N,07725.5767,W,28.95,181.67,290823,,,A*49
$GPGGA,012611.500,4308.5221,N,07725.5768,W,1,07,1.53,163.7,M,-34.4,M,,*53
$GPRMC,012611.750,A,4308.5200,N,07725.5768,W,28.98,181.73,290823,,,A*4D
$GPGGA,012612.000,4308.5179,N,07725.5769,W,1,07,1.53,163.6,M,-34.4,M,,*5B
$GPRMC,012612.250,A,4308.5157,N,07725.5769,W,29.00,181.42,290823,,,A*49
$GPGGA,012612.500,4308.5136,N,07725.5770,W,1,07,1.53,163.5,M,-34.4,M,,*5E
$GPRMC,012612.750,A,4308.5115,N,07725.5771,W,29.00,181.24,290823,,,A*43
$GPGGA,012613.000,4308.5095,N,07725.5772,W,1,07,1.53,163.3,M,-34.4,M,,*56
$GPRMC,012613.250,A,4308.5075,N,07725.5773,W,29.05,181.54,290823,,,A*40
$GPGGA,012613.500,4308.5054,N,07725.5775,W,1,07,1.53,163.2,M,-34.4,M,,*58
$GPRMC,012613.750,A,4308.5033,N,07725.5776,W,29.11,181.62,290823,,,A*42
$GPGGA,012614.000,4308.5012,N,07725.5776,W,1,07,1.53,163.5,M,-34.4,M,,*5C
$GPRMC,012614.250,A,4308.4990,N,07725.5776,W,29.73,181.31,290823,,,A*43
$GPGGA,012614.500,4308.4969,N,07725.5778,W,1,07,1.53,163.7,M,-34.4,M,,*51
$GPRMC,012614.750,A,4308.4947,N,07725.5779,W,30.11,181.71,290823,,,A*4B
$GPGGA,012615.000,4308.4925,N,07725.5780,W,1,07,1.53,163.9,M,-34.4,M,,*54
$GPRMC,012615.250,A,4308.4903,N,07725.5781,W,30.65,181.46,290823,,,A*4F
$GPGGA,012615.500,4308.4881,N,07725.5782,W,1,07,1.53,164.0,M,-34.4,M,,*52
$GPRMC,012615.750,A,4308.4859,N,07725.5783,W,30.84,181.47,290823,,,A*48
$GPGGA,012616.000,4308.4837,N,07725.5784,W,1,07,1.53,164.2,M,-34.4,M,,*5D
$GPRMC,012616.250,A,4308.4815,N,07725.5785,W,30.90,181.29,290823,,,A*4D
$GPGGA,012616.500,4308.4793,N,07725.5785,W,1,07,1.53,164.2,M,-34.4,M,,*58
$GPRMC,012616.750,A,4308.4771,N,07725.5787,W,30.90,181.50,290823,,,A*49
$GPGGA,012617.000,4308.4749,N,07725.5787,W,1,07,1.53,164.2,M,-34.4,M,,*59
$GPRMC,012617.250,A,4308.4726,N,07725.5789,W,31.09,181.50,290823,,,A*40
$GPGGA,012617.500,4308.4703,N,07725.5792,W,1,07,1.53,163.9,M,-34.4,M,,*5A
$GPRMC,012617.750,A,4308.4680,N,07725.5794,W,31.72,181.25,290823,,,A*4A
$GPGGA,012618.000,4308.4657,N,07725.5794,W,1,07,1.53,163.7,M,-34.4,M,,*58
$GPRMC,012618.250,A,4308.4634,N,07725.5795,W,31.86,180.67,290823,,,A*42
$GPGGA,012618.500,4308.4611,N,07725.5796,W,1,07,1.53,163.3,M,-34.4,M,,*59
$GPRMC,012618.750,A,4308.4588,N,07725.5797,W,32.21,180.61,290823,,,A*49
$GPGGA,012619.000,4308.4564,N,07725.5797,W,1,07,1.53,163.1,M,-34.4,M,,*5F
$GPRMC,012619.250,A,4308.4541,N,07725.5798,W,32.30,180.56,290823,,,A*43
$GPGGA,012619.500,4308.4517,N,07725.5799,W,1,07,1.53,162.9,M,-34.4,M,,*59
$GPRMC,012619.750,A,4308.4493,N,07725.5799,W,32.49,180.77,290823,,,A*44
$GPGGA,012620.000,4308.4470,N,07725.5800,W,1,07,1.53,162.9,M,-34.4,M,,*59
$GPRMC,012620.250,A,4308.4446,N,07725.5801,W,32.62,181.35,290823,,,A*43
$GPGGA,012620.500,4308.4422,N,07725.5802,W,1,07,1.53,162.8,M,-34.4,M,,*58
$GPRMC,012620.750,A,4308.4398,N,07725.5803,W,32.79,181.73,290823,,,A*48
$GPGGA,012621.000,4308.4374,N,07725.5803,W,1,07,1.27,162.8,M,-34.4,M,,*5A
$GPRMC,012621.250,A,4308.4350,N,07725.5804,W,33.69,181.55,290823,,,A*4B
$GPGGA,012621.500,4308.4326,N,07725.5806,W,1,07,1.53,163.0,M,-34.4,M,,*57
$GPRMC,012621.750,A,4308.4301,N,07725.5807,W,33.93,182.36,290823,,,A*4A
$GPGGA,012622.000,4308.4277,N,07725.5808,W,1,07,1.53,163.2,M,-34.4,M,,*58
$GPRMC,012622.250,A,4308.4253,N,07725.5810,W,34.10,182.98,290823,,,A*44
$GPGGA,012622.500,4308.4228,N,07725.5812,W,1,07,1.53,163.3,M,-34.4,M,,*5D
$GPRMC,012622.750,A,4308.4204,N,07725.5815,W,34.44,183.17,290823,,,A*41
$GPGGA,012623.000,4308.4180,N,07725.5816,W,1,07,1.27,163.3,M,-34.4,M,,*5F
$GPRMC,012623.250,A,4308.4155,N,07725.5817,W,34.56,182.93,290823,,,A*4E
$GPGGA,012623.500,4308.4131,N,07725.5819,W,1,07,1.53,163.5,M,-34.4,M,,*5A
$GPRMC,012623.750,A,4308.4106,N,07725.5820,W,34.62,182.72,290823,,,A*41
$GPGGA,012624.000,4308.4082,N,07725.5821,W,1,07,1.27,163.7,M,-34.4,M,,*5B
$GPRMC,012624.250,A,4308.4057,N,07725.5823,W,34.67,182.98,290823,,,A*44
$GPGGA,012624.500,4308.4033,N,07725.5824,W,1,07,1.53,163.7,M,-34.4,M,,*52
$GPRMC,012624.750,A,4308.4008,N,07725.5825,W,34.77,182.76,290823,,,A*4C
$GPGGA,012625.000,4308.3984,N,07725.5826,W,1,07,1.27,163.6,M,-34.4,M,,*54
$GPRMC,012625.250,A,4308.3959,N,07725.5827,W,35.17,182.48,290823,,,A*4A
$GPGGA,012625.500,4308.3934,N,07725.5829,W,1,07,1.53,163.6,M,-34.4,M,,*56
$GPRMC,012625.750,A,4308.3909,N,07725.5830,W,35.15,182.53,290823,,,A*44
$GPGGA,012626.000,4308.3884,N,07725.5831,W,1,07,1.27,163.7,M,-34.4,M,,*51
$GPRMC,012626.250,A,4308.3859,N,07725.5832,W,35.48,182.49,290823,,,A*47
$GPGGA,012626.500,4308.3834,N,07725.5833,W,1,07,1.53,163.7,M,-34.4,M,,*5E
$GPRMC,012626.750,A,4308.3809,N,07725.5834,W,35.49,182.39,290823,,,A*47
$GPGGA,012627.000,4308.3784,N,07725.5834,W,1,07,1.53,163.8,M,-34.4,M,,*56
$GPRMC,012627.250,A,4308.3759,N,07725.5835,W,35.51,182.13,290823,,,A*49
$GPGGA,012627.500,4308.3734,N,07725.5836,W,1,07,1.53,163.9,M,-34.4,M,,*5B
$GPRMC,012627.750,A,4308.3709,N,07725.5837,W,35.06,182.18,290823,,,A*42
$GPGGA,012628.000,4308.3685,N,07725.5838,W,1,07,1.53,164.2,M,-34.4,M,,*58
$GPRMC,012628.250,A,4308.3660,N,07725.5839,W,35.26,181.78,290823,,,A*4F
$GPGGA,012628.500,4308.3634,N,07725.5840,W,1,07,1.53,164.5,M,-34.4,M,,*5F
$GPRMC,012628.750,A,4308.3609,N,07725.5841,W,35.56,181.91,290823,,,A*4A
$GPGGA,012629.000,4308.3584,N,07725.5842,W,1,07,1.27,164.7,M,-34.3,M,,*57
$GPRMC,012629.250,A,4308.3559,N,07725.5843,W,35.64,181.95,290823,,,A*4F
$GPGGA,012629.500,4308.3534,N,07725.5844,W,1,07,1.53,164.8,M,-34.3,M,,*53
$GPRMC,012629.750,A,4308.3510,N,07725.5845,W,35.58,181.76,290823,,,A*43
$GPGGA,012630.000,4308.3485,N,07725.5846,W,1,07,1.53,164.9,M,-34.3,M,,*56
$GPRMC,012630.250,A,4308.3460,N,07725.5848,W,35.60,181.94,290823,,,A*42
$GPGGA,012630.500,4308.3434,N,07725.5848,W,1,07,1.53,165.2,M,-34.3,M,,*5D
$GPRMC,012630.750,A,4308.3408,N,07725.5849,W,35.78,181.94,290823,,,A*41
$GPGGA,012631.000,4308.3383,N,07725.5850,W,1,07,1.27,165.4,M,-34.3,M,,*5E
$GPRMC,012631.250,A,4308.3357,N,07725.5850,W,35.83,181.78,290823,,,A*46
$GPGGA,012631.500,4308.3332,N,07725.5851,W,1,07,1.53,165.7,M,-34.3,M,,*50
$GPRMC,012631.750,A,4308.3306,N,07725.5852,W,35.81,181.84,290823,,,A*44
$GPGGA,012632.000,4308.3281,N,07725.5852,W,1,07,1.53,166.0,M,-34.3,M,,*58
$GPRMC,012632.250,A,4308.3255,N,07725.5853,W,35.75,181.95,290823,,,A*4F
$GPGGA,012632.500,4308.3230,N,07725.5854,W,1,07,1.53,166.2,M,-34.3,M,,*53
$GPRMC,012632.750,A,4308.3205,N,07725.5855,W,35.71,182.09,290823,,,A*4B
$GPGGA,012633.000,4308.3179,N,07725.5856,W,1,07,1.27,166.5,M,-34.3,M,,*5F
$GPRMC,012633.250,A,4308.3154,N,07725.5857,W,35.69,182.28,290823,,,A*40
$GPGGA,012633.500,4308.3129,N,07725.5859,W,1,07,1.53,166.9,M,-34.3,M,,*5F
$GPRMC,012633.750,A,4308.3104,N,07725.5861,W,35.90,183.01,290823,,,A*49
$GPGGA,012634.000,4308.3079,N,07725.5862,W,1,07,1.53,167.3,M,-34.3,M,,*5A
$GPRMC,012634.250,A,4308.3054,N,07725.5863,W,35.88,182.63,290823,,,A*41
$GPGGA,012634.500,4308.3029,N,07725.5863,W,1,07,1.53,167.8,M,-34.3,M,,*50
$GPRMC,012634.750,A,4308.3004,N,07725.5864,W,35.63,181.99,290823,,,A*45
$GPGGA,012635.000,4308.2979,N,07725.5864,W,1,07,1.53,168.2,M,-34.3,M,,*5B
$GPRMC,012635.250,A,4308.2953,N,07725.5864,W,35.87,181.72,290823,,,A*44
$GPGGA,012635.500,4308.2928,N,07725.5865,W,1,07,1.53,168.7,M,-34.3,M,,*5E
$GPRMC,012635.750,A,4308.2903,N,07725.5866,W,35.84,182.46,290823,,,A*41
$GPGGA,012636.000,4308.2878,N,07725.5868,W,1,07,1.53,169.2,M,-34.3,M,,*55
$GPRMC,012636.250,A,4308.2853,N,07725.5869,W,35.76,182.76,290823,,,A*42
$GPGGA,012636.500,4308.2828,N,07725.5870,W,1,07,1.53,169.7,M,-34.3,M,,*59
$GPRMC,012636.750,A,4308.2803,N,07725.5872,W,35.78,182.70,290823,,,A*40
$GPGGA,012637.000,4308.2778,N,07725.5873,W,1,07,1.53,170.1,M,-34.3,M,,*5A
$GPRMC,012637.250,A,4308.2754,N,07725.5874,W,35.29,182.60,290823,,,A*4A
$GPGGA,012637.500,4308.2729,N,07725.5875,W,1,07,1.53,170.7,M,-34.3,M,,*5B
$GPRMC,012637.750,A,4308.2705,N,07725.5876,W,34.99,182.41,290823,,,A*40
$GPGGA,012638.000,4308.2680,N,07725.5877,W,1,07,1.27,171.1,M,-34.3,M,,*55
$GPRMC,012638.250,A,4308.2656,N,07725.5879,W,34.98,182.19,290823,,,A*4E
$GPGGA,012638.500,4308.2631,N,07725.5880,W,1,07,1.53,171.5,M,-34.3,M,,*55
$GPRMC,012638.750,A,4308.2606,N,07725.5881,W,35.00,182.31,290823,,,A*43
$GPGGA,012639.000,4308.2582,N,07725.5883,W,1,07,1.53,171.8,M,-34.3,M,,*54
$GPRMC,012639.250,A,4308.2557,N,07725.5884,W,34.78,183.00,290823,,,A*48
$GPGGA,012639.500,4308.2532,N,07725.5886,W,1,07,1.53,172.3,M,-34.3,M,,*57
$GPRMC,012639.750,A,4308.2508,N,07725.5887,W,34.96,182.91,290823,,,A*4D
$GPGGA,012640.000,4308.2484,N,07725.5889,W,1,07,1.27,172.9,M,-34.3,M,,*56
$GPRMC,012640.250,A,4308.2460,N,07725.5890,W,34.64,182.39,290823,,,A*40
$GPGGA,012640.500,4308.2436,N,07725.5890,W,1,07,1.53,173.3,M,-34.3,M,,*5A
$GPRMC,012640.750,A,4308.2411,N,07725.5891,W,34.34,181.81,290823,,,A*47
$GPGGA,012641.000,4308.2387,N,07725.5892,W,1,07,1.27,173.7,M,-34.3,M,,*56
$GPRMC,012641.250,A,4308.2363,N,07725.5893,W,34.36,181.84,290823,,,A*44
$GPGGA,012641.500,4308.2338,N,07725.5893,W,1,07,1.53,174.0,M,-34.3,M,,*55
$GPRMC,012641.750,A,4308.2314,N,07725.5894,W,34.51,181.63,290823,,,A*4E
$GPGGA,012642.000,4308.2289,N,07725.5895,W,1,07,1.53,174.4,M,-34.3,M,,*5A
$GPRMC,012642.250,A,4308.2265,N,07725.5896,W,34.81,181.74,290823,,,A*46
$GPGGA,012642.500,4308.2240,N,07725.5898,W,1,07,1.53,174.8,M,-34.3,M,,*5B
$GPRMC,012642.750,A,4308.2215,N,07725.5900,W,34.80,182.50,290823,,,A*4E
$GPGGA,012643.000,4308.2191,N,07725.5901,W,1,07,1.53,175.2,M,-34.3,M,,*5A
$GPRMC,012643.250,A,4308.2166,N,07725.5903,W,34.55,183.04,290823,,,A*46
$GPGGA,012643.500,4308.2142,N,07725.5904,W,1,07,1.53,175.7,M,-34.3,M,,*51
$GPRMC,012643.750,A,4308.2118,N,07725.5905,W,34.54,182.43,290823,,,A*4F
$GPGGA,012644.000,4308.2094,N,07725.5906,W,1,07,1.53,176.1,M,-34.3,M,,*5E
$GPRMC,012644.250,A,4308.2069,N,07725.5908,W,34.80,182.06,290823,,,A*4F
$GPGGA,012644.500,4308.2044,N,07725.5909,W,1,07,1.53,176.3,M,-34.3,M,,*5B
$GPRMC,012644.750,A,4308.2019,N,07725.5910,W,34.82,182.18,290823,,,A*49
$GPGGA,012645.000,4308.1995,N,07725.5912,W,1,07,1.53,176.4,M,-34.3,M,,*54
$GPRMC,012645.250,A,4308.1971,N,07725.5913,W,34.86,182.45,290823,,,A*46
$GPGGA,012645.500,4308.1946,N,07725.5915,W,1,07,1.53,176.5,M,-34.3,M,,*59
$GPRMC,012645.750,A,4308.1922,N,07725.5917,W,34.87,182.36,290823,,,A*44
$GPGGA,012646.000,4308.1897,N,07725.5918,W,1,07,1.27,176.9,M,-34.3,M,,*50
$GPRMC,012646.250,A,4308.1872,N,07725.5920,W,35.19,182.14,290823,,,A*44
$GPGGA,012646.500,4308.1848,N,07725.5921,W,1,07,1.53,177.3,M,-34.3,M,,*55
$GPRMC,012646.750,A,4308.1824,N,07725.5922,W,35.23,182.33,290823,,,A*4C
$GPGGA,012647.000,4308.1799,N,07725.5924,W,1,07,1.53,177.6,M,-34.3,M,,*52
$GPRMC,012647.250,A,4308.1775,N,07725.5925,W,35.25,182.57,290823,,,A*40
$GPGGA,012647.500,4308.1750,N,07725.5926,W,1,07,1.53,177.8,M,-34.3,M,,*5E
$GPRMC,012647.750,A,4308.1726,N,07725.5927,W,35.04,182.94,290823,,,A*4D
$GPGGA,012648.000,4308.1702,N,07725.5929,W,1,07,1.53,177.9,M,-34.3,M,,*5D
$GPRMC,012648.250,A,4308.1678,N,07725.5930,W,35.00,183.00,290823,,,A*43
$GPGGA,012648.500,4308.1653,N,07725.5930,W,1,07,1.53,177.7,M,-34.3,M,,*5B
