Vers 81
USE_SERIAL_FEEDBACK=true
DEVELOPMENT_MODE=false
USE_RMC_ONLY=false

$GPRMC,165653.500,A,4308.2925,N,07726.2545,W,0.32,319.24,210923,,,A*7D
$GPGGA,165653.750,4308.2926,N,07726.2546,W,1,04,2.56,165.8,M,-34.4,M,,*5E
$GPRMC,165654.000,A,4308.2926,N,07726.2547,W,0.46,330.89,210923,,,A*71
$GPGGA,165654.250,4308.2927,N,07726.2548,W,1,04,2.56,166.0,M,-34.4,M,,*58
$GPRMC,165654.500,A,4308.2927,N,07726.2548,W,0.47,328.16,210923,,,A*74
$GPGGA,165654.750,4308.2928,N,07726.2548,W,1,04,2.56,166.2,M,-34.4,M,,*50
$GPRMC,165655.000,A,4308.2929,N,07726.2549,W,0.47,330.95,210923,,,A*7D
$GPGGA,165655.250,4308.2929,N,07726.2550,W,1,04,2.56,166.3,M,-34.4,M,,*5D
$GPRMC,165655.500,A,4308.2930,N,07726.2551,W,0.39,333.06,210923,,,A*79
$GPGGA,165655.750,4308.2931,N,07726.2551,W,1,04,2.56,166.5,M,-34.4,M,,*56
$GPRMC,165656.000,A,4308.2932,N,07726.2552,W,0.34,335.40,210923,,,A*77
$GPGGA,165656.250,4308.2932,N,07726.2552,W,1,04,2.56,166.6,M,-34.4,M,,*53
$GPRMC,165656.500,A,4308.2931,N,07726.2551,W,0.14,17.28,210923,,,A*4D
$GPGGA,165656.750,4308.2932,N,07726.2552,W,1,04,2.56,166.8,M,-34.4,M,,*58
$GPRMC,165657.000,A,4308.2932,N,07726.2552,W,0.22,353.40,210923,,,A*71
$GPGGA,165657.250,4308.2932,N,07726.2552,W,1,04,3.15,167.0,M,-34.4,M,,*53
$GPRMC,165657.500,A,4308.2933,N,07726.2551,W,0.16,357.32,210923,,,A*70
$GPGGA,165657.750,4308.2933,N,07726.2551,W,1,04,3.15,167.3,M,-34.4,M,,*57
$GPRMC,165658.000,A,4308.2933,N,07726.2551,W,0.08,16.75,210923,,,A*40
$GPGGA,165658.250,4308.2933,N,07726.2550,W,1,04,2.56,167.5,M,-34.4,M,,*5C
$GPRMC,165658.500,A,4308.2933,N,07726.2550,W,0.05,305.28,210923,,,A*70
$GPGGA,165658.750,4308.2933,N,07726.2549,W,1,04,2.56,167.7,M,-34.4,M,,*53
$GPRMC,165659.000,A,4308.2933,N,07726.2549,W,0.05,52.93,210923,,,A*4D
$GPGGA,165659.250,4308.2933,N,07726.2548,W,1,04,2.56,168.0,M,-34.4,M,,*5E
$GPRMC,165659.500,A,4308.2933,N,07726.2548,W,0.05,343.12,210923,,,A*73
$GPGGA,165659.750,4308.2933,N,07726.2547,W,1,04,2.56,168.1,M,-34.4,M,,*55
$GPRMC,165700.000,A,4308.2933,N,07726.2547,W,0.04,293.16,210923,,,A*7D
$GPGGA,165700.250,4308.2934,N,07726.2547,W,1,04,2.56,168.4,M,-34.4,M,,*5F
$GPRMC,165700.500,A,4308.2934,N,07726.2546,W,0.04,66.50,210923,,,A*44
$GPGGA,165700.750,4308.2934,N,07726.2546,W,1,04,2.56,168.6,M,-34.4,M,,*59
$GPRMC,165701.000,A,4308.2934,N,07726.2545,W,0.08,57.23,210923,,,A*49
$GPGGA,165701.250,4308.2935,N,07726.2545,W,1,04,2.56,168.8,M,-34.4,M,,*51
$GPRMC,165701.500,A,4308.2936,N,07726.2544,W,0.03,124.11,210923,,,A*70
$GPGGA,165701.750,4308.2936,N,07726.2543,W,1,04,2.56,169.2,M,-34.4,M,,*5A
$GPRMC,165702.000,A,4308.2936,N,07726.2542,W,0.10,141.40,210923,,,A*75
$GPGGA,165702.250,4308.2938,N,07726.2562,W,1,05,1.75,166.2,M,-34.4,M,,*5D
$GPRMC,165702.500,A,4308.2940,N,07726.2570,W,0.10,195.03,210923,,,A*7E
$GPGGA,165702.750,4308.2943,N,07726.2576,W,1,05,1.75,164.0,M,-34.4,M,,*51
$GPRMC,165703.000,A,4308.2944,N,07726.2582,W,0.06,278.51,210923,,,A*73
$GPGGA,165703.250,4308.2946,N,07726.2587,W,1,05,1.75,162.5,M,-34.4,M,,*5D
$GPRMC,165703.500,A,4308.2948,N,07726.2591,W,0.08,358.83,210923,,,A*7A
$GPGGA,165703.750,4308.2948,N,07726.2593,W,1,05,2.11,161.7,M,-34.4,M,,*53
$GPRMC,165704.000,A,4308.2949,N,07726.2595,W,0.04,335.37,210923,,,A*75
$GPGGA,165704.250,4308.2950,N,07726.2597,W,1,05,1.75,161.3,M,-34.4,M,,*59
$GPRMC,165704.500,A,4308.2952,N,07726.2599,W,0.04,18.21,210923,,,A*4D
$GPGGA,165704.750,4308.2952,N,07726.2600,W,1,05,1.75,161.0,M,-34.4,M,,*50
$GPRMC,165705.000,A,4308.2953,N,07726.2602,W,0.02,41.91,210923,,,A*48
$GPGGA,165705.250,4308.2953,N,07726.2603,W,1,05,1.75,160.7,M,-34.4,M,,*50
$GPRMC,165705.500,A,4308.2953,N,07726.2604,W,0.09,191.50,210923,,,A*71
$GPGGA,165705.750,4308.2953,N,07726.2604,W,1,05,1.75,160.4,M,-34.4,M,,*51
$GPRMC,165706.000,A,4308.2953,N,07726.2605,W,0.11,198.45,210923,,,A*72
$GPGGA,165706.250,4308.2953,N,07726.2606,W,1,05,1.75,160.3,M,-34.4,M,,*52
$GPRMC,165706.500,A,4308.2954,N,07726.2607,W,0.11,198.22,210923,,,A*73
$GPGGA,165706.750,4308.2955,N,07726.2608,W,1,05,1.75,160.1,M,-34.4,M,,*5D
$GPRMC,165707.000,A,4308.2955,N,07726.2608,W,0.14,236.54,210923,,,A*7A
$GPGGA,165707.250,4308.2955,N,07726.2609,W,1,05,1.75,159.9,M,-34.4,M,,*5A
$GPRMC,165707.500,A,4308.2955,N,07726.2609,W,0.11,229.04,210923,,,A*70
$GPGGA,165707.750,4308.2956,N,07726.2609,W,1,05,1.75,159.9,M,-34.4,M,,*5C
$GPRMC,165708.000,A,4308.2956,N,07726.2609,W,0.10,128.31,210923,,,A*7C
$GPGGA,165708.250,4308.2956,N,07726.2609,W,1,05,1.75,159.8,M,-34.4,M,,*57
$GPRMC,165708.500,A,4308.2957,N,07726.2610,W,0.10,119.31,210923,,,A*72
$GPGGA,165708.750,4308.2958,N,07726.2610,W,1,05,1.75,159.8,M,-34.4,M,,*54
$GPRMC,165709.000,A,4308.2959,N,07726.2611,W,0.00,267.83,210923,,,A*7B
$GPGGA,165709.250,4308.2960,N,07726.2611,W,1,05,1.75,159.8,M,-34.4,M,,*5A
$GPRMC,165709.500,A,4308.2961,N,07726.2611,W,0.05,112.32,210923,,,A*7B
$GPGGA,165709.750,4308.2962,N,07726.2612,W,1,05,1.75,159.9,M,-34.4,M,,*5F
$GPRMC,165710.000,A,4308.2962,N,07726.2612,W,0.03,189.43,210923,,,A*74
$GPGGA,165710.250,4308.2963,N,07726.2612,W,1,05,1.75,160.0,M,-34.4,M,,*50
$GPRMC,165710.500,A,4308.2963,N,07726.2612,W,0.07,212.48,210923,,,A*7E
$GPGGA,165710.750,4308.2964,N,07726.2613,W,1,05,1.75,160.0,M,-34.4,M,,*53
$GPRMC,165711.000,A,4308.2965,N,07726.2613,W,0.07,297.39,210923,,,A*76
$GPGGA,165711.250,4308.2967,N,07726.2613,W,1,05,1.74,160.1,M,-34.4,M,,*54
$GPRMC,165711.500,A,4308.2968,N,07726.2613,W,0.21,357.04,210923,,,A*79
$GPGGA,165711.750,4308.2969,N,07726.2613,W,1,05,2.11,160.2,M,-34.4,M,,*5C
$GPRMC,165712.000,A,4308.2970,N,07726.2613,W,0.24,12.87,210923,,,A*4A
$GPGGA,165712.250,4308.2970,N,07726.2613,W,1,05,2.11,160.4,M,-34.4,M,,*54
$GPRMC,165712.500,A,4308.2971,N,07726.2614,W,0.21,21.87,210923,,,A*4C
$GPGGA,165712.750,4308.2972,N,07726.2614,W,1,05,1.75,160.5,M,-34.4,M,,*54
$GPRMC,165713.000,A,4308.2973,N,07726.2614,W,0.19,22.61,210923,,,A*4A
$GPGGA,165713.250,4308.2974,N,07726.2614,W,1,05,1.75,160.7,M,-34.4,M,,*54
$GPRMC,165713.500,A,4308.2975,N,07726.2614,W,0.18,18.44,210923,,,A*46
$GPGGA,165713.750,4308.2977,N,07726.2614,W,1,05,1.74,160.9,M,-34.4,M,,*5D
$GPRMC,165714.000,A,4308.2978,N,07726.2615,W,0.15,14.60,210923,,,A*4F
$GPGGA,165714.250,4308.2979,N,07726.2615,W,1,05,2.11,161.0,M,-34.4,M,,*58
$GPRMC,165714.500,A,4308.2980,N,07726.2615,W,0.14,29.05,210923,,,A*41
$GPGGA,165714.750,4308.2982,N,07726.2615,W,1,05,1.74,161.1,M,-34.4,M,,*58
$GPRMC,165715.000,A,4308.2983,N,07726.2616,W,0.14,16.43,210923,,,A*4B
$GPGGA,165715.250,4308.2984,N,07726.2616,W,1,05,1.74,161.2,M,-34.4,M,,*5A
$GPRMC,165715.500,A,4308.2985,N,07726.2616,W,0.14,13.53,210923,,,A*4C
$GPGGA,165715.750,4308.2986,N,07726.2617,W,1,05,2.11,161.2,M,-34.4,M,,*5C
$GPRMC,165716.000,A,4308.2987,N,07726.2617,W,0.14,6.37,210923,,,A*7F
$GPGGA,165716.250,4308.2988,N,07726.2617,W,1,05,2.11,161.3,M,-34.4,M,,*55
$GPRMC,165716.500,A,4308.2989,N,07726.2618,W,0.13,354.76,210923,,,A*7D
$GPGGA,165716.750,4308.2989,N,07726.2618,W,1,05,2.11,161.4,M,-34.4,M,,*59
$GPRMC,165717.000,A,4308.2990,N,07726.2618,W,0.15,331.80,210923,,,A*7D
$GPGGA,165717.250,4308.2990,N,07726.2618,W,1,05,1.74,161.4,M,-34.4,M,,*55
$GPRMC,165717.500,A,4308.2990,N,07726.2619,W,0.07,319.51,210923,,,A*7C
$GPGGA,165717.750,4308.2991,N,07726.2619,W,1,05,1.74,161.5,M,-34.4,M,,*51
$GPRMC,165718.000,A,4308.2991,N,07726.2619,W,0.07,265.56,210923,,,A*7A
$GPGGA,165718.250,4308.2992,N,07726.2619,W,1,05,1.74,161.6,M,-34.4,M,,*5B
$GPRMC,165718.500,A,4308.2993,N,07726.2619,W,0.08,300.51,210923,,,A*77
$GPGGA,165718.750,4308.2993,N,07726.2619,W,1,05,1.74,161.6,M,-34.4,M,,*5F
$GPRMC,165719.000,A,4308.2994,N,07726.2619,W,0.10,28.96,210923,,,A*4F
$GPGGA,165719.250,4308.2995,N,07726.2619,W,1,05,1.74,161.6,M,-34.4,M,,*5D
$GPRMC,165719.500,A,4308.2995,N,07726.2619,W,0.18,31.86,210923,,,A*4A
$GPGGA,165719.750,4308.2995,N,07726.2619,W,1,05,1.75,161.7,M,-34.4,M,,*58
$GPRMC,165720.000,A,4308.2995,N,07726.2619,W,0.08,24.02,210923,,,A*4C
$GPGGA,165720.250,4308.2995,N,07726.2619,W,1,05,1.74,161.8,M,-34.4,M,,*59
$GPRMC,165720.500,A,4308.2995,N,07726.2619,W,0.08,66.35,210923,,,A*4B
$GPGGA,165720.750,4308.2995,N,07726.2619,W,1,05,1.74,161.8,M,-34.4,M,,*5C
$GPRMC,165721.000,A,4308.2996,N,07726.2619,W,0.08,109.23,210923,,,A*73
$GPGGA,165721.250,4308.2997,N,07726.2620,W,1,05,1.74,161.9,M,-34.4,M,,*51
$GPRMC,165721.500,A,4308.2997,N,07726.2620,W,0.03,264.54,210923,,,A*7E
$GPGGA,165721.750,4308.3000,N,07726.2620,W,1,05,1.74,162.0,M,-34.4,M,,*58
$GPRMC,165722.000,A,4308.3002,N,07726.2620,W,0.14,359.05,210923,,,A*71
$GPGGA,165722.250,4308.3004,N,07726.2620,W,1,05,2.11,162.2,M,-34.4,M,,*58
$GPRMC,165722.500,A,4308.3005,N,07726.2621,W,0.11,359.67,210923,,,A*73
$GPGGA,165722.750,4308.3007,N,07726.2621,W,1,05,2.11,162.3,M,-34.4,M,,*5E
$GPRMC,165723.000,A,4308.3008,N,07726.2621,W,0.19,342.81,210923,,,A*70
$GPGGA,165723.250,4308.3009,N,07726.2621,W,1,05,1.74,162.4,M,-34.4,M,,*53
$GPRMC,165723.500,A,4308.3010,N,07726.2621,W,0.15,359.84,210923,,,A*7F
$GPGGA,165723.750,4308.3010,N,07726.2621,W,1,05,2.11,162.4,M,-34.4,M,,*5E
$GPRMC,165724.000,A,4308.3010,N,07726.2621,W,0.06,113.43,210923,,,A*78
$GPGGA,165724.250,4308.3010,N,07726.2621,W,1,05,1.74,162.4,M,-34.4,M,,*5C
$GPRMC,165724.500,A,4308.3010,N,07726.2621,W,0.05,331.34,210923,,,A*7C
$GPGGA,165724.750,4308.3010,N,07726.2621,W,1,05,1.74,162.4,M,-34.4,M,,*59
$GPRMC,165725.000,A,4308.3010,N,07726.2621,W,0.10,8.21,210923,,,A*71
$GPGGA,165725.250,4308.3010,N,07726.2621,W,1,05,2.11,162.4,M,-34.4,M,,*5D
$GPRMC,165725.500,A,4308.3010,N,07726.2621,W,0.01,125.57,210923,,,A*7B
$GPGGA,165725.750,4308.3010,N,07726.2621,W,1,05,1.74,162.4,M,-34.4,M,,*58
$GPRMC,165726.000,A,4308.3010,N,07726.2621,W,0.05,149.76,210923,,,A*70
$GPGGA,165726.250,4308.3010,N,07726.2621,W,1,05,1.74,162.4,M,-34.4,M,,*5E
$GPRMC,165726.500,A,4308.3010,N,07726.2621,W,0.03,102.74,210923,,,A*7E
$GPGGA,165726.750,4308.3010,N,07726.2621,W,1,05,1.74,162.4,M,-34.4,M,,*5B
$GPRMC,165727.000,A,4308.3010,N,07726.2621,W,0.03,203.98,210923,,,A*7A
$GPGGA,165727.250,4308.3010,N,07726.2621,W,1,05,1.74,162.4,M,-34.4,M,,*5F
$GPRMC,165727.500,A,4308.3010,N,07726.2621,W,0.10,233.94,210923,,,A*72
$GPGGA,165727.750,4308.3010,N,07726.2621,W,1,05,1.74,162.4,M,-34.4,M,,*5A
$GPRMC,165728.000,A,4308.3010,N,07726.2621,W,0.07,313.73,210923,,,A*74
$GPGGA,165728.250,4308.3010,N,07726.2621,W,1,05,1.74,162.4,M,-34.4,M,,*50
$GPRMC,165728.500,A,4308.3011,N,07726.2621,W,0.13,356.93,210923,,,A*7A
$GPGGA,165728.750,4308.3011,N,07726.2621,W,1,05,2.10,162.4,M,-34.4,M,,*55
$GPRMC,165729.000,A,4308.3011,N,07726.2621,W,0.02,46.94,210923,,,A*4B
$GPGGA,165729.250,4308.3011,N,07726.2621,W,1,05,1.74,162.4,M,-34.4,M,,*50
$GPRMC,165729.500,A,4308.3011,N,07726.2621,W,0.06,242.65,210923,,,A*72
$GPGGA,165729.750,4308.3011,N,07726.2621,W,1,05,1.74,162.4,M,-34.4,M,,*55
$GPRMC,165730.000,A,4308.3011,N,07726.2621,W,0.08,285.15,210923,,,A*7D
$GPGGA,165730.250,4308.3011,N,07726.2621,W,1,05,1.74,162.4,M,-34.4,M,,*58
$GPRMC,165730.500,A,4308.3011,N,07726.2621,W,0.16,283.25,210923,,,A*72
$GPGGA,165730.750,4308.3011,N,07726.2622,W,1,05,1.74,162.4,M,-34.4,M,,*5E
$GPRMC,165731.000,A,4308.3011,N,07726.2622,W,0.12,288.82,210923,,,A*77
$GPGGA,165731.250,4308.3011,N,07726.2622,W,1,05,1.74,162.4,M,-34.4,M,,*5A
$GPRMC,165731.500,A,4308.3011,N,07726.2622,W,0.13,347.58,210923,,,A*76
$GPGGA,165731.750,4308.3011,N,07726.2622,W,1,05,2.10,162.4,M,-34.4,M,,*5E
$GPRMC,165732.000,A,4308.3011,N,07726.2622,W,0.16,329.62,210923,,,A*74
$GPGGA,165732.250,4308.3011,N,07726.2622,W,1,05,1.74,162.4,M,-34.4,M,,*59
$GPRMC,165732.500,A,4308.3011,N,07726.2622,W,0.26,327.81,210923,,,A*71
$GPGGA,165732.750,4308.3012,N,07726.2622,W,1,05,1.74,162.4,M,-34.4,M,,*5F
$GPRMC,165733.000,A,4308.3012,N,07726.2622,W,0.21,321.98,210923,,,A*7F
$GPGGA,165733.250,4308.3012,N,07726.2623,W,1,05,1.74,162.4,M,-34.4,M,,*5A
$GPRMC,165733.500,A,4308.3012,N,07726.2623,W,0.20,292.82,210923,,,A*78
$GPGGA,165733.750,4308.3012,N,07726.2623,W,1,05,1.74,162.4,M,-34.4,M,,*5F
$GPRMC,165734.000,A,4308.3012,N,07726.2623,W,0.22,295.83,210923,,,A*7E
$GPGGA,165734.250,4308.3012,N,07726.2623,W,1,05,1.74,162.4,M,-34.4,M,,*5D
$GPRMC,165734.500,A,4308.3012,N,07726.2623,W,0.05,285.58,210923,,,A*79
$GPGGA,165734.750,4308.3012,N,07726.2623,W,1,05,2.10,162.4,M,-34.4,M,,*59
$GPRMC,165735.000,A,4308.3012,N,07726.2623,W,0.01,39.52,210923,,,A*46
$GPGGA,165735.250,4308.3012,N,07726.2623,W,1,05,2.10,162.4,M,-34.4,M,,*5D
$GPRMC,165735.500,A,4308.3012,N,07726.2623,W,0.06,147.32,210923,,,A*7A
$GPGGA,165735.750,4308.3012,N,07726.2623,W,1,05,2.10,162.4,M,-34.4,M,,*58
$GPRMC,165736.000,A,4308.3012,N,07726.2623,W,0.01,268.82,210923,,,A*7E
$GPGGA,165736.250,4308.3012,N,07726.2623,W,1,05,2.10,162.4,M,-34.4,M,,*5E
$GPRMC,165736.500,A,4308.3012,N,07726.2623,W,0.03,326.24,210923,,,A*7E
$GPGGA,165736.750,4308.3012,N,07726.2623,W,1,05,2.10,162.4,M,-34.4,M,,*5B
$GPRMC,165737.000,A,4308.3012,N,07726.2623,W,0.01,225.37,210923,,,A*78
$GPGGA,165737.250,4308.3012,N,07726.2623,W,1,05,2.10,162.4,M,-34.4,M,,*5F
$GPRMC,165737.500,A,4308.3012,N,07726.2623,W,0.03,355.77,210923,,,A*7D
$GPGGA,165737.750,4308.3012,N,07726.2623,W,1,05,2.10,162.4,M,-34.4,M,,*5A
$GPRMC,165738.000,A,4308.3012,N,07726.2623,W,0.01,75.00,210923,,,A*44
$GPGGA,165738.250,4308.3012,N,07726.2623,W,1,05,2.10,162.4,M,-34.4,M,,*50
$GPRMC,165738.500,A,4308.3012,N,07726.2623,W,0.01,218.69,210923,,,A*77
$GPGGA,165738.750,4308.3012,N,07726.2623,W,1,05,2.10,162.4,M,-34.4,M,,*55
$GPRMC,165739.000,A,4308.3012,N,07726.2623,W,0.02,197.20,210923,,,A*79
$GPGGA,165739.250,4308.3012,N,07726.2623,W,1,05,2.10,162.4,M,-34.4,M,,*51
$GPRMC,165739.500,A,4308.3012,N,07726.2623,W,0.06,137.56,210923,,,A*73
$GPGGA,165739.750,4308.3012,N,07726.2623,W,1,05,2.10,162.4,M,-34.4,M,,*54
$GPRMC,165740.000,A,4308.3012,N,07726.2623,W,0.00,43.57,210923,,,A*4D
$GPGGA,165740.250,4308.3012,N,07726.2623,W,1,05,2.10,162.4,M,-34.4,M,,*5F
$GPRMC,165740.500,A,4308.3012,N,07726.2623,W,0.02,68.59,210923,,,A*4D
$GPGGA,165740.750,4308.3012,N,07726.2623,W,1,05,2.10,162.4,M,-34.4,M,,*5A
$GPRMC,165741.000,A,4308.3012,N,07726.2623,W,0.01,56.33,210923,,,A*4B
$GPGGA,165741.250,4308.3012,N,07726.2623,W,1,05,2.10,162.4,M,-34.4,M,,*5E
$GPRMC,165741.500,A,4308.3012,N,07726.2623,W,0.02,162.85,210923,,,A*76
$GPGGA,165741.750,4308.3012,N,07726.2623,W,1,05,2.10,162.5,M,-34.4,M,,*5A
$GPRMC,165742.000,A,4308.3012,N,07726.2623,W,0.01,186.72,210923,,,A*71
$GPGGA,165742.250,4308.3012,N,07726.2623,W,1,05,2.10,162.5,M,-34.4,M,,*5C
$GPRMC,165742.500,A,4308.3012,N,07726.2623,W,0.01,339.71,210923,,,A*71
$GPGGA,165742.750,4308.3012,N,07726.2623,W,1,05,2.10,162.5,M,-34.4,M,,*59
$GPRMC,165743.000,A,4308.3012,N,07726.2623,W,0.01,22.17,210923,,,A*4C
$GPGGA,165743.250,4308.3012,N,07726.2623,W,1,05,2.10,162.5,M,-34.4,M,,*5D
$GPRMC,165743.500,A,4308.3012,N,07726.2623,W,0.01,279.22,210923,,,A*73
$GPGGA,165743.750,4308.3012,N,07726.2623,W,1,05,2.10,162.5,M,-34.4,M,,*58
$GPRMC,165744.000,A,4308.3012,N,07726.2623,W,0.00,68.31,210923,,,A*40
$GPGGA,165744.250,4308.3012,N,07726.2623,W,1,05,2.10,162.5,M,-34.4,M,,*5A
$GPRMC,165744.500,A,4308.3012,N,07726.2623,W,0.01,33.70,210923,,,A*4F
$GPGGA,165744.750,4308.3012,N,07726.2623,W,1,05,2.10,162.5,M,-34.4,M,,*5F
$GPRMC,165745.000,A,4308.3012,N,07726.2623,W,0.00,102.86,210923,,,A*70
$GPGGA,165745.250,4308.3012,N,07726.2623,W,1,05,2.09,162.5,M,-34.4,M,,*53
$GPRMC,165745.500,A,4308.3012,N,07726.2623,W,0.01,346.99,210923,,,A*78
$GPGGA,165745.750,4308.3012,N,07726.2623,W,1,05,2.09,162.5,M,-34.4,M,,*56
$GPRMC,165746.000,A,4308.3012,N,07726.2623,W,0.00,201.23,210923,,,A*7C
$GPGGA,165746.250,4308.3012,N,07726.2623,W,1,05,2.10,162.5,M,-34.4,M,,*58
$GPRMC,165746.500,A,4308.3012,N,07726.2623,W,0.01,142.35,210923,,,A*7B
$GPGGA,165746.750,4308.3012,N,07726.2623,W,1,05,2.10,162.5,M,-34.4,M,,*5D
$GPRMC,165747.000,A,4308.3013,N,07726.2623,W,0.01,45.94,210923,,,A*43
$GPGGA,165747.250,4308.3013,N,07726.2623,W,1,05,2.10,162.5,M,-34.4,M,,*58
$GPRMC,165747.500,A,4308.3013,N,07726.2623,W,0.01,104.31,210923,,,A*7D
$GPGGA,165747.750,4308.3013,N,07726.2623,W,1,05,2.10,162.5,M,-34.4,M,,*5D
$GPRMC,165748.000,A,4308.3013,N,07726.2623,W,0.01,162.98,210923,,,A*74
$GPGGA,165748.250,4308.3013,N,07726.2623,W,1,05,2.09,162.5,M,-34.4,M,,*5F
$GPRMC,165748.500,A,4308.3013,N,07726.2623,W,0.01,136.61,210923,,,A*76
$GPGGA,165748.750,4308.3013,N,07726.2623,W,1,05,2.09,162.5,M,-34.4,M,,*5A
$GPRMC,165749.000,A,4308.3013,N,07726.2623,W,0.01,81.13,210923,,,A*4A
$GPGGA,165749.250,4308.3013,N,07726.2623,W,1,05,2.09,162.5,M,-34.4,M,,*5E
$GPRMC,165749.500,A,4308.3013,N,07726.2623,W,0.00,148.78,210923,,,A*77
$GPGGA,165749.750,4308.3013,N,07726.2623,W,1,05,2.09,162.5,M,-34.4,M,,*5B
$GPRMC,165750.000,A,4308.3013,N,07726.2623,W,0.01,94.63,210923,,,A*41
$GPGGA,165750.250,4308.3013,N,07726.2623,W,1,05,2.09,162.5,M,-34.4,M,,*56
$GPRMC,165750.500,A,4308.3013,N,07726.2623,W,0.01,97.41,210923,,,A*47
$GPGGA,165750.750,4308.3013,N,07726.2623,W,1,05,2.09,162.5,M,-34.4,M,,*53
$GPRMC,165751.000,A,4308.3013,N,07726.2623,W,0.01,8.36,210923,,,A*75
$GPGGA,165751.250,4308.3013,N,07726.2623,W,1,05,2.10,162.5,M,-34.4,M,,*5F
$GPRMC,165751.500,A,4308.3013,N,07726.2623,W,0.01,289.09,210923,,,A*77
$GPGGA,165751.750,4308.3013,N,07726.2623,W,1,05,2.09,162.5,M,-34.4,M,,*52
$GPRMC,165752.000,A,4308.3013,N,07726.2623,W,0.00,194.67,210923,,,A*77
$GPGGA,165752.250,4308.3013,N,07726.2623,W,1,05,2.09,162.5,M,-34.4,M,,*54
$GPRMC,165752.500,A,4308.3013,N,07726.2623,W,0.03,41.95,210923,,,A*45
$GPGGA,165752.750,4308.3013,N,07726.2623,W,1,05,2.09,162.5,M,-34.4,M,,*51
$GPRMC,165753.000,A,4308.3013,N,07726.2623,W,0.01,36.76,210923,,,A*4E
$GPGGA,165753.250,4308.3013,N,07726.2623,W,1,05,2.09,162.5,M,-34.4,M,,*55
$GPRMC,165753.500,A,4308.3013,N,07726.2623,W,0.01,226.76,210923,,,A*78
$GPGGA,165753.750,4308.3013,N,07726.2623,W,1,05,2.09,162.5,M,-34.4,M,,*50
$GPRMC,165754.000,A,4308.3013,N,07726.2623,W,0.01,199.69,210923,,,A*73
$GPGGA,165754.250,4308.3013,N,07726.2623,W,1,05,2.09,162.5,M,-34.4,M,,*52
$GPRMC,165754.500,A,4308.3013,N,07726.2623,W,0.01,90.60,210923,,,A*47
$GPGGA,165754.750,4308.3013,N,07726.2623,W,1,05,2.09,162.5,M,-34.4,M,,*57
$GPRMC,165755.000,A,4308.3013,N,07726.2623,W,0.01,102.98,210923,,,A*7E
$GPGGA,165755.250,4308.3013,N,07726.2623,W,1,05,2.09,162.5,M,-34.4,M,,*53
$GPRMC,165755.500,A,4308.3013,N,07726.2623,W,0.01,358.17,210923,,,A*71
$GPGGA,165755.750,4308.3013,N,07726.2623,W,1,05,2.09,162.5,M,-34.4,M,,*56
$GPRMC,165756.000,A,4308.3013,N,07726.2623,W,0.00,75.44,210923,,,A*4C
$GPGGA,165756.250,4308.3013,N,07726.2623,W,1,05,2.09,162.5,M,-34.4,M,,*50
$GPRMC,165756.500,A,4308.3013,N,07726.2623,W,0.01,180.18,210923,,,A*7A
$GPGGA,165756.750,4308.3013,N,07726.2623,W,1,05,2.09,162.5,M,-34.4,M,,*55
$GPRMC,165757.000,A,4308.3013,N,07726.2623,W,0.01,114.07,210923,,,A*7D
$GPGGA,165757.250,4308.3013,N,07726.2623,W,1,05,2.09,162.5,M,-34.4,M,,*51
$GPRMC,165757.500,A,4308.3013,N,07726.2623,W,0.00,35.18,210923,,,A*45
$GPGGA,165757.750,4308.3013,N,07726.2623,W,1,05,2.09,162.5,M,-34.4,M,,*54
$GPRMC,165758.000,A,4308.3013,N,07726.2623,W,0.01,35.83,210923,,,A*4C
$GPGGA,165758.250,4308.3013,N,07726.2623,W,1,05,2.09,162.5,M,-34.4,M,,*5E
$GPRMC,165758.500,A,4308.3013,N,07726.2623,W,0.01,137.01,210923,,,A*70
$GPGGA,165758.750,4308.3013,N,07726.2623,W,1,05,2.09,162.5,M,-34.4,M,,*5B
$GPRMC,165759.000,A,4308.3013,N,07726.2623,W,0.00,131.97,210923,,,A*7C
$GPGGA,165759.250,4308.3013,N,07726.2623,W,1,05,2.09,162.5,M,-34.4,M,,*5F
$GPRMC,165759.500,A,4308.3013,N,07726.2623,W,0.01,115.99,210923,,,A*70
$GPGGA,165759.750,4308.3013,N,07726.2623,W,1,05,2.09,162.5,M,-34.4,M,,*5A
$GPRMC,165800.000,A,4308.3013,N,07726.2623,W,0.00,50.98,210923,,,A*46
$GPGGA,165800.250,4308.3013,N,07726.2623,W,1,05,2.09,162.5,M,-34.4,M,,*5C
$GPRMC,165800.500,A,4308.3013,N,07726.2623,W,0.01,59.36,210923,,,A*4F
$GPGGA,165800.750,4308.3013,N,07726.2623,W,1,05,2.09,162.5,M,-34.4,M,,*59
$GPRMC,165801.000,A,4308.3013,N,07726.2623,W,0.00,142.19,210923,,,A*7C
$GPGGA,165801.250,4308.3013,N,07726.2623,W,1,05,2.09,162.5,M,-34.4,M,,*5D
$GPRMC,165801.500,A,4308.3013,N,07726.2623,W,0.01,52.50,210923,,,A*45
$GPGGA,165801.750,4308.3013,N,07726.2623,W,1,05,2.09,162.5,M,-34.4,M,,*58
$GPRMC,165802.000,A,4308.3013,N,07726.2623,W,0.01,44.82,210923,,,A*4B
$GPGGA,165802.250,4308.3013,N,07726.2623,W,1,05,2.09,162.4,M,-34.4,M,,*5F
$GPRMC,165802.500,A,4308.3013,N,07726.2623,W,0.01,27.82,210923,,,A*4B
$GPGGA,165802.750,4308.3013,N,07726.2623,W,1,05,2.09,162.4,M,-34.4,M,,*5A
$GPRMC,165803.000,A,4308.3013,N,07726.2623,W,0.00,20.71,210923,,,A*45
$GPGGA,165803.250,4308.3013,N,07726.2623,W,1,05,2.09,162.4,M,-34.4,M,,*5E
$GPRMC,165803.500,A,4308.3013,N,07726.2623,W,0.01,67.20,210923,,,A*46
$GPGGA,165803.750,4308.3013,N,07726.2623,W,1,05,2.09,162.4,M,-34.4,M,,*5B
$GPRMC,165804.000,A,4308.3013,N,07726.2623,W,0.00,0.00,210923,,,A*76
$GPGGA,165804.250,4308.3013,N,07726.2623,W,1,05,2.09,162.4,M,-34.4,M,,*59
$GPRMC,165804.500,A,4308.3013,N,07726.2623,W,0.00,324.33,210923,,,A*76
$GPGGA,165804.750,4308.3013,N,07726.2623,W,1,05,2.09,162.4,M,-34.4,M,,*5C
$GPRMC,165805.000,A,4308.3013,N,07726.2623,W,0.01,198.99,210923,,,A*76
$GPGGA,165805.250,4308.3013,N,07726.2623,W,1,05,2.09,162.4,M,-34.4,M,,*58
$GPRMC,165805.500,A,4308.3013,N,07726.2623,W,0.01,106.12,210923,,,A*77
$GPGGA,165805.750,4308.3013,N,07726.2623,W,1,05,2.09,162.4,M,-34.4,M,,*5D
$GPRMC,165806.000,A,4308.3013,N,07726.2623,W,0.01,34.37,210923,,,A*46
$GPGGA,165806.250,4308.3013,N,07726.2623,W,1,05,2.09,162.4,M,-34.4,M,,*5B
$GPRMC,165806.500,A,4308.3013,N,07726.2623,W,0.00,181.32,210923,,,A*78
$GPGGA,165806.750,4308.3013,N,07726.2623,W,1,05,2.09,162.4,M,-34.4,M,,*5E
$GPRMC,165807.000,A,4308.3013,N,07726.2623,W,0.00,0.00,210923,,,A*75
$GPGGA,165807.250,4308.3013,N,07726.2623,W,1,05,2.09,162.4,M,-34.4,M,,*5A
$GPRMC,165807.500,A,4308.3013,N,07726.2623,W,0.01,251.70,210923,,,A*70
$GPGGA,165807.750,4308.3013,N,07726.2623,W,1,05,2.09,162.4,M,-34.4,M,,*5F
$GPRMC,165808.000,A,4308.3013,N,07726.2623,W,0.01,60.17,210923,,,A*4B
$GPGGA,165808.250,4308.3013,N,07726.2623,W,1,05,2.09,162.4,M,-34.4,M,,*55
$GPRMC,165808.500,A,4308.3013,N,07726.2623,W,0.00,242.78,210923,,,A*74
$GPGGA,165808.750,4308.3013,N,07726.2623,W,1,05,2.09,162.4,M,-34.4,M,,*50
$GPRMC,165809.000,A,4308.3013,N,07726.2623,W,0.00,165.29,210923,,,A*72
$GPGGA,165809.250,4308.3013,N,07726.2623,W,1,05,2.08,162.4,M,-34.4,M,,*55
$GPRMC,165809.500,A,4308.3013,N,07726.2623,W,0.00,12.50,210923,,,A*48
$GPGGA,165809.750,4308.3013,N,07726.2623,W,1,05,2.09,162.4,M,-34.4,M,,*51
$GPRMC,165810.000,A,4308.3013,N,07726.2623,W,0.00,9.41,210923,,,A*7F
$GPGGA,165810.250,4308.3013,N,07726.2623,W,1,05,2.09,162.4,M,-34.4,M,,*5C
$GPRMC,165810.500,A,4308.3013,N,07726.2623,W,0.01,70.01,210923,,,A*41
$GPGGA,165810.750,4308.3013,N,07726.2623,W,1,05,2.08,162.4,M,-34.4,M,,*58
$GPRMC,165811.000,A,4308.3013,N,07726.2623,W,0.01,88.05,210923,,,A*46
$GPGGA,165811.250,4308.3013,N,07726.2623,W,1,05,2.09,162.4,M,-34.4,M,,*5D
$GPRMC,165811.500,A,4308.3013,N,07726.2623,W,0.01,285.52,210923,,,A*7E
$GPGGA,165811.750,4308.3013,N,07726.2623,W,1,05,2.08,162.4,M,-34.4,M,,*59
$GPRMC,165812.000,A,4308.3013,N,07726.2623,W,0.00,173.00,210923,,,A*74
$GPGGA,165812.250,4308.3013,N,07726.2623,W,1,05,2.08,162.4,M,-34.4,M,,*5F
$GPRMC,165812.500,A,4308.3013,N,07726.2623,W,0.00,31.05,210923,,,A*43
$GPGGA,165812.750,4308.3013,N,07726.2623,W,1,05,2.09,162.4,M,-34.4,M,,*5B
$GPRMC,165813.000,A,4308.3013,N,07726.2623,W,0.01,307.95,210923,,,A*79
$GPGGA,165813.250,4308.3013,N,07726.2623,W,1,05,2.08,162.4,M,-34.4,M,,*5E
$GPRMC,165813.500,A,4308.3013,N,07726.2622,W,0.01,64.06,210923,,,A*41
$GPGGA,165813.750,4308.3013,N,07726.2622,W,1,05,2.08,162.4,M,-34.4,M,,*5A
$GPRMC,165814.000,A,4308.3013,N,07726.2622,W,0.00,0.00,210923,,,A*76
$GPGGA,165814.250,4308.3013,N,07726.2622,W,1,05,2.08,162.4,M,-34.4,M,,*58
$GPRMC,165814.500,A,4308.3013,N,07726.2622,W,0.00,344.58,210923,,,A*7D
$GPGGA,165814.750,4308.3013,N,07726.2622,W,1,05,2.08,162.4,M,-34.4,M,,*5D
$GPRMC,165815.000,A,4308.3013,N,07726.2622,W,0.01,129.05,210923,,,A*79
$GPGGA,165815.250,4308.3013,N,07726.2622,W,1,05,2.08,162.4,M,-34.4,M,,*59
$GPRMC,165815.500,A,4308.3013,N,07726.2622,W,0.01,26.23,210923,,,A*46
$GPGGA,165815.750,4308.3013,N,07726.2622,W,1,05,2.08,162.4,M,-34.4,M,,*5C
$GPRMC,165816.000,A,4308.3013,N,07726.2622,W,0.01,313.35,210923,,,A*72
$GPGGA,165816.250,4308.3013,N,07726.2622,W,1,05,2.08,162.4,M,-34.4,M,,*5A
$GPRMC,165816.500,A,4308.3013,N,07726.2622,W,0.01,7.27,210923,,,A*72
$GPGGA,165816.750,4308.3013,N,07726.2622,W,1,05,2.08,162.4,M,-34.4,M,,*5F
$GPRMC,165817.000,A,4308.3013,N,07726.2622,W,0.01,103.66,210923,,,A*76
$GPGGA,165817.250,4308.3013,N,07726.2622,W,1,05,2.08,162.4,M,-34.4,M,,*5B
$GPRMC,165817.500,A,4308.3013,N,07726.2622,W,0.01,180.71,210923,,,A*7E
$GPGGA,165817.750,4308.3013,N,07726.2622,W,1,05,2.08,162.4,M,-34.4,M,,*5E
$GPRMC,165818.000,A,4308.3013,N,07726.2622,W,0.00,343.37,210923,,,A*7A
$GPGGA,165818.250,4308.3013,N,07726.2622,W,1,05,2.08,162.4,M,-34.4,M,,*54
$GPRMC,165818.500,A,4308.3013,N,07726.2622,W,0.02,359.95,210923,,,A*7E
$GPGGA,165818.750,4308.3013,N,07726.2622,W,1,05,2.08,162.4,M,-34.4,M,,*51
$GPRMC,165819.000,A,4308.3013,N,07726.2622,W,0.01,334.14,210923,,,A*7B
$GPGGA,165819.250,4308.3013,N,07726.2622,W,1,05,2.08,162.4,M,-34.4,M,,*55
$GPRMC,165819.500,A,4308.3013,N,07726.2622,W,0.01,225.62,210923,,,A*7E
$GPGGA,165819.750,4308.3013,N,07726.2622,W,1,05,2.08,162.4,M,-34.4,M,,*50
$GPRMC,165820.000,A,4308.3013,N,07726.2622,W,0.01,270.92,210923,,,A*7E
$GPGGA,165820.250,4308.3013,N,07726.2622,W,1,06,1.99,162.4,M,-34.4,M,,*57
$GPRMC,165820.500,A,4308.3013,N,07726.2622,W,0.00,116.12,210923,,,A*71
$GPGGA,165820.750,4308.3013,N,07726.2622,W,1,06,1.99,162.4,M,-34.4,M,,*52
$GPRMC,165821.000,A,4308.3013,N,07726.2622,W,0.01,41.47,210923,,,A*47
$GPGGA,165821.250,4308.3013,N,07726.2622,W,1,06,1.99,162.4,M,-34.4,M,,*56
$GPRMC,165821.500,A,4308.3013,N,07726.2622,W,0.00,117.56,210923,,,A*71
$GPGGA,165821.750,4308.3013,N,07726.2622,W,1,06,1.99,162.4,M,-34.4,M,,*53
$GPRMC,165822.000,A,4308.3013,N,07726.2622,W,0.00,263.75,210923,,,A*76
$GPGGA,165822.250,4308.3013,N,07726.2622,W,1,06,1.99,162.4,M,-34.4,M,,*55
$GPRMC,165822.500,A,4308.3013,N,07726.2622,W,0.00,1.40,210923,,,A*73
$GPGGA,165822.750,4308.3013,N,07726.2622,W,1,06,1.99,162.4,M,-34.4,M,,*50
$GPRMC,165823.000,A,4308.3013,N,07726.2622,W,0.00,284.93,210923,,,A*76
$GPGGA,165823.250,4308.3013,N,07726.2622,W,1,06,1.99,162.4,M,-34.4,M,,*54
$GPRMC,165823.500,A,4308.3013,N,07726.2622,W,0.00,232.95,210923,,,A*78
$GPGGA,165823.750,4308.3013,N,07726.2622,W,1,06,1.99,162.4,M,-34.4,M,,*51
$GPRMC,165824.000,A,4308.3013,N,07726.2622,W,0.00,87.76,210923,,,A*4B
$GPGGA,165824.250,4308.3013,N,07726.2622,W,1,06,1.99,162.4,M,-34.4,M,,*53
$GPRMC,165824.500,A,4308.3013,N,07726.2622,W,0.01,80.70,210923,,,A*4E
$GPGGA,165824.750,4308.3013,N,07726.2622,W,1,06,1.99,162.4,M,-34.4,M,,*56
$GPRMC,165825.000,A,4308.3013,N,07726.2622,W,0.01,75.51,210923,,,A*43
$GPGGA,165825.250,4308.3013,N,07726.2622,W,1,06,1.99,162.4,M,-34.4,M,,*52
$GPRMC,165825.500,A,4308.3013,N,07726.2622,W,0.01,225.69,210923,,,A*7A
$GPGGA,165825.750,4308.3013,N,07726.2622,W,1,06,1.99,162.4,M,-34.4,M,,*57
$GPRMC,165826.000,A,4308.3013,N,07726.2622,W,0.00,47.46,210923,,,A*46
$GPGGA,165826.250,4308.3013,N,07726.2622,W,1,06,1.99,162.4,M,-34.4,M,,*51
$GPRMC,165826.500,A,4308.3013,N,07726.2622,W,0.01,82.24,210923,,,A*4F
$GPGGA,165826.750,4308.3013,N,07726.2622,W,1,06,1.99,162.4,M,-34.4,M,,*54
$GPRMC,165827.000,A,4308.3013,N,07726.2622,W,0.00,325.94,210923,,,A*7F
$GPGGA,165827.250,4308.3013,N,07726.2622,W,1,06,1.99,162.4,M,-34.4,M,,*50
$GPRMC,165827.500,A,4308.3013,N,07726.2622,W,0.01,64.73,210923,,,A*44
$GPGGA,165827.750,4308.3013,N,07726.2622,W,1,06,1.99,162.4,M,-34.4,M,,*55
$GPRMC,165828.000,A,4308.3013,N,07726.2622,W,0.01,100.06,210923,,,A*7F
$GPGGA,165828.250,4308.3013,N,07726.2622,W,1,06,1.99,162.4,M,-34.4,M,,*5F
$GPRMC,165828.500,A,4308.3013,N,07726.2622,W,0.00,0.00,210923,,,A*7C
$GPGGA,165828.750,4308.3013,N,07726.2622,W,1,06,1.99,162.4,M,-34.4,M,,*5A
$GPRMC,165829.000,A,4308.3013,N,07726.2622,W,0.00,25.50,210923,,,A*4A
$GPGGA,165829.250,4308.3013,N,07726.2622,W,1,06,1.99,162.4,M,-34.4,M,,*5E
$GPRMC,165829.500,A,4308.3013,N,07726.2622,W,0.01,4.54,210923,,,A*79
$GPGGA,165829.750,4308.3013,N,07726.2622,W,1,06,1.99,162.4,M,-34.4,M,,*5B
$GPRMC,165830.000,A,4308.3013,N,07726.2622,W,0.01,341.42,210923,,,A*71
$GPGGA,165830.250,4308.3013,N,07726.2622,W,1,06,1.99,162.4,M,-34.4,M,,*56
$GPRMC,165830.500,A,4308.3013,N,07726.2622,W,0.01,17.35,210923,,,A*44
$GPGGA,165830.750,4308.3013,N,07726.2622,W,1,06,1.99,162.4,M,-34.4,M,,*53
$GPRMC,165831.000,A,4308.3013,N,07726.2622,W,0.00,0.00,210923,,,A*71
$GPGGA,165831.250,4308.3013,N,07726.2622,W,1,06,1.99,162.4,M,-34.4,M,,*57
$GPRMC,165831.500,A,4308.3013,N,07726.2622,W,0.01,47.73,210923,,,A*42
$GPGGA,165831.750,4308.3013,N,07726.2622,W,1,06,1.99,162.4,M,-34.4,M,,*52
$GPRMC,165832.000,A,4308.3013,N,07726.2622,W,0.00,36.93,210923,,,A*4D
$GPGGA,165832.250,4308.3013,N,07726.2622,W,1,06,1.99,162.4,M,-34.4,M,,*54
$GPRMC,165832.500,A,4308.3013,N,07726.2622,W,0.00,71.70,210923,,,A*46
$GPGGA,165832.750,4308.3013,N,07726.2622,W,1,06,1.99,162.4,M,-34.4,M,,*51
$GPRMC,165833.000,A,4308.3013,N,07726.2622,W,0.01,347.40,210923,,,A*76
$GPGGA,165833.250,4308.3013,N,07726.2622,W,1,06,1.99,162.4,M,-34.4,M,,*55
$GPRMC,165833.500,A,4308.3013,N,07726.2622,W,0.03,14.57,210923,,,A*42
$GPGGA,165833.750,4308.3013,N,07726.2622,W,1,06,1.99,162.4,M,-34.4,M,,*50
$GPRMC,165834.000,A,4308.3014,N,07726.2622,W,0.04,0.72,210923,,,A*72
$GPGGA,165834.250,4308.3014,N,07726.2622,W,1,06,1.99,162.4,M,-34.4,M,,*55
$GPRMC,165834.500,A,4308.3014,N,07726.2622,W,0.04,29.09,210923,,,A*40
$GPGGA,165834.750,4308.3014,N,07726.2622,W,1,06,1.60,162.4,M,-34.4,M,,*56
$GPRMC,165835.000,A,4308.3014,N,07726.2622,W,0.09,40.17,210923,,,A*49
$GPGGA,165835.250,4308.3014,N,07726.2622,W,1,06,1.59,162.4,M,-34.4,M,,*58
$GPRMC,165835.500,A,4308.3014,N,07726.2622,W,0.31,47.85,210923,,,A*4B
$GPGGA,165835.750,4308.3014,N,07726.2622,W,1,06,1.59,162.4,M,-34.4,M,,*5D
$GPRMC,165836.000,A,4308.3015,N,07726.2621,W,0.60,49.24,210923,,,A*4E
$GPGGA,165836.250,4308.3016,N,07726.2621,W,1,06,1.60,162.4,M,-34.4,M,,*50
$GPRMC,165836.500,A,4308.3017,N,07726.2620,W,0.62,32.78,210923,,,A*4F
$GPGGA,165836.750,4308.3018,N,07726.2620,W,1,06,1.60,162.3,M,-34.4,M,,*5D
$GPRMC,165837.000,A,4308.3020,N,07726.2619,W,0.82,27.52,210923,,,A*47
$GPGGA,165837.250,4308.3021,N,07726.2618,W,1,06,1.60,162.2,M,-34.4,M,,*59
$GPRMC,165837.500,A,4308.3035,N,07726.2618,W,3.31,5.67,210923,,,A*7A
$GPGGA,165837.750,4308.3040,N,07726.2619,W,1,06,1.98,162.3,M,-34.4,M,,*5C
$GPRMC,165838.000,A,4308.3044,N,07726.2618,W,4.16,1.84,210923,,,A*7D
$GPGGA,165838.250,4308.3047,N,07726.2619,W,1,06,1.98,162.2,M,-34.4,M,,*50
$GPRMC,165838.500,A,4308.3051,N,07726.2619,W,4.27,353.82,210923,,,A*7D
$GPGGA,165838.750,4308.3054,N,07726.2620,W,1,06,1.98,162.1,M,-34.4,M,,*5E
$GPRMC,165839.000,A,4308.3057,N,07726.2620,W,3.56,352.55,210923,,,A*7F
$GPGGA,165839.250,4308.3060,N,07726.2619,W,1,06,1.98,162.1,M,-34.4,M,,*57
$GPRMC,165839.500,A,4308.3062,N,07726.2619,W,3.01,1.23,210923,,,A*70
$GPGGA,165839.750,4308.3065,N,07726.2618,W,1,06,1.98,162.0,M,-34.4,M,,*57
$GPRMC,165840.000,A,4308.3067,N,07726.2618,W,2.69,359.75,210923,,,A*7D
$GPGGA,165840.250,4308.3070,N,07726.2618,W,1,06,1.98,162.0,M,-34.4,M,,*58
$GPRMC,165840.500,A,4308.3073,N,07726.2617,W,2.91,6.12,210923,,,A*7D
$GPGGA,165840.750,4308.3076,N,07726.2616,W,1,06,1.98,162.0,M,-34.4,M,,*55
$GPRMC,165841.000,A,4308.3079,N,07726.2615,W,3.69,11.44,210923,,,A*42
$GPGGA,165841.250,4308.3082,N,07726.2614,W,1,06,1.98,161.9,M,-34.4,M,,*52
$GPRMC,165841.500,A,4308.3085,N,07726.2613,W,3.56,13.46,210923,,,A*4E
$GPGGA,165841.750,4308.3088,N,07726.2612,W,1,06,1.98,161.9,M,-34.4,M,,*5B
$GPRMC,165842.000,A,4308.3091,N,07726.2611,W,3.78,14.79,210923,,,A*48
$GPGGA,165842.250,4308.3094,N,07726.2609,W,1,06,1.98,161.9,M,-34.4,M,,*5A
$GPRMC,165842.500,A,4308.3097,N,07726.2607,W,3.91,23.00,210923,,,A*41
$GPGGA,165842.750,4308.3099,N,07726.2606,W,1,06,1.98,161.9,M,-34.4,M,,*5D
$GPRMC,165843.000,A,4308.3102,N,07726.2604,W,3.93,24.23,210923,,,A*4F
$GPGGA,165843.250,4308.3104,N,07726.2602,W,1,06,1.98,161.9,M,-34.4,M,,*58
$GPRMC,165843.500,A,4308.3106,N,07726.2598,W,4.15,42.99,210923,,,A*40
$GPGGA,165843.750,4308.3108,N,07726.2595,W,1,06,1.98,161.8,M,-34.4,M,,*5D
$GPRMC,165844.000,A,4308.3110,N,07726.2593,W,3.87,49.30,210923,,,A*4A
$GPGGA,165844.250,4308.3111,N,07726.2589,W,1,06,1.59,161.8,M,-34.4,M,,*57
$GPRMC,165844.500,A,4308.3112,N,07726.2586,W,3.15,65.95,210923,,,A*43
$GPGGA,165844.750,4308.3113,N,07726.2583,W,1,06,1.59,161.7,M,-34.4,M,,*55
$GPRMC,165845.000,A,4308.3114,N,07726.2580,W,3.11,80.17,210923,,,A*42
$GPGGA,165845.250,4308.3115,N,07726.2578,W,1,06,1.59,161.7,M,-34.4,M,,*53
$GPRMC,165845.500,A,4308.3115,N,07726.2575,W,2.69,84.03,210923,,,A*43
$GPGGA,165845.750,4308.3116,N,07726.2573,W,1,06,1.59,161.7,M,-34.4,M,,*5E
$GPRMC,165846.000,A,4308.3116,N,07726.2571,W,1.99,87.05,210923,,,A*4B
$GPGGA,165846.250,4308.3117,N,07726.2570,W,1,06,1.59,161.7,M,-34.4,M,,*5A
$GPRMC,165846.500,A,4308.3117,N,07726.2569,W,0.86,105.36,210923,,,A*72
$GPGGA,165846.750,4308.3118,N,07726.2570,W,1,06,1.59,161.7,M,-34.4,M,,*50
$GPRMC,165847.000,A,4308.3118,N,07726.2571,W,0.23,235.62,210923,,,A*7E
$GPGGA,165847.250,4308.3118,N,07726.2573,W,1,06,1.59,161.7,M,-34.4,M,,*57
$GPRMC,165847.500,A,4308.3118,N,07726.2576,W,1.40,253.22,210923,,,A*7C
$GPGGA,165847.750,4308.3117,N,07726.2581,W,1,06,1.59,161.7,M,-34.4,M,,*50
$GPRMC,165848.000,A,4308.3117,N,07726.2585,W,3.30,257.87,210923,,,A*7B
$GPGGA,165848.250,4308.3116,N,07726.2590,W,1,06,1.59,161.7,M,-34.4,M,,*5B
$GPRMC,165848.500,A,4308.3117,N,07726.2597,W,6.48,266.58,210923,,,A*77
$GPGGA,165848.750,4308.3117,N,07726.2605,W,1,06,1.98,161.8,M,-34.4,M,,*52
$GPRMC,165849.000,A,4308.3117,N,07726.2613,W,8.26,267.95,210923,,,A*7A
$GPGGA,165849.250,4308.3118,N,07726.2622,W,1,06,1.98,161.8,M,-34.4,M,,*5C
$GPRMC,165849.500,A,4308.3119,N,07726.2632,W,10.33,270.90,210923,,,A*4C
$GPGGA,165849.750,4308.3120,N,07726.2643,W,1,06,1.98,161.8,M,-34.4,M,,*55
$GPRMC,165850.000,A,4308.3121,N,07726.2654,W,11.48,274.06,210923,,,A*4C
$GPGGA,165850.250,4308.3123,N,07726.2666,W,1,06,1.98,161.8,M,-34.4,M,,*5C
$GPRMC,165850.500,A,4308.3124,N,07726.2679,W,13.22,275.45,210923,,,A*4B
$GPGGA,165850.750,4308.3127,N,07726.2693,W,1,06,1.98,161.9,M,-34.4,M,,*56
$GPRMC,165851.000,A,4308.3129,N,07726.2707,W,14.44,278.51,210923,,,A*45
$GPGGA,165851.250,4308.3131,N,07726.2722,W,1,06,1.98,162.1,M,-34.4,M,,*55
$GPRMC,165851.500,A,4308.3134,N,07726.2736,W,15.28,280.66,210923,,,A*46
$GPGGA,165851.750,4308.3136,N,07726.2751,W,1,06,1.97,162.2,M,-34.4,M,,*5F
$GPRMC,165852.000,A,4308.3138,N,07726.2766,W,15.81,281.41,210923,,,A*4E
$GPGGA,165852.250,4308.3141,N,07726.2781,W,1,06,1.98,162.3,M,-34.4,M,,*5A
$GPRMC,165852.500,A,4308.3144,N,07726.2796,W,16.23,283.74,210923,,,A*40
$GPGGA,165852.750,4308.3148,N,07726.2812,W,1,06,1.98,162.4,M,-34.4,M,,*54
$GPRMC,165853.000,A,4308.3152,N,07726.2829,W,17.52,287.57,210923,,,A*4A
$GPGGA,165853.250,4308.3157,N,07726.2846,W,1,06,1.97,162.6,M,-34.4,M,,*52
$GPRMC,165853.500,A,4308.3161,N,07726.2863,W,18.52,290.76,210923,,,A*4B
$GPGGA,165853.750,4308.3166,N,07726.2880,W,1,06,1.97,162.8,M,-34.4,M,,*51
$GPRMC,165854.000,A,4308.3171,N,07726.2897,W,18.93,292.03,210923,,,A*4E
$GPGGA,165854.250,4308.3177,N,07726.2915,W,1,06,1.97,162.8,M,-34.4,M,,*5E
$GPRMC,165854.500,A,4308.3183,N,07726.2933,W,19.37,293.91,210923,,,A*4C
$GPGGA,165854.750,4308.3189,N,07726.2951,W,1,06,1.98,162.9,M,-34.4,M,,*54
$GPRMC,165855.000,A,4308.3196,N,07726.2969,W,19.70,295.49,210923,,,A*43
$GPGGA,165855.250,4308.3202,N,07726.2987,W,1,06,1.97,162.9,M,-34.4,M,,*54
$GPRMC,165855.500,A,4308.3209,N,07726.3005,W,20.18,296.96,210923,,,A*44
$GPGGA,165855.750,4308.3217,N,07726.3023,W,1,06,1.97,163.0,M,-34.4,M,,*5B
$GPRMC,165856.000,A,4308.3224,N,07726.3041,W,20.32,298.20,210923,,,A*46
$GPGGA,165856.250,4308.3232,N,07726.3059,W,1,06,1.97,163.1,M,-34.4,M,,*56
$GPRMC,165856.500,A,4308.3240,N,07726.3076,W,20.61,299.76,210923,,,A*41
$GPGGA,165856.750,4308.3247,N,07726.3094,W,1,06,1.97,163.2,M,-34.4,M,,*53
$GPRMC,165857.000,A,4308.3255,N,07726.3112,W,20.87,300.26,210923,,,A*4E
$GPGGA,165857.250,4308.3264,N,07726.3130,W,1,06,1.98,163.4,M,-34.4,M,,*50
$GPRMC,165857.500,A,4308.3272,N,07726.3148,W,21.32,300.71,210923,,,A*4C
$GPGGA,165857.750,4308.3281,N,07726.3166,W,1,06,1.97,163.5,M,-34.4,M,,*53
$GPRMC,165858.000,A,4308.3289,N,07726.3185,W,21.46,300.84,210923,,,A*4A
$GPGGA,165858.250,4308.3298,N,07726.3203,W,1,06,1.97,163.6,M,-34.4,M,,*52
$GPRMC,165858.500,A,4308.3307,N,07726.3222,W,21.74,301.02,210923,,,A*48
$GPGGA,165858.750,4308.3316,N,07726.3240,W,1,06,1.97,163.7,M,-34.4,M,,*56
$GPRMC,165859.000,A,4308.3324,N,07726.3258,W,21.80,301.58,210923,,,A*44
$GPGGA,165859.250,4308.3334,N,07726.3277,W,1,06,1.97,163.8,M,-34.4,M,,*59
$GPRMC,165859.500,A,4308.3343,N,07726.3295,W,21.79,301.94,210923,,,A*47
$GPGGA,165859.750,4308.3352,N,07726.3313,W,1,06,1.97,164.0,M,-34.4,M,,*50
$GPRMC,165900.000,A,4308.3361,N,07726.3331,W,21.82,302.10,210923,,,A*4B
$GPGGA,165900.250,4308.3371,N,07726.3350,W,1,06,1.97,164.1,M,-34.4,M,,*5F
$GPRMC,165900.500,A,4308.3381,N,07726.3368,W,21.83,302.21,210923,,,A*4F
$GPGGA,165900.750,4308.3390,N,07726.3386,W,1,06,1.97,164.2,M,-34.4,M,,*5D
$GPRMC,165901.000,A,4308.3400,N,07726.3404,W,21.87,302.66,210923,,,A*4F
$GPGGA,165901.250,4308.3410,N,07726.3421,W,1,06,1.97,164.3,M,-34.4,M,,*5D
$GPRMC,165901.500,A,4308.3420,N,07726.3439,W,21.82,303.75,210923,,,A*40
$GPGGA,165901.750,4308.3429,N,07726.3456,W,1,06,1.97,164.4,M,-34.4,M,,*55
$GPRMC,165902.000,A,4308.3439,N,07726.3473,W,21.52,304.51,210923,,,A*4C
$GPGGA,165902.250,4308.3449,N,07726.3491,W,1,06,1.97,164.6,M,-34.4,M,,*5C
$GPRMC,165902.500,A,4308.3459,N,07726.3507,W,21.27,305.61,210923,,,A*4D
$GPGGA,165902.750,4308.3469,N,07726.3524,W,1,06,1.97,164.6,M,-34.4,M,,*54
$GPRMC,165903.000,A,4308.3479,N,07726.3540,W,21.21,306.31,210923,,,A*48
$GPGGA,165903.250,4308.3490,N,07726.3557,W,1,06,1.59,164.7,M,-34.4,M,,*51
$GPRMC,165903.500,A,4308.3500,N,07726.3573,W,21.19,307.46,210923,,,A*48
$GPGGA,165903.750,4308.3510,N,07726.3588,W,1,06,1.97,164.9,M,-34.4,M,,*53
$GPRMC,165904.000,A,4308.3520,N,07726.3603,W,20.98,310.80,210923,,,A*48
$GPGGA,165904.250,4308.3530,N,07726.3617,W,1,06,1.97,164.9,M,-34.4,M,,*56
$GPRMC,165904.500,A,4308.3539,N,07726.3631,W,20.00,313.13,210923,,,A*4C
$GPGGA,165904.750,4308.3549,N,07726.3644,W,1,06,1.97,165.0,M,-34.4,M,,*53
$GPRMC,165905.000,A,4308.3559,N,07726.3656,W,18.82,314.84,210923,,,A*47
$GPGGA,165905.250,4308.3568,N,07726.3668,W,1,06,1.59,165.2,M,-34.4,M,,*5A
$GPRMC,165905.500,A,4308.3576,N,07726.3678,W,16.45,316.41,210923,,,A*4D
$GPGGA,165905.750,4308.3585,N,07726.3685,W,1,06,1.59,165.3,M,-34.4,M,,*5E
$GPRMC,165906.000,A,4308.3593,N,07726.3691,W,13.97,323.52,210923,,,A*49
$GPGGA,165906.250,4308.3600,N,07726.3697,W,1,06,1.97,165.4,M,-34.4,M,,*50
$GPRMC,165906.500,A,4308.3607,N,07726.3702,W,11.71,327.37,210923,,,A*44
$GPGGA,165906.750,4308.3614,N,07726.3707,W,1,06,1.97,165.5,M,-34.4,M,,*59
$GPRMC,165907.000,A,4308.3620,N,07726.3712,W,10.46,329.35,210923,,,A*4D
$GPGGA,165907.250,4308.3625,N,07726.3716,W,1,06,1.59,165.5,M,-34.4,M,,*5D
$GPRMC,165907.500,A,4308.3630,N,07726.3719,W,9.09,330.98,210923,,,A*7E
$GPGGA,165907.750,4308.3635,N,07726.3723,W,1,06,1.97,165.6,M,-34.4,M,,*5E
$GPRMC,165908.000,A,4308.3640,N,07726.3726,W,8.32,332.43,210923,,,A*72
$GPGGA,165908.250,4308.3645,N,07726.3729,W,1,06,1.59,165.7,M,-34.4,M,,*5A
$GPRMC,165908.500,A,4308.3650,N,07726.3731,W,7.93,334.10,210923,,,A*74
$GPGGA,165908.750,4308.3655,N,07726.3734,W,1,06,1.97,165.7,M,-34.4,M,,*50
$GPRMC,165909.000,A,4308.3660,N,07726.3737,W,7.91,334.19,210923,,,A*7E
$GPGGA,165909.250,4308.3665,N,07726.3740,W,1,06,1.59,165.8,M,-34.4,M,,*59
$GPRMC,165909.500,A,4308.3671,N,07726.3744,W,8.50,333.76,210923,,,A*73
$GPGGA,165909.750,4308.3677,N,07726.3747,W,1,06,1.59,165.9,M,-34.4,M,,*59
$GPRMC,165910.000,A,4308.3683,N,07726.3752,W,9.13,332.19,210923,,,A*7A
$GPGGA,165910.250,4308.3689,N,07726.3756,W,1,06,1.59,166.0,M,-34.4,M,,*5F
$GPRMC,165910.500,A,4308.3695,N,07726.3760,W,9.49,330.76,210923,,,A*7D
$GPGGA,165910.750,4308.3701,N,07726.3765,W,1,06,1.59,166.1,M,-34.4,M,,*5A
$GPRMC,165911.000,A,4308.3708,N,07726.3769,W,9.89,330.92,210923,,,A*73
$GPGGA,165911.250,4308.3714,N,07726.3774,W,1,06,1.59,166.2,M,-34.4,M,,*59
$GPRMC,165911.500,A,4308.3722,N,07726.3777,W,10.54,334.60,210923,,,A*40
$GPGGA,165911.750,4308.3731,N,07726.3780,W,1,06,1.97,166.2,M,-34.4,M,,*52
$GPRMC,165912.000,A,4308.3739,N,07726.3783,W,11.31,339.81,210923,,,A*47
$GPGGA,165912.250,4308.3748,N,07726.3785,W,1,06,1.59,166.3,M,-34.4,M,,*5C
$GPRMC,165912.500,A,4308.3757,N,07726.3787,W,12.27,346.07,210923,,,A*4C
$GPGGA,165912.750,4308.3767,N,07726.3790,W,1,06,1.97,166.4,M,-34.4,M,,*55
$GPRMC,165913.000,A,4308.3777,N,07726.3793,W,12.85,346.92,210923,,,A*4B
$GPGGA,165913.250,4308.3787,N,07726.3796,W,1,06,1.96,166.5,M,-34.4,M,,*59
$GPRMC,165913.500,A,4308.3797,N,07726.3798,W,13.14,348.71,210923,,,A*41
$GPGGA,165913.750,4308.3807,N,07726.3799,W,1,06,1.96,166.6,M,-34.4,M,,*57
$GPRMC,165914.000,A,4308.3818,N,07726.3800,W,13.79,353.43,210923,,,A*45
$GPGGA,165914.250,4308.3829,N,07726.3799,W,1,06,1.96,166.8,M,-34.4,M,,*57
$GPRMC,165914.500,A,4308.3841,N,07726.3798,W,14.93,358.84,210923,,,A*41
$GPGGA,165914.750,4308.3853,N,07726.3797,W,1,06,1.96,167.0,M,-34.4,M,,*58
$GPRMC,165915.000,A,4308.3865,N,07726.3797,W,15.75,0.94,210923,,,A*4A
$GPGGA,165915.250,4308.3879,N,07726.3794,W,1,06,1.96,167.2,M,-34.4,M,,*55
$GPRMC,165915.500,A,4308.3892,N,07726.3791,W,17.12,3.88,210923,,,A*4C
$GPGGA,165915.750,4308.3906,N,07726.3787,W,1,06,1.96,167.5,M,-34.4,M,,*5C
$GPRMC,165916.000,A,4308.3920,N,07726.3784,W,18.22,5.92,210923,,,A*47
$GPGGA,165916.250,4308.3934,N,07726.3780,W,1,06,1.96,167.7,M,-34.4,M,,*5E
$GPRMC,165916.500,A,4308.3949,N,07726.3777,W,19.71,6.26,210923,,,A*4A
$GPGGA,165916.750,4308.3964,N,07726.3773,W,1,06,1.96,168.0,M,-34.4,M,,*5A
$GPRMC,165917.000,A,4308.3979,N,07726.3769,W,20.72,6.61,210923,,,A*48
$GPGGA,165917.250,4308.3994,N,07726.3764,W,1,06,1.96,168.3,M,-34.4,M,,*54
$GPRMC,165917.500,A,4308.4010,N,07726.3761,W,21.76,6.99,210923,,,A*46
$GPGGA,165917.750,4308.4026,N,07726.3756,W,1,06,1.96,168.6,M,-34.4,M,,*52
$GPRMC,165918.000,A,4308.4042,N,07726.3751,W,22.36,8.35,210923,,,A*47
$GPGGA,165918.250,4308.4059,N,07726.3745,W,1,06,1.96,169.0,M,-34.4,M,,*55
$GPRMC,165918.500,A,4308.4075,N,07726.3740,W,23.01,8.89,210923,,,A*44
$GPGGA,165918.750,4308.4092,N,07726.3735,W,1,06,1.96,169.3,M,-34.4,M,,*53
$GPRMC,165919.000,A,4308.4109,N,07726.3731,W,23.35,8.88,210923,,,A*4A
$GPGGA,165919.250,4308.4126,N,07726.3726,W,1,06,1.96,169.6,M,-34.4,M,,*5E
$GPRMC,165919.500,A,4308.4143,N,07726.3721,W,23.70,9.08,210923,,,A*48
$GPGGA,165919.750,4308.4159,N,07726.3717,W,1,06,1.96,169.8,M,-34.4,M,,*5F
$GPRMC,165920.000,A,4308.4176,N,07726.3713,W,23.72,9.43,210923,,,A*4D
$GPGGA,165920.250,4308.4192,N,07726.3708,W,1,06,1.96,170.0,M,-34.4,M,,*59
$GPRMC,165920.500,A,4308.4208,N,07726.3704,W,23.34,9.74,210923,,,A*42
$GPGGA,165920.750,4308.4225,N,07726.3700,W,1,06,1.96,170.1,M,-34.4,M,,*5A
$GPRMC,165921.000,A,4308.4241,N,07726.3697,W,23.07,9.89,210923,,,A*42
$GPGGA,165921.250,4308.4256,N,07726.3693,W,1,06,1.96,170.2,M,-34.4,M,,*52
$GPRMC,165921.500,A,4308.4272,N,07726.3689,W,22.39,10.69,210923,,,A*72
$GPGGA,165921.750,4308.4287,N,07726.3685,W,1,06,1.96,170.2,M,-34.4,M,,*5C
$GPRMC,165922.000,A,4308.4302,N,07726.3681,W,21.99,10.87,210923,,,A*73
$GPGGA,165922.250,4308.4317,N,07726.3677,W,1,06,1.96,170.3,M,-34.4,M,,*5E
$GPRMC,165922.500,A,4308.4331,N,07726.3674,W,21.26,10.83,210923,,,A*7C
$GPGGA,165922.750,4308.4346,N,07726.3670,W,1,06,1.96,170.3,M,-34.4,M,,*58
$GPRMC,165923.000,A,4308.4360,N,07726.3667,W,20.90,10.52,210923,,,A*7E
$GPGGA,165923.250,4308.4375,N,07726.3663,W,1,06,1.96,170.4,M,-34.4,M,,*59
$GPRMC,165923.500,A,4308.4389,N,07726.3659,W,20.50,10.25,210923,,,A*7D
$GPGGA,165923.750,4308.4404,N,07726.3655,W,1,06,1.96,170.4,M,-34.4,M,,*58
$GPRMC,165924.000,A,4308.4418,N,07726.3651,W,20.12,9.90,210923,,,A*48
$GPGGA,165924.250,4308.4431,N,07726.3648,W,1,06,1.96,170.5,M,-34.4,M,,*51
$GPRMC,165924.500,A,4308.4444,N,07726.3644,W,19.16,9.93,210923,,,A*4D
$GPGGA,165924.750,4308.4457,N,07726.3641,W,1,06,1.96,170.4,M,-34.4,M,,*5C
$GPRMC,165925.000,A,4308.4469,N,07726.3638,W,18.30,9.50,210923,,,A*47
$GPGGA,165925.250,4308.4480,N,07726.3635,W,1,06,1.96,170.5,M,-34.4,M,,*50
$GPRMC,165925.500,A,4308.4491,N,07726.3632,W,16.78,10.47,210923,,,A*73
$GPGGA,165925.750,4308.4501,N,07726.3629,W,1,06,1.96,170.5,M,-34.4,M,,*50
$GPRMC,165926.000,A,4308.4511,N,07726.3626,W,15.32,11.19,210923,,,A*7E
$GPGGA,165926.250,4308.4520,N,07726.3624,W,1,06,1.96,170.5,M,-34.4,M,,*58
$GPRMC,165926.500,A,4308.4527,N,07726.3622,W,13.22,12.37,210923,,,A*72
$GPGGA,165926.750,4308.4534,N,07726.3620,W,1,06,1.96,170.2,M,-34.4,M,,*5B
$GPRMC,165927.000,A,4308.4540,N,07726.3619,W,10.99,12.26,210923,,,A*7C
$GPGGA,165927.250,4308.4545,N,07726.3618,W,1,06,1.96,170.1,M,-34.4,M,,*51
$GPRMC,165927.500,A,4308.4549,N,07726.3618,W,8.32,12.76,210923,,,A*4C
$GPGGA,165927.750,4308.4552,N,07726.3617,W,1,06,1.96,169.8,M,-34.4,M,,*5C
$GPRMC,165928.000,A,4308.4554,N,07726.3617,W,5.95,13.35,210923,,,A*43
$GPGGA,165928.250,4308.4555,N,07726.3616,W,1,06,1.96,169.7,M,-34.4,M,,*5F
$GPRMC,165928.500,A,4308.4556,N,07726.3616,W,3.75,17.30,210923,,,A*4C
$GPGGA,165928.750,4308.4556,N,07726.3616,W,1,06,1.58,169.5,M,-34.4,M,,*59
$GPRMC,165929.000,A,4308.4557,N,07726.3615,W,2.88,18.00,210923,,,A*45
$GPGGA,165929.250,4308.4559,N,07726.3615,W,1,06,1.96,169.3,M,-34.4,M,,*55
$GPRMC,165929.500,A,4308.4562,N,07726.3615,W,3.24,0.84,210923,,,A*74
$GPGGA,165929.750,4308.4564,N,07726.3615,W,1,06,1.96,169.3,M,-34.4,M,,*5E
$GPRMC,165930.000,A,4308.4569,N,07726.3612,W,4.30,4.70,210923,,,A*78
$GPGGA,165930.250,4308.4574,N,07726.3610,W,1,06,1.95,169.1,M,-34.4,M,,*56
$GPRMC,165930.500,A,4308.4580,N,07726.3612,W,6.97,351.62,210923,,,A*75
$GPGGA,165930.750,4308.4585,N,07726.3614,W,1,06,1.95,169.4,M,-34.4,M,,*5C
$GPRMC,165931.000,A,4308.4591,N,07726.3616,W,8.34,345.56,210923,,,A*70
$GPGGA,165931.250,4308.4597,N,07726.3621,W,1,06,1.95,169.7,M,-34.4,M,,*5E
$GPRMC,165931.500,A,4308.4603,N,07726.3626,W,9.48,334.29,210923,,,A*7A
$GPGGA,165931.750,4308.4608,N,07726.3632,W,1,06,1.96,169.9,M,-34.4,M,,*51
$GPRMC,165932.000,A,4308.4614,N,07726.3639,W,10.20,326.10,210923,,,A*4B
$GPGGA,165932.250,4308.4620,N,07726.3647,W,1,06,1.58,170.1,M,-34.4,M,,*5D
$GPRMC,165932.500,A,4308.4625,N,07726.3658,W,10.91,310.24,210923,,,A*43
$GPGGA,165932.750,4308.4628,N,07726.3671,W,1,06,1.95,170.5,M,-34.4,M,,*50
$GPRMC,165933.000,A,4308.4632,N,07726.3683,W,12.38,296.36,210923,,,A*4A
$GPGGA,165933.250,4308.4636,N,07726.3695,W,1,06,1.58,170.6,M,-34.4,M,,*53
$GPRMC,165933.500,A,4308.4639,N,07726.3708,W,13.53,292.04,210923,,,A*4F
$GPGGA,165933.750,4308.4639,N,07726.3727,W,1,06,1.95,170.6,M,-34.4,M,,*50
$GPRMC,165934.000,A,4308.4641,N,07726.3742,W,15.88,279.73,210923,,,A*49
$GPGGA,165934.250,4308.4642,N,07726.3759,W,1,06,1.95,170.7,M,-34.4,M,,*56
$GPRMC,165934.500,A,4308.4643,N,07726.3777,W,17.49,276.47,210923,,,A*4F
$GPGGA,165934.750,4308.4644,N,07726.3795,W,1,06,1.95,170.7,M,-34.4,M,,*55
$GPRMC,165935.000,A,4308.4644,N,07726.3814,W,19.22,274.08,210923,,,A*4C
$GPGGA,165935.250,4308.4645,N,07726.3833,W,1,06,1.95,170.6,M,-34.4,M,,*52
$GPRMC,165935.500,A,4308.4646,N,07726.3853,W,19.92,273.35,210923,,,A*4A
$GPGGA,165935.750,4308.4646,N,07726.3873,W,1,06,1.95,170.5,M,-34.4,M,,*53
$GPRMC,165936.000,A,4308.4647,N,07726.3892,W,20.51,272.21,210923,,,A*41
$GPGGA,165936.250,4308.4647,N,07726.3912,W,1,06,1.58,170.4,M,-34.4,M,,*52
$GPRMC,165936.500,A,4308.4648,N,07726.3932,W,20.60,271.67,210923,,,A*43
$GPGGA,165936.750,4308.4648,N,07726.3951,W,1,06,1.95,170.3,M,-34.4,M,,*59
$GPRMC,165937.000,A,4308.4649,N,07726.3970,W,20.30,271.96,210923,,,A*4B
$GPGGA,165937.250,4308.4649,N,07726.3989,W,1,06,1.95,170.2,M,-34.4,M,,*58
$GPRMC,165937.500,A,4308.4650,N,07726.4007,W,19.52,272.23,210923,,,A*4B
$GPGGA,165937.750,4308.4651,N,07726.4024,W,1,06,1.95,170.1,M,-34.4,M,,*5E
$GPRMC,165938.000,A,4308.4652,N,07726.4041,W,18.55,273.03,210923,,,A*44
$GPGGA,165938.250,4308.4653,N,07726.4058,W,1,06,1.95,170.0,M,-34.4,M,,*5C
$GPRMC,165938.500,A,4308.4654,N,07726.4073,W,17.40,273.51,210923,,,A*4A
$GPGGA,165938.750,4308.4656,N,07726.4088,W,1,06,1.95,169.9,M,-34.4,M,,*50
$GPRMC,165939.000,A,4308.4657,N,07726.4103,W,16.32,275.17,210923,,,A*4B
$GPGGA,165939.250,4308.4659,N,07726.4118,W,1,06,1.95,169.8,M,-34.4,M,,*52
$GPRMC,165939.500,A,4308.4660,N,07726.4133,W,15.57,275.98,210923,,,A*4E
$GPGGA,165939.750,4308.4662,N,07726.4146,W,1,06,1.95,169.8,M,-34.4,M,,*54
$GPRMC,165940.000,A,4308.4663,N,07726.4160,W,14.75,277.08,210923,,,A*4A
$GPGGA,165940.250,4308.4665,N,07726.4173,W,1,06,1.58,169.7,M,-34.4,M,,*50
$GPRMC,165940.500,A,4308.4666,N,07726.4185,W,13.84,277.70,210923,,,A*47
$GPGGA,165940.750,4308.4668,N,07726.4197,W,1,06,1.95,169.6,M,-34.4,M,,*52
$GPRMC,165941.000,A,4308.4669,N,07726.4208,W,12.77,279.09,210923,,,A*47
$GPGGA,165941.250,4308.4671,N,07726.4219,W,1,06,1.58,169.6,M,-34.4,M,,*5A
$GPRMC,165941.500,A,4308.4673,N,07726.4229,W,11.30,281.38,210923,,,A*4F
$GPGGA,165941.750,4308.4674,N,07726.4238,W,1,06,1.95,169.5,M,-34.4,M,,*5B
$GPRMC,165942.000,A,4308.4675,N,07726.4248,W,10.06,280.84,210923,,,A*4A
$GPGGA,165942.250,4308.4676,N,07726.4257,W,1,06,1.58,169.5,M,-34.4,M,,*57
$GPRMC,165942.500,A,4308.4677,N,07726.4265,W,8.90,280.40,210923,,,A*7C
$GPGGA,165942.750,4308.4679,N,07726.4272,W,1,06,1.95,169.4,M,-34.4,M,,*5A
$GPRMC,165943.000,A,4308.4679,N,07726.4278,W,7.56,281.22,210923,,,A*7A
$GPGGA,165943.250,4308.4680,N,07726.4284,W,1,06,1.95,169.4,M,-34.4,M,,*51
$GPRMC,165943.500,A,4308.4680,N,07726.4289,W,6.06,281.87,210923,,,A*7C
$GPGGA,165943.750,4308.4680,N,07726.4294,W,1,05,17.71,169.3,M,-34.4,M,,*6C
$GPRMC,165944.000,A,4308.4680,N,07726.4298,W,4.84,283.83,210923,,,A*70
$GPGGA,165944.250,4308.4681,N,07726.4302,W,1,06,1.95,169.3,M,-34.4,M,,*5F
$GPRMC,165944.500,A,4308.4680,N,07726.4304,W,3.60,284.07,210923,,,A*77
$GPGGA,165944.750,4308.4679,N,07726.4307,W,1,06,1.58,169.2,M,-34.4,M,,*58
$GPRMC,165945.000,A,4308.4678,N,07726.4309,W,2.65,280.72,210923,,,A*7B
$GPGGA,165945.250,4308.4678,N,07726.4311,W,1,06,1.58,169.0,M,-34.4,M,,*58
$GPRMC,165945.500,A,4308.4676,N,07726.4312,W,1.84,280.72,210923,,,A*76
$GPGGA,165945.750,4308.4674,N,07726.4313,W,1,05,5.71,168.9,M,-34.4,M,,*57
$GPRMC,165946.000,A,4308.4674,N,07726.4315,W,1.40,280.72,210923,,,A*7D
$GPGGA,165946.250,4308.4672,N,07726.4315,W,1,05,5.71,168.9,M,-34.4,M,,*51
$GPRMC,165946.500,A,4308.4671,N,07726.4316,W,0.73,280.72,210923,,,A*7F
$GPGGA,165946.750,4308.4671,N,07726.4316,W,1,06,1.58,168.8,M,-34.4,M,,*59
$GPRMC,165947.000,A,4308.4671,N,07726.4316,W,0.49,280.72,210923,,,A*72
$GPGGA,165947.250,4308.4670,N,07726.4316,W,1,06,1.58,168.8,M,-34.4,M,,*5C
$GPRMC,165947.500,A,4308.4669,N,07726.4316,W,0.27,280.72,210923,,,A*76
$GPGGA,165947.750,4308.4668,N,07726.4316,W,1,06,1.58,168.8,M,-34.4,M,,*50
$GPRMC,165948.000,A,4308.4667,N,07726.4316,W,0.21,280.72,210923,,,A*74
$GPGGA,165948.250,4308.4667,N,07726.4316,W,1,05,5.72,168.8,M,-34.4,M,,*5A
$GPRMC,165948.500,A,4308.4665,N,07726.4317,W,0.22,280.72,210923,,,A*71
$GPGGA,165948.750,4308.4665,N,07726.4317,W,1,06,1.58,168.7,M,-34.4,M,,*5C
$GPRMC,165949.000,A,4308.4665,N,07726.4318,W,0.32,280.72,210923,,,A*7B
$GPGGA,165949.250,4308.4665,N,07726.4318,W,1,05,5.72,168.7,M,-34.4,M,,*58
$GPRMC,165949.500,A,4308.4665,N,07726.4318,W,0.62,280.72,210923,,,A*7B
$GPGGA,165949.750,4308.4665,N,07726.4319,W,1,06,1.58,168.7,M,-34.4,M,,*53
$GPRMC,165950.000,A,4308.4665,N,07726.4320,W,0.86,280.72,210923,,,A*77
$GPGGA,165950.250,4308.4665,N,07726.4321,W,1,06,1.58,168.7,M,-34.4,M,,*55
$GPRMC,165950.500,A,4308.4665,N,07726.4322,W,1.22,280.72,210923,,,A*7F
$GPGGA,165950.750,4308.4665,N,07726.4323,W,1,06,1.58,168.7,M,-34.4,M,,*52
$GPRMC,165951.000,A,4308.4665,N,07726.4324,W,1.33,280.72,210923,,,A*7D
$GPGGA,165951.250,4308.4665,N,07726.4325,W,1,06,1.58,168.7,M,-34.4,M,,*50
$GPRMC,165951.500,A,4308.4665,N,07726.4327,W,1.30,280.72,210923,,,A*78
$GPGGA,165951.750,4308.4666,N,07726.4328,W,1,06,1.58,168.7,M,-34.4,M,,*5B
$GPRMC,165952.000,A,4308.4666,N,07726.4329,W,1.20,280.72,210923,,,A*72
$GPGGA,165952.250,4308.4666,N,07726.4330,W,1,05,5.72,168.7,M,-34.4,M,,*5B
$GPRMC,165952.500,A,4308.4666,N,07726.4331,W,1.02,280.72,210923,,,A*7E
$GPGGA,165952.750,4308.4666,N,07726.4332,W,1,05,5.72,168.7,M,-34.4,M,,*5C
$GPRMC,165953.000,A,4308.4666,N,07726.4333,W,0.83,280.72,210923,,,A*70
$GPGGA,165953.250,4308.4666,N,07726.4334,W,1,05,5.72,168.7,M,-34.4,M,,*5E
$GPRMC,165953.500,A,4308.4666,N,07726.4334,W,0.66,280.72,210923,,,A*79
$GPGGA,165953.750,4308.4666,N,07726.4335,W,1,05,5.72,168.7,M,-34.4,M,,*5A
$GPRMC,165954.000,A,4308.4665,N,07726.4335,W,0.49,280.72,210923,,,A*74
$GPGGA,165954.250,4308.4665,N,07726.4336,W,1,05,5.72,168.7,M,-34.4,M,,*58
$GPRMC,165954.500,A,4308.4665,N,07726.4336,W,0.30,280.72,210923,,,A*7C
$GPGGA,165954.750,4308.4665,N,07726.4337,W,1,05,5.72,168.7,M,-34.4,M,,*5C
$GPRMC,165955.000,A,4308.4665,N,07726.4337,W,0.21,280.72,210923,,,A*79
$GPGGA,165955.250,4308.4665,N,07726.4337,W,1,05,5.73,168.7,M,-34.4,M,,*59
$GPRMC,165955.500,A,4308.4665,N,07726.4337,W,0.16,280.72,210923,,,A*78
$GPGGA,165955.750,4308.4665,N,07726.4337,W,1,05,5.72,168.7,M,-34.4,M,,*5D
$GPRMC,165956.000,A,4308.4665,N,07726.4337,W,0.12,280.72,210923,,,A*7A
$GPGGA,165956.250,4308.4665,N,07726.4338,W,1,05,5.72,168.7,M,-34.4,M,,*54
$GPRMC,165956.500,A,4308.4665,N,07726.4338,W,0.13,280.72,210923,,,A*71
$GPGGA,165956.750,4308.4665,N,07726.4338,W,1,05,5.72,168.7,M,-34.4,M,,*51
$GPRMC,165957.000,A,4308.4666,N,07726.4338,W,0.21,280.72,210923,,,A*77
$GPGGA,165957.250,4308.4666,N,07726.4338,W,1,05,5.72,168.7,M,-34.4,M,,*56
$GPRMC,165957.500,A,4308.4666,N,07726.4338,W,0.33,280.72,210923,,,A*71
$GPGGA,165957.750,4308.4666,N,07726.4338,W,1,05,5.72,168.7,M,-34.4,M,,*53
$GPRMC,165958.000,A,4308.4666,N,07726.4338,W,0.42,280.72,210923,,,A*7D
$GPGGA,165958.250,4308.4667,N,07726.4338,W,1,05,5.72,168.7,M,-34.4,M,,*58
$GPRMC,165958.500,A,4308.4667,N,07726.4339,W,0.46,280.72,210923,,,A*7C
$GPGGA,165958.750,4308.4667,N,07726.4339,W,1,05,5.72,168.7,M,-34.4,M,,*5C
$GPRMC,165959.000,A,4308.4668,N,07726.4339,W,0.47,280.72,210923,,,A*76
$GPGGA,165959.250,4308.4668,N,07726.4339,W,1,05,5.72,168.7,M,-34.4,M,,*57
$GPRMC,165959.500,A,4308.4668,N,07726.4339,W,0.45,280.72,210923,,,A*71
$GPGGA,165959.750,4308.4669,N,07726.4339,W,1,05,17.56,168.7,M,-34.4,M,,*66
$GPRMC,170000.000,A,4308.4669,N,07726.4339,W,0.39,280.72,210923,,,A*7F
$GPGGA,170000.250,4308.4669,N,07726.4339,W,1,05,17.55,168.7,M,-34.4,M,,*61
$GPRMC,170000.500,A,4308.4670,N,07726.4339,W,0.39,280.72,210923,,,A*72
$GPGGA,170000.750,4308.4670,N,07726.4339,W,1,05,17.54,168.7,M,-34.4,M,,*6D
$GPRMC,170001.000,A,4308.4670,N,07726.4339,W,0.41,280.72,210923,,,A*79
$GPGGA,170001.250,4308.4670,N,07726.4339,W,1,05,17.54,168.7,M,-34.4,M,,*69
$GPRMC,170001.500,A,4308.4671,N,07726.4339,W,0.44,280.72,210923,,,A*78
$GPGGA,170001.750,4308.4671,N,07726.4339,W,1,05,17.53,168.7,M,-34.4,M,,*6A
$GPRMC,170002.000,A,4308.4671,N,07726.4339,W,0.47,280.72,210923,,,A*7D
$GPGGA,170002.250,4308.4672,N,07726.4340,W,1,06,1.85,168.7,M,-34.4,M,,*5E
$GPRMC,170002.500,A,4308.4672,N,07726.4340,W,0.60,280.72,210923,,,A*70
$GPGGA,170002.750,4308.4673,N,07726.4340,W,1,06,1.85,168.7,M,-34.4,M,,*5A
$GPRMC,170003.000,A,4308.4673,N,07726.4340,W,0.00,280.72,210923,,,A*73
$GPGGA,170003.250,4308.4673,N,07726.4340,W,1,06,1.85,168.7,M,-34.4,M,,*5E
$GPRMC,170003.500,A,4308.4673,N,07726.4340,W,0.00,280.72,210923,,,A*76
$GPGGA,170003.750,4308.4673,N,07726.4340,W,1,06,1.85,168.7,M,-34.4,M,,*5B
$GPRMC,170004.000,A,4308.4673,N,07726.4340,W,0.00,280.72,210923,,,A*74
$GPGGA,170004.250,4308.4673,N,07726.4340,W,1,06,1.85,168.7,M,-34.4,M,,*59
$GPRMC,170004.500,A,4308.4673,N,07726.4340,W,0.00,280.72,210923,,,A*71
$GPGGA,170004.750,4308.4673,N,07726.4340,W,1,06,1.85,168.7,M,-34.4,M,,*5C
$GPRMC,170005.000,A,4308.4673,N,07726.4340,W,0.14,280.72,210923,,,A*70
$GPGGA,170005.250,4308.4673,N,07726.4340,W,1,06,1.85,168.7,M,-34.4,M,,*58
$GPRMC,170005.500,A,4308.4673,N,07726.4340,W,0.22,280.72,210923,,,A*70
$GPGGA,170005.750,4308.4674,N,07726.4340,W,1,06,1.85,168.7,M,-34.4,M,,*5A
$GPRMC,170006.000,A,4308.4674,N,07726.4340,W,0.30,280.72,210923,,,A*72
$GPGGA,170006.250,4308.4674,N,07726.4340,W,1,06,1.85,168.7,M,-34.4,M,,*5C
$GPRMC,170006.500,A,4308.4674,N,07726.4340,W,0.38,280.72,210923,,,A*7F
$GPGGA,170006.750,4308.4675,N,07726.4340,W,1,06,1.85,168.7,M,-34.4,M,,*58
$GPRMC,170007.000,A,4308.4675,N,07726.4340,W,0.46,280.72,210923,,,A*73
$GPGGA,170007.250,4308.4675,N,07726.4340,W,1,06,1.85,168.7,M,-34.4,M,,*5C
$GPRMC,170007.500,A,4308.4676,N,07726.4340,W,0.58,280.72,210923,,,A*7A
$GPGGA,170007.750,4308.4676,N,07726.4340,W,1,07,1.28,168.7,M,-34.4,M,,*5C
$GPRMC,170008.000,A,4308.4676,N,07726.4341,W,1.06,280.72,210923,,,A*7B
$GPGGA,170008.250,4308.4677,N,07726.4342,W,1,07,1.28,168.7,M,-34.4,M,,*55
$GPRMC,170008.500,A,4308.4677,N,07726.4343,W,2.22,280.72,210923,,,A*78
$GPGGA,170008.750,4308.4681,N,07726.4349,W,1,06,1.32,168.8,M,-34.4,M,,*57
$GPRMC,170009.000,A,4308.4683,N,07726.4356,W,5.81,270.57,210923,,,A*75
$GPGGA,170009.250,4308.4682,N,07726.4364,W,1,07,1.31,169.2,M,-34.4,M,,*56
$GPRMC,170009.500,A,4308.4682,N,07726.4374,W,9.21,271.49,210923,,,A*79
$GPGGA,170009.750,4308.4681,N,07726.4385,W,1,07,1.30,169.3,M,-34.4,M,,*5F
$GPRMC,170010.000,A,4308.4682,N,07726.4395,W,10.68,271.00,210923,,,A*43
$GPGGA,170010.250,4308.4680,N,07726.4407,W,1,07,1.31,169.5,M,-34.4,M,,*59
$GPRMC,170010.500,A,4308.4679,N,07726.4420,W,12.78,261.68,210923,,,A*47
$GPGGA,170010.750,4308.4677,N,07726.4433,W,1,07,1.31,169.8,M,-34.4,M,,*5E
$GPRMC,170011.000,A,4308.4676,N,07726.4446,W,14.04,256.75,210923,,,A*49
$GPGGA,170011.250,4308.4673,N,07726.4460,W,1,07,1.31,170.0,M,-34.4,M,,*58
$GPRMC,170011.500,A,4308.4670,N,07726.4474,W,15.32,250.00,210923,,,A*4B
$GPGGA,170011.750,4308.4666,N,07726.4489,W,1,07,1.31,170.1,M,-34.4,M,,*5F
$GPRMC,170012.000,A,4308.4662,N,07726.4502,W,15.79,244.74,210923,,,A*47
$GPGGA,170012.250,4308.4657,N,07726.4516,W,1,07,1.31,170.2,M,-34.4,M,,*5F
$GPRMC,170012.500,A,4308.4650,N,07726.4529,W,16.24,236.10,210923,,,A*46
$GPGGA,170012.750,4308.4642,N,07726.4542,W,1,07,1.31,170.2,M,-34.4,M,,*5F
$GPRMC,170013.000,A,4308.4634,N,07726.4554,W,16.57,227.32,210923,,,A*4E
$GPGGA,170013.250,4308.4624,N,07726.4566,W,1,07,1.31,170.2,M,-34.4,M,,*5D
$GPRMC,170013.500,A,4308.4613,N,07726.4578,W,18.19,217.31,210923,,,A*44
$GPGGA,170013.750,4308.4601,N,07726.4589,W,1,07,1.31,170.0,M,-34.4,M,,*5C
$GPRMC,170014.000,A,4308.4590,N,07726.4599,W,19.02,212.11,210923,,,A*4D
$GPGGA,170014.250,4308.4578,N,07726.4608,W,1,07,1.28,169.9,M,-34.4,M,,*50
$GPRMC,170014.500,A,4308.4565,N,07726.4616,W,19.75,206.26,210923,,,A*47
$GPGGA,170014.750,4308.4551,N,07726.4622,W,1,07,1.31,169.8,M,-34.4,M,,*5F
$GPRMC,170015.000,A,4308.4538,N,07726.4629,W,20.08,201.95,210923,,,A*48
$GPGGA,170015.250,4308.4524,N,07726.4634,W,1,07,1.28,169.7,M,-34.4,M,,*59
$GPRMC,170015.500,A,4308.4511,N,07726.4640,W,20.05,198.16,210923,,,A*4C
$GPGGA,170015.750,4308.4498,N,07726.4645,W,1,07,1.30,169.6,M,-34.4,M,,*54
$GPRMC,170016.000,A,4308.4485,N,07726.4649,W,19.61,196.00,210923,,,A*4E
$GPGGA,170016.250,4308.4472,N,07726.4653,W,1,07,1.31,169.4,M,-34.4,M,,*52
$GPRMC,170016.500,A,4308.4460,N,07726.4657,W,19.01,194.50,210923,,,A*4E
$GPGGA,170016.750,4308.4447,N,07726.4662,W,1,07,1.31,169.3,M,-34.4,M,,*54
$GPRMC,170017.000,A,4308.4435,N,07726.4666,W,18.53,195.02,210923,,,A*48
$GPGGA,170017.250,4308.4423,N,07726.4671,W,1,07,1.30,169.2,M,-34.4,M,,*50
$GPRMC,170017.500,A,4308.4411,N,07726.4676,W,17.82,196.06,210923,,,A*4E
$GPGGA,170017.750,4308.4400,N,07726.4681,W,1,07,1.30,169.0,M,-34.4,M,,*59
$GPRMC,170018.000,A,4308.4388,N,07726.4686,W,17.55,197.09,210923,,,A*48
$GPGGA,170018.250,4308.4377,N,07726.4691,W,1,07,1.31,168.8,M,-34.4,M,,*5D
$GPRMC,170018.500,A,4308.4366,N,07726.4696,W,17.23,198.32,210923,,,A*4A
$GPGGA,170018.750,4308.4354,N,07726.4701,W,1,07,1.30,168.7,M,-34.4,M,,*5F
$GPRMC,170019.000,A,4308.4343,N,07726.4706,W,17.01,199.17,210923,,,A*47
$GPGGA,170019.250,4308.4332,N,07726.4712,W,1,07,1.28,168.6,M,-34.4,M,,*51
$GPRMC,170019.500,A,4308.4321,N,07726.4718,W,16.95,200.62,210923,,,A*44
$GPGGA,170019.750,4308.4310,N,07726.4723,W,1,07,1.30,168.5,M,-34.4,M,,*5C
$GPRMC,170020.000,A,4308.4298,N,07726.4729,W,17.77,200.35,210923,,,A*45
