Vers 81
USE_SERIAL_FEEDBACK=true
DEVELOPMENT_MODE=false
USE_RMC_ONLY=false

$GPRMC,184333.750,A,4305.1956,N,07735.7176,W,0.06,49.43,101023,,,A*45
$GPGGA,184334.000,4305.1955,N,07735.7175,W,1,05,1.37,161.7,M,-34.4,M,,*50
$GPRMC,184334.250,A,4305.1954,N,07735.7175,W,0.04,287.53,101023,,,A*75
$GPGGA,184334.500,4305.1953,N,07735.7175,W,1,05,1.37,161.7,M,-34.4,M,,*53
$GPRMC,184334.750,A,4305.1953,N,07735.7175,W,0.02,42.70,101023,,,A*4B
$GPGGA,184335.000,4305.1953,N,07735.7175,W,1,05,1.37,161.8,M,-34.4,M,,*58
$GPRMC,184335.250,A,4305.1952,N,07735.7175,W,0.02,53.67,101023,,,A*48
$GPGGA,184335.500,4305.1952,N,07735.7175,W,1,05,1.37,161.9,M,-34.4,M,,*5D
$GPRMC,184335.750,A,4305.1951,N,07735.7175,W,0.05,9.19,101023,,,A*7F
$GPGGA,184336.000,4305.1950,N,07735.7175,W,1,05,1.42,161.9,M,-34.4,M,,*5B
$GPRMC,184336.250,A,4305.1950,N,07735.7174,W,0.01,129.73,101023,,,A*72
$GPGGA,184336.500,4305.1950,N,07735.7175,W,1,05,1.37,161.9,M,-34.4,M,,*5C
$GPRMC,184336.750,A,4305.1951,N,07735.7175,W,0.01,245.86,101023,,,A*74
$GPGGA,184337.000,4305.1951,N,07735.7176,W,1,05,1.37,161.8,M,-34.4,M,,*5B
$GPRMC,184337.250,A,4305.1951,N,07735.7176,W,0.02,121.85,101023,,,A*72
$GPGGA,184337.500,4305.1951,N,07735.7176,W,1,05,1.37,161.8,M,-34.4,M,,*5E
$GPRMC,184337.750,A,4305.1951,N,07735.7177,W,0.01,56.81,101023,,,A*40
$GPGGA,184338.000,4305.1951,N,07735.7177,W,1,05,1.37,161.9,M,-34.4,M,,*54
$GPRMC,184338.250,A,4305.1951,N,07735.7178,W,0.01,55.54,101023,,,A*4E
$GPGGA,184338.500,4305.1951,N,07735.7178,W,1,05,1.37,162.0,M,-34.4,M,,*54
$GPRMC,184338.750,A,4305.1952,N,07735.7178,W,0.04,306.00,101023,,,A*79
$GPGGA,184339.000,4305.1952,N,07735.7178,W,1,05,1.37,162.0,M,-34.4,M,,*53
$GPRMC,184339.250,A,4305.1952,N,07735.7179,W,0.05,290.07,101023,,,A*74
$GPGGA,184339.500,4305.1952,N,07735.7179,W,1,05,1.37,162.2,M,-34.4,M,,*55
$GPRMC,184339.750,A,4305.1952,N,07735.7179,W,0.02,5.27,101023,,,A*7A
$GPGGA,184340.000,4305.1952,N,07735.7179,W,1,05,1.42,162.4,M,-34.4,M,,*5A
$GPRMC,184340.250,A,4305.1952,N,07735.7179,W,0.02,357.25,101023,,,A*77
$GPGGA,184340.500,4305.1952,N,07735.7179,W,1,05,1.42,162.7,M,-34.4,M,,*5C
$GPRMC,184340.750,A,4305.1952,N,07735.7179,W,0.05,309.65,101023,,,A*7A
$GPGGA,184341.000,4305.1952,N,07735.7179,W,1,05,1.38,162.9,M,-34.4,M,,*5B
$GPRMC,184341.250,A,4305.1952,N,07735.7179,W,0.01,142.82,101023,,,A*7E
$GPGGA,184341.500,4305.1952,N,07735.7179,W,1,05,1.37,163.0,M,-34.4,M,,*59
$GPRMC,184341.750,A,4305.1952,N,07735.7179,W,0.01,237.96,101023,,,A*7F
$GPGGA,184342.000,4305.1952,N,07735.7180,W,1,05,1.38,163.1,M,-34.4,M,,*57
$GPRMC,184342.250,A,4305.1952,N,07735.7180,W,0.04,349.51,101023,,,A*79
$GPGGA,184342.500,4305.1952,N,07735.7180,W,1,05,1.42,163.2,M,-34.4,M,,*5C
$GPRMC,184342.750,A,4305.1953,N,07735.7180,W,0.02,0.26,101023,,,A*75
$GPGGA,184343.000,4305.1953,N,07735.7180,W,1,05,1.42,163.3,M,-34.4,M,,*58
$GPRMC,184343.250,A,4305.1953,N,07735.7180,W,0.04,240.19,101023,,,A*7D
$GPGGA,184343.500,4305.1953,N,07735.7180,W,1,05,1.38,163.4,M,-34.4,M,,*57
$GPRMC,184343.750,A,4305.1953,N,07735.7180,W,0.03,321.36,101023,,,A*74
$GPGGA,184344.000,4305.1953,N,07735.7180,W,1,05,1.38,163.4,M,-34.4,M,,*55
$GPRMC,184344.250,A,4305.1953,N,07735.7180,W,0.01,173.21,101023,,,A*77
$GPGGA,184344.500,4305.1953,N,07735.7180,W,1,05,1.37,163.5,M,-34.4,M,,*5E
$GPRMC,184344.750,A,4305.1953,N,07735.7180,W,0.02,51.96,101023,,,A*4C
$GPGGA,184345.000,4305.1954,N,07735.7180,W,1,05,1.38,163.6,M,-34.4,M,,*51
$GPRMC,184345.250,A,4305.1954,N,07735.7180,W,0.04,300.41,101023,,,A*74
$GPGGA,184345.500,4305.1954,N,07735.7180,W,1,05,1.38,163.7,M,-34.4,M,,*55
$GPRMC,184345.750,A,4305.1954,N,07735.7180,W,0.03,40.07,101023,,,A*43
$GPGGA,184346.000,4305.1954,N,07735.7180,W,1,05,1.38,163.8,M,-34.4,M,,*5C
$GPRMC,184346.250,A,4305.1955,N,07735.7180,W,0.03,205.35,101023,,,A*76
$GPGGA,184346.500,4305.1955,N,07735.7180,W,1,05,1.38,163.9,M,-34.4,M,,*59
$GPRMC,184346.750,A,4305.1955,N,07735.7180,W,0.04,296.82,101023,,,A*72
$GPGGA,184347.000,4305.1955,N,07735.7179,W,1,05,1.38,164.1,M,-34.4,M,,*54
$GPRMC,184347.250,A,4305.1955,N,07735.7179,W,0.05,310.90,101023,,,A*7D
$GPGGA,184347.500,4305.1956,N,07735.7179,W,1,05,1.38,164.2,M,-34.4,M,,*51
$GPRMC,184347.750,A,4305.1956,N,07735.7179,W,0.02,285.97,101023,,,A*76
$GPGGA,184348.000,4305.1956,N,07735.7179,W,1,05,1.38,164.3,M,-34.4,M,,*5A
$GPRMC,184348.250,A,4305.1956,N,07735.7179,W,0.03,327.12,101023,,,A*79
$GPGGA,184348.500,4305.1956,N,07735.7179,W,1,05,1.38,164.4,M,-34.4,M,,*58
$GPRMC,184348.750,A,4305.1956,N,07735.7178,W,0.03,153.45,101023,,,A*7E
$GPGGA,184349.000,4305.1956,N,07735.7178,W,1,05,1.38,164.5,M,-34.4,M,,*5C
$GPRMC,184349.250,A,4305.1957,N,07735.7178,W,0.02,11.43,101023,,,A*4B
$GPGGA,184349.500,4305.1957,N,07735.7178,W,1,05,1.42,164.6,M,-34.4,M,,*56
$GPRMC,184349.750,A,4305.1957,N,07735.7178,W,0.02,357.64,101023,,,A*7A
$GPGGA,184350.000,4305.1957,N,07735.7177,W,1,05,1.42,164.7,M,-34.4,M,,*55
$GPRMC,184350.250,A,4305.1957,N,07735.7177,W,0.01,118.60,101023,,,A*76
$GPGGA,184350.500,4305.1957,N,07735.7177,W,1,05,1.38,164.8,M,-34.4,M,,*52
$GPRMC,184350.750,A,4305.1957,N,07735.7177,W,0.04,289.28,101023,,,A*71
$GPGGA,184351.000,4305.1957,N,07735.7177,W,1,05,1.38,164.9,M,-34.4,M,,*57
$GPRMC,184351.250,A,4305.1957,N,07735.7176,W,0.01,140.30,101023,,,A*7E
$GPGGA,184351.500,4305.1957,N,07735.7176,W,1,05,1.38,165.0,M,-34.4,M,,*5B
$GPRMC,184351.750,A,4305.1957,N,07735.7176,W,0.04,355.69,101023,,,A*74
$GPGGA,184352.000,4305.1958,N,07735.7176,W,1,05,1.42,165.1,M,-34.4,M,,*5E
$GPRMC,184352.250,A,4305.1958,N,07735.7176,W,0.01,5.81,101023,,,A*78
$GPGGA,184352.500,4305.1958,N,07735.7175,W,1,05,1.42,165.1,M,-34.4,M,,*58
$GPRMC,184352.750,A,4305.1958,N,07735.7175,W,0.02,335.14,101023,,,A*71
$GPGGA,184353.000,4305.1958,N,07735.7175,W,1,05,1.38,165.2,M,-34.4,M,,*52
$GPRMC,184353.250,A,4305.1958,N,07735.7175,W,0.04,121.87,101023,,,A*7E
$GPGGA,184353.500,4305.1958,N,07735.7175,W,1,05,1.38,165.2,M,-34.4,M,,*57
$GPRMC,184353.750,A,4305.1958,N,07735.7175,W,0.03,304.06,101023,,,A*70
$GPGGA,184354.000,4305.1958,N,07735.7174,W,1,05,1.38,165.2,M,-34.4,M,,*54
$GPRMC,184354.250,A,4305.1959,N,07735.7174,W,0.05,24.09,101023,,,A*4A
$GPGGA,184354.500,4305.1959,N,07735.7174,W,1,05,1.38,165.2,M,-34.4,M,,*50
$GPRMC,184354.750,A,4305.1959,N,07735.7174,W,0.02,312.87,101023,,,A*78
$GPGGA,184355.000,4305.1959,N,07735.7174,W,1,05,1.38,165.1,M,-34.4,M,,*57
$GPRMC,184355.250,A,4305.1959,N,07735.7174,W,0.03,344.65,101023,,,A*72
$GPGGA,184355.500,4305.1959,N,07735.7174,W,1,05,1.38,165.0,M,-34.4,M,,*53
$GPRMC,184355.750,A,4305.1960,N,07735.7173,W,0.01,44.20,101023,,,A*4A
$GPGGA,184356.000,4305.1960,N,07735.7173,W,1,05,1.38,165.0,M,-34.4,M,,*58
$GPRMC,184356.250,A,4305.1960,N,07735.7173,W,0.05,346.89,101023,,,A*7A
$GPGGA,184356.500,4305.1961,N,07735.7173,W,1,06,1.24,164.8,M,-34.4,M,,*5B
$GPRMC,184356.750,A,4305.1961,N,07735.7173,W,0.02,294.36,101023,,,A*73
$GPGGA,184357.000,4305.1961,N,07735.7173,W,1,06,1.21,164.6,M,-34.4,M,,*54
$GPRMC,184357.250,A,4305.1962,N,07735.7173,W,0.02,83.49,101023,,,A*48
$GPGGA,184357.500,4305.1962,N,07735.7173,W,1,06,1.21,164.5,M,-34.4,M,,*51
$GPRMC,184357.750,A,4305.1962,N,07735.7173,W,0.03,294.80,101023,,,A*7D
$GPGGA,184358.000,4305.1963,N,07735.7172,W,1,06,1.21,164.3,M,-34.4,M,,*5D
$GPRMC,184358.250,A,4305.1963,N,07735.7172,W,0.01,73.68,101023,,,A*48
$GPGGA,184358.500,4305.1963,N,07735.7172,W,1,06,1.21,164.2,M,-34.4,M,,*59
$GPRMC,184358.750,A,4305.1963,N,07735.7172,W,0.04,101.01,101023,,,A*73
$GPGGA,184359.000,4305.1964,N,07735.7172,W,1,06,1.21,164.0,M,-34.4,M,,*58
$GPRMC,184359.250,A,4305.1964,N,07735.7172,W,0.01,56.93,101023,,,A*4D
$GPGGA,184359.500,4305.1964,N,07735.7172,W,1,06,1.21,163.9,M,-34.4,M,,*53
$GPRMC,184359.750,A,4305.1964,N,07735.7172,W,0.03,94.02,101023,,,A*4C
$GPGGA,184400.000,4305.1964,N,07735.7172,W,1,06,1.21,163.8,M,-34.4,M,,*5C
$GPRMC,184400.250,A,4305.1965,N,07735.7172,W,0.04,131.02,101023,,,A*7A
$GPGGA,184400.500,4305.1965,N,07735.7172,W,1,06,1.21,163.7,M,-34.4,M,,*57
$GPRMC,184400.750,A,4305.1965,N,07735.7172,W,0.02,227.85,101023,,,A*72
$GPGGA,184401.000,4305.1965,N,07735.7172,W,1,06,1.21,163.5,M,-34.4,M,,*51
$GPRMC,184401.250,A,4305.1966,N,07735.7172,W,0.04,272.69,101023,,,A*71
$GPGGA,184401.500,4305.1966,N,07735.7172,W,1,06,1.21,163.4,M,-34.4,M,,*56
$GPRMC,184401.750,A,4305.1966,N,07735.7172,W,0.03,13.47,101023,,,A*4A
$GPGGA,184402.000,4305.1966,N,07735.7172,W,1,06,1.24,163.3,M,-34.4,M,,*52
$GPRMC,184402.250,A,4305.1967,N,07735.7172,W,0.03,192.12,101023,,,A*75
$GPGGA,184402.500,4305.1967,N,07735.7172,W,1,07,1.04,163.3,M,-34.4,M,,*55
$GPRMC,184402.750,A,4305.1967,N,07735.7172,W,0.02,316.67,101023,,,A*7D
$GPGGA,184403.000,4305.1968,N,07735.7172,W,1,07,1.04,163.1,M,-34.4,M,,*5C
$GPRMC,184403.250,A,4305.1968,N,07735.7172,W,0.02,127.94,101023,,,A*7A
$GPGGA,184403.500,4305.1968,N,07735.7172,W,1,07,1.04,163.0,M,-34.4,M,,*58
$GPRMC,184403.750,A,4305.1969,N,07735.7172,W,0.02,352.05,101023,,,A*76
$GPGGA,184404.000,4305.1969,N,07735.7172,W,1,07,1.07,162.9,M,-34.4,M,,*50
$GPRMC,184404.250,A,4305.1969,N,07735.7172,W,0.04,276.14,101023,,,A*75
$GPGGA,184404.500,4305.1969,N,07735.7172,W,1,07,1.04,162.8,M,-34.4,M,,*57
$GPRMC,184404.750,A,4305.1970,N,07735.7172,W,0.02,358.76,101023,,,A*77
$GPGGA,184405.000,4305.1970,N,07735.7172,W,1,07,1.07,162.7,M,-34.4,M,,*57
$GPRMC,184405.250,A,4305.1970,N,07735.7172,W,0.01,192.80,101023,,,A*7D
$GPGGA,184405.500,4305.1970,N,07735.7172,W,1,07,1.04,162.5,M,-34.4,M,,*53
$GPRMC,184405.750,A,4305.1971,N,07735.7172,W,0.01,185.87,101023,,,A*78
$GPGGA,184406.000,4305.1971,N,07735.7172,W,1,07,1.05,162.5,M,-34.4,M,,*55
$GPRMC,184406.250,A,4305.1971,N,07735.7172,W,0.06,316.03,101023,,,A*7D
$GPGGA,184406.500,4305.1971,N,07735.7172,W,1,07,1.04,162.5,M,-34.4,M,,*51
$GPRMC,184406.750,A,4305.1971,N,07735.7172,W,0.01,155.62,101023,,,A*7D
$GPGGA,184407.000,4305.1971,N,07735.7172,W,1,07,1.04,162.5,M,-34.4,M,,*55
$GPRMC,184407.250,A,4305.1971,N,07735.7172,W,0.05,58.26,101023,,,A*41
$GPGGA,184407.500,4305.1971,N,07735.7172,W,1,07,1.04,162.5,M,-34.4,M,,*50
$GPRMC,184407.750,A,4305.1971,N,07735.7172,W,0.01,82.95,101023,,,A*4F
$GPGGA,184408.000,4305.1971,N,07735.7172,W,1,07,1.04,162.5,M,-34.4,M,,*5A
$GPRMC,184408.250,A,4305.1971,N,07735.7172,W,0.02,338.25,101023,,,A*7F
$GPGGA,184408.500,4305.1971,N,07735.7172,W,1,07,1.04,162.5,M,-34.4,M,,*5F
$GPRMC,184408.750,A,4305.1971,N,07735.7172,W,0.01,178.03,101023,,,A*7B
$GPGGA,184409.000,4305.1971,N,07735.7172,W,1,07,1.05,162.5,M,-34.4,M,,*5A
$GPRMC,184409.250,A,4305.1971,N,07735.7172,W,0.04,73.06,101023,,,A*45
$GPGGA,184409.500,4305.1971,N,07735.7172,W,1,07,1.05,162.5,M,-34.4,M,,*5F
$GPRMC,184409.750,A,4305.1971,N,07735.7172,W,0.01,31.50,101023,,,A*40
$GPGGA,184410.000,4305.1971,N,07735.7172,W,1,07,1.04,162.5,M,-34.4,M,,*53
$GPRMC,184410.250,A,4305.1971,N,07735.7172,W,0.00,213.49,101023,,,A*76
$GPGGA,184410.500,4305.1971,N,07735.7172,W,1,07,1.04,162.5,M,-34.4,M,,*56
$GPRMC,184410.750,A,4305.1971,N,07735.7172,W,0.01,181.87,101023,,,A*78
$GPGGA,184411.000,4305.1971,N,07735.7172,W,1,07,1.04,162.5,M,-34.4,M,,*52
$GPRMC,184411.250,A,4305.1971,N,07735.7172,W,0.01,123.06,101023,,,A*7D
$GPGGA,184411.500,4305.1971,N,07735.7172,W,1,07,1.04,162.6,M,-34.4,M,,*54
$GPRMC,184411.750,A,4305.1971,N,07735.7172,W,0.01,231.16,101023,,,A*79
$GPGGA,184412.000,4305.1971,N,07735.7172,W,1,07,1.04,162.6,M,-34.4,M,,*52
$GPRMC,184412.250,A,4305.1971,N,07735.7172,W,0.02,130.25,101023,,,A*7E
$GPGGA,184412.500,4305.1971,N,07735.7172,W,1,07,1.04,162.6,M,-34.4,M,,*57
$GPRMC,184412.750,A,4305.1971,N,07735.7172,W,0.00,55.12,101023,,,A*4F
$GPGGA,184413.000,4305.1971,N,07735.7172,W,1,07,1.04,162.6,M,-34.4,M,,*53
$GPRMC,184413.250,A,4305.1971,N,07735.7172,W,0.03,5.78,101023,,,A*71
$GPGGA,184413.500,4305.1971,N,07735.7172,W,1,07,1.06,162.6,M,-34.4,M,,*54
$GPRMC,184413.750,A,4305.1971,N,07735.7172,W,0.02,95.74,101023,,,A*40
$GPGGA,184414.000,4305.1971,N,07735.7172,W,1,07,1.04,162.6,M,-34.4,M,,*54
$GPRMC,184414.250,A,4305.1971,N,07735.7172,W,0.02,171.99,101023,,,A*7A
$GPGGA,184414.500,4305.1971,N,07735.7172,W,1,07,1.04,162.6,M,-34.4,M,,*51
$GPRMC,184414.750,A,4305.1971,N,07735.7172,W,0.02,138.36,101023,,,A*77
$GPGGA,184415.000,4305.1971,N,07735.7172,W,1,07,1.07,162.6,M,-34.4,M,,*56
$GPRMC,184415.250,A,4305.1971,N,07735.7172,W,0.01,134.53,101023,,,A*7F
$GPGGA,184415.500,4305.1971,N,07735.7172,W,1,07,1.06,162.5,M,-34.4,M,,*51
$GPRMC,184415.750,A,4305.1971,N,07735.7172,W,0.00,173.75,101023,,,A*7C
$GPGGA,184416.000,4305.1971,N,07735.7172,W,1,07,1.07,162.5,M,-34.4,M,,*56
$GPRMC,184416.250,A,4305.1971,N,07735.7172,W,0.00,171.16,101023,,,A*7D
$GPGGA,184416.500,4305.1971,N,07735.7172,W,1,07,1.07,162.5,M,-34.4,M,,*53
$GPRMC,184416.750,A,4305.1971,N,07735.7172,W,0.01,86.67,101023,,,A*46
$GPGGA,184417.000,4305.1971,N,07735.7172,W,1,07,1.07,162.5,M,-34.4,M,,*57
$GPRMC,184417.250,A,4305.1971,N,07735.7172,W,0.00,107.25,101023,,,A*7D
$GPGGA,184417.500,4305.1971,N,07735.7172,W,1,07,1.07,162.5,M,-34.4,M,,*52
$GPRMC,184417.750,A,4305.1971,N,07735.7172,W,0.00,24.41,101023,,,A*4A
$GPGGA,184418.000,4305.1971,N,07735.7172,W,1,07,1.06,162.5,M,-34.4,M,,*59
$GPRMC,184418.250,A,4305.1971,N,07735.7172,W,0.01,66.50,101023,,,A*47
$GPGGA,184418.500,4305.1971,N,07735.7172,W,1,07,1.06,162.5,M,-34.4,M,,*5C
$GPRMC,184418.750,A,4305.1971,N,07735.7172,W,0.00,319.83,101023,,,A*76
$GPGGA,184419.000,4305.1971,N,07735.7172,W,1,07,1.06,162.5,M,-34.4,M,,*58
$GPRMC,184419.250,A,4305.1971,N,07735.7172,W,0.01,342.67,101023,,,A*77
$GPGGA,184419.500,4305.1971,N,07735.7172,W,1,07,1.06,162.5,M,-34.4,M,,*5D
$GPRMC,184419.750,A,4305.1971,N,07735.7172,W,0.00,203.22,101023,,,A*76
$GPGGA,184420.000,4305.1971,N,07735.7172,W,1,07,1.06,162.5,M,-34.4,M,,*52
$GPRMC,184420.250,A,4305.1971,N,07735.7172,W,0.00,266.43,101023,,,A*7D
$GPGGA,184420.500,4305.1971,N,07735.7172,W,1,07,1.07,162.5,M,-34.4,M,,*56
$GPRMC,184420.750,A,4305.1971,N,07735.7172,W,0.01,52.96,101023,,,A*44
$GPGGA,184421.000,4305.1971,N,07735.7172,W,1,07,1.07,162.5,M,-34.4,M,,*52
$GPRMC,184421.250,A,4305.1971,N,07735.7172,W,0.00,228.86,101023,,,A*7F
$GPGGA,184421.500,4305.1971,N,07735.7172,W,1,07,1.06,162.5,M,-34.4,M,,*56
$GPRMC,184421.750,A,4305.1971,N,07735.7172,W,0.01,249.06,101023,,,A*74
$GPGGA,184422.000,4305.1971,N,07735.7172,W,1,07,1.06,162.5,M,-34.4,M,,*50
$GPRMC,184422.250,A,4305.1971,N,07735.7172,W,0.15,242.39,101023,,,A*70
$GPGGA,184422.500,4305.1971,N,07735.7172,W,1,07,1.04,162.5,M,-34.4,M,,*57
$GPRMC,184422.750,A,4305.1971,N,07735.7173,W,0.42,245.06,101023,,,A*7D
$GPGGA,184423.000,4305.1970,N,07735.7173,W,1,07,1.04,162.5,M,-34.4,M,,*53
$GPRMC,184423.250,A,4305.1970,N,07735.7173,W,0.30,233.88,101023,,,A*7A
$GPGGA,184423.500,4305.1970,N,07735.7173,W,1,07,1.04,162.5,M,-34.4,M,,*56
$GPRMC,184423.750,A,4305.1970,N,07735.7174,W,0.43,225.26,101023,,,A*7F
$GPGGA,184424.000,4305.1970,N,07735.7174,W,1,06,1.30,162.5,M,-34.4,M,,*55
$GPRMC,184424.250,A,4305.1970,N,07735.7174,W,0.46,212.64,101023,,,A*7A
$GPGGA,184424.500,4305.1970,N,07735.7174,W,1,07,1.04,162.5,M,-34.4,M,,*56
$GPRMC,184424.750,A,4305.1968,N,07735.7175,W,1.88,202.56,101023,,,A*74
$GPGGA,184425.000,4305.1965,N,07735.7176,W,1,07,1.04,162.4,M,-34.4,M,,*55
$GPRMC,184425.250,A,4305.1962,N,07735.7178,W,3.00,200.27,101023,,,A*71
$GPGGA,184425.500,4305.1960,N,07735.7179,W,1,07,1.04,162.4,M,-34.4,M,,*5A
$GPRMC,184425.750,A,4305.1957,N,07735.7179,W,3.77,192.48,101023,,,A*72
$GPGGA,184426.000,4305.1954,N,07735.7180,W,1,07,1.04,162.3,M,-34.4,M,,*5A
$GPRMC,184426.250,A,4305.1951,N,07735.7180,W,4.03,181.53,101023,,,A*78
$GPGGA,184426.500,4305.1948,N,07735.7180,W,1,07,1.06,162.3,M,-34.4,M,,*50
$GPRMC,184426.750,A,4305.1945,N,07735.7179,W,4.36,171.64,101023,,,A*73
$GPGGA,184427.000,4305.1942,N,07735.7177,W,1,07,1.06,162.2,M,-34.4,M,,*57
$GPRMC,184427.250,A,4305.1939,N,07735.7175,W,4.93,154.31,101023,,,A*78
$GPGGA,184427.500,4305.1936,N,07735.7172,W,1,07,1.06,162.2,M,-34.4,M,,*54
$GPRMC,184427.750,A,4305.1934,N,07735.7168,W,5.42,136.95,101023,,,A*7B
$GPGGA,184428.000,4305.1931,N,07735.7163,W,1,07,1.06,162.1,M,-34.4,M,,*5A
$GPRMC,184428.250,A,4305.1929,N,07735.7158,W,6.39,125.19,101023,,,A*77
$GPGGA,184428.500,4305.1927,N,07735.7153,W,1,06,1.21,162.1,M,-34.4,M,,*5F
$GPRMC,184428.750,A,4305.1925,N,07735.7146,W,6.96,112.91,101023,,,A*70
$GPGGA,184429.000,4305.1924,N,07735.7139,W,1,07,1.06,162.0,M,-34.4,M,,*51
$GPRMC,184429.250,A,4305.1923,N,07735.7132,W,7.90,102.21,101023,,,A*7C
$GPGGA,184429.500,4305.1921,N,07735.7125,W,1,07,1.06,161.9,M,-34.4,M,,*56
$GPRMC,184429.750,A,4305.1920,N,07735.7116,W,8.88,103.18,101023,,,A*71
$GPGGA,184430.000,4305.1918,N,07735.7108,W,1,07,1.06,161.8,M,-34.4,M,,*5F
$GPRMC,184430.250,A,4305.1916,N,07735.7099,W,9.60,104.32,101023,,,A*77
$GPGGA,184430.500,4305.1914,N,07735.7090,W,1,07,1.06,161.7,M,-34.4,M,,*59
$GPRMC,184430.750,A,4305.1911,N,07735.7081,W,10.69,106.76,101023,,,A*4F
$GPGGA,184431.000,4305.1908,N,07735.7070,W,1,07,1.06,161.6,M,-34.4,M,,*5F
$GPRMC,184431.250,A,4305.1904,N,07735.7060,W,11.55,108.70,101023,,,A*46
$GPGGA,184431.500,4305.1901,N,07735.7050,W,1,06,1.24,161.5,M,-34.4,M,,*53
$GPRMC,184431.750,A,4305.1897,N,07735.7040,W,12.26,110.23,101023,,,A*42
$GPGGA,184432.000,4305.1894,N,07735.7029,W,1,06,1.24,161.5,M,-34.4,M,,*56
$GPRMC,184432.250,A,4305.1890,N,07735.7017,W,12.78,111.54,101023,,,A*4B
$GPGGA,184432.500,4305.1887,N,07735.7006,W,1,06,1.24,161.4,M,-34.4,M,,*5D
$GPRMC,184432.750,A,4305.1883,N,07735.6995,W,12.82,111.21,101023,,,A*49
$GPGGA,184433.000,4305.1879,N,07735.6984,W,1,06,1.24,161.3,M,-34.4,M,,*5D
$GPRMC,184433.250,A,4305.1875,N,07735.6972,W,13.09,111.28,101023,,,A*46
$GPGGA,184433.500,4305.1872,N,07735.6961,W,1,06,1.24,161.3,M,-34.4,M,,*58
$GPRMC,184433.750,A,4305.1868,N,07735.6950,W,13.01,112.08,101023,,,A*46
$GPGGA,184434.000,4305.1864,N,07735.6939,W,1,06,1.24,161.2,M,-34.4,M,,*51
$GPRMC,184434.250,A,4305.1860,N,07735.6928,W,12.90,112.69,101023,,,A*4D
$GPGGA,184434.500,4305.1856,N,07735.6917,W,1,07,1.06,161.2,M,-34.4,M,,*58
$GPRMC,184434.750,A,4305.1852,N,07735.6906,W,12.62,113.94,101023,,,A*4B
$GPGGA,184435.000,4305.1848,N,07735.6896,W,1,07,1.06,161.1,M,-34.4,M,,*58
$GPRMC,184435.250,A,4305.1845,N,07735.6886,W,12.29,113.55,101023,,,A*42
$GPGGA,184435.500,4305.1841,N,07735.6876,W,1,07,1.06,161.2,M,-34.4,M,,*59
$GPRMC,184435.750,A,4305.1837,N,07735.6866,W,12.06,114.16,101023,,,A*41
$GPGGA,184436.000,4305.1833,N,07735.6856,W,1,06,1.24,161.2,M,-34.4,M,,*59
$GPRMC,184436.250,A,4305.1830,N,07735.6846,W,12.00,114.59,101023,,,A*4F
$GPGGA,184436.500,4305.1826,N,07735.6836,W,1,06,1.21,161.2,M,-34.4,M,,*5B
$GPRMC,184436.750,A,4305.1822,N,07735.6825,W,11.92,115.34,101023,,,A*4E
$GPGGA,184437.000,4305.1819,N,07735.6815,W,1,06,1.24,161.1,M,-34.4,M,,*54
$GPRMC,184437.250,A,4305.1815,N,07735.6804,W,11.90,114.99,101023,,,A*49
$GPGGA,184437.500,4305.1812,N,07735.6794,W,1,05,1.80,161.1,M,-34.4,M,,*51
$GPRMC,184437.750,A,4305.1808,N,07735.6783,W,11.93,115.68,101023,,,A*4C
$GPGGA,184438.000,4305.1804,N,07735.6773,W,1,06,1.24,161.0,M,-34.4,M,,*59
$GPRMC,184438.250,A,4305.1799,N,07735.6762,W,12.21,117.95,101023,,,A*44
$GPGGA,184438.500,4305.1795,N,07735.6751,W,1,05,1.80,161.0,M,-34.4,M,,*56
$GPRMC,184438.750,A,4305.1790,N,07735.6740,W,12.29,118.33,101023,,,A*43
$GPGGA,184439.000,4305.1786,N,07735.6730,W,1,05,2.06,161.1,M,-34.4,M,,*5B
$GPRMC,184439.250,A,4305.1782,N,07735.6719,W,12.27,118.41,101023,,,A*43
$GPGGA,184439.500,4305.1777,N,07735.6708,W,1,06,1.30,161.1,M,-34.4,M,,*5E
$GPRMC,184439.750,A,4305.1771,N,07735.6696,W,12.63,117.74,101023,,,A*45
$GPGGA,184440.000,4305.1765,N,07735.6684,W,1,06,1.30,161.2,M,-34.4,M,,*50
$GPRMC,184440.250,A,4305.1760,N,07735.6672,W,13.01,115.73,101023,,,A*44
$GPGGA,184440.500,4305.1755,N,07735.6660,W,1,06,1.30,161.2,M,-34.4,M,,*5C
$GPRMC,184440.750,A,4305.1750,N,07735.6648,W,13.31,115.10,101023,,,A*4D
$GPGGA,184441.000,4305.1746,N,07735.6637,W,1,05,2.06,161.2,M,-34.4,M,,*5D
$GPRMC,184441.250,A,4305.1742,N,07735.6625,W,13.74,113.73,101023,,,A*43
$GPGGA,184441.500,4305.1738,N,07735.6613,W,1,06,1.29,161.1,M,-34.4,M,,*59
$GPRMC,184441.750,A,4305.1735,N,07735.6600,W,13.86,110.41,101023,,,A*4E
$GPGGA,184442.000,4305.1732,N,07735.6587,W,1,06,1.30,161.1,M,-34.4,M,,*53
$GPRMC,184442.250,A,4305.1729,N,07735.6574,W,14.09,105.39,101023,,,A*4E
$GPGGA,184442.500,4305.1726,N,07735.6561,W,1,07,1.06,160.9,M,-34.4,M,,*56
$GPRMC,184442.750,A,4305.1724,N,07735.6547,W,14.68,100.86,101023,,,A*40
$GPGGA,184443.000,4305.1723,N,07735.6533,W,1,07,1.06,160.8,M,-34.4,M,,*51
$GPRMC,184443.250,A,4305.1723,N,07735.6519,W,14.86,95.69,101023,,,A*74
$GPGGA,184443.500,4305.1723,N,07735.6504,W,1,07,1.06,160.8,M,-34.4,M,,*50
$GPRMC,184443.750,A,4305.1723,N,07735.6489,W,15.10,91.28,101023,,,A*76
$GPGGA,184444.000,4305.1724,N,07735.6474,W,1,07,1.06,160.8,M,-34.4,M,,*53
$GPRMC,184444.250,A,4305.1725,N,07735.6459,W,15.64,85.51,101023,,,A*77
$GPGGA,184444.500,4305.1727,N,07735.6444,W,1,07,1.06,160.8,M,-34.4,M,,*56
$GPRMC,184444.750,A,4305.1729,N,07735.6429,W,16.04,82.71,101023,,,A*79
$GPGGA,184445.000,4305.1731,N,07735.6414,W,1,07,1.06,160.8,M,-34.4,M,,*50
$GPRMC,184445.250,A,4305.1734,N,07735.6398,W,16.48,79.54,101023,,,A*77
$GPGGA,184445.500,4305.1737,N,07735.6383,W,1,07,1.06,160.7,M,-34.4,M,,*55
$GPRMC,184445.750,A,4305.1740,N,07735.6367,W,16.58,77.14,101023,,,A*7A
$GPGGA,184446.000,4305.1744,N,07735.6352,W,1,07,1.06,160.7,M,-34.4,M,,*5B
$GPRMC,184446.250,A,4305.1747,N,07735.6336,W,17.18,75.84,101023,,,A*71
$GPGGA,184446.500,4305.1752,N,07735.6321,W,1,07,1.06,160.7,M,-34.4,M,,*5D
$GPRMC,184446.750,A,4305.1756,N,07735.6306,W,17.21,77.17,101023,,,A*75
$GPGGA,184447.000,4305.1759,N,07735.6290,W,1,07,1.06,160.7,M,-34.4,M,,*59
$GPRMC,184447.250,A,4305.1763,N,07735.6276,W,16.71,79.19,101023,,,A*75
$GPGGA,184447.500,4305.1765,N,07735.6261,W,1,07,1.06,160.6,M,-34.4,M,,*5C
$GPRMC,184447.750,A,4305.1767,N,07735.6247,W,16.39,81.32,101023,,,A*74
$GPGGA,184448.000,4305.1769,N,07735.6232,W,1,06,1.25,160.5,M,-34.4,M,,*5F
$GPRMC,184448.250,A,4305.1770,N,07735.6217,W,16.35,84.63,101023,,,A*70
$GPGGA,184448.500,4305.1772,N,07735.6202,W,1,07,1.06,160.4,M,-34.4,M,,*52
$GPRMC,184448.750,A,4305.1773,N,07735.6187,W,16.27,86.80,101023,,,A*70
$GPGGA,184449.000,4305.1774,N,07735.6172,W,1,07,1.06,160.3,M,-34.4,M,,*53
$GPRMC,184449.250,A,4305.1775,N,07735.6157,W,16.01,89.18,101023,,,A*75
$GPGGA,184449.500,4305.1776,N,07735.6142,W,1,07,1.06,160.2,M,-34.4,M,,*56
$GPRMC,184449.750,A,4305.1777,N,07735.6127,W,15.58,92.21,101023,,,A*7A
$GPGGA,184450.000,4305.1776,N,07735.6112,W,1,07,1.06,160.2,M,-34.4,M,,*5E
$GPRMC,184450.250,A,4305.1776,N,07735.6098,W,15.37,95.63,101023,,,A*7B
$GPGGA,184450.500,4305.1774,N,07735.6084,W,1,07,1.04,160.2,M,-34.4,M,,*55
$GPRMC,184450.750,A,4305.1773,N,07735.6069,W,14.78,99.15,101023,,,A*72
$GPGGA,184451.000,4305.1771,N,07735.6055,W,1,06,1.30,160.1,M,-34.4,M,,*5D
$GPRMC,184451.250,A,4305.1769,N,07735.6042,W,13.99,103.21,101023,,,A*49
$GPGGA,184451.500,4305.1767,N,07735.6030,W,1,07,1.06,159.9,M,-34.4,M,,*5A
$GPRMC,184451.750,A,4305.1764,N,07735.6019,W,12.48,105.42,101023,,,A*41
$GPGGA,184452.000,4305.1762,N,07735.6008,W,1,07,1.06,159.9,M,-34.4,M,,*52
$GPRMC,184452.250,A,4305.1759,N,07735.5999,W,10.48,108.35,101023,,,A*44
$GPGGA,184452.500,4305.1756,N,07735.5990,W,1,07,1.06,159.8,M,-34.4,M,,*5A
$GPRMC,184452.750,A,4305.1754,N,07735.5984,W,7.63,110.41,101023,,,A*75
$GPGGA,184453.000,4305.1752,N,07735.5978,W,1,07,1.06,160.0,M,-34.4,M,,*5E
$GPRMC,184453.250,A,4305.1751,N,07735.5974,W,4.87,107.74,101023,,,A*72
$GPGGA,184453.500,4305.1750,N,07735.5970,W,1,07,1.06,160.0,M,-34.4,M,,*51
$GPRMC,184453.750,A,4305.1749,N,07735.5968,W,3.16,105.01,101023,,,A*7C
$GPGGA,184454.000,4305.1748,N,07735.5966,W,1,07,1.04,160.0,M,-34.4,M,,*5F
$GPRMC,184454.250,A,4305.1746,N,07735.5966,W,1.72,105.01,101023,,,A*7F
$GPGGA,184454.500,4305.1745,N,07735.5966,W,1,07,1.04,160.0,M,-34.4,M,,*57
$GPRMC,184454.750,A,4305.1744,N,07735.5965,W,0.95,105.01,101023,,,A*73
$GPGGA,184455.000,4305.1743,N,07735.5965,W,1,07,1.04,160.1,M,-34.4,M,,*57
$GPRMC,184455.250,A,4305.1743,N,07735.5966,W,0.07,105.01,101023,,,A*78
$GPGGA,184455.500,4305.1742,N,07735.5967,W,1,07,1.04,160.1,M,-34.4,M,,*51
$GPRMC,184455.750,A,4305.1742,N,07735.5967,W,0.03,105.01,101023,,,A*79
$GPGGA,184456.000,4305.1741,N,07735.5967,W,1,07,1.04,160.2,M,-34.4,M,,*57
$GPRMC,184456.250,A,4305.1741,N,07735.5967,W,0.01,105.01,101023,,,A*7E
$GPGGA,184456.500,4305.1741,N,07735.5967,W,1,07,1.04,160.2,M,-34.4,M,,*52
$GPRMC,184456.750,A,4305.1741,N,07735.5967,W,0.01,105.01,101023,,,A*7B
$GPGGA,184457.000,4305.1741,N,07735.5968,W,1,07,1.04,160.2,M,-34.4,M,,*59
$GPRMC,184457.250,A,4305.1741,N,07735.5967,W,0.01,105.01,101023,,,A*7F
$GPGGA,184457.500,4305.1741,N,07735.5967,W,1,07,1.06,160.2,M,-34.4,M,,*51
$GPRMC,184457.750,A,4305.1741,N,07735.5967,W,0.04,105.01,101023,,,A*7F
$GPGGA,184458.000,4305.1741,N,07735.5967,W,1,07,1.04,160.2,M,-34.4,M,,*59
$GPRMC,184458.250,A,4305.1741,N,07735.5967,W,0.03,105.01,101023,,,A*72
$GPGGA,184458.500,4305.1741,N,07735.5967,W,1,07,1.04,160.1,M,-34.4,M,,*5F
$GPRMC,184458.750,A,4305.1741,N,07735.5967,W,0.01,105.01,101023,,,A*75
$GPGGA,184459.000,4305.1741,N,07735.5967,W,1,07,1.06,160.1,M,-34.4,M,,*59
$GPRMC,184459.250,A,4305.1741,N,07735.5967,W,0.47,105.01,101023,,,A*73
$GPGGA,184459.500,4305.1741,N,07735.5967,W,1,07,1.04,160.1,M,-34.4,M,,*5E
$GPRMC,184459.750,A,4305.1741,N,07735.5966,W,1.56,105.01,101023,,,A*76
$GPGGA,184500.000,4305.1740,N,07735.5964,W,1,07,1.04,160.1,M,-34.4,M,,*54
$GPRMC,184500.250,A,4305.1740,N,07735.5962,W,2.84,104.56,101023,,,A*74
$GPGGA,184500.500,4305.1739,N,07735.5959,W,1,07,1.04,160.2,M,-34.4,M,,*52
$GPRMC,184500.750,A,4305.1739,N,07735.5955,W,4.74,102.40,101023,,,A*73
$GPGGA,184501.000,4305.1738,N,07735.5951,W,1,07,1.06,160.2,M,-34.4,M,,*5D
$GPRMC,184501.250,A,4305.1737,N,07735.5945,W,6.61,95.59,101023,,,A*49
$GPGGA,184501.500,4305.1737,N,07735.5938,W,1,07,1.06,160.2,M,-34.4,M,,*58
$GPRMC,184501.750,A,4305.1737,N,07735.5931,W,7.54,87.19,101023,,,A*4F
$GPGGA,184502.000,4305.1737,N,07735.5925,W,1,07,1.06,160.2,M,-34.4,M,,*52
$GPRMC,184502.250,A,4305.1737,N,07735.5918,W,8.26,84.30,101023,,,A*40
$GPGGA,184502.500,4305.1739,N,07735.5911,W,1,07,1.06,160.2,M,-34.4,M,,*5E
$GPRMC,184502.750,A,4305.1741,N,07735.5903,W,9.79,74.40,101023,,,A*4D
$GPGGA,184503.000,4305.1744,N,07735.5894,W,1,07,1.06,160.2,M,-34.4,M,,*5C
$GPRMC,184503.250,A,4305.1748,N,07735.5886,W,11.33,63.48,101023,,,A*75
$GPGGA,184503.500,4305.1752,N,07735.5876,W,1,07,1.06,160.2,M,-34.4,M,,*52
$GPRMC,184503.750,A,4305.1757,N,07735.5867,W,12.92,53.81,101023,,,A*7F
$GPGGA,184504.000,4305.1763,N,07735.5857,W,1,07,1.06,160.3,M,-34.4,M,,*50
$GPRMC,184504.250,A,4305.1771,N,07735.5849,W,14.22,44.68,101023,,,A*79
$GPGGA,184504.500,4305.1779,N,07735.5840,W,1,07,1.06,160.3,M,-34.4,M,,*58
$GPRMC,184504.750,A,4305.1788,N,07735.5832,W,14.96,36.90,101023,,,A*7B
$GPGGA,184505.000,4305.1797,N,07735.5825,W,1,07,1.06,160.2,M,-34.4,M,,*5E
$GPRMC,184505.250,A,4305.1807,N,07735.5818,W,15.60,28.87,101023,,,A*7E
$GPGGA,184505.500,4305.1817,N,07735.5811,W,1,07,1.06,160.1,M,-34.4,M,,*58
$GPRMC,184505.750,A,4305.1827,N,07735.5804,W,16.39,25.22,101023,,,A*79
$GPGGA,184506.000,4305.1839,N,07735.5798,W,1,07,1.06,160.0,M,-34.4,M,,*5D
$GPRMC,184506.250,A,4305.1850,N,07735.5791,W,17.34,22.28,101023,,,A*7D
$GPGGA,184506.500,4305.1862,N,07735.5785,W,1,07,1.06,159.9,M,-34.4,M,,*59
$GPRMC,184506.750,A,4305.1873,N,07735.5779,W,17.43,21.01,101023,,,A*77
$GPGGA,184507.000,4305.1885,N,07735.5773,W,1,07,1.06,159.9,M,-34.4,M,,*5D
$GPRMC,184507.250,A,4305.1896,N,07735.5767,W,17.45,20.15,101023,,,A*75
$GPGGA,184507.500,4305.1908,N,07735.5761,W,1,07,1.06,159.9,M,-34.4,M,,*5F
$GPRMC,184507.750,A,4305.1919,N,07735.5755,W,16.70,19.93,101023,,,A*74
$GPGGA,184508.000,4305.1930,N,07735.5749,W,1,07,1.06,160.0,M,-34.4,M,,*57
$GPRMC,184508.250,A,4305.1941,N,07735.5744,W,16.20,19.79,101023,,,A*72
$GPGGA,184508.500,4305.1952,N,07735.5738,W,1,07,1.06,160.0,M,-34.4,M,,*50
$GPRMC,184508.750,A,4305.1962,N,07735.5732,W,15.76,19.52,101023,,,A*7E
$GPGGA,184509.000,4305.1973,N,07735.5726,W,1,07,1.06,160.2,M,-34.4,M,,*5A
$GPRMC,184509.250,A,4305.1984,N,07735.5721,W,15.32,19.00,101023,,,A*77
$GPGGA,184509.500,4305.1994,N,07735.5716,W,1,07,1.06,160.3,M,-34.4,M,,*54
$GPRMC,184509.750,A,4305.2005,N,07735.5708,W,15.09,19.75,101023,,,A*70
$GPGGA,184510.000,4305.2016,N,07735.5701,W,1,07,1.06,160.4,M,-34.4,M,,*58
$GPRMC,184510.250,A,4305.2026,N,07735.5694,W,14.35,20.75,101023,,,A*7C
$GPGGA,184510.500,4305.2036,N,07735.5688,W,1,07,1.06,160.6,M,-34.4,M,,*5D
$GPRMC,184510.750,A,4305.2045,N,07735.5683,W,13.92,21.49,101023,,,A*7E
$GPGGA,184511.000,4305.2054,N,07735.5678,W,1,07,1.06,160.7,M,-34.4,M,,*53
$GPRMC,184511.250,A,4305.2064,N,07735.5673,W,13.41,22.93,101023,,,A*7C
$GPGGA,184511.500,4305.2073,N,07735.5667,W,1,07,1.04,160.8,M,-34.4,M,,*50
$GPRMC,184511.750,A,4305.2081,N,07735.5661,W,13.14,22.77,101023,,,A*7B
$GPGGA,184512.000,4305.2089,N,07735.5656,W,1,06,1.29,161.0,M,-34.4,M,,*56
$GPRMC,184512.250,A,4305.2097,N,07735.5651,W,12.48,21.71,101023,,,A*74
$GPGGA,184512.500,4305.2104,N,07735.5647,W,1,06,1.29,161.2,M,-34.4,M,,*55
$GPRMC,184512.750,A,4305.2112,N,07735.5642,W,11.41,23.36,101023,,,A*74
$GPGGA,184513.000,4305.2118,N,07735.5638,W,1,07,1.06,161.3,M,-34.4,M,,*59
$GPRMC,184513.250,A,4305.2123,N,07735.5635,W,8.95,24.01,101023,,,A*40
$GPGGA,184513.500,4305.2128,N,07735.5633,W,1,07,1.06,161.5,M,-34.4,M,,*52
$GPRMC,184513.750,A,4305.2132,N,07735.5632,W,6.63,22.42,101023,,,A*44
$GPGGA,184514.000,4305.2135,N,07735.5631,W,1,07,1.06,161.6,M,-34.4,M,,*5D
$GPRMC,184514.250,A,4305.2137,N,07735.5630,W,3.83,23.94,101023,,,A*40
$GPGGA,184514.500,4305.2139,N,07735.5629,W,1,07,1.04,161.6,M,-34.4,M,,*5F
$GPRMC,184514.750,A,4305.2140,N,07735.5629,W,2.00,22.12,101023,,,A*48
$GPGGA,184515.000,4305.2140,N,07735.5630,W,1,07,1.04,161.7,M,-34.4,M,,*5C
$GPRMC,184515.250,A,4305.2139,N,07735.5630,W,0.03,22.12,101023,,,A*4B
$GPGGA,184515.500,4305.2139,N,07735.5629,W,1,07,1.04,161.5,M,-34.4,M,,*5D
$GPRMC,184515.750,A,4305.2138,N,07735.5629,W,0.02,22.12,101023,,,A*46
$GPGGA,184516.000,4305.2137,N,07735.5629,W,1,07,1.04,161.4,M,-34.4,M,,*54
$GPRMC,184516.250,A,4305.2135,N,07735.5629,W,0.07,22.12,101023,,,A*48
$GPGGA,184516.500,4305.2135,N,07735.5629,W,1,07,1.04,161.4,M,-34.4,M,,*53
$GPRMC,184516.750,A,4305.2134,N,07735.5629,W,0.09,22.12,101023,,,A*42
$GPGGA,184517.000,4305.2134,N,07735.5628,W,1,07,1.04,161.4,M,-34.4,M,,*57
$GPRMC,184517.250,A,4305.2133,N,07735.5628,W,0.07,22.12,101023,,,A*4E
$GPGGA,184517.500,4305.2133,N,07735.5627,W,1,07,1.04,161.5,M,-34.4,M,,*5B
$GPRMC,184517.750,A,4305.2134,N,07735.5627,W,0.05,22.12,101023,,,A*41
$GPGGA,184518.000,4305.2134,N,07735.5626,W,1,07,1.04,161.5,M,-34.4,M,,*57
$GPRMC,184518.250,A,4305.2135,N,07735.5625,W,0.02,22.12,101023,,,A*4F
$GPGGA,184518.500,4305.2135,N,07735.5625,W,1,07,1.04,161.5,M,-34.4,M,,*50
$GPRMC,184518.750,A,4305.2135,N,07735.5626,W,0.03,22.12,101023,,,A*48
$GPGGA,184519.000,4305.2135,N,07735.5626,W,1,07,1.04,161.5,M,-34.4,M,,*57
$GPRMC,184519.250,A,4305.2135,N,07735.5626,W,0.08,22.12,101023,,,A*47
$GPGGA,184519.500,4305.2136,N,07735.5626,W,1,07,1.06,161.6,M,-34.4,M,,*50
$GPRMC,184519.750,A,4305.2137,N,07735.5626,W,0.11,22.12,101023,,,A*48
$GPGGA,184520.000,4305.2137,N,07735.5626,W,1,07,1.06,161.6,M,-34.4,M,,*5E
$GPRMC,184520.250,A,4305.2138,N,07735.5626,W,0.15,22.12,101023,,,A*4C
$GPGGA,184520.500,4305.2139,N,07735.5626,W,1,07,1.04,161.6,M,-34.4,M,,*57
$GPRMC,184520.750,A,4305.2140,N,07735.5625,W,0.16,22.12,101023,,,A*46
$GPGGA,184521.000,4305.2141,N,07735.5625,W,1,07,1.06,161.7,M,-34.4,M,,*5C
$GPRMC,184521.250,A,4305.2142,N,07735.5624,W,0.10,22.12,101023,,,A*47
$GPGGA,184521.500,4305.2143,N,07735.5624,W,1,07,1.06,161.7,M,-34.4,M,,*5A
$GPRMC,184521.750,A,4305.2143,N,07735.5624,W,0.07,22.12,101023,,,A*45
$GPGGA,184522.000,4305.2144,N,07735.5624,W,1,07,1.06,161.8,M,-34.4,M,,*54
$GPRMC,184522.250,A,4305.2144,N,07735.5624,W,0.02,22.12,101023,,,A*41
$GPGGA,184522.500,4305.2144,N,07735.5624,W,1,07,1.06,161.9,M,-34.4,M,,*50
$GPRMC,184522.750,A,4305.2144,N,07735.5624,W,0.01,22.12,101023,,,A*47
$GPGGA,184523.000,4305.2145,N,07735.5624,W,1,07,1.04,162.0,M,-34.4,M,,*5D
$GPRMC,184523.250,A,4305.2144,N,07735.5624,W,0.01,22.12,101023,,,A*43
$GPGGA,184523.500,4305.2144,N,07735.5624,W,1,07,1.04,162.0,M,-34.4,M,,*59
$GPRMC,184523.750,A,4305.2144,N,07735.5624,W,0.01,22.12,101023,,,A*46
$GPGGA,184524.000,4305.2144,N,07735.5624,W,1,07,1.04,162.1,M,-34.4,M,,*5A
$GPRMC,184524.250,A,4305.2144,N,07735.5624,W,0.01,22.12,101023,,,A*44
$GPGGA,184524.500,4305.2144,N,07735.5624,W,1,07,1.04,162.1,M,-34.4,M,,*5F
$GPRMC,184524.750,A,4305.2144,N,07735.5624,W,0.02,22.12,101023,,,A*42
$GPGGA,184525.000,4305.2144,N,07735.5625,W,1,07,1.04,162.2,M,-34.4,M,,*59
$GPRMC,184525.250,A,4305.2144,N,07735.5625,W,0.02,22.12,101023,,,A*47
$GPGGA,184525.500,4305.2144,N,07735.5625,W,1,07,1.04,162.2,M,-34.4,M,,*5C
$GPRMC,184525.750,A,4305.2144,N,07735.5625,W,0.02,22.12,101023,,,A*42
$GPGGA,184526.000,4305.2144,N,07735.5625,W,1,07,1.04,162.3,M,-34.4,M,,*5B
$GPRMC,184526.250,A,4305.2144,N,07735.5625,W,0.01,22.12,101023,,,A*47
$GPGGA,184526.500,4305.2144,N,07735.5626,W,1,07,1.04,162.3,M,-34.4,M,,*5D
$GPRMC,184526.750,A,4305.2144,N,07735.5626,W,0.02,22.12,101023,,,A*42
$GPGGA,184527.000,4305.2144,N,07735.5626,W,1,07,1.06,162.3,M,-34.4,M,,*5B
$GPRMC,184527.250,A,4305.2144,N,07735.5625,W,1.17,22.12,101023,,,A*40
$GPGGA,184527.500,4305.2145,N,07735.5625,W,1,07,1.06,162.3,M,-34.4,M,,*5C
$GPRMC,184527.750,A,4305.2146,N,07735.5625,W,2.74,22.12,101023,,,A*41
$GPGGA,184528.000,4305.2149,N,07735.5623,W,1,07,1.04,162.3,M,-34.4,M,,*5E
$GPRMC,184528.250,A,4305.2156,N,07735.5619,W,7.05,23.91,101023,,,A*4C
$GPGGA,184528.500,4305.2160,N,07735.5616,W,1,07,1.04,162.4,M,-34.4,M,,*51
$GPRMC,184528.750,A,4305.2166,N,07735.5610,W,9.26,32.62,101023,,,A*40
$GPGGA,184529.000,4305.2173,N,07735.5601,W,1,07,1.06,162.4,M,-34.4,M,,*53
$GPRMC,184529.250,A,4305.2179,N,07735.5592,W,12.49,47.29,101023,,,A*7D
$GPGGA,184529.500,4305.2184,N,07735.5582,W,1,07,1.06,162.5,M,-34.4,M,,*57
$GPRMC,184529.750,A,4305.2190,N,07735.5570,W,13.82,54.35,101023,,,A*7A
$GPGGA,184530.000,4305.2194,N,07735.5556,W,1,07,1.06,162.5,M,-34.4,M,,*52
$GPRMC,184530.250,A,4305.2198,N,07735.5538,W,17.35,72.85,101023,,,A*74
$GPGGA,184530.500,4305.2201,N,07735.5520,W,1,07,1.04,162.6,M,-34.4,M,,*58
$GPRMC,184530.750,A,4305.2200,N,07735.5494,W,23.04,86.82,101023,,,A*7D
$GPGGA,184531.000,4305.2200,N,07735.5468,W,1,07,1.06,162.7,M,-34.4,M,,*53
$GPRMC,184531.250,A,4305.2201,N,07735.5442,W,26.04,91.17,101023,,,A*7C
$GPGGA,184531.500,4305.2201,N,07735.5415,W,1,07,1.06,162.8,M,-34.4,M,,*52
$GPRMC,184531.750,A,4305.2201,N,07735.5387,W,28.32,91.73,101023,,,A*7E
$GPGGA,184532.000,4305.2201,N,07735.5358,W,1,07,1.06,162.8,M,-34.4,M,,*5A
$GPRMC,184532.250,A,4305.2201,N,07735.5327,W,30.39,92.02,101023,,,A*75
$GPGGA,184532.500,4305.2201,N,07735.5297,W,1,07,1.04,162.9,M,-34.4,M,,*5E
$GPRMC,184532.750,A,4305.2200,N,07735.5265,W,32.04,92.38,101023,,,A*73
$GPGGA,184533.000,4305.2200,N,07735.5233,W,1,07,1.06,163.1,M,-34.4,M,,*5E
$GPRMC,184533.250,A,4305.2200,N,07735.5201,W,33.35,91.42,101023,,,A*78
$GPGGA,184533.500,4305.2200,N,07735.5168,W,1,07,1.04,163.2,M,-34.4,M,,*57
$GPRMC,184533.750,A,4305.2200,N,07735.5135,W,34.09,90.70,101023,,,A*71
$GPGGA,184534.000,4305.2200,N,07735.5101,W,1,07,1.06,163.5,M,-34.4,M,,*5F
$GPRMC,184534.250,A,4305.2201,N,07735.5068,W,34.57,90.25,101023,,,A*70
$GPGGA,184534.500,4305.2201,N,07735.5034,W,1,07,1.04,163.7,M,-34.4,M,,*5C
$GPRMC,184534.750,A,4305.2201,N,07735.5000,W,34.96,89.92,101023,,,A*72
$GPGGA,184535.000,4305.2202,N,07735.4966,W,1,07,1.06,163.9,M,-34.4,M,,*58
$GPRMC,184535.250,A,4305.2203,N,07735.4932,W,35.20,89.64,101023,,,A*78
$GPGGA,184535.500,4305.2203,N,07735.4897,W,1,07,1.04,164.1,M,-34.4,M,,*5E
$GPRMC,184535.750,A,4305.2204,N,07735.4863,W,35.46,89.64,101023,,,A*7F
$GPGGA,184536.000,4305.2204,N,07735.4829,W,1,07,1.06,164.3,M,-34.4,M,,*5A
$GPRMC,184536.250,A,4305.2205,N,07735.4795,W,35.69,89.55,101023,,,A*71
$GPGGA,184536.500,4305.2205,N,07735.4760,W,1,07,1.04,164.5,M,-34.4,M,,*58
$GPRMC,184536.750,A,4305.2206,N,07735.4726,W,35.82,89.37,101023,,,A*7E
$GPGGA,184537.000,4305.2206,N,07735.4691,W,1,07,1.06,164.6,M,-34.4,M,,*51
$GPRMC,184537.250,A,4305.2206,N,07735.4656,W,36.16,89.53,101023,,,A*70
$GPGGA,184537.500,4305.2206,N,07735.4621,W,1,07,1.06,164.7,M,-34.4,M,,*5E
$GPRMC,184537.750,A,4305.2207,N,07735.4587,W,36.29,89.56,101023,,,A*72
$GPGGA,184538.000,4305.2207,N,07735.4552,W,1,07,1.06,164.6,M,-34.4,M,,*53
$GPRMC,184538.250,A,4305.2207,N,07735.4517,W,36.24,89.46,101023,,,A*7D
$GPGGA,184538.500,4305.2207,N,07735.4482,W,1,07,1.06,164.5,M,-34.4,M,,*59
$GPRMC,184538.750,A,4305.2208,N,07735.4448,W,36.20,89.67,101023,,,A*7B
$GPGGA,184539.000,4305.2208,N,07735.4413,W,1,07,1.06,164.4,M,-34.4,M,,*5B
$GPRMC,184539.250,A,4305.2208,N,07735.4379,W,36.17,90.01,101023,,,A*76
$GPGGA,184539.500,4305.2208,N,07735.4344,W,1,07,1.04,164.4,M,-34.4,M,,*59
$GPRMC,184539.750,A,4305.2207,N,07735.4310,W,36.46,90.15,101023,,,A*72
$GPGGA,184540.000,4305.2208,N,07735.4275,W,1,07,1.06,164.4,M,-34.4,M,,*53
$GPRMC,184540.250,A,4305.2208,N,07735.4240,W,36.58,90.12,101023,,,A*7A
$GPGGA,184540.500,4305.2208,N,07735.4206,W,1,07,1.06,164.4,M,-34.4,M,,*52
$GPRMC,184540.750,A,4305.2208,N,07735.4170,W,36.96,89.39,101023,,,A*7C
$GPGGA,184541.000,4305.2209,N,07735.4135,W,1,07,1.06,164.5,M,-34.4,M,,*55
$GPRMC,184541.250,A,4305.2210,N,07735.4100,W,37.05,89.06,101023,,,A*71
$GPGGA,184541.500,4305.2210,N,07735.4065,W,1,07,1.04,164.6,M,-34.4,M,,*5D
$GPRMC,184541.750,A,4305.2211,N,07735.4029,W,37.32,89.00,101023,,,A*7D
$GPGGA,184542.000,4305.2211,N,07735.3994,W,1,07,1.06,164.7,M,-34.4,M,,*59
$GPRMC,184542.250,A,4305.2212,N,07735.3958,W,37.41,89.43,101023,,,A*73
$GPGGA,184542.500,4305.2212,N,07735.3923,W,1,07,1.06,164.9,M,-34.4,M,,*5D
$GPRMC,184542.750,A,4305.2213,N,07735.3887,W,37.46,89.27,101023,,,A*71
$GPGGA,184543.000,4305.2214,N,07735.3852,W,1,07,1.06,165.1,M,-34.4,M,,*51
$GPRMC,184543.250,A,4305.2214,N,07735.3816,W,37.54,89.52,101023,,,A*7B
$GPGGA,184543.500,4305.2215,N,07735.3780,W,1,07,1.04,165.3,M,-34.4,M,,*55
$GPRMC,184543.750,A,4305.2215,N,07735.3745,W,37.76,89.36,101023,,,A*74
$GPGGA,184544.000,4305.2216,N,07735.3709,W,1,07,1.06,165.5,M,-34.4,M,,*51
$GPRMC,184544.250,A,4305.2216,N,07735.3673,W,37.79,89.01,101023,,,A*7A
$GPGGA,184544.500,4305.2217,N,07735.3637,W,1,07,1.04,165.7,M,-34.4,M,,*59
$GPRMC,184544.750,A,4305.2218,N,07735.3601,W,37.82,88.87,101023,,,A*7F
$GPGGA,184545.000,4305.2218,N,07735.3565,W,1,07,1.06,166.0,M,-34.4,M,,*50
$GPRMC,184545.250,A,4305.2219,N,07735.3529,W,38.02,89.04,101023,,,A*7E
$GPGGA,184545.500,4305.2219,N,07735.3493,W,1,07,1.04,166.2,M,-34.4,M,,*5C
$GPRMC,184545.750,A,4305.2220,N,07735.3457,W,38.00,89.02,101023,,,A*7D
$GPGGA,184546.000,4305.2220,N,07735.3421,W,1,07,1.06,166.5,M,-34.4,M,,*5C
$GPRMC,184546.250,A,4305.2220,N,07735.3385,W,38.09,88.76,101023,,,A*78
$GPGGA,184546.500,4305.2221,N,07735.3349,W,1,07,1.06,166.8,M,-34.4,M,,*5C
$GPRMC,184546.750,A,4305.2222,N,07735.3313,W,37.87,88.47,101023,,,A*7B
$GPGGA,184547.000,4305.2222,N,07735.3277,W,1,07,1.06,167.1,M,-34.4,M,,*5F
$GPRMC,184547.250,A,4305.2223,N,07735.3240,W,37.96,88.37,101023,,,A*7E
$GPGGA,184547.500,4305.2224,N,07735.3204,W,1,07,1.04,167.4,M,-34.4,M,,*5F
$GPRMC,184547.750,A,4305.2224,N,07735.3168,W,37.97,88.43,101023,,,A*77
$GPGGA,184548.000,4305.2225,N,07735.3132,W,1,07,1.06,167.7,M,-34.4,M,,*53
$GPRMC,184548.250,A,4305.2225,N,07735.3096,W,37.99,88.54,101023,,,A*74
$GPGGA,184548.500,4305.2226,N,07735.3060,W,1,07,1.04,168.0,M,-34.4,M,,*59
$GPRMC,184548.750,A,4305.2226,N,07735.3024,W,37.73,88.84,101023,,,A*72
$GPGGA,184549.000,4305.2227,N,07735.2989,W,1,07,1.06,168.3,M,-34.4,M,,*52
$GPRMC,184549.250,A,4305.2227,N,07735.2953,W,37.69,89.02,101023,,,A*7B
$GPGGA,184549.500,4305.2227,N,07735.2917,W,1,07,1.04,168.6,M,-34.4,M,,*57
$GPRMC,184549.750,A,4305.2227,N,07735.2881,W,37.77,88.98,101023,,,A*7D
$GPGGA,184550.000,4305.2228,N,07735.2845,W,1,07,1.06,168.8,M,-34.4,M,,*5F
$GPRMC,184550.250,A,4305.2228,N,07735.2809,W,37.85,88.80,101023,,,A*7B
$GPGGA,184550.500,4305.2228,N,07735.2773,W,1,07,1.04,169.1,M,-34.4,M,,*5A
$GPRMC,184550.750,A,4305.2229,N,07735.2736,W,37.93,88.97,101023,,,A*7D
$GPGGA,184551.000,4305.2229,N,07735.2700,W,1,07,1.06,169.4,M,-34.4,M,,*5C
$GPRMC,184551.250,A,4305.2229,N,07735.2664,W,37.93,88.95,101023,,,A*7D
$GPGGA,184551.500,4305.2230,N,07735.2628,W,1,07,1.04,169.6,M,-34.4,M,,*5A
$GPRMC,184551.750,A,4305.2229,N,07735.2592,W,37.92,89.94,101023,,,A*73
$GPGGA,184552.000,4305.2228,N,07735.2556,W,1,07,1.06,169.2,M,-34.4,M,,*59
$GPRMC,184552.250,A,4305.2228,N,07735.2519,W,37.78,88.80,101023,,,A*77
$GPGGA,184552.500,4305.2228,N,07735.2482,W,1,07,1.04,168.2,M,-34.4,M,,*57
$GPRMC,184552.750,A,4305.2229,N,07735.2445,W,37.81,88.45,101023,,,A*74
$GPGGA,184553.000,4305.2229,N,07735.2409,W,1,07,1.06,168.3,M,-34.4,M,,*52
$GPRMC,184553.250,A,4305.2230,N,07735.2372,W,38.42,88.72,101023,,,A*7F
$GPGGA,184553.500,4305.2230,N,07735.2336,W,1,07,1.06,168.3,M,-34.4,M,,*54
$GPRMC,184553.750,A,4305.2231,N,07735.2299,W,38.10,88.80,101023,,,A*75
$GPGGA,184554.000,4305.2232,N,07735.2263,W,1,07,1.06,168.4,M,-34.4,M,,*52
$GPRMC,184554.250,A,4305.2232,N,07735.2227,W,38.19,88.79,101023,,,A*7E
$GPGGA,184554.500,4305.2233,N,07735.2192,W,1,07,1.06,168.5,M,-34.4,M,,*5A
$GPRMC,184554.750,A,4305.2233,N,07735.2156,W,37.64,89.08,101023,,,A*7D
$GPGGA,184555.000,4305.2234,N,07735.2120,W,1,07,1.06,168.5,M,-34.4,M,,*50
$GPRMC,184555.250,A,4305.2235,N,07735.2086,W,37.49,87.84,101023,,,A*76
$GPGGA,184555.500,4305.2234,N,07735.2052,W,1,07,1.04,167.6,M,-34.4,M,,*5F
$GPRMC,184555.750,A,4305.2234,N,07735.2018,W,36.24,88.46,101023,,,A*7E
$GPGGA,184556.000,4305.2235,N,07735.1984,W,1,07,1.04,167.4,M,-34.3,M,,*5C
$GPRMC,184556.250,A,4305.2236,N,07735.1950,W,35.87,88.10,101023,,,A*75
$GPGGA,184556.500,4305.2237,N,07735.1916,W,1,07,1.04,167.7,M,-34.3,M,,*53
$GPRMC,184556.750,A,4305.2238,N,07735.1882,W,35.66,87.87,101023,,,A*7E
$GPGGA,184557.000,4305.2238,N,07735.1848,W,1,07,1.06,167.8,M,-34.3,M,,*5F
$GPRMC,184557.250,A,4305.2239,N,07735.1815,W,35.41,87.84,101023,,,A*73
$GPGGA,184557.500,4305.2240,N,07735.1781,W,1,07,1.04,168.0,M,-34.3,M,,*5A
$GPRMC,184557.750,A,4305.2241,N,07735.1747,W,35.37,87.79,101023,,,A*72
$GPGGA,184558.000,4305.2242,N,07735.1714,W,1,07,1.06,168.2,M,-34.3,M,,*5E
$GPRMC,184558.250,A,4305.2242,N,07735.1680,W,35.41,87.50,101023,,,A*7B
$GPGGA,184558.500,4305.2243,N,07735.1647,W,1,07,1.04,168.4,M,-34.3,M,,*59
$GPRMC,184558.750,A,4305.2243,N,07735.1613,W,35.61,88.11,101023,,,A*7D
$GPGGA,184559.000,4305.2243,N,07735.1580,W,1,07,1.06,168.5,M,-34.3,M,,*56
$GPRMC,184559.250,A,4305.2243,N,07735.1546,W,35.96,88.40,101023,,,A*76
$GPGGA,184559.500,4305.2244,N,07735.1511,W,1,07,1.04,168.6,M,-34.3,M,,*5D
$GPRMC,184559.750,A,4305.2245,N,07735.1477,W,36.44,87.95,101023,,,A*7D
$GPGGA,184600.000,4305.2245,N,07735.1442,W,1,07,1.06,168.8,M,-34.3,M,,*5D
$GPRMC,184600.250,A,4305.2246,N,07735.1407,W,36.88,87.64,101023,,,A*7D
$GPGGA,184600.500,4305.2247,N,07735.1372,W,1,07,1.04,168.9,M,-34.3,M,,*5D
$GPRMC,184600.750,A,4305.2248,N,07735.1337,W,37.11,87.62,101023,,,A*75
$GPGGA,184601.000,4305.2249,N,07735.1301,W,1,07,1.06,169.0,M,-34.3,M,,*59
$GPRMC,184601.250,A,4305.2249,N,07735.1266,W,37.30,88.04,101023,,,A*79
$GPGGA,184601.500,4305.2250,N,07735.1230,W,1,07,1.04,169.1,M,-34.3,M,,*54
$GPRMC,184601.750,A,4305.2251,N,07735.1195,W,37.05,87.87,101023,,,A*78
$GPGGA,184602.000,4305.2252,N,07735.1160,W,1,07,1.06,169.2,M,-34.3,M,,*57
$GPRMC,184602.250,A,4305.2252,N,07735.1125,W,36.63,87.82,101023,,,A*72
$GPGGA,184602.500,4305.2253,N,07735.1090,W,1,08,1.03,169.4,M,-34.3,M,,*51
$GPRMC,184602.750,A,4305.2254,N,07735.1056,W,36.35,87.63,101023,,,A*78
$GPGGA,184603.000,4305.2255,N,07735.1021,W,1,08,1.03,169.5,M,-34.3,M,,*58
$GPRMC,184603.250,A,4305.2256,N,07735.0987,W,36.12,87.81,101023,,,A*73
$GPGGA,184603.500,4305.2257,N,07735.0953,W,1,08,1.03,169.7,M,-34.3,M,,*50
$GPRMC,184603.750,A,4305.2257,N,07735.0919,W,35.84,87.94,101023,,,A*78
$GPGGA,184604.000,4305.2258,N,07735.0885,W,1,08,1.03,169.9,M,-34.3,M,,*59
$GPRMC,184604.250,A,4305.2258,N,07735.0850,W,35.62,88.22,101023,,,A*73
$GPGGA,184604.500,4305.2259,N,07735.0817,W,1,08,1.03,170.1,M,-34.3,M,,*56
$GPRMC,184604.750,A,4305.2260,N,07735.0783,W,35.37,88.16,101023,,,A*7B
$GPGGA,184605.000,4305.2260,N,07735.0749,W,1,08,1.01,170.4,M,-34.3,M,,*5B
$GPRMC,184605.250,A,4305.2260,N,07735.0716,W,35.03,88.92,101023,,,A*78
$GPGGA,184605.500,4305.2260,N,07735.0683,W,1,08,1.03,170.5,M,-34.3,M,,*5A
$GPRMC,184605.750,A,4305.2260,N,07735.0650,W,34.57,89.14,101023,,,A*71
$GPGGA,184606.000,4305.2261,N,07735.0617,W,1,08,1.03,170.6,M,-34.3,M,,*53
$GPRMC,184606.250,A,4305.2261,N,07735.0584,W,34.19,88.79,101023,,,A*7C
$GPGGA,184606.500,4305.2261,N,07735.0551,W,1,08,1.03,170.7,M,-34.3,M,,*56
$GPRMC,184606.750,A,4305.2262,N,07735.0519,W,33.77,89.01,101023,,,A*7F
$GPGGA,184607.000,4305.2262,N,07735.0487,W,1,08,1.03,170.8,M,-34.3,M,,*54
$GPRMC,184607.250,A,4305.2262,N,07735.0455,W,33.09,89.01,101023,,,A*7B
$GPGGA,184607.500,4305.2262,N,07735.0424,W,1,08,1.03,171.0,M,-34.3,M,,*51
$GPRMC,184607.750,A,4305.2262,N,07735.0393,W,32.84,89.23,101023,,,A*77
$GPGGA,184608.000,4305.2262,N,07735.0362,W,1,08,1.03,171.0,M,-34.3,M,,*5E
$GPRMC,184608.250,A,4305.2262,N,07735.0332,W,32.17,89.66,101023,,,A*7D
$GPGGA,184608.500,4305.2262,N,07735.0302,W,1,08,1.01,171.1,M,-34.3,M,,*5E
$GPRMC,184608.750,A,4305.2262,N,07735.0273,W,31.02,89.23,101023,,,A*7A
$GPGGA,184609.000,4305.2261,N,07735.0245,W,1,08,1.03,171.1,M,-34.3,M,,*59
$GPRMC,184609.250,A,4305.2261,N,07735.0218,W,29.22,88.91,101023,,,A*73
$GPGGA,184609.500,4305.2261,N,07735.0191,W,1,08,1.01,171.1,M,-34.3,M,,*54
$GPRMC,184609.750,A,4305.2261,N,07735.0165,W,27.42,89.00,101023,,,A*7E
$GPGGA,184610.000,4305.2260,N,07735.0141,W,1,08,1.03,171.0,M,-34.3,M,,*56
$GPRMC,184610.250,A,4305.2260,N,07735.0117,W,25.34,89.56,101023,,,A*77
$GPGGA,184610.500,4305.2259,N,07735.0094,W,1,08,1.03,170.9,M,-34.3,M,,*58
$GPRMC,184610.750,A,4305.2259,N,07735.0074,W,22.51,89.39,101023,,,A*71
$GPGGA,184611.000,4305.2258,N,07735.0053,W,1,08,1.03,170.1,M,-34.3,M,,*5E
$GPRMC,184611.250,A,4305.2258,N,07735.0034,W,20.12,88.73,101023,,,A*7A
$GPGGA,184611.500,4305.2257,N,07735.0016,W,1,08,1.03,169.5,M,-34.3,M,,*59
$GPRMC,184611.750,A,4305.2257,N,07734.9999,W,17.98,88.77,101023,,,A*74
$GPGGA,184612.000,4305.2256,N,07734.9983,W,1,08,1.03,169.2,M,-34.3,M,,*54
$GPRMC,184612.250,A,4305.2256,N,07734.9967,W,15.83,89.09,101023,,,A*72
$GPGGA,184612.500,4305.2256,N,07734.9953,W,1,08,1.03,168.8,M,-34.3,M,,*57
$GPRMC,184612.750,A,4305.2256,N,07734.9939,W,14.40,89.06,101023,,,A*7D
$GPGGA,184613.000,4305.2256,N,07734.9928,W,1,08,1.03,168.7,M,-34.3,M,,*50
$GPRMC,184613.250,A,4305.2255,N,07734.9917,W,13.46,89.24,101023,,,A*77
$GPGGA,184613.500,4305.2256,N,07734.9905,W,1,08,1.03,168.7,M,-34.3,M,,*5A
$GPRMC,184613.750,A,4305.2257,N,07734.9894,W,12.49,88.88,101023,,,A*73
$GPGGA,184614.000,4305.2257,N,07734.9883,W,1,08,1.03,168.6,M,-34.3,M,,*57
$GPRMC,184614.250,A,4305.2257,N,07734.9872,W,11.68,89.15,101023,,,A*7C
$GPGGA,184614.500,4305.2258,N,07734.9860,W,1,08,1.03,168.6,M,-34.3,M,,*50
$GPRMC,184614.750,A,4305.2257,N,07734.9851,W,10.67,89.48,101023,,,A*7E
$GPGGA,184615.000,4305.2257,N,07734.9841,W,1,08,1.03,168.5,M,-34.3,M,,*5B
$GPRMC,184615.250,A,4305.2257,N,07734.9833,W,9.47,89.13,101023,,,A*4A
$GPGGA,184615.500,4305.2256,N,07734.9825,W,1,08,1.03,168.4,M,-34.3,M,,*5C
$GPRMC,184615.750,A,4305.2256,N,07734.9818,W,7.91,89.12,101023,,,A*43
$GPGGA,184616.000,4305.2256,N,07734.9811,W,1,08,1.03,168.3,M,-34.3,M,,*5A
$GPRMC,184616.250,A,4305.2257,N,07734.9804,W,6.82,88.90,101023,,,A*41
$GPGGA,184616.500,4305.2257,N,07734.9798,W,1,08,1.03,168.3,M,-34.3,M,,*50
$GPRMC,184616.750,A,4305.2257,N,07734.9793,W,6.44,88.26,101023,,,A*42
$GPGGA,184617.000,4305.2257,N,07734.9787,W,1,08,1.03,168.2,M,-34.3,M,,*5B
$GPRMC,184617.250,A,4305.2258,N,07734.9782,W,5.97,87.31,101023,,,A*4D
$GPGGA,184617.500,4305.2258,N,07734.9776,W,1,08,1.03,168.2,M,-34.3,M,,*5F
$GPRMC,184617.750,A,4305.2259,N,07734.9771,W,5.39,87.52,101023,,,A*44
$GPGGA,184618.000,4305.2260,N,07734.9766,W,1,08,1.03,168.2,M,-34.3,M,,*5F
$GPRMC,184618.250,A,4305.2260,N,07734.9762,W,4.79,88.04,101023,,,A*4F
$GPGGA,184618.500,4305.2261,N,07734.9758,W,1,08,1.03,168.3,M,-34.3,M,,*57
$GPRMC,184618.750,A,4305.2261,N,07734.9754,W,4.06,87.06,101023,,,A*4B
$GPGGA,184619.000,4305.2262,N,07734.9751,W,1,08,1.03,168.3,M,-34.3,M,,*59
$GPRMC,184619.250,A,4305.2263,N,07734.9748,W,2.93,84.38,101023,,,A*44
$GPGGA,184619.500,4305.2263,N,07734.9746,W,1,08,1.01,168.3,M,-34.3,M,,*59
$GPRMC,184619.750,A,4305.2264,N,07734.9745,W,1.80,84.38,101023,,,A*4A
$GPGGA,184620.000,4305.2265,N,07734.9745,W,1,08,1.01,168.4,M,-34.3,M,,*54
$GPRMC,184620.250,A,4305.2265,N,07734.9745,W,0.06,84.38,101023,,,A*4B
$GPGGA,184620.500,4305.2265,N,07734.9745,W,1,08,1.01,168.5,M,-34.3,M,,*50
$GPRMC,184620.750,A,4305.2266,N,07734.9746,W,0.03,84.38,101023,,,A*4B
$GPGGA,184621.000,4305.2266,N,07734.9747,W,1,08,1.01,168.4,M,-34.3,M,,*54
$GPRMC,184621.250,A,4305.2266,N,07734.9748,W,0.03,84.38,101023,,,A*41
$GPGGA,184621.500,4305.2266,N,07734.9749,W,1,08,1.01,168.3,M,-34.3,M,,*58
$GPRMC,184621.750,A,4305.2266,N,07734.9750,W,0.04,84.38,101023,,,A*4A
$GPGGA,184622.000,4305.2266,N,07734.9750,W,1,08,1.01,168.2,M,-34.3,M,,*57
$GPRMC,184622.250,A,4305.2266,N,07734.9750,W,0.03,84.38,101023,,,A*4B
$GPGGA,184622.500,4305.2266,N,07734.9751,W,1,08,1.01,168.2,M,-34.3,M,,*53
$GPRMC,184622.750,A,4305.2266,N,07734.9751,W,0.02,84.38,101023,,,A*4E
$GPGGA,184623.000,4305.2266,N,07734.9751,W,1,08,1.01,168.2,M,-34.3,M,,*57
$GPRMC,184623.250,A,4305.2266,N,07734.9751,W,0.01,84.38,101023,,,A*49
$GPGGA,184623.500,4305.2266,N,07734.9751,W,1,08,1.01,168.2,M,-34.3,M,,*52
$GPRMC,184623.750,A,4305.2266,N,07734.9751,W,0.01,84.38,101023,,,A*4C
$GPGGA,184624.000,4305.2266,N,07734.9752,W,1,08,1.01,168.2,M,-34.3,M,,*53
$GPRMC,184624.250,A,4305.2266,N,07734.9752,W,0.01,84.38,101023,,,A*4D
$GPGGA,184624.500,4305.2266,N,07734.9752,W,1,08,1.01,168.3,M,-34.3,M,,*57
$GPRMC,184624.750,A,4305.2266,N,07734.9752,W,0.00,84.38,101023,,,A*49
$GPGGA,184625.000,4305.2266,N,07734.9752,W,1,08,1.03,168.3,M,-34.3,M,,*51
$GPRMC,184625.250,A,4305.2266,N,07734.9752,W,0.01,84.38,101023,,,A*4C
$GPGGA,184625.500,4305.2267,N,07734.9752,W,1,08,1.03,168.3,M,-34.3,M,,*55
$GPRMC,184625.750,A,4305.2267,N,07734.9752,W,0.00,84.38,101023,,,A*49
$GPGGA,184626.000,4305.2267,N,07734.9752,W,1,08,1.03,168.3,M,-34.3,M,,*53
$GPRMC,184626.250,A,4305.2267,N,07734.9752,W,0.00,84.38,101023,,,A*4F
$GPGGA,184626.500,4305.2267,N,07734.9752,W,1,08,1.01,168.3,M,-34.3,M,,*54
$GPRMC,184626.750,A,4305.2267,N,07734.9752,W,0.00,84.38,101023,,,A*4A
$GPGGA,184627.000,4305.2267,N,07734.9752,W,1,08,1.01,168.3,M,-34.3,M,,*50
$GPRMC,184627.250,A,4305.2267,N,07734.9752,W,0.01,84.38,101023,,,A*4F
$GPGGA,184627.500,4305.2267,N,07734.9752,W,1,08,1.01,168.3,M,-34.3,M,,*55
$GPRMC,184627.750,A,4305.2267,N,07734.9752,W,0.00,84.38,101023,,,A*4B
$GPGGA,184628.000,4305.2267,N,07734.9752,W,1,08,1.01,168.4,M,-34.3,M,,*58
$GPRMC,184628.250,A,4305.2267,N,07734.9752,W,0.00,84.38,101023,,,A*41
$GPGGA,184628.500,4305.2267,N,07734.9752,W,1,08,1.01,168.4,M,-34.3,M,,*5D
$GPRMC,184628.750,A,4305.2267,N,07734.9752,W,0.00,84.38,101023,,,A*44
$GPGGA,184629.000,4305.2267,N,07734.9752,W,1,08,1.03,168.4,M,-34.3,M,,*5B
$GPRMC,184629.250,A,4305.2267,N,07734.9752,W,0.00,84.38,101023,,,A*40
$GPGGA,184629.500,4305.2267,N,07734.9752,W,1,08,1.01,168.4,M,-34.3,M,,*5C
$GPRMC,184629.750,A,4305.2267,N,07734.9752,W,0.00,84.38,101023,,,A*45
$GPGGA,184630.000,4305.2267,N,07734.9752,W,1,08,1.01,168.4,M,-34.3,M,,*51
$GPRMC,184630.250,A,4305.2267,N,07734.9752,W,0.00,84.38,101023,,,A*48
$GPGGA,184630.500,4305.2267,N,07734.9752,W,1,08,1.01,168.4,M,-34.3,M,,*54
$GPRMC,184630.750,A,4305.2267,N,07734.9752,W,0.01,84.38,101023,,,A*4C
$GPGGA,184631.000,4305.2267,N,07734.9752,W,1,08,1.03,168.4,M,-34.3,M,,*52
$GPRMC,184631.250,A,4305.2267,N,07734.9752,W,0.00,84.38,101023,,,A*49
$GPGGA,184631.500,4305.2267,N,07734.9752,W,1,08,1.01,168.4,M,-34.3,M,,*55
$GPRMC,184631.750,A,4305.2267,N,07734.9752,W,0.01,84.38,101023,,,A*4D
$GPGGA,184632.000,4305.2267,N,07734.9752,W,1,08,1.01,168.4,M,-34.3,M,,*53
$GPRMC,184632.250,A,4305.2267,N,07734.9752,W,0.00,84.38,101023,,,A*4A
$GPGGA,184632.500,4305.2267,N,07734.9752,W,1,08,1.01,168.4,M,-34.3,M,,*56
$GPRMC,184632.750,A,4305.2267,N,07734.9752,W,0.00,84.38,101023,,,A*4F
$GPGGA,184633.000,4305.2267,N,07734.9752,W,1,08,1.01,168.4,M,-34.3,M,,*52
$GPRMC,184633.250,A,4305.2267,N,07734.9752,W,0.00,84.38,101023,,,A*4B
$GPGGA,184633.500,4305.2267,N,07734.9752,W,1,08,1.03,168.4,M,-34.3,M,,*55
$GPRMC,184633.750,A,4305.2267,N,07734.9752,W,0.00,84.38,101023,,,A*4E
$GPGGA,184634.000,4305.2267,N,07734.9752,W,1,08,1.01,168.4,M,-34.3,M,,*55
$GPRMC,184634.250,A,4305.2267,N,07734.9752,W,0.01,84.38,101023,,,A*4D
$GPGGA,184634.500,4305.2267,N,07734.9751,W,1,08,1.01,168.4,M,-34.3,M,,*53
$GPRMC,184634.750,A,4305.2267,N,07734.9751,W,0.01,84.38,101023,,,A*4B
$GPGGA,184635.000,4305.2267,N,07734.9751,W,1,08,1.01,168.5,M,-34.3,M,,*56
$GPRMC,184635.250,A,4305.2267,N,07734.9751,W,0.00,84.38,101023,,,A*4E
$GPGGA,184635.500,4305.2267,N,07734.9751,W,1,08,1.01,168.5,M,-34.3,M,,*53
$GPRMC,184635.750,A,4305.2267,N,07734.9751,W,0.01,84.38,101023,,,A*4A
$GPGGA,184636.000,4305.2267,N,07734.9751,W,1,08,1.01,168.5,M,-34.3,M,,*55
$GPRMC,184636.250,A,4305.2267,N,07734.9751,W,0.00,84.38,101023,,,A*4D
$GPGGA,184636.500,4305.2267,N,07734.9751,W,1,08,1.01,168.5,M,-34.3,M,,*50
$GPRMC,184636.750,A,4305.2267,N,07734.9751,W,0.01,84.38,101023,,,A*49
$GPGGA,184637.000,4305.2267,N,07734.9751,W,1,08,1.01,168.5,M,-34.3,M,,*54
$GPRMC,184637.250,A,4305.2267,N,07734.9751,W,0.01,84.38,101023,,,A*4D
$GPGGA,184637.500,4305.2267,N,07734.9752,W,1,08,1.01,168.5,M,-34.3,M,,*52
$GPRMC,184637.750,A,4305.2267,N,07734.9752,W,0.00,84.38,101023,,,A*4A
$GPGGA,184638.000,4305.2267,N,07734.9751,W,1,08,1.01,168.5,M,-34.3,M,,*5B
$GPRMC,184638.250,A,4305.2267,N,07734.9751,W,0.00,84.38,101023,,,A*43
$GPGGA,184638.500,4305.2267,N,07734.9752,W,1,08,1.01,168.5,M,-34.3,M,,*5D
$GPRMC,184638.750,A,4305.2267,N,07734.9752,W,0.00,84.38,101023,,,A*45
$GPGGA,184639.000,4305.2267,N,07734.9751,W,1,08,1.01,168.5,M,-34.3,M,,*5A
$GPRMC,184639.250,A,4305.2267,N,07734.9751,W,0.00,84.38,101023,,,A*42
$GPGGA,184639.500,4305.2267,N,07734.9751,W,1,08,1.01,168.5,M,-34.3,M,,*5F
$GPRMC,184639.750,A,4305.2267,N,07734.9751,W,0.00,84.38,101023,,,A*47
$GPGGA,184640.000,4305.2267,N,07734.9751,W,1,08,1.01,168.5,M,-34.3,M,,*54
$GPRMC,184640.250,A,4305.2267,N,07734.9751,W,0.01,84.38,101023,,,A*4D
$GPGGA,184640.500,4305.2267,N,07734.9751,W,1,08,1.01,168.5,M,-34.3,M,,*51
$GPRMC,184640.750,A,4305.2267,N,07734.9751,W,0.01,84.38,101023,,,A*48
$GPGGA,184641.000,4305.2267,N,07734.9751,W,1,08,1.01,168.5,M,-34.3,M,,*55
$GPRMC,184641.250,A,4305.2267,N,07734.9751,W,0.01,84.38,101023,,,A*4C
$GPGGA,184641.500,4305.2266,N,07734.9751,W,1,08,1.01,168.5,M,-34.3,M,,*51
$GPRMC,184641.750,A,4305.2267,N,07734.9751,W,0.00,84.38,101023,,,A*48
$GPGGA,184642.000,4305.2267,N,07734.9751,W,1,08,1.01,168.5,M,-34.3,M,,*56
$GPRMC,184642.250,A,4305.2267,N,07734.9751,W,0.01,84.38,101023,,,A*4F
$GPGGA,184642.500,4305.2267,N,07734.9751,W,1,08,1.01,168.5,M,-34.3,M,,*53
$GPRMC,184642.750,A,4305.2266,N,07734.9751,W,0.00,84.38,101023,,,A*4A
$GPGGA,184643.000,4305.2267,N,07734.9751,W,1,08,1.01,168.5,M,-34.3,M,,*57
$GPRMC,184643.250,A,4305.2267,N,07734.9751,W,0.00,84.38,101023,,,A*4F
$GPGGA,184643.500,4305.2267,N,07734.9751,W,1,08,1.01,168.5,M,-34.3,M,,*52
$GPRMC,184643.750,A,4305.2267,N,07734.9751,W,0.00,84.38,101023,,,A*4A
$GPGGA,184644.000,4305.2267,N,07734.9751,W,1,08,1.01,168.5,M,-34.3,M,,*50
$GPRMC,184644.250,A,4305.2266,N,07734.9751,W,0.00,84.38,101023,,,A*49
$GPGGA,184644.500,4305.2266,N,07734.9751,W,1,08,1.03,168.5,M,-34.3,M,,*56
$GPRMC,184644.750,A,4305.2266,N,07734.9751,W,0.04,84.38,101023,,,A*48
$GPGGA,184645.000,4305.2266,N,07734.9751,W,1,08,1.01,168.5,M,-34.3,M,,*50
$GPRMC,184645.250,A,4305.2267,N,07734.9751,W,0.00,84.38,101023,,,A*49
$GPGGA,184645.500,4305.2267,N,07734.9751,W,1,08,1.03,168.5,M,-34.3,M,,*56
$GPRMC,184645.750,A,4305.2267,N,07734.9751,W,0.00,84.38,101023,,,A*4C
$GPGGA,184646.000,4305.2267,N,07734.9751,W,1,08,1.01,168.6,M,-34.3,M,,*51
$GPRMC,184646.250,A,4305.2267,N,07734.9751,W,0.30,81.01,101023,,,A*46
$GPGGA,184646.500,4305.2267,N,07734.9751,W,1,08,1.01,168.6,M,-34.3,M,,*54
$GPRMC,184646.750,A,4305.2267,N,07734.9750,W,1.04,87.67,101023,,,A*42
$GPGGA,184647.000,4305.2267,N,07734.9749,W,1,08,1.01,168.6,M,-34.3,M,,*59
$GPRMC,184647.250,A,4305.2267,N,07734.9748,W,2.28,87.67,101023,,,A*42
$GPGGA,184647.500,4305.2267,N,07734.9745,W,1,08,1.01,168.7,M,-34.3,M,,*51
$GPRMC,184647.750,A,4305.2266,N,07734.9743,W,4.28,91.64,101023,,,A*4F
$GPGGA,184648.000,4305.2266,N,07734.9740,W,1,08,1.03,168.7,M,-34.3,M,,*5D
$GPRMC,184648.250,A,4305.2266,N,07734.9735,W,6.67,89.09,101023,,,A*4F
$GPGGA,184648.500,4305.2266,N,07734.9728,W,1,08,1.02,168.8,M,-34.3,M,,*58
$GPRMC,184648.750,A,4305.2266,N,07734.9721,W,9.07,89.83,101023,,,A*44
$GPGGA,184649.000,4305.2266,N,07734.9712,W,1,08,1.03,168.8,M,-34.3,M,,*54
$GPRMC,184649.250,A,4305.2266,N,07734.9702,W,11.42,89.50,101023,,,A*77
$GPGGA,184649.500,4305.2266,N,07734.9691,W,1,08,1.02,168.8,M,-34.3,M,,*5A
$GPRMC,184649.750,A,4305.2265,N,07734.9679,W,13.40,89.47,101023,,,A*7A
$GPGGA,184650.000,4305.2265,N,07734.9667,W,1,08,1.03,168.9,M,-34.3,M,,*5D
$GPRMC,184650.250,A,4305.2265,N,07734.9653,W,15.36,88.94,101023,,,A*77
$GPGGA,184650.500,4305.2265,N,07734.9637,W,1,08,1.03,168.9,M,-34.3,M,,*5D
$GPRMC,184650.750,A,4305.2265,N,07734.9622,W,16.33,89.17,101023,,,A*78
$GPGGA,184651.000,4305.2266,N,07734.9607,W,1,08,1.03,168.9,M,-34.3,M,,*59
$GPRMC,184651.250,A,4305.2266,N,07734.9591,W,17.20,88.94,101023,,,A*7D
$GPGGA,184651.500,4305.2266,N,07734.9574,W,1,08,1.02,169.0,M,-34.3,M,,*52
$GPRMC,184651.750,A,4305.2266,N,07734.9557,W,18.12,88.98,101023,,,A*70
$GPGGA,184652.000,4305.2266,N,07734.9540,W,1,08,1.03,169.0,M,-34.3,M,,*52
$GPRMC,184652.250,A,4305.2266,N,07734.9522,W,18.81,89.29,101023,,,A*75
$GPGGA,184652.500,4305.2266,N,07734.9504,W,1,08,1.03,169.0,M,-34.3,M,,*57
$GPRMC,184652.750,A,4305.2266,N,07734.9485,W,19.63,88.75,101023,,,A*79
$GPGGA,184653.000,4305.2267,N,07734.9466,W,1,08,1.03,169.1,M,-34.3,M,,*56
$GPRMC,184653.250,A,4305.2267,N,07734.9447,W,20.39,88.76,101023,,,A*74
$GPGGA,184653.500,4305.2267,N,07734.9427,W,1,08,1.02,169.1,M,-34.3,M,,*57
$GPRMC,184653.750,A,4305.2267,N,07734.9407,W,21.26,88.98,101023,,,A*7A
$GPGGA,184654.000,4305.2267,N,07734.9386,W,1,08,1.03,169.1,M,-34.3,M,,*58
$GPRMC,184654.250,A,4305.2268,N,07734.9365,W,21.86,89.38,101023,,,A*75
$GPGGA,184654.500,4305.2268,N,07734.9344,W,1,08,1.03,169.2,M,-34.3,M,,*5F
$GPRMC,184654.750,A,4305.2268,N,07734.9323,W,22.45,89.53,101023,,,A*73
$GPGGA,184655.000,4305.2268,N,07734.9301,W,1,08,1.03,169.2,M,-34.3,M,,*5A
$GPRMC,184655.250,A,4305.2268,N,07734.9278,W,23.14,89.09,101023,,,A*72
$GPGGA,184655.500,4305.2268,N,07734.9256,W,1,08,1.03,169.3,M,-34.3,M,,*5D
$GPRMC,184655.750,A,4305.2268,N,07734.9233,W,24.07,88.41,101023,,,A*70
$GPGGA,184656.000,4305.2269,N,07734.9210,W,1,08,1.03,169.3,M,-34.3,M,,*58
$GPRMC,184656.250,A,4305.2269,N,07734.9188,W,24.43,87.91,101023,,,A*76
$GPGGA,184656.500,4305.2270,N,07734.9164,W,1,08,1.03,169.3,M,-34.3,M,,*55
$GPRMC,184656.750,A,4305.2270,N,07734.9140,W,25.38,87.53,101023,,,A*7C
$GPGGA,184657.000,4305.2271,N,07734.9116,W,1,08,1.03,169.3,M,-34.3,M,,*55
$GPRMC,184657.250,A,4305.2272,N,07734.9092,W,26.02,86.64,101023,,,A*7B
$GPGGA,184657.500,4305.2273,N,07734.9068,W,1,08,1.03,169.3,M,-34.3,M,,*5A
$GPRMC,184657.750,A,4305.2274,N,07734.9043,W,26.36,86.46,101023,,,A*73
$GPGGA,184658.000,4305.2274,N,07734.9018,W,1,08,1.02,169.3,M,-34.3,M,,*51
$GPRMC,184658.250,A,4305.2275,N,07734.8992,W,26.64,86.30,101023,,,A*7A
$GPGGA,184658.500,4305.2276,N,07734.8966,W,1,08,1.03,169.4,M,-34.3,M,,*51
$GPRMC,184658.750,A,4305.2277,N,07734.8940,W,28.28,86.82,101023,,,A*7D
$GPGGA,184659.000,4305.2278,N,07734.8913,W,1,08,1.03,169.4,M,-34.3,M,,*59
$GPRMC,184659.250,A,4305.2278,N,07734.8886,W,28.60,86.79,101023,,,A*75
$GPGGA,184659.500,4305.2279,N,07734.8859,W,1,08,1.03,169.4,M,-34.3,M,,*52
$GPRMC,184659.750,A,4305.2280,N,07734.8831,W,29.31,86.93,101023,,,A*7A
$GPGGA,184700.000,4305.2281,N,07734.8803,W,1,08,1.02,169.4,M,-34.3,M,,*53
$GPRMC,184700.250,A,4305.2282,N,07734.8775,W,29.59,86.53,101023,,,A*7D
$GPGGA,184700.500,4305.2283,N,07734.8746,W,1,08,1.03,169.3,M,-34.3,M,,*5C
