Vers 81
USE_SERIAL_FEEDBACK=true
DEVELOPMENT_MODE=false
USE_RMC_ONLY=false

$GPRMC,172928.000,A,4307.8922,N,07726.3620,W,0.14,330.49,120823,,,A*7B
$GPGGA,172928.250,4307.8922,N,07726.3620,W,1,06,1.19,165.4,M,-34.3,M,,*5C
$GPRMC,172928.500,A,4307.8922,N,07726.3620,W,0.08,348.07,120823,,,A*76
$GPGGA,172928.750,4307.8922,N,07726.3621,W,1,06,1.34,165.7,M,-34.3,M,,*54
$GPRMC,172929.000,A,4307.8922,N,07726.3621,W,0.03,350.37,120823,,,A*72
$GPGGA,172929.250,4307.8922,N,07726.3621,W,1,06,1.34,166.0,M,-34.3,M,,*54
$GPRMC,172929.500,A,4307.8923,N,07726.3621,W,0.06,292.90,120823,,,A*71
$GPGGA,172929.750,4307.8922,N,07726.3622,W,1,06,1.20,166.6,M,-34.3,M,,*51
$GPRMC,172930.000,A,4307.8921,N,07726.3622,W,0.06,168.25,120823,,,A*75
$GPGGA,172930.250,4307.8922,N,07726.3622,W,1,06,1.19,166.5,M,-34.3,M,,*55
$GPRMC,172930.500,A,4307.8922,N,07726.3623,W,0.06,290.78,120823,,,A*7E
$GPGGA,172930.750,4307.8922,N,07726.3624,W,1,06,1.19,166.7,M,-34.3,M,,*54
$GPRMC,172931.000,A,4307.8921,N,07726.3624,W,0.05,107.71,120823,,,A*79
$GPGGA,172931.250,4307.8921,N,07726.3625,W,1,06,1.19,166.3,M,-34.3,M,,*56
$GPRMC,172931.500,A,4307.8921,N,07726.3626,W,0.01,333.68,120823,,,A*77
$GPGGA,172931.750,4307.8922,N,07726.3626,W,1,06,1.19,166.1,M,-34.3,M,,*51
$GPRMC,172932.000,A,4307.8923,N,07726.3627,W,0.02,66.75,120823,,,A*4E
$GPGGA,172932.250,4307.8922,N,07726.3625,W,1,09,1.01,165.4,M,-34.3,M,,*54
$GPRMC,172932.500,A,4307.8921,N,07726.3624,W,0.07,84.78,120823,,,A*4E
$GPGGA,172932.750,4307.8920,N,07726.3622,W,1,09,1.01,164.4,M,-34.3,M,,*55
$GPRMC,172933.000,A,4307.8919,N,07726.3621,W,0.05,63.27,120823,,,A*45
$GPGGA,172933.250,4307.8919,N,07726.3620,W,1,09,1.01,163.5,M,-34.3,M,,*5F
$GPRMC,172933.500,A,4307.8918,N,07726.3619,W,0.03,3.56,120823,,,A*7C
$GPGGA,172933.750,4307.8917,N,07726.3618,W,1,09,1.02,162.6,M,-34.3,M,,*5E
$GPRMC,172934.000,A,4307.8917,N,07726.3617,W,0.11,31.06,120823,,,A*48
$GPGGA,172934.250,4307.8916,N,07726.3617,W,1,09,1.01,161.9,M,-34.3,M,,*5D
$GPRMC,172934.500,A,4307.8916,N,07726.3616,W,0.12,335.03,120823,,,A*7C
$GPGGA,172934.750,4307.8915,N,07726.3616,W,1,09,1.00,161.2,M,-34.3,M,,*50
$GPRMC,172935.000,A,4307.8914,N,07726.3615,W,0.16,310.86,120823,,,A*77
$GPGGA,172935.250,4307.8914,N,07726.3615,W,1,09,1.01,160.6,M,-34.3,M,,*52
$GPRMC,172935.500,A,4307.8913,N,07726.3615,W,0.18,305.72,120823,,,A*74
$GPGGA,172935.750,4307.8914,N,07726.3615,W,1,09,1.01,160.4,M,-34.3,M,,*55
$GPRMC,172936.000,A,4307.8915,N,07726.3617,W,0.31,340.09,120823,,,A*70
$GPGGA,172936.250,4307.8915,N,07726.3616,W,1,09,1.00,160.2,M,-34.3,M,,*56
$GPRMC,172936.500,A,4307.8915,N,07726.3616,W,0.15,10.33,120823,,,A*4D
$GPGGA,172936.750,4307.8915,N,07726.3616,W,1,09,1.02,160.0,M,-34.3,M,,*53
$GPRMC,172937.000,A,4307.8915,N,07726.3617,W,0.07,340.83,120823,,,A*76
$GPGGA,172937.250,4307.8914,N,07726.3616,W,1,09,1.00,159.7,M,-34.3,M,,*59
$GPRMC,172937.500,A,4307.8914,N,07726.3616,W,0.05,121.02,120823,,,A*7D
$GPGGA,172937.750,4307.8913,N,07726.3615,W,1,09,1.01,159.5,M,-34.3,M,,*5B
$GPRMC,172938.000,A,4307.8913,N,07726.3615,W,0.10,345.41,120823,,,A*70
$GPGGA,172938.250,4307.8912,N,07726.3614,W,1,09,1.02,159.3,M,-34.3,M,,*54
$GPRMC,172938.500,A,4307.8912,N,07726.3613,W,0.13,13.62,120823,,,A*40
$GPGGA,172938.750,4307.8911,N,07726.3612,W,1,09,1.02,158.8,M,-34.3,M,,*5E
$GPRMC,172939.000,A,4307.8911,N,07726.3611,W,0.11,57.68,120823,,,A*4D
$GPGGA,172939.250,4307.8910,N,07726.3611,W,1,09,1.01,158.6,M,-34.3,M,,*55
$GPRMC,172939.500,A,4307.8909,N,07726.3609,W,0.19,87.65,120823,,,A*40
$GPGGA,172939.750,4307.8908,N,07726.3608,W,1,09,1.00,158.5,M,-34.3,M,,*53
$GPRMC,172940.000,A,4307.8907,N,07726.3608,W,0.14,125.95,120823,,,A*7F
$GPGGA,172940.250,4307.8906,N,07726.3607,W,1,09,1.01,158.8,M,-34.3,M,,*55
$GPRMC,172940.500,A,4307.8906,N,07726.3606,W,0.09,142.96,120823,,,A*7B
$GPGGA,172940.750,4307.8905,N,07726.3605,W,1,09,1.01,159.1,M,-34.3,M,,*59
$GPRMC,172941.000,A,4307.8905,N,07726.3604,W,0.12,123.73,120823,,,A*78
$GPGGA,172941.250,4307.8904,N,07726.3604,W,1,09,1.01,159.5,M,-34.3,M,,*59
$GPRMC,172941.500,A,4307.8904,N,07726.3603,W,0.11,166.91,120823,,,A*75
$GPGGA,172941.750,4307.8903,N,07726.3603,W,1,09,1.00,159.7,M,-34.3,M,,*5F
$GPRMC,172942.000,A,4307.8903,N,07726.3602,W,0.05,297.77,120823,,,A*75
$GPGGA,172942.250,4307.8903,N,07726.3602,W,1,09,1.01,159.9,M,-34.3,M,,*57
$GPRMC,172942.500,A,4307.8903,N,07726.3601,W,0.04,270.19,120823,,,A*73
$GPGGA,172942.750,4307.8903,N,07726.3601,W,1,09,1.00,160.1,M,-34.3,M,,*52
$GPRMC,172943.000,A,4307.8903,N,07726.3600,W,0.03,289.23,120823,,,A*7E
$GPGGA,172943.250,4307.8902,N,07726.3600,W,1,09,1.01,160.3,M,-34.3,M,,*55
$GPRMC,172943.500,A,4307.8902,N,07726.3599,W,0.01,335.96,120823,,,A*73
$GPGGA,172943.750,4307.8902,N,07726.3599,W,1,09,1.01,160.3,M,-34.3,M,,*53
$GPRMC,172944.000,A,4307.8902,N,07726.3598,W,0.03,335.15,120823,,,A*79
$GPGGA,172944.250,4307.8902,N,07726.3598,W,1,09,1.01,160.1,M,-34.3,M,,*52
$GPRMC,172944.500,A,4307.8902,N,07726.3598,W,0.01,6.15,120823,,,A*7D
$GPGGA,172944.750,4307.8902,N,07726.3598,W,1,09,1.02,160.0,M,-34.3,M,,*55
$GPRMC,172945.000,A,4307.8902,N,07726.3597,W,0.02,192.65,120823,,,A*7E
$GPGGA,172945.250,4307.8901,N,07726.3597,W,1,09,1.00,159.8,M,-34.3,M,,*5D
$GPRMC,172945.500,A,4307.8901,N,07726.3597,W,0.03,144.55,120823,,,A*71
$GPGGA,172945.750,4307.8901,N,07726.3596,W,1,09,1.00,159.5,M,-34.3,M,,*54
$GPRMC,172946.000,A,4307.8901,N,07726.3596,W,0.04,216.99,120823,,,A*75
$GPGGA,172946.250,4307.8901,N,07726.3596,W,1,09,1.01,159.3,M,-34.3,M,,*55
$GPRMC,172946.500,A,4307.8901,N,07726.3596,W,0.01,177.73,120823,,,A*75
$GPGGA,172946.750,4307.8901,N,07726.3595,W,1,09,1.00,159.1,M,-34.3,M,,*50
$GPRMC,172947.000,A,4307.8901,N,07726.3595,W,0.00,349.41,120823,,,A*7D
$GPGGA,172947.250,4307.8900,N,07726.3595,W,1,09,1.02,159.0,M,-34.3,M,,*56
$GPRMC,172947.500,A,4307.8900,N,07726.3595,W,0.02,323.42,120823,,,A*74
$GPGGA,172947.750,4307.8900,N,07726.3595,W,1,09,1.00,158.9,M,-34.3,M,,*59
$GPRMC,172948.000,A,4307.8900,N,07726.3595,W,0.04,199.17,120823,,,A*7B
$GPGGA,172948.250,4307.8900,N,07726.3595,W,1,09,1.01,158.9,M,-34.3,M,,*52
$GPRMC,172948.500,A,4307.8900,N,07726.3595,W,0.02,155.50,120823,,,A*7B
$GPGGA,172948.750,4307.8899,N,07726.3595,W,1,09,1.01,158.8,M,-34.3,M,,*57
$GPRMC,172949.000,A,4307.8899,N,07726.3595,W,0.02,355.56,120823,,,A*7A
$GPGGA,172949.250,4307.8899,N,07726.3595,W,1,09,1.02,158.8,M,-34.3,M,,*50
$GPRMC,172949.500,A,4307.8899,N,07726.3595,W,0.02,67.39,120823,,,A*44
$GPGGA,172949.750,4307.8899,N,07726.3595,W,1,09,1.00,158.8,M,-34.3,M,,*57
$GPRMC,172950.000,A,4307.8899,N,07726.3595,W,0.01,166.21,120823,,,A*73
$GPGGA,172950.250,4307.8899,N,07726.3595,W,1,09,1.01,158.9,M,-34.3,M,,*5A
$GPRMC,172950.500,A,4307.8898,N,07726.3595,W,0.01,294.93,120823,,,A*70
$GPGGA,172950.750,4307.8898,N,07726.3595,W,1,09,1.01,158.9,M,-34.3,M,,*5E
$GPRMC,172951.000,A,4307.8898,N,07726.3595,W,0.02,71.31,120823,,,A*46
$GPGGA,172951.250,4307.8898,N,07726.3595,W,1,09,1.00,158.9,M,-34.3,M,,*5B
$GPRMC,172951.500,A,4307.8898,N,07726.3595,W,0.03,249.84,120823,,,A*75
$GPGGA,172951.750,4307.8898,N,07726.3596,W,1,09,1.01,159.0,M,-34.3,M,,*54
$GPRMC,172952.000,A,4307.8898,N,07726.3596,W,0.02,50.07,120823,,,A*40
$GPGGA,172952.250,4307.8897,N,07726.3596,W,1,09,1.00,159.1,M,-34.3,M,,*5D
$GPRMC,172952.500,A,4307.8897,N,07726.3596,W,0.02,28.59,120823,,,A*4E
$GPGGA,172952.750,4307.8897,N,07726.3596,W,1,09,1.00,159.1,M,-34.3,M,,*58
$GPRMC,172953.000,A,4307.8897,N,07726.3596,W,0.01,173.99,120823,,,A*7A
$GPGGA,172953.250,4307.8897,N,07726.3596,W,1,09,1.01,159.2,M,-34.3,M,,*5E
$GPRMC,172953.500,A,4307.8897,N,07726.3596,W,0.02,93.42,120823,,,A*45
$GPGGA,172953.750,4307.8897,N,07726.3596,W,1,09,1.01,159.3,M,-34.3,M,,*5A
$GPRMC,172954.000,A,4307.8897,N,07726.3596,W,0.00,191.72,120823,,,A*75
$GPGGA,172954.250,4307.8897,N,07726.3596,W,1,09,1.00,159.3,M,-34.3,M,,*59
$GPRMC,172954.500,A,4307.8897,N,07726.3596,W,0.03,321.57,120823,,,A*7D
$GPGGA,172954.750,4307.8897,N,07726.3595,W,1,09,1.00,159.4,M,-34.3,M,,*58
$GPRMC,172955.000,A,4307.8896,N,07726.3595,W,0.03,228.74,120823,,,A*72
$GPGGA,172955.250,4307.8896,N,07726.3595,W,1,09,1.00,159.4,M,-34.3,M,,*5D
$GPRMC,172955.500,A,4307.8896,N,07726.3595,W,0.01,193.44,120823,,,A*75
$GPGGA,172955.750,4307.8896,N,07726.3595,W,1,09,1.00,159.4,M,-34.3,M,,*58
$GPRMC,172956.000,A,4307.8896,N,07726.3595,W,0.01,256.50,120823,,,A*7C
$GPGGA,172956.250,4307.8896,N,07726.3595,W,1,09,1.00,159.4,M,-34.3,M,,*5E
$GPRMC,172956.500,A,4307.8896,N,07726.3595,W,0.02,13.63,120823,,,A*49
$GPGGA,172956.750,4307.8896,N,07726.3595,W,1,09,1.02,159.4,M,-34.3,M,,*59
$GPRMC,172957.000,A,4307.8896,N,07726.3594,W,0.01,284.20,120823,,,A*74
$GPGGA,172957.250,4307.8896,N,07726.3594,W,1,09,1.00,159.4,M,-34.3,M,,*5E
$GPRMC,172957.500,A,4307.8896,N,07726.3594,W,0.03,24.06,120823,,,A*4F
$GPGGA,172957.750,4307.8896,N,07726.3594,W,1,09,1.00,159.4,M,-34.3,M,,*5B
$GPRMC,172958.000,A,4307.8896,N,07726.3594,W,0.03,186.99,120823,,,A*7A
$GPGGA,172958.250,4307.8896,N,07726.3594,W,1,09,1.00,159.4,M,-34.3,M,,*51
$GPRMC,172958.500,A,4307.8896,N,07726.3594,W,0.02,244.05,120823,,,A*76
$GPGGA,172958.750,4307.8896,N,07726.3594,W,1,09,1.00,159.4,M,-34.3,M,,*54
$GPRMC,172959.000,A,4307.8897,N,07726.3593,W,0.01,324.37,120823,,,A*71
$GPGGA,172959.250,4307.8897,N,07726.3593,W,1,09,1.00,159.4,M,-34.3,M,,*56
$GPRMC,172959.500,A,4307.8897,N,07726.3593,W,0.04,339.14,120823,,,A*7C
$GPGGA,172959.750,4307.8897,N,07726.3593,W,1,09,1.01,159.4,M,-34.3,M,,*52
$GPRMC,173000.000,A,4307.8897,N,07726.3593,W,0.02,178.88,120823,,,A*79
$GPGGA,173000.250,4307.8897,N,07726.3593,W,1,09,1.00,159.4,M,-34.3,M,,*52
$GPRMC,173000.500,A,4307.8897,N,07726.3593,W,0.01,53.12,120823,,,A*44
$GPGGA,173000.750,4307.8897,N,07726.3593,W,1,09,1.00,159.4,M,-34.3,M,,*57
$GPRMC,173001.000,A,4307.8897,N,07726.3593,W,0.02,14.84,120823,,,A*4F
$GPGGA,173001.250,4307.8897,N,07726.3593,W,1,09,1.02,159.4,M,-34.3,M,,*51
$GPRMC,173001.500,A,4307.8897,N,07726.3593,W,0.01,155.00,120823,,,A*71
$GPGGA,173001.750,4307.8897,N,07726.3593,W,1,09,1.00,159.4,M,-34.3,M,,*56
$GPRMC,173002.000,A,4307.8897,N,07726.3593,W,0.02,324.10,120823,,,A*71
$GPGGA,173002.250,4307.8897,N,07726.3593,W,1,09,1.00,159.4,M,-34.3,M,,*50
$GPRMC,173002.500,A,4307.8897,N,07726.3593,W,0.03,160.50,120823,,,A*73
$GPGGA,173002.750,4307.8897,N,07726.3593,W,1,09,1.00,159.4,M,-34.3,M,,*55
$GPRMC,173003.000,A,4307.8897,N,07726.3593,W,0.06,174.92,120823,,,A*79
$GPGGA,173003.250,4307.8896,N,07726.3593,W,1,09,1.00,159.4,M,-34.3,M,,*50
$GPRMC,173003.500,A,4307.8896,N,07726.3593,W,0.02,128.34,120823,,,A*7C
$GPGGA,173003.750,4307.8896,N,07726.3593,W,1,09,1.00,159.4,M,-34.3,M,,*55
$GPRMC,173004.000,A,4307.8896,N,07726.3593,W,0.01,4.94,120823,,,A*78
$GPGGA,173004.250,4307.8896,N,07726.3593,W,1,09,1.02,159.4,M,-34.3,M,,*55
$GPRMC,173004.500,A,4307.8896,N,07726.3593,W,0.03,146.91,120823,,,A*7D
$GPGGA,173004.750,4307.8896,N,07726.3593,W,1,09,1.00,159.4,M,-34.3,M,,*52
$GPRMC,173005.000,A,4307.8896,N,07726.3593,W,0.01,165.45,120823,,,A*73
$GPGGA,173005.250,4307.8896,N,07726.3593,W,1,09,1.00,159.4,M,-34.3,M,,*56
$GPRMC,173005.500,A,4307.8896,N,07726.3593,W,0.00,300.68,120823,,,A*79
$GPGGA,173005.750,4307.8896,N,07726.3593,W,1,09,1.00,159.4,M,-34.3,M,,*53
$GPRMC,173006.000,A,4307.8896,N,07726.3593,W,0.01,91.59,120823,,,A*47
$GPGGA,173006.250,4307.8896,N,07726.3593,W,1,09,1.01,159.4,M,-34.3,M,,*54
$GPRMC,173006.500,A,4307.8896,N,07726.3593,W,0.02,305.85,120823,,,A*7E
$GPGGA,173006.750,4307.8896,N,07726.3593,W,1,09,1.00,159.4,M,-34.3,M,,*50
$GPRMC,173007.000,A,4307.8896,N,07726.3593,W,0.01,140.27,120823,,,A*72
$GPGGA,173007.250,4307.8896,N,07726.3593,W,1,09,1.00,159.4,M,-34.3,M,,*54
$GPRMC,173007.500,A,4307.8896,N,07726.3593,W,0.01,341.92,120823,,,A*7A
$GPGGA,173007.750,4307.8896,N,07726.3593,W,1,09,1.00,159.4,M,-34.3,M,,*51
$GPRMC,173008.000,A,4307.8896,N,07726.3593,W,0.00,59.82,120823,,,A*4A
$GPGGA,173008.250,4307.8896,N,07726.3593,W,1,09,1.01,159.4,M,-34.3,M,,*5A
$GPRMC,173008.500,A,4307.8896,N,07726.3593,W,0.01,230.66,120823,,,A*79
$GPGGA,173008.750,4307.8896,N,07726.3593,W,1,09,1.02,159.4,M,-34.3,M,,*5C
$GPRMC,173009.000,A,4307.8896,N,07726.3593,W,0.01,189.74,120823,,,A*7F
$GPGGA,173009.250,4307.8896,N,07726.3593,W,1,09,1.02,159.4,M,-34.3,M,,*58
$GPRMC,173009.500,A,4307.8896,N,07726.3593,W,0.00,171.45,120823,,,A*7E
$GPGGA,173009.750,4307.8896,N,07726.3593,W,1,09,1.02,159.4,M,-34.3,M,,*5D
$GPRMC,173010.000,A,4307.8896,N,07726.3593,W,0.01,288.60,120823,,,A*70
$GPGGA,173010.250,4307.8896,N,07726.3593,W,1,09,1.02,159.4,M,-34.3,M,,*50
$GPRMC,173010.500,A,4307.8896,N,07726.3593,W,0.00,255.88,120823,,,A*72
$GPGGA,173010.750,4307.8896,N,07726.3593,W,1,09,1.02,159.4,M,-34.3,M,,*55
$GPRMC,173011.000,A,4307.8896,N,07726.3593,W,0.00,1.92,120823,,,A*7E
$GPGGA,173011.250,4307.8896,N,07726.3593,W,1,09,1.02,159.4,M,-34.3,M,,*51
$GPRMC,173011.500,A,4307.8896,N,07726.3593,W,0.00,337.37,120823,,,A*72
$GPGGA,173011.750,4307.8896,N,07726.3593,W,1,09,1.02,159.4,M,-34.3,M,,*54
$GPRMC,173012.000,A,4307.8896,N,07726.3593,W,0.01,259.00,120823,,,A*78
$GPGGA,173012.250,4307.8896,N,07726.3593,W,1,09,1.02,159.4,M,-34.3,M,,*52
$GPRMC,173012.500,A,4307.8896,N,07726.3593,W,0.00,255.77,120823,,,A*70
$GPGGA,173012.750,4307.8896,N,07726.3593,W,1,09,1.02,159.4,M,-34.3,M,,*57
$GPRMC,173013.000,A,4307.8896,N,07726.3593,W,0.01,81.11,120823,,,A*4E
$GPGGA,173013.250,4307.8896,N,07726.3593,W,1,09,1.02,159.4,M,-34.3,M,,*53
$GPRMC,173013.500,A,4307.8896,N,07726.3593,W,0.01,104.49,120823,,,A*7A
$GPGGA,173013.750,4307.8896,N,07726.3593,W,1,09,1.02,159.4,M,-34.3,M,,*56
$GPRMC,173014.000,A,4307.8896,N,07726.3593,W,0.00,230.60,120823,,,A*76
$GPGGA,173014.250,4307.8896,N,07726.3593,W,1,09,1.02,159.4,M,-34.3,M,,*54
$GPRMC,173014.500,A,4307.8896,N,07726.3593,W,0.00,330.05,120823,,,A*71
$GPGGA,173014.750,4307.8896,N,07726.3593,W,1,09,1.02,159.4,M,-34.3,M,,*51
$GPRMC,173015.000,A,4307.8896,N,07726.3593,W,0.00,290.25,120823,,,A*7C
$GPGGA,173015.250,4307.8896,N,07726.3593,W,1,09,1.02,159.4,M,-34.3,M,,*55
$GPRMC,173015.500,A,4307.8896,N,07726.3593,W,0.01,109.37,120823,,,A*78
$GPGGA,173015.750,4307.8896,N,07726.3593,W,1,09,1.02,159.4,M,-34.3,M,,*50
$GPRMC,173016.000,A,4307.8896,N,07726.3593,W,0.01,177.35,120823,,,A*75
$GPGGA,173016.250,4307.8896,N,07726.3593,W,1,09,1.02,159.4,M,-34.3,M,,*56
$GPRMC,173016.500,A,4307.8896,N,07726.3593,W,0.01,46.03,120823,,,A*46
$GPGGA,173016.750,4307.8896,N,07726.3593,W,1,09,1.02,159.4,M,-34.3,M,,*53
$GPRMC,173017.000,A,4307.8896,N,07726.3593,W,0.01,219.17,120823,,,A*7F
$GPGGA,173017.250,4307.8896,N,07726.3593,W,1,09,1.02,159.4,M,-34.3,M,,*57
$GPRMC,173017.500,A,4307.8896,N,07726.3593,W,0.00,142.69,120823,,,A*7F
$GPGGA,173017.750,4307.8896,N,07726.3593,W,1,09,1.02,159.4,M,-34.3,M,,*52
$GPRMC,173018.000,A,4307.8896,N,07726.3593,W,0.00,260.60,120823,,,A*7F
$GPGGA,173018.250,4307.8896,N,07726.3593,W,1,09,1.02,159.4,M,-34.3,M,,*58
$GPRMC,173018.500,A,4307.8896,N,07726.3593,W,0.02,197.32,120823,,,A*74
$GPGGA,173018.750,4307.8896,N,07726.3593,W,1,09,1.02,159.4,M,-34.3,M,,*5D
$GPRMC,173019.000,A,4307.8896,N,07726.3593,W,0.08,197.89,120823,,,A*7A
$GPGGA,173019.250,4307.8896,N,07726.3593,W,1,09,1.02,159.4,M,-34.3,M,,*59
$GPRMC,173019.500,A,4307.8896,N,07726.3593,W,0.07,189.48,120823,,,A*72
$GPGGA,173019.750,4307.8896,N,07726.3593,W,1,09,1.02,159.4,M,-34.3,M,,*5C
$GPRMC,173020.000,A,4307.8896,N,07726.3593,W,0.90,188.89,120823,,,A*7F
$GPGGA,173020.250,4307.8896,N,07726.3593,W,1,09,1.02,159.4,M,-34.3,M,,*53
$GPRMC,173020.500,A,4307.8894,N,07726.3593,W,2.79,180.85,120823,,,A*79
$GPGGA,173020.750,4307.8892,N,07726.3593,W,1,09,1.00,159.4,M,-34.3,M,,*50
$GPRMC,173021.000,A,4307.8889,N,07726.3593,W,3.23,177.75,120823,,,A*78
$GPGGA,173021.250,4307.8887,N,07726.3593,W,1,09,1.00,159.4,M,-34.3,M,,*50
$GPRMC,173021.500,A,4307.8884,N,07726.3592,W,3.35,174.98,120823,,,A*76
$GPGGA,173021.750,4307.8882,N,07726.3592,W,1,09,1.00,159.3,M,-34.3,M,,*56
$GPRMC,173022.000,A,4307.8879,N,07726.3591,W,3.65,170.51,120823,,,A*75
$GPGGA,173022.250,4307.8876,N,07726.3590,W,1,09,1.00,159.3,M,-34.3,M,,*59
$GPRMC,173022.500,A,4307.8874,N,07726.3590,W,3.83,169.01,120823,,,A*79
$GPGGA,173022.750,4307.8871,N,07726.3589,W,1,09,1.00,159.3,M,-34.3,M,,*53
$GPRMC,173023.000,A,4307.8868,N,07726.3588,W,3.99,166.15,120823,,,A*78
$GPGGA,173023.250,4307.8865,N,07726.3587,W,1,09,1.02,159.2,M,-34.3,M,,*5F
$GPRMC,173023.500,A,4307.8862,N,07726.3585,W,4.49,162.68,120823,,,A*7E
$GPGGA,173023.750,4307.8859,N,07726.3584,W,1,09,1.02,159.1,M,-34.3,M,,*55
$GPRMC,173024.000,A,4307.8855,N,07726.3582,W,5.67,160.95,120823,,,A*72
$GPGGA,173024.250,4307.8851,N,07726.3580,W,1,09,1.02,159.1,M,-34.3,M,,*5B
$GPRMC,173024.500,A,4307.8847,N,07726.3578,W,6.91,158.41,120823,,,A*79
$GPGGA,173024.750,4307.8842,N,07726.3575,W,1,09,1.02,159.0,M,-34.3,M,,*57
$GPRMC,173025.000,A,4307.8837,N,07726.3572,W,8.03,157.45,120823,,,A*7E
$GPGGA,173025.250,4307.8831,N,07726.3569,W,1,09,1.02,158.9,M,-34.3,M,,*52
$GPRMC,173025.500,A,4307.8826,N,07726.3566,W,9.31,159.55,120823,,,A*71
$GPGGA,173025.750,4307.8819,N,07726.3563,W,1,09,1.02,158.8,M,-34.3,M,,*56
$GPRMC,173026.000,A,4307.8813,N,07726.3560,W,10.12,161.52,120823,,,A*42
$GPGGA,173026.250,4307.8805,N,07726.3556,W,1,09,1.02,158.7,M,-34.3,M,,*54
$GPRMC,173026.500,A,4307.8798,N,07726.3553,W,11.23,162.90,120823,,,A*45
$GPGGA,173026.750,4307.8790,N,07726.3550,W,1,09,1.02,158.6,M,-34.3,M,,*55
$GPRMC,173027.000,A,4307.8782,N,07726.3547,W,12.00,167.17,120823,,,A*47
$GPGGA,173027.250,4307.8774,N,07726.3545,W,1,09,1.02,158.6,M,-34.3,M,,*5F
$GPRMC,173027.500,A,4307.8765,N,07726.3543,W,13.01,170.78,120823,,,A*40
$GPGGA,173027.750,4307.8756,N,07726.3541,W,1,09,1.02,158.5,M,-34.3,M,,*5D
$GPRMC,173028.000,A,4307.8746,N,07726.3539,W,13.94,175.61,120823,,,A*47
$GPGGA,173028.250,4307.8735,N,07726.3537,W,1,09,1.02,158.4,M,-34.3,M,,*52
$GPRMC,173028.500,A,4307.8724,N,07726.3537,W,14.40,178.99,120823,,,A*4C
$GPGGA,173028.750,4307.8713,N,07726.3537,W,1,09,1.02,158.4,M,-34.3,M,,*53
$GPRMC,173029.000,A,4307.8703,N,07726.3537,W,14.46,181.64,120823,,,A*4F
$GPGGA,173029.250,4307.8692,N,07726.3538,W,1,09,1.02,158.4,M,-34.3,M,,*50
$GPRMC,173029.500,A,4307.8681,N,07726.3539,W,14.25,182.38,120823,,,A*40
$GPGGA,173029.750,4307.8671,N,07726.3539,W,1,09,1.02,158.4,M,-34.3,M,,*59
$GPRMC,173030.000,A,4307.8661,N,07726.3540,W,13.99,182.04,120823,,,A*42
$GPGGA,173030.250,4307.8651,N,07726.3540,W,1,09,1.02,158.4,M,-34.3,M,,*58
$GPRMC,173030.500,A,4307.8641,N,07726.3541,W,13.75,181.92,120823,,,A*4A
$GPGGA,173030.750,4307.8631,N,07726.3541,W,1,09,1.02,158.4,M,-34.3,M,,*5A
$GPRMC,173031.000,A,4307.8621,N,07726.3542,W,13.43,182.40,120823,,,A*42
$GPGGA,173031.250,4307.8612,N,07726.3543,W,1,09,1.02,158.5,M,-34.3,M,,*5C
$GPRMC,173031.500,A,4307.8603,N,07726.3543,W,13.10,183.54,120823,,,A*44
$GPGGA,173031.750,4307.8594,N,07726.3544,W,1,09,1.02,158.4,M,-34.3,M,,*52
$GPRMC,173032.000,A,4307.8585,N,07726.3544,W,11.73,183.82,120823,,,A*44
$GPGGA,173032.250,4307.8577,N,07726.3545,W,1,09,1.02,158.4,M,-34.3,M,,*58
$GPRMC,173032.500,A,4307.8570,N,07726.3545,W,9.39,183.76,120823,,,A*76
$GPGGA,173032.750,4307.8564,N,07726.3546,W,1,09,1.02,158.5,M,-34.3,M,,*5D
$GPRMC,173033.000,A,4307.8559,N,07726.3547,W,7.33,185.80,120823,,,A*70
$GPGGA,173033.250,4307.8554,N,07726.3548,W,1,09,1.02,158.6,M,-34.3,M,,*57
$GPRMC,173033.500,A,4307.8550,N,07726.3549,W,5.70,186.50,120823,,,A*79
$GPGGA,173033.750,4307.8546,N,07726.3549,W,1,09,1.02,158.5,M,-34.3,M,,*53
$GPRMC,173034.000,A,4307.8543,N,07726.3550,W,4.20,185.53,120823,,,A*75
$GPGGA,173034.250,4307.8541,N,07726.3550,W,1,09,1.02,158.5,M,-34.3,M,,*5E
$GPRMC,173034.500,A,4307.8538,N,07726.3551,W,2.97,187.09,120823,,,A*7A
$GPGGA,173034.750,4307.8537,N,07726.3551,W,1,09,1.00,158.5,M,-34.3,M,,*59
$GPRMC,173035.000,A,4307.8536,N,07726.3551,W,1.36,187.09,120823,,,A*78
$GPGGA,173035.250,4307.8535,N,07726.3551,W,1,09,1.00,158.4,M,-34.3,M,,*5E
$GPRMC,173035.500,A,4307.8534,N,07726.3551,W,0.67,187.09,120823,,,A*7A
$GPGGA,173035.750,4307.8534,N,07726.3551,W,1,09,1.00,158.4,M,-34.3,M,,*5A
$GPRMC,173036.000,A,4307.8533,N,07726.3551,W,0.62,187.09,120823,,,A*7E
$GPGGA,173036.250,4307.8533,N,07726.3551,W,1,09,1.00,158.4,M,-34.3,M,,*5B
$GPRMC,173036.500,A,4307.8532,N,07726.3552,W,0.69,187.09,120823,,,A*72
$GPGGA,173036.750,4307.8532,N,07726.3552,W,1,09,1.00,158.4,M,-34.3,M,,*5C
$GPRMC,173037.000,A,4307.8532,N,07726.3552,W,0.20,190.22,120823,,,A*74
$GPGGA,173037.250,4307.8532,N,07726.3552,W,1,09,1.00,158.4,M,-34.3,M,,*58
$GPRMC,173037.500,A,4307.8532,N,07726.3552,W,0.08,190.22,120823,,,A*7B
$GPGGA,173037.750,4307.8532,N,07726.3552,W,1,09,1.00,158.4,M,-34.3,M,,*5D
$GPRMC,173038.000,A,4307.8532,N,07726.3552,W,0.04,190.22,120823,,,A*7D
$GPGGA,173038.250,4307.8532,N,07726.3552,W,1,09,1.00,158.4,M,-34.3,M,,*57
$GPRMC,173038.500,A,4307.8532,N,07726.3552,W,0.05,190.22,120823,,,A*79
$GPGGA,173038.750,4307.8532,N,07726.3552,W,1,09,1.00,158.4,M,-34.3,M,,*52
$GPRMC,173039.000,A,4307.8532,N,07726.3552,W,0.03,190.22,120823,,,A*7B
$GPGGA,173039.250,4307.8532,N,07726.3552,W,1,09,1.00,158.4,M,-34.3,M,,*56
$GPRMC,173039.500,A,4307.8532,N,07726.3552,W,0.04,190.22,120823,,,A*79
$GPGGA,173039.750,4307.8532,N,07726.3552,W,1,09,1.00,158.3,M,-34.3,M,,*54
$GPRMC,173040.000,A,4307.8532,N,07726.3552,W,0.01,190.22,120823,,,A*77
$GPGGA,173040.250,4307.8532,N,07726.3552,W,1,09,1.00,158.3,M,-34.3,M,,*5F
$GPRMC,173040.500,A,4307.8532,N,07726.3552,W,0.01,190.22,120823,,,A*72
$GPGGA,173040.750,4307.8532,N,07726.3552,W,1,09,1.02,158.3,M,-34.3,M,,*58
$GPRMC,173041.000,A,4307.8532,N,07726.3552,W,0.02,190.22,120823,,,A*75
$GPGGA,173041.250,4307.8532,N,07726.3552,W,1,09,1.00,158.3,M,-34.3,M,,*5E
$GPRMC,173041.500,A,4307.8532,N,07726.3552,W,0.01,190.22,120823,,,A*73
$GPGGA,173041.750,4307.8532,N,07726.3552,W,1,09,1.00,158.3,M,-34.3,M,,*5B
$GPRMC,173042.000,A,4307.8532,N,07726.3552,W,0.04,190.22,120823,,,A*70
$GPGGA,173042.250,4307.8532,N,07726.3552,W,1,09,1.00,158.3,M,-34.3,M,,*5D
$GPRMC,173042.500,A,4307.8532,N,07726.3552,W,0.03,190.22,120823,,,A*72
$GPGGA,173042.750,4307.8532,N,07726.3552,W,1,09,1.00,158.3,M,-34.3,M,,*58
$GPRMC,173043.000,A,4307.8532,N,07726.3552,W,0.00,190.22,120823,,,A*75
$GPGGA,173043.250,4307.8532,N,07726.3552,W,1,09,1.00,158.3,M,-34.3,M,,*5C
$GPRMC,173043.500,A,4307.8532,N,07726.3552,W,0.01,190.22,120823,,,A*71
$GPGGA,173043.750,4307.8532,N,07726.3552,W,1,09,1.02,158.3,M,-34.3,M,,*5B
$GPRMC,173044.000,A,4307.8532,N,07726.3552,W,0.04,190.22,120823,,,A*76
$GPGGA,173044.250,4307.8532,N,07726.3552,W,1,09,1.00,158.3,M,-34.3,M,,*5B
$GPRMC,173044.500,A,4307.8532,N,07726.3552,W,0.02,190.22,120823,,,A*75
$GPGGA,173044.750,4307.8532,N,07726.3552,W,1,09,1.00,158.3,M,-34.3,M,,*5E
$GPRMC,173045.000,A,4307.8532,N,07726.3552,W,0.04,190.22,120823,,,A*77
$GPGGA,173045.250,4307.8532,N,07726.3552,W,1,09,1.00,158.3,M,-34.3,M,,*5A
$GPRMC,173045.500,A,4307.8532,N,07726.3552,W,0.04,190.22,120823,,,A*72
$GPGGA,173045.750,4307.8532,N,07726.3552,W,1,09,1.00,158.3,M,-34.3,M,,*5F
$GPRMC,173046.000,A,4307.8532,N,07726.3552,W,0.50,190.22,120823,,,A*75
$GPGGA,173046.250,4307.8532,N,07726.3552,W,1,09,1.00,158.3,M,-34.3,M,,*59
$GPRMC,173046.500,A,4307.8530,N,07726.3552,W,2.17,190.22,120823,,,A*73
$GPGGA,173046.750,4307.8529,N,07726.3553,W,1,09,1.00,158.3,M,-34.3,M,,*57
$GPRMC,173047.000,A,4307.8526,N,07726.3553,W,3.64,200.89,120823,,,A*7F
$GPGGA,173047.250,4307.8524,N,07726.3554,W,1,09,1.00,158.2,M,-34.3,M,,*58
$GPRMC,173047.500,A,4307.8521,N,07726.3555,W,4.73,201.08,120823,,,A*72
$GPGGA,173047.750,4307.8518,N,07726.3556,W,1,09,1.02,158.2,M,-34.3,M,,*52
$GPRMC,173048.000,A,4307.8514,N,07726.3560,W,6.10,212.34,120823,,,A*72
$GPGGA,173048.250,4307.8510,N,07726.3563,W,1,09,1.02,158.3,M,-34.3,M,,*57
$GPRMC,173048.500,A,4307.8505,N,07726.3568,W,8.40,218.37,120823,,,A*7D
$GPGGA,173048.750,4307.8501,N,07726.3574,W,1,09,1.02,158.3,M,-34.3,M,,*54
$GPRMC,173049.000,A,4307.8497,N,07726.3581,W,10.28,232.69,120823,,,A*40
$GPGGA,173049.250,4307.8493,N,07726.3590,W,1,09,1.02,158.2,M,-34.3,M,,*51
$GPRMC,173049.500,A,4307.8489,N,07726.3600,W,12.06,241.39,120823,,,A*4F
$GPGGA,173049.750,4307.8486,N,07726.3612,W,1,09,1.02,158.2,M,-34.3,M,,*59
$GPRMC,173050.000,A,4307.8482,N,07726.3624,W,13.28,250.67,120823,,,A*49
$GPGGA,173050.250,4307.8479,N,07726.3637,W,1,09,1.02,158.1,M,-34.3,M,,*50
$GPRMC,173050.500,A,4307.8476,N,07726.3650,W,14.92,255.35,120823,,,A*40
$GPGGA,173050.750,4307.8473,N,07726.3665,W,1,09,1.02,158.1,M,-34.3,M,,*58
$GPRMC,173051.000,A,4307.8472,N,07726.3680,W,16.00,261.14,120823,,,A*40
$GPGGA,173051.250,4307.8470,N,07726.3695,W,1,09,1.02,158.2,M,-34.3,M,,*53
$GPRMC,173051.500,A,4307.8468,N,07726.3711,W,16.84,263.52,120823,,,A*4B
$GPGGA,173051.750,4307.8467,N,07726.3727,W,1,09,1.00,158.2,M,-34.3,M,,*5A
$GPRMC,173052.000,A,4307.8466,N,07726.3744,W,17.38,265.29,120823,,,A*4F
$GPGGA,173052.250,4307.8465,N,07726.3761,W,1,09,1.00,158.2,M,-34.3,M,,*5C
$GPRMC,173052.500,A,4307.8465,N,07726.3778,W,18.02,265.80,120823,,,A*43
$GPGGA,173052.750,4307.8464,N,07726.3796,W,1,09,1.02,158.3,M,-34.3,M,,*53
$GPRMC,173053.000,A,4307.8463,N,07726.3813,W,18.25,265.46,120823,,,A*4C
$GPGGA,173053.250,4307.8462,N,07726.3831,W,1,09,1.02,158.3,M,-34.3,M,,*53
$GPRMC,173053.500,A,4307.8461,N,07726.3848,W,17.78,264.06,120823,,,A*47
$GPGGA,173053.750,4307.8460,N,07726.3865,W,1,09,1.02,158.4,M,-34.3,M,,*52
$GPRMC,173054.000,A,4307.8459,N,07726.3881,W,17.26,263.83,120823,,,A*4A
$GPGGA,173054.250,4307.8458,N,07726.3898,W,1,09,1.02,158.5,M,-34.3,M,,*58
$GPRMC,173054.500,A,4307.8456,N,07726.3914,W,16.75,263.93,120823,,,A*4B
$GPGGA,173054.750,4307.8456,N,07726.3930,W,1,09,1.01,158.5,M,-34.3,M,,*53
$GPRMC,173055.000,A,4307.8455,N,07726.3946,W,16.28,264.60,120823,,,A*48
$GPGGA,173055.250,4307.8455,N,07726.3962,W,1,09,1.02,158.5,M,-34.3,M,,*50
$GPRMC,173055.500,A,4307.8454,N,07726.3977,W,15.94,266.10,120823,,,A*4F
$GPGGA,173055.750,4307.8454,N,07726.3991,W,1,09,1.02,158.5,M,-34.3,M,,*58
$GPRMC,173056.000,A,4307.8453,N,07726.4006,W,15.42,267.21,120823,,,A*4E
$GPGGA,173056.250,4307.8453,N,07726.4021,W,1,09,1.02,158.6,M,-34.3,M,,*5F
$GPRMC,173056.500,A,4307.8452,N,07726.4036,W,14.96,267.58,120823,,,A*4F
$GPGGA,173056.750,4307.8452,N,07726.4051,W,1,09,1.02,158.7,M,-34.3,M,,*5D
$GPRMC,173057.000,A,4307.8452,N,07726.4065,W,14.47,268.41,120823,,,A*46
$GPGGA,173057.250,4307.8452,N,07726.4079,W,1,09,1.01,158.7,M,-34.3,M,,*50
$GPRMC,173057.500,A,4307.8452,N,07726.4092,W,14.04,269.18,120823,,,A*41
$GPGGA,173057.750,4307.8452,N,07726.4105,W,1,09,1.02,158.8,M,-34.3,M,,*53
$GPRMC,173058.000,A,4307.8452,N,07726.4118,W,13.84,269.76,120823,,,A*4F
$GPGGA,173058.250,4307.8452,N,07726.4131,W,1,09,1.02,158.8,M,-34.3,M,,*5E
$GPRMC,173058.500,A,4307.8452,N,07726.4144,W,13.50,269.41,120823,,,A*4E
$GPGGA,173058.750,4307.8452,N,07726.4156,W,1,09,1.02,158.9,M,-34.3,M,,*5B
$GPRMC,173059.000,A,4307.8451,N,07726.4169,W,13.15,269.69,120823,,,A*4D
$GPGGA,173059.250,4307.8451,N,07726.4181,W,1,09,1.02,159.0,M,-34.3,M,,*5E
$GPRMC,173059.500,A,4307.8450,N,07726.4194,W,12.77,269.30,120823,,,A*42
$GPGGA,173059.750,4307.8450,N,07726.4206,W,1,09,1.02,159.2,M,-34.3,M,,*54
$GPRMC,173100.000,A,4307.8450,N,07726.4218,W,12.25,268.94,120823,,,A*45
$GPGGA,173100.250,4307.8450,N,07726.4229,W,1,09,1.02,159.3,M,-34.3,M,,*50
$GPRMC,173100.500,A,4307.8449,N,07726.4240,W,11.81,268.85,120823,,,D*4D
$GPGGA,173100.750,4307.8449,N,07726.4251,W,2,09,1.02,159.5,M,-34.3,M,0000,0000*57
$GPRMC,173101.000,A,4307.8450,N,07726.4262,W,11.45,269.13,120823,,,D*47
$GPGGA,173101.250,4307.8450,N,07726.4273,W,2,09,1.01,159.8,M,-34.3,M,0000,0000*55
$GPRMC,173101.500,A,4307.8450,N,07726.4283,W,11.09,269.62,120823,,,D*43
$GPGGA,173101.750,4307.8450,N,07726.4293,W,2,09,1.02,160.0,M,-34.3,M,0000,0000*5F
$GPRMC,173102.000,A,4307.8450,N,07726.4303,W,10.57,269.26,120823,,,D*46
$GPGGA,173102.250,4307.8450,N,07726.4313,W,2,09,1.02,160.1,M,-34.3,M,0000,0000*51
$GPRMC,173102.500,A,4307.8451,N,07726.4321,W,10.07,269.40,120823,,,D*47
$GPGGA,173102.750,4307.8451,N,07726.4330,W,2,09,1.01,160.2,M,-34.3,M,0000,0000*54
$GPRMC,173103.000,A,4307.8452,N,07726.4340,W,10.40,268.94,120823,,,D*4C
$GPGGA,173103.250,4307.8452,N,07726.4350,W,2,09,1.02,160.3,M,-34.3,M,0000,0000*57
$GPRMC,173103.500,A,4307.8453,N,07726.4361,W,11.72,269.13,120823,,,D*45
$GPGGA,173103.750,4307.8454,N,07726.4373,W,2,09,1.02,160.3,M,-34.3,M,0000,0000*55
$GPRMC,173104.000,A,4307.8454,N,07726.4386,W,13.97,271.41,120823,,,D*4E
$GPGGA,173104.250,4307.8455,N,07726.4400,W,2,09,1.02,160.2,M,-34.3,M,0000,0000*54
$GPRMC,173104.500,A,4307.8454,N,07726.4414,W,16.02,270.41,120823,,,D*4F
$GPGGA,173104.750,4307.8455,N,07726.4429,W,2,09,1.02,159.9,M,-34.3,M,0000,0000*5B
$GPRMC,173105.000,A,4307.8456,N,07726.4445,W,17.58,270.92,120823,,,D*4D
$GPGGA,173105.250,4307.8456,N,07726.4462,W,2,09,1.02,159.9,M,-34.3,M,0000,0000*53
$GPRMC,173105.500,A,4307.8457,N,07726.4479,W,18.59,271.24,120823,,,D*44
$GPGGA,173105.750,4307.8457,N,07726.4497,W,2,09,1.02,159.9,M,-34.3,M,0000,0000*5D
$GPRMC,173106.000,A,4307.8458,N,07726.4514,W,18.85,271.51,120823,,,D*44
$GPGGA,173106.250,4307.8458,N,07726.4532,W,2,09,1.02,159.9,M,-34.3,M,0000,0000*5A
$GPRMC,173106.500,A,4307.8459,N,07726.4550,W,18.92,271.08,120823,,,D*4A
$GPGGA,173106.750,4307.8459,N,07726.4568,W,2,09,1.02,159.8,M,-34.3,M,0000,0000*50
$GPRMC,173107.000,A,4307.8459,N,07726.4586,W,19.09,268.10,120823,,,D*47
$GPGGA,173107.250,4307.8458,N,07726.4605,W,2,09,1.01,159.8,M,-34.3,M,0000,0000*5E
$GPRMC,173107.500,A,4307.8457,N,07726.4623,W,19.04,262.42,120823,,,D*40
$GPGGA,173107.750,4307.8455,N,07726.4641,W,2,09,1.02,159.8,M,-34.3,M,0000,0000*55
$GPRMC,173108.000,A,4307.8452,N,07726.4658,W,18.72,255.93,120823,,,D*4B
$GPGGA,173108.250,4307.8449,N,07726.4675,W,2,09,1.02,160.0,M,-34.3,M,0000,0000*57
$GPRMC,173108.500,A,4307.8444,N,07726.4692,W,18.14,249.36,120823,,,D*4D
$GPGGA,173108.750,4307.8439,N,07726.4707,W,2,09,1.02,160.0,M,-34.3,M,0000,0000*51
$GPRMC,173109.000,A,4307.8433,N,07726.4722,W,17.72,239.86,120823,,,D*40
$GPGGA,173109.250,4307.8426,N,07726.4736,W,2,09,1.02,160.0,M,-34.3,M,0000,0000*59
$GPRMC,173109.500,A,4307.8418,N,07726.4750,W,17.46,231.06,120823,,,D*4E
$GPGGA,173109.750,4307.8410,N,07726.4762,W,2,09,1.01,160.1,M,-34.3,M,0000,0000*5A
$GPRMC,173110.000,A,4307.8401,N,07726.4774,W,17.08,225.04,120823,,,D*40
$GPGGA,173110.250,4307.8390,N,07726.4786,W,2,09,1.02,160.2,M,-34.3,M,0000,0000*52
$GPRMC,173110.500,A,4307.8379,N,07726.4797,W,16.40,216.16,120823,,,D*4E
$GPGGA,173110.750,4307.8368,N,07726.4805,W,2,09,1.02,160.4,M,-34.3,M,0000,0000*52
$GPRMC,173111.000,A,4307.8357,N,07726.4811,W,16.58,207.67,120823,,,D*48
$GPGGA,173111.250,4307.8346,N,07726.4817,W,2,09,1.02,160.6,M,-34.3,M,0000,0000*5B
$GPRMC,173111.500,A,4307.8334,N,07726.4823,W,16.60,200.44,120823,,,D*44
$GPGGA,173111.750,4307.8322,N,07726.4827,W,2,09,1.01,160.7,M,-34.3,M,0000,0000*5D
$GPRMC,173112.000,A,4307.8310,N,07726.4831,W,16.58,193.84,120823,,,D*49
$GPGGA,173112.250,4307.8297,N,07726.4832,W,2,09,1.01,160.8,M,-34.3,M,0000,0000*5F
$GPRMC,173112.500,A,4307.8284,N,07726.4833,W,17.21,186.55,120823,,,D*45
$GPGGA,173112.750,4307.8271,N,07726.4834,W,2,09,1.01,160.8,M,-34.3,M,0000,0000*54
$GPRMC,173113.000,A,4307.8259,N,07726.4834,W,17.08,182.85,120823,,,D*44
$GPGGA,173113.250,4307.8247,N,07726.4834,W,2,09,1.01,160.8,M,-34.3,M,0000,0000*55
$GPRMC,173113.500,A,4307.8235,N,07726.4833,W,17.34,181.12,120823,,,D*4E
$GPGGA,173113.750,4307.8223,N,07726.4833,W,2,09,1.02,160.7,M,-34.3,M,0000,0000*59
$GPRMC,173114.000,A,4307.8210,N,07726.4833,W,17.94,179.34,120823,,,D*42
$GPGGA,173114.250,4307.8198,N,07726.4833,W,2,09,1.02,160.7,M,-34.3,M,0000,0000*58
$GPRMC,173114.500,A,4307.8186,N,07726.4832,W,17.92,179.27,120823,,,D*4E
$GPGGA,173114.750,4307.8173,N,07726.4832,W,2,09,1.01,160.7,M,-34.3,M,0000,0000*5A
$GPRMC,173115.000,A,4307.8161,N,07726.4831,W,18.09,178.86,120823,,,D*47
$GPGGA,173115.250,4307.8148,N,07726.4832,W,2,09,1.01,160.8,M,-34.3,M,0000,0000*59
$GPRMC,173115.500,A,4307.8136,N,07726.4832,W,18.27,178.67,120823,,,D*40
$GPGGA,173115.750,4307.8124,N,07726.4832,W,2,09,1.02,160.8,M,-34.3,M,0000,0000*55
$GPRMC,173116.000,A,4307.8111,N,07726.4832,W,18.15,179.00,120823,,,D*42
$GPGGA,173116.250,4307.8099,N,07726.4832,W,2,09,1.02,160.9,M,-34.3,M,0000,0000*55
$GPRMC,173116.500,A,4307.8086,N,07726.4832,W,18.19,178.90,120823,,,D*4C
$GPGGA,173116.750,4307.8074,N,07726.4832,W,2,09,1.02,161.0,M,-34.3,M,0000,0000*5B
$GPRMC,173117.000,A,4307.8062,N,07726.4832,W,17.69,179.48,120823,,,D*4E
$GPGGA,173117.250,4307.8050,N,07726.4831,W,2,09,1.01,161.2,M,-34.3,M,0000,0000*5B
$GPRMC,173117.500,A,4307.8037,N,07726.4831,W,17.20,179.38,120823,,,D*42
$GPGGA,173117.750,4307.8025,N,07726.4831,W,2,09,1.01,161.2,M,-34.3,M,0000,0000*5C
$GPRMC,173118.000,A,4307.8013,N,07726.4831,W,16.78,179.14,120823,,,D*4C
$GPGGA,173118.250,4307.8002,N,07726.4830,W,2,09,1.01,161.3,M,-34.3,M,0000,0000*53
$GPRMC,173118.500,A,4307.7991,N,07726.4830,W,16.51,178.67,120823,,,D*4A
$GPGGA,173118.750,4307.7980,N,07726.4829,W,2,09,1.01,161.4,M,-34.3,M,0000,0000*55
$GPRMC,173119.000,A,4307.7969,N,07726.4830,W,15.87,179.11,120823,,,D*41
$GPGGA,173119.250,4307.7958,N,07726.4830,W,2,09,1.02,161.5,M,-34.3,M,0000,0000*5E
$GPRMC,173119.500,A,4307.7947,N,07726.4830,W,15.48,179.13,120823,,,D*49
$GPGGA,173119.750,4307.7936,N,07726.4830,W,2,09,1.01,161.6,M,-3M,0000,0000*53
$GPRMC,173120.000,A,4307.7925,N,07726.4831,W,15.05,180.08,120823,,,D*46
$GPGGA,173120.250,4307.7914,N,07726.4832,W,2,09,1.01,161.6,M,-34.3,M,0000,0000*5E
$GPRMC,173120.500,A,4307.7904,N,07726.4833,W,14.53,181.90,120823,,,D*40
$GPGGA,173120.750,4307.7894,N,07726.4834,W,2,09,1.01,161.8,M,-34.3,M,0000,0000*5A
$GPRMC,173121.000,A,4307.7885,N,07726.4835,W,14.06,185.38,120823,,,D*4C
$GPGGA,173121.250,4307.7875,N,07726.4837,W,2,09,1.01,162.0,M,-34.3,M,0000,0000*59
$GPRMC,173121.500,A,4307.7865,N,07726.4840,W,13.60,193.00,120823,,,D*4E
$GPGGA,173121.750,4307.7856,N,07726.4843,W,2,09,1.02,162.1,M,-34.3,M,0000,0000*5C
$GPRMC,173122.000,A,4307.7848,N,07726.4848,W,13.53,203.38,120823,,,D*4E
$GPGGA,173122.250,4307.7839,N,07726.4854,W,2,09,1.02,162.0,M,-34.3,M,0000,0000*54
$GPRMC,173122.500,A,4307.7832,N,07726.4860,W,12.82,213.94,120823,,,D*46
$GPGGA,173122.750,4307.7824,N,07726.4867,W,2,09,1.01,162.0,M,-34.3,M,0000,0000*5E
$GPRMC,173123.000,A,4307.7817,N,07726.4875,W,13.35,225.63,120823,,,D*41
$GPGGA,173123.250,4307.7811,N,07726.4885,W,2,09,1.01,162.0,M,-34.3,M,0000,0000*50
$GPRMC,173123.500,A,4307.7805,N,07726.4895,W,13.83,235.81,120823,,,D*49
$GPGGA,173123.750,4307.7800,N,07726.4906,W,2,09,1.01,162.0,M,-34.3,M,0000,0000*5F
$GPRMC,173124.000,A,4307.7795,N,07726.4918,W,13.80,246.46,120823,,,D*45
$GPGGA,173124.250,4307.7791,N,07726.4930,W,2,09,1.01,161.8,M,-34.3,M,0000,0000*54
$GPRMC,173124.500,A,4307.7788,N,07726.4943,W,14.55,256.18,120823,,,D*47
$GPGGA,173124.750,4307.7785,N,07726.4957,W,2,09,1.01,161.6,M,-34.3,M,0000,0000*5B
$GPRMC,173125.000,A,4307.7783,N,07726.4971,W,15.32,263.59,120823,,,D*4A
$GPGGA,173125.250,4307.7782,N,07726.4986,W,2,09,1.01,161.5,M,-34.3,M,0000,0000*57
$GPRMC,173125.500,A,4307.7782,N,07726.5001,W,16.37,267.36,120823,,,D*4A
$GPGGA,173125.750,4307.7779,N,07726.5018,W,2,09,1.01,161.5,M,-34.3,M,0000,0000*59
$GPRMC,173126.000,A,4307.7778,N,07726.5035,W,17.40,269.46,120823,,,D*46
$GPGGA,173126.250,4307.7778,N,07726.5052,W,2,09,1.01,161.4,M,-34.3,M,0000,0000*51
$GPRMC,173126.500,A,4307.7778,N,07726.5069,W,18.04,270.39,120823,,,D*45
$GPGGA,173126.750,4307.7778,N,07726.5086,W,2,09,1.01,161.4,M,-34.3,M,0000,0000*5D
$GPRMC,173127.000,A,4307.7778,N,07726.5103,W,18.55,270.42,120823,,,D*44
$GPGGA,173127.250,4307.7778,N,07726.5121,W,2,09,1.01,161.3,M,-34.3,M,0000,0000*52
$GPRMC,173127.500,A,4307.7779,N,07726.5139,W,18.84,270.62,120823,,,D*47
$GPGGA,173127.750,4307.7780,N,07726.5157,W,2,09,1.02,161.1,M,-34.3,M,0000,0000*50
$GPRMC,173128.000,A,4307.7780,N,07726.5175,W,18.88,270.25,120823,,,D*4C
$GPGGA,173128.250,4307.7781,N,07726.5193,W,2,09,1.01,161.0,M,-34.3,M,0000,0000*51
$GPRMC,173128.500,A,4307.7782,N,07726.5211,W,18.63,269.88,120823,,,D*40
$GPGGA,173128.750,4307.7782,N,07726.5228,W,2,09,1.01,160.8,M,-34.3,M,0000,0000*5D
$GPRMC,173129.000,A,4307.7783,N,07726.5245,W,18.40,270.28,120823,,,D*47
$GPGGA,173129.250,4307.7783,N,07726.5263,W,2,09,1.02,160.6,M,-34.3,M,0000,0000*5A
$GPRMC,173129.500,A,4307.7784,N,07726.5280,W,18.41,270.57,120823,,,D*45
$GPGGA,173129.750,4307.7784,N,07726.5298,W,2,09,1.01,160.4,M,-34.3,M,0000,0000*5D
$GPRMC,173130.000,A,4307.7786,N,07726.5315,W,18.28,270.76,120823,,,D*4B
$GPGGA,173130.250,4307.7786,N,07726.5333,W,2,08,1.17,160.4,M,-34.3,M,0000,0000*54
$GPRMC,173130.500,A,4307.7787,N,07726.5350,W,18.14,271.10,120823,,,D*40
$GPGGA,173130.750,4307.7788,N,07726.5367,W,2,09,1.01,160.4,M,-34.3,M,0000,0000*58
$GPRMC,173131.000,A,4307.7788,N,07726.5385,W,18.02,271.33,120823,,,D*45
$GPGGA,173131.250,4307.7789,N,07726.5402,W,2,08,1.17,160.3,M,-34.3,M,0000,0000*58
$GPRMC,173131.500,A,4307.7790,N,07726.5419,W,17.93,271.59,120823,,,D*40
$GPGGA,173131.750,4307.7790,N,07726.5437,W,2,08,1.17,160.2,M,-34.3,M,0000,0000*52
$GPRMC,173132.000,A,4307.7791,N,07726.5454,W,17.60,271.21,120823,,,D*4D
$GPGGA,173132.250,4307.7791,N,07726.5471,W,2,09,1.01,160.2,M,-34.3,M,0000,0000*51
$GPRMC,173132.500,A,4307.7792,N,07726.5488,W,17.43,270.90,120823,,,D*40
$GPGGA,173132.750,4307.7792,N,07726.5505,W,2,08,1.17,160.3,M,-34.3,M,0000,0000*52
$GPRMC,173133.000,A,4307.7793,N,07726.5521,W,16.96,270.83,120823,,,D*4C
$GPGGA,173133.250,4307.7793,N,07726.5538,W,2,09,1.01,160.2,M,-34.3,M,0000,0000*5E
$GPRMC,173133.500,A,4307.7793,N,07726.5554,W,16.27,270.78,120823,,,D*45
$GPGGA,173133.750,4307.7793,N,07726.5569,W,2,09,1.01,160.2,M,-34.3,M,0000,0000*5F
$GPRMC,173134.000,A,4307.7794,N,07726.5583,W,14.93,271.31,120823,,,D*4B
$GPGGA,173134.250,4307.7794,N,07726.5597,W,2,09,1.01,160.1,M,-34.3,M,0000,0000*58
$GPRMC,173134.500,A,4307.7794,N,07726.5610,W,13.57,270.76,120823,,,D*4A
$GPGGA,173134.750,4307.7794,N,07726.5623,W,2,09,1.01,160.0,M,-34.3,M,0000,0000*50
$GPRMC,173135.000,A,4307.7795,N,07726.5634,W,12.32,272.00,120823,,,D*48
$GPGGA,173135.250,4307.7795,N,07726.5645,W,2,09,1.01,159.9,M,-34.3,M,0000,0000*56
$GPRMC,173135.500,A,4307.7795,N,07726.5655,W,10.72,271.29,120823,,,D*44
$GPGGA,173135.750,4307.7796,N,07726.5664,W,2,08,1.17,159.9,M,-34.3,M,0000,0000*55
$GPRMC,173136.000,A,4307.7795,N,07726.5673,W,9.08,270.85,120823,,,D*74
$GPGGA,173136.250,4307.7796,N,07726.5681,W,2,09,1.01,159.9,M,-34.3,M,0000,0000*5E
$GPRMC,173136.500,A,4307.7796,N,07726.5689,W,7.43,272.29,120823,,,D*72
$GPGGA,173136.750,4307.7795,N,07726.5695,W,2,09,1.01,160.0,M,-34.3,M,0000,0000*5E
$GPRMC,173137.000,A,4307.7795,N,07726.5700,W,5.38,272.17,120823,,,D*76
$GPGGA,173137.250,4307.7795,N,07726.5705,W,2,09,1.01,160.0,M,-34.3,M,0000,0000*52
$GPRMC,173137.500,A,4307.7795,N,07726.5708,W,3.83,270.71,120823,,,D*7F
$GPGGA,173137.750,4307.7795,N,07726.5711,W,2,09,1.00,160.0,M,-34.3,M,0000,0000*53
$GPRMC,173138.000,A,4307.7795,N,07726.5714,W,2.61,272.17,120823,,,D*77
$GPGGA,173138.250,4307.7795,N,07726.5716,W,2,09,1.00,160.1,M,-34.3,M,0000,0000*5F
$GPRMC,173138.500,A,4307.7795,N,07726.5719,W,2.77,272.17,120823,,,D*78
$GPGGA,173138.750,4307.7795,N,07726.5721,W,2,09,1.00,160.0,M,-34.3,M,0000,0000*5F
$GPRMC,173139.000,A,4307.7795,N,07726.5725,W,4.19,270.15,120823,,,D*7D
$GPGGA,173139.250,4307.7795,N,07726.5729,W,2,09,1.01,160.0,M,-34.3,M,0000,0000*52
$GPRMC,173139.500,A,4307.7794,N,07726.5734,W,6.01,269.40,120823,,,D*7A
$GPGGA,173139.750,4307.7794,N,07726.5740,W,2,09,1.01,160.1,M,-34.3,M,0000,0000*58
$GPRMC,173140.000,A,4307.7794,N,07726.5748,W,7.66,270.62,120823,,,D*72
$GPGGA,173140.250,4307.7794,N,07726.5755,W,2,09,1.01,160.0,M,-34.3,M,0000,0000*56
$GPRMC,173140.500,A,4307.7793,N,07726.5764,W,8.92,269.75,120823,,,D*74
$GPGGA,173140.750,4307.7793,N,07726.5773,W,2,09,1.01,159.9,M,-34.3,M,0000,0000*53
$GPRMC,173141.000,A,4307.7792,N,07726.5783,W,10.18,270.32,120823,,,D*48
$GPGGA,173141.250,4307.7792,N,07726.5794,W,2,09,1.02,159.8,M,-34.3,M,0000,0000*5D
$GPRMC,173141.500,A,4307.7791,N,07726.5804,W,11.34,270.76,120823,,,D*41
$GPGGA,173141.750,4307.7790,N,07726.5816,W,2,09,1.01,159.7,M,-34.3,M,0000,0000*53
$GPRMC,173142.000,A,4307.7789,N,07726.5829,W,12.26,270.29,120823,,,D*4B
$GPGGA,173142.250,4307.7788,N,07726.5841,W,2,09,1.01,159.7,M,-34.3,M,0000,0000*5E
$GPRMC,173142.500,A,4307.7788,N,07726.5854,W,13.08,269.56,120823,,,D*48
$GPGGA,173142.750,4307.7788,N,07726.5867,W,2,09,1.01,159.6,M,-34.3,M,0000,0000*5E
$GPRMC,173143.000,A,4307.7789,N,07726.5879,W,13.80,269.27,120823,,,D*44
$GPGGA,173143.250,4307.7789,N,07726.5892,W,2,09,1.01,159.4,M,-34.3,M,0000,0000*53
$GPRMC,173143.500,A,4307.7789,N,07726.5906,W,14.61,270.19,120823,,,D*45
$GPGGA,173143.750,4307.7790,N,07726.5919,W,2,09,1.01,159.3,M,-34.3,M,0000,0000*5B
$GPRMC,173144.000,A,4307.7790,N,07726.5933,W,15.07,269.45,120823,,,D*49
$GPGGA,173144.250,4307.7791,N,07726.5947,W,2,09,1.01,159.1,M,-34.3,M,0000,0000*51
$GPRMC,173144.500,A,4307.7792,N,07726.5962,W,15.55,269.75,120823,,,D*4E
$GPGGA,173144.750,4307.7792,N,07726.5977,W,2,09,1.01,159.1,M,-34.3,M,0000,0000*54
$GPRMC,173145.000,A,4307.7793,N,07726.5992,W,15.62,270.37,120823,,,D*4E
$GPGGA,173145.250,4307.7793,N,07726.6006,W,2,09,1.01,159.1,M,-34.3,M,0000,0000*5D
$GPRMC,173145.500,A,4307.7793,N,07726.6020,W,15.48,270.55,120823,,,D*44
$GPGGA,173145.750,4307.7793,N,07726.6035,W,2,09,1.01,159.0,M,-34.3,M,0000,0000*59
$GPRMC,173146.000,A,4307.7794,N,07726.6049,W,15.26,271.29,120823,,,D*48
$GPGGA,173146.250,4307.7794,N,07726.6063,W,2,09,1.01,158.9,M,-34.3,M,0000,0000*53
$GPRMC,173146.500,A,4307.7794,N,07726.6077,W,14.94,270.64,120823,,,D*40
$GPGGA,173146.750,4307.7795,N,07726.6092,W,2,08,1.17,158.9,M,-34.3,M,0000,0000*5F
$GPRMC,173147.000,A,4307.7795,N,07726.6106,W,14.67,270.97,120823,,,D*42
$GPGGA,173147.250,4307.7795,N,07726.6120,W,2,09,1.01,159.0,M,-34.3,M,0000,0000*5D
$GPRMC,173147.500,A,4307.7795,N,07726.6134,W,14.43,271.44,120823,,,D*4F
$GPGGA,173147.750,4307.7795,N,07726.6148,W,2,09,1.01,159.0,M,-34.3,M,0000,0000*56
$GPRMC,173148.000,A,4307.7796,N,07726.6162,W,14.21,270.83,120823,,,D*4B
$GPGGA,173148.250,4307.7796,N,07726.6175,W,2,08,1.39,159.0,M,-34.3,M,0000,0000*5B
$GPRMC,173148.500,A,4307.7796,N,07726.6188,W,13.61,270.90,120823,,,D*4B
$GPGGA,173148.750,4307.7797,N,07726.6201,W,2,08,1.39,159.1,M,-34.3,M,0000,0000*5E
$GPRMC,173149.000,A,4307.7798,N,07726.6214,W,12.03,271.04,120823,,,D*4E
$GPGGA,173149.250,4307.7798,N,07726.6225,W,2,08,1.39,159.1,M,-34.3,M,0000,0000*53
$GPRMC,173149.500,A,4307.7799,N,07726.6236,W,10.04,270.77,120823,,,D*4A
$GPGGA,173149.750,4307.7800,N,07726.6245,W,2,08,1.39,159.4,M,-34.3,M,0000,0000*5B
$GPRMC,173150.000,A,4307.7801,N,07726.6253,W,7.84,271.29,120823,,,D*7E
$GPGGA,173150.250,4307.7802,N,07726.6260,W,2,08,1.39,159.5,M,-34.3,M,0000,0000*52
$GPRMC,173150.500,A,4307.7802,N,07726.6265,W,5.87,272.95,120823,,,D*78
$GPGGA,173150.750,4307.7803,N,07726.6270,W,2,08,1.39,159.7,M,-34.3,M,0000,0000*55
$GPRMC,173151.000,A,4307.7804,N,07726.6274,W,4.72,272.98,120823,,,D*7C
$GPGGA,173151.250,4307.7804,N,07726.6277,W,2,09,1.01,159.7,M,-34.3,M,0000,0000*5B
$GPRMC,173151.500,A,4307.7805,N,07726.6280,W,3.96,272.57,120823,,,D*7D
$GPGGA,173151.750,4307.7805,N,07726.6283,W,2,09,1.01,159.7,M,-34.3,M,0000,0000*54
$GPRMC,173152.000,A,4307.7806,N,07726.6287,W,4.13,273.85,120823,,,D*7B
$GPGGA,173152.250,4307.7806,N,07726.6291,W,2,09,1.01,159.7,M,-34.3,M,0000,0000*52
$GPRMC,173152.500,A,4307.7807,N,07726.6295,W,5.22,273.25,120823,,,D*75
$GPGGA,173152.750,4307.7807,N,07726.6300,W,2,09,1.01,159.7,M,-34.3,M,0000,0000*5F
$GPRMC,173153.000,A,4307.7807,N,07726.6306,W,6.38,272.80,120823,,,D*7C
$GPGGA,173153.250,4307.7807,N,07726.6312,W,2,09,1.01,159.7,M,-34.3,M,0000,0000*58
$GPRMC,173153.500,A,4307.7807,N,07726.6319,W,7.31,272.08,120823,,,D*7F
$GPGGA,173153.750,4307.7807,N,07726.6326,W,2,09,1.01,159.8,M,-34.3,M,0000,0000*55
$GPRMC,173154.000,A,4307.7808,N,07726.6334,W,8.22,272.14,120823,,,D*7D
$GPGGA,173154.250,4307.7808,N,07726.6343,W,2,08,1.39,159.8,M,-34.3,M,0000,0000*51
$GPRMC,173154.500,A,4307.7808,N,07726.6352,W,9.11,271.99,120823,,,D*7F
$GPGGA,173154.750,4307.7809,N,07726.6361,W,2,08,1.39,159.8,M,-34.3,M,0000,0000*55
$GPRMC,173155.000,A,4307.7809,N,07726.6370,W,9.71,272.20,120823,,,D*7D
$GPGGA,173155.250,4307.7809,N,07726.6379,W,2,08,1.39,159.7,M,-34.3,M,0000,0000*57
$GPRMC,173155.500,A,4307.7810,N,07726.6390,W,10.46,272.87,120823,,,D*4F
$GPGGA,173155.750,4307.7810,N,07726.6400,W,2,08,1.39,159.8,M,-34.3,M,0000,0000*5C
$GPRMC,173156.000,A,4307.7810,N,07726.6410,W,10.87,272.63,120823,,,D*41
$GPGGA,173156.250,4307.7811,N,07726.6421,W,2,09,1.01,159.8,M,-34.3,M,0000,0000*52
$GPRMC,173156.500,A,4307.7812,N,07726.6431,W,11.11,272.64,120823,,,D*4C
$GPGGA,173156.750,4307.7814,N,07726.6441,W,2,09,1.01,159.8,M,-34.3,M,0000,0000*54
$GPRMC,173157.000,A,4307.7815,N,07726.6451,W,11.15,272.57,120823,,,D*4D
$GPGGA,173157.250,4307.7815,N,07726.6462,W,2,08,1.39,159.9,M,-34.3,M,0000,0000*5B
$GPRMC,173157.500,A,4307.7815,N,07726.6473,W,11.03,272.73,120823,,,D*49
$GPGGA,173157.750,4307.7816,N,07726.6483,W,2,08,1.39,159.9,M,-34.3,M,0000,0000*52
$GPRMC,173158.000,A,4307.7817,N,07726.6493,W,10.68,271.87,120823,,,D*4B
$GPGGA,173158.250,4307.7818,N,07726.6503,W,2,08,1.39,159.9,M,-34.3,M,0000,0000*5F
$GPRMC,173158.500,A,4307.7819,N,07726.6513,W,10.47,271.92,120823,,,D*40
$GPGGA,173158.750,4307.7820,N,07726.6522,W,2,09,1.01,159.9,M,-34.3,M,0000,0000*58
$GPRMC,173159.000,A,4307.7820,N,07726.6532,W,10.21,270.91,120823,,,D*4F
$GPGGA,173159.250,4307.7820,N,07726.6541,W,2,08,1.39,159.9,M,-34.3,M,0000,0000*53
$GPRMC,173159.500,A,4307.7821,N,07726.6550,W,10.18,272.09,120823,,,D*46
$GPGGA,173159.750,4307.7822,N,07726.6560,W,2,09,1.01,159.9,M,-34.3,M,0000,0000*5D
$GPRMC,173200.000,A,4307.7822,N,07726.6569,W,9.82,272.51,120823,,,D*73
$GPGGA,173200.250,4307.7823,N,07726.6579,W,2,08,1.39,159.9,M,-34.3,M,0000,0000*54
$GPRMC,173200.500,A,4307.7823,N,07726.6588,W,9.59,272.73,120823,,,D*7E
$GPGGA,173200.750,4307.7824,N,07726.6597,W,2,09,1.01,159.9,M,-34.3,M,0000,0000*5C
$GPRMC,173201.000,A,4307.7824,N,07726.6606,W,9.31,272.56,120823,,,D*71
$GPGGA,173201.250,4307.7824,N,07726.6615,W,2,09,1.01,159.8,M,-34.3,M,0000,0000*50
$GPRMC,173201.500,A,4307.7825,N,07726.6625,W,9.15,274.33,120823,,,D*77
$GPGGA,173201.750,4307.7825,N,07726.6634,W,2,09,1.01,159.9,M,-34.3,M,0000,0000*56
$GPRMC,173202.000,A,4307.7825,N,07726.6643,W,9.05,274.91,120823,,,D*78
$GPGGA,173202.250,4307.7826,N,07726.6652,W,2,09,1.01,159.9,M,-34.3,M,0000,0000*53
$GPRMC,173202.500,A,4307.7826,N,07726.6660,W,8.80,275.00,120823,,,D*7A
$GPGGA,173202.750,4307.7827,N,07726.6669,W,2,09,1.01,160.0,M,-34.3,M,0000,0000*5C
$GPRMC,173203.000,A,4307.7827,N,07726.6677,W,8.59,273.63,120823,,,D*7E
$GPGGA,173203.250,4307.7827,N,07726.6685,W,2,09,1.01,159.9,M,-34.3,M,0000,0000*59
$GPRMC,173203.500,A,4307.7827,N,07726.6693,W,8.58,274.58,120823,,,D*7F
$GPGGA,173203.750,4307.7828,N,07726.6701,W,2,09,1.01,160.0,M,-34.3,M,0000,0000*5D
$GPRMC,173204.000,A,4307.7828,N,07726.6710,W,8.31,274.62,120823,,,D*7E
$GPGGA,173204.250,4307.7828,N,07726.6717,W,2,09,1.01,160.0,M,-34.3,M,0000,0000*58
$GPRMC,173204.500,A,4307.7829,N,07726.6725,W,8.22,274.96,120823,,,D*75
$GPGGA,173204.750,4307.7829,N,07726.6733,W,2,09,1.01,160.0,M,-34.3,M,0000,0000*5A
$GPRMC,173205.000,A,4307.7829,N,07726.6740,W,8.12,274.42,120823,,,D*78
$GPGGA,173205.250,4307.7829,N,07726.6747,W,2,09,1.01,160.0,M,-34.3,M,0000,0000*5D
$GPRMC,173205.500,A,4307.7830,N,07726.6754,W,7.88,275.09,120823,,,D*72
$GPGGA,173205.750,4307.7830,N,07726.6761,W,2,09,1.01,160.0,M,-34.3,M,0000,0000*54
$GPRMC,173206.000,A,4307.7830,N,07726.6768,W,7.60,275.50,120823,,,D*71
$GPGGA,173206.250,4307.7830,N,07726.6776,W,2,09,1.01,160.0,M,-34.3,M,0000,0000*54
$GPRMC,173206.500,A,4307.7831,N,07726.6783,W,7.60,274.52,120823,,,D*73
$GPGGA,173206.750,4307.7830,N,07726.6790,W,2,08,1.39,160.0,M,-34.3,M,0000,0000*53
$GPRMC,173207.000,A,4307.7830,N,07726.6797,W,7.49,274.29,120823,,,D*74
$GPGGA,173207.250,4307.7831,N,07726.6804,W,2,09,1.01,160.1,M,-34.3,M,0000,0000*5F
$GPRMC,173207.500,A,4307.7831,N,07726.6811,W,7.43,273.71,120823,,,D*71
$GPGGA,173207.750,4307.7831,N,07726.6818,W,2,09,1.01,160.1,M,-34.3,M,0000,0000*57
$GPRMC,173208.000,A,4307.7832,N,07726.6825,W,7.17,274.18,120823,,,D*76
$GPGGA,173208.250,4307.7831,N,07726.6833,W,2,09,1.01,160.2,M,-34.3,M,0000,0000*57
$GPRMC,173208.500,A,4307.7831,N,07726.6840,W,7.16,273.49,120823,,,D*71
$GPGGA,173208.750,4307.7832,N,07726.6847,W,2,09,1.01,160.3,M,-34.3,M,0000,0000*53
$GPRMC,173209.000,A,4307.7832,N,07726.6854,W,6.97,273.54,120823,,,D*77
$GPGGA,173209.250,4307.7832,N,07726.6861,W,2,09,1.01,160.4,M,-34.3,M,0000,0000*54
$GPRMC,173209.500,A,4307.7832,N,07726.6867,W,6.88,272.61,120823,,,D*7B
$GPGGA,173209.750,4307.7833,N,07726.6874,W,2,09,1.01,160.6,M,-34.3,M,0000,0000*56
$GPRMC,173210.000,A,4307.7833,N,07726.6880,W,6.72,275.54,120823,,,D*7A
$GPGGA,173210.250,4307.7833,N,07726.6886,W,2,09,1.01,160.3,M,-34.3,M,0000,0000*53
$GPRMC,173210.500,A,4307.7834,N,07726.6892,W,6.19,278.97,120823,,,D*74
$GPGGA,173210.750,4307.7835,N,07726.6897,W,2,08,1.39,160.3,M,-34.3,M,0000,0000*5A
$GPRMC,173211.000,A,4307.7836,N,07726.6903,W,6.60,287.76,120823,,,D*7A
$GPGGA,173211.250,4307.7838,N,07726.6909,W,2,09,1.01,160.2,M,-34.3,M,0000,0000*5E
$GPRMC,173211.500,A,4307.7840,N,07726.6914,W,6.82,299.66,120823,,,D*7A
$GPGGA,173211.750,4307.7843,N,07726.6919,W,2,08,1.39,160.3,M,-34.3,M,0000,0000*5D
$GPRMC,173212.000,A,4307.7846,N,07726.6924,W,6.53,309.27,120823,,,D*78
$GPGGA,173212.250,4307.7848,N,07726.6930,W,2,09,1.01,160.4,M,-34.3,M,0000,0000*56
$GPRMC,173212.500,A,4307.7851,N,07726.6936,W,6.20,327.52,120823,,,D*72
$GPGGA,173212.750,4307.7856,N,07726.6943,W,2,09,1.01,160.6,M,-34.3,M,0000,0000*5A
$GPRMC,173213.000,A,4307.7861,N,07726.6948,W,7.54,338.90,120823,,,D*7E
$GPGGA,173213.250,4307.7866,N,07726.6950,W,2,09,1.01,160.8,M,-34.3,M,0000,0000*51
$GPRMC,173213.500,A,4307.7871,N,07726.6951,W,7.85,347.55,120823,,,D*7F
$GPGGA,173213.750,4307.7877,N,07726.6953,W,2,09,1.01,161.0,M,-34.3,M,0000,0000*5E
$GPRMC,173214.000,A,4307.7883,N,07726.6955,W,8.15,348.81,120823,,,D*74
$GPGGA,173214.250,4307.7889,N,07726.6955,W,2,09,1.01,161.2,M,-34.3,M,0000,0000*59
$GPRMC,173214.500,A,4307.7896,N,07726.6955,W,8.40,355.66,120823,,,D*70
$GPGGA,173214.750,4307.7902,N,07726.6955,W,2,09,1.01,161.2,M,-34.3,M,0000,0000*5E
$GPRMC,173215.000,A,4307.7909,N,07726.6954,W,9.02,1.49,120823,,,D*7A
$GPGGA,173215.250,4307.7917,N,07726.6954,W,2,09,1.01,161.5,M,-34.3,M,0000,0000*58
$GPRMC,173215.500,A,4307.7924,N,07726.6953,W,9.70,4.88,120823,,,D*7A
$GPGGA,173215.750,4307.7932,N,07726.6952,W,2,09,1.01,161.6,M,-34.3,M,0000,0000*5F
$GPRMC,173216.000,A,4307.7939,N,07726.6951,W,10.12,5.00,120823,,,D*4F
$GPGGA,173216.250,4307.7946,N,07726.6951,W,2,09,1.01,161.6,M,-34.3,M,0000,0000*59
$GPRMC,173216.500,A,4307.7954,N,07726.6950,W,10.50,4.37,120823,,,D*43
$GPGGA,173216.750,4307.7961,N,07726.6949,W,2,09,1.01,161.6,M,-34.3,M,0000,0000*50
$GPRMC,173217.000,A,4307.7968,N,07726.6949,W,10.77,3.21,120823,,,D*45
$GPGGA,173217.250,4307.7975,N,07726.6949,W,2,09,1.01,161.9,M,-34.3,M,0000,0000*5E
$GPRMC,173217.500,A,4307.7981,N,07726.6949,W,11.16,357.75,120823,,,D*42
$GPGGA,173217.750,4307.7988,N,07726.6950,W,2,09,1.01,162.0,M,-34.3,M,0000,0000*5B
$GPRMC,173218.000,A,4307.7994,N,07726.6952,W,10.54,354.50,120823,,,D*45
$GPGGA,173218.250,4307.8001,N,07726.6953,W,2,09,1.01,161.9,M,-34.3,M,0000,0000*5F
$GPRMC,173218.500,A,4307.8008,N,07726.6956,W,10.21,349.68,120823,,,D*42
$GPGGA,173218.750,4307.8016,N,07726.6959,W,2,09,1.01,161.9,M,-34.3,M,0000,0000*56
$GPRMC,173219.000,A,4307.8024,N,07726.6961,W,9.99,345.05,120823,,,D*70
$GPGGA,173219.250,4307.8031,N,07726.6964,W,2,09,1.01,162.2,M,-34.3,M,0000,0000*51
$GPRMC,173219.500,A,4307.8037,N,07726.6967,W,9.54,338.83,120823,,,D*74
$GPGGA,173219.750,4307.8043,N,07726.6971,W,2,09,1.01,162.4,M,-34.3,M,0000,0000*53
$GPRMC,173220.000,A,4307.8049,N,07726.6976,W,9.66,326.14,120823,,,D*72
$GPGGA,173220.250,4307.8055,N,07726.6982,W,2,09,1.01,162.1,M,-34.3,M,0000,0000*52
$GPRMC,173220.500,A,4307.8060,N,07726.6989,W,9.23,313.92,120823,,,D*75
$GPGGA,173220.750,4307.8064,N,07726.6996,W,2,09,1.01,161.7,M,-34.3,M,0000,0000*55
$GPRMC,173221.000,A,4307.8068,N,07726.7003,W,9.21,302.74,120823,,,D*79
$GPGGA,173221.250,4307.8070,N,07726.7011,W,2,09,1.01,161.8,M,-34.3,M,0000,0000*5C
$GPRMC,173221.500,A,4307.8072,N,07726.7019,W,9.22,291.54,120823,,,D*76
$GPGGA,173221.750,4307.8073,N,07726.7027,W,2,09,1.01,162.0,M,-34.3,M,0000,0000*54
$GPRMC,173222.000,A,4307.8073,N,07726.7036,W,9.14,278.80,120823,,,D*77
$GPGGA,173222.250,4307.8073,N,07726.7044,W,2,09,1.01,162.0,M,-34.3,M,0000,0000*57
$GPRMC,173222.500,A,4307.8072,N,07726.7054,W,9.59,269.37,120823,,,D*72
$GPGGA,173222.750,4307.8070,N,07726.7063,W,2,09,1.01,161.8,M,-34.3,M,0000,0000*5F
$GPRMC,173223.000,A,4307.8069,N,07726.7072,W,10.02,259.54,120823,,,D*48
$GPGGA,173223.250,4307.8067,N,07726.7081,W,2,09,1.01,161.9,M,-34.3,M,0000,0000*50
$GPRMC,173223.500,A,4307.8065,N,07726.7090,W,10.71,254.97,120823,,,D*4B
$GPGGA,173223.750,4307.8062,N,07726.7099,W,2,09,1.01,161.9,M,-34.3,M,0000,0000*59
$GPRMC,173224.000,A,4307.8059,N,07726.7109,W,11.28,251.81,120823,,,D*48
$GPGGA,173224.250,4307.8055,N,07726.7118,W,2,09,1.01,162.0,M,-34.3,M,0000,0000*5D
$GPRMC,173224.500,A,4307.8051,N,07726.7127,W,11.60,246.32,120823,,,D*4B
$GPGGA,173224.750,4307.8047,N,07726.7137,W,2,09,1.01,161.9,M,-34.3,M,0000,0000*5C
$GPRMC,173225.000,A,4307.8042,N,07726.7147,W,12.12,243.41,120823,,,D*4C
$GPGGA,173225.250,4307.8038,N,07726.7157,W,2,08,1.17,161.7,M,-34.3,M,0000,0000*5E
$GPRMC,173225.500,A,4307.8032,N,07726.7167,W,12.59,237.75,120823,,,D*47
$GPGGA,173225.750,4307.8026,N,07726.7175,W,2,09,1.01,161.9,M,-34.3,M,0000,0000*5C
$GPRMC,173226.000,A,4307.8019,N,07726.7184,W,13.38,226.99,120823,,,D*41
$GPGGA,173226.250,4307.8012,N,07726.7193,W,2,09,1.01,162.0,M,-34.3,M,0000,0000*5F
$GPRMC,173226.500,A,4307.8005,N,07726.7201,W,13.63,218.91,120823,,,D*4C
$GPGGA,173226.750,4307.7997,N,07726.7208,W,2,09,1.01,162.1,M,-34.3,M,0000,0000*51
$GPRMC,173227.000,A,4307.7989,N,07726.7215,W,13.54,210.36,120823,,,D*4E
$GPGGA,173227.250,4307.7981,N,07726.7221,W,2,09,1.01,162.2,M,-34.3,M,0000,0000*5A
$GPRMC,173227.500,A,4307.7973,N,07726.7226,W,12.87,204.31,120823,,,D*43
$GPGGA,173227.750,4307.7964,N,07726.7230,W,2,09,1.01,162.4,M,-34.3,M,0000,0000*52
$GPRMC,173228.000,A,4307.7955,N,07726.7233,W,12.38,196.87,120823,,,D*48
$GPGGA,173228.250,4307.7947,N,07726.7235,W,2,09,1.01,162.4,M,-34.3,M,0000,0000*5C
$GPRMC,173228.500,A,4307.7939,N,07726.7237,W,11.56,192.25,120823,,,D*44
$GPGGA,173228.750,4307.7930,N,07726.7238,W,2,09,1.01,162.5,M,-34.3,M,0000,0000*55
$GPRMC,173229.000,A,4307.7922,N,07726.7240,W,10.82,188.28,120823,,,D*44
$GPGGA,173229.250,4307.7915,N,07726.7241,W,2,09,1.01,162.5,M,-34.3,M,0000,0000*58
$GPRMC,173229.500,A,4307.7908,N,07726.7242,W,8.80,183.81,120823,,,D*78
$GPGGA,173229.750,4307.7902,N,07726.7242,W,2,09,1.01,162.6,M,-34.3,M,0000,0000*5B
$GPRMC,173230.000,A,4307.7897,N,07726.7243,W,6.59,183.41,120823,,,D*75
$GPGGA,173230.250,4307.7893,N,07726.7243,W,2,08,1.39,162.6,M,-34.3,M,0000,0000*54
$GPRMC,173230.500,A,4307.7889,N,07726.7243,W,5.04,181.90,120823,,,D*7A
$GPGGA,173230.750,4307.7886,N,07726.7244,W,2,09,1.01,163.0,M,-34.3,M,0000,0000*5F
$GPRMC,173231.000,A,4307.7883,N,07726.7244,W,3.91,182.94,120823,,,D*7E
$GPGGA,173231.250,4307.7881,N,07726.7244,W,2,09,1.01,162.8,M,-34.3,M,0000,0000*55
$GPRMC,173231.500,A,4307.7879,N,07726.7244,W,3.32,181.02,120823,,,D*7B
$GPGGA,173231.750,4307.7877,N,07726.7245,W,2,09,1.00,162.9,M,-34.3,M,0000,0000*58
$GPRMC,173232.000,A,4307.7874,N,07726.7245,W,3.88,182.38,120823,,,D*7A
$GPGGA,173232.250,4307.7871,N,07726.7246,W,2,08,1.25,162.7,M,-34.3,M,0000,0000*53
$GPRMC,173232.500,A,4307.7868,N,07726.7246,W,4.82,183.44,120823,,,D*76
$GPGGA,173232.750,4307.7864,N,07726.7247,W,2,08,1.39,162.7,M,-34.3,M,0000,0000*5E
$GPRMC,173233.000,A,4307.7860,N,07726.7247,W,6.00,183.38,120823,,,D*78
$GPGGA,173233.250,4307.7856,N,07726.7248,W,2,08,1.39,162.7,M,-34.3,M,0000,0000*54
$GPRMC,173233.500,A,4307.7851,N,07726.7249,W,7.26,185.90,120823,,,D*70
$GPGGA,173233.750,4307.7845,N,07726.7249,W,2,09,1.01,162.7,M,-34.3,M,0000,0000*58
$GPRMC,173234.000,A,4307.7840,N,07726.7251,W,8.31,191.56,120823,,,D*7D
$GPGGA,173234.250,4307.7834,N,07726.7252,W,2,09,1.01,162.6,M,-34.3,M,0000,0000*57
$GPRMC,173234.500,A,4307.7828,N,07726.7255,W,9.43,195.81,120823,,,D*78
$GPGGA,173234.750,4307.7821,N,07726.7257,W,2,08,1.39,162.5,M,-34.3,M,0000,0000*5A
$GPRMC,173235.000,A,4307.7815,N,07726.7261,W,10.09,203.18,120823,,,D*4F
$GPGGA,173235.250,4307.7808,N,07726.7265,W,2,09,1.01,162.4,M,-34.3,M,0000,0000*5F
$GPRMC,173235.500,A,4307.7801,N,07726.7269,W,11.30,210.35,120823,,,D*41
$GPGGA,173235.750,4307.7795,N,07726.7275,W,2,08,1.39,162.2,M,-34.3,M,0000,0000*5C
$GPRMC,173236.000,A,4307.7788,N,07726.7281,W,12.09,213.67,120823,,,D*42
$GPGGA,173236.250,4307.7781,N,07726.7287,W,2,08,1.39,162.1,M,-34.3,M,0000,0000*51
$GPRMC,173236.500,A,4307.7774,N,07726.7295,W,13.37,216.76,120823,,,D*48
$GPGGA,173236.750,4307.7766,N,07726.7302,W,2,08,1.39,162.0,M,-34.3,M,0000,0000*50
$GPRMC,173237.000,A,4307.7758,N,07726.7310,W,14.55,217.44,120823,,,D*4D
$GPGGA,173237.250,4307.7750,N,07726.7318,W,2,08,1.39,161.8,M,-34.3,M,0000,0000*51
$GPRMC,173237.500,A,4307.7742,N,07726.7327,W,13.84,219.95,120823,,,D*4E
$GPGGA,173237.750,4307.7735,N,07726.7335,W,2,08,1.39,161.8,M,-34.3,M,0000,0000*58
$GPRMC,173238.000,A,4307.7729,N,07726.7343,W,13.07,222.70,120823,,,D*43
$GPGGA,173238.250,4307.7723,N,07726.7352,W,2,09,1.01,161.8,M,-34.3,M,0000,0000*5E
$GPRMC,173238.500,A,4307.7717,N,07726.7360,W,12.24,225.09,120823,,,D*43
$GPGGA,173238.750,4307.7712,N,07726.7369,W,2,08,1.39,161.8,M,-34.3,M,0000,0000*5B
$GPRMC,173239.000,A,4307.7707,N,07726.7377,W,11.57,230.03,120823,,,D*49
$GPGGA,173239.250,4307.7702,N,07726.7385,W,2,09,1.01,161.6,M,-34.3,M,0000,0000*58
$GPRMC,173239.500,A,4307.7697,N,07726.7394,W,11.08,233.81,120823,,,D*4A
$GPGGA,173239.750,4307.7693,N,07726.7402,W,2,08,1.39,161.5,M,-34.3,M,0000,0000*55
$GPRMC,173240.000,A,4307.7689,N,07726.7410,W,10.67,241.01,120823,,,D*40
$GPGGA,173240.250,4307.7686,N,07726.7419,W,2,08,1.25,161.5,M,-34.3,M,0000,0000*5D
$GPRMC,173240.500,A,4307.7683,N,07726.7428,W,10.14,245.56,120823,,,D*46
$GPGGA,173240.750,4307.7680,N,07726.7436,W,2,09,1.01,161.5,M,-34.3,M,0000,0000*54
$GPRMC,173241.000,A,4307.7678,N,07726.7445,W,9.69,249.92,120823,,,D*7B
$GPGGA,173241.250,4307.7676,N,07726.7454,W,2,09,1.01,161.5,M,-34.3,M,0000,0000*5D
$GPRMC,173241.500,A,4307.7675,N,07726.7463,W,9.63,256.17,120823,,,D*7E
$GPGGA,173241.750,4307.7675,N,07726.7472,W,2,09,1.01,161.6,M,-34.3,M,0000,0000*5C
$GPRMC,173242.000,A,4307.7674,N,07726.7480,W,9.32,260.28,120823,,,D*79
$GPGGA,173242.250,4307.7673,N,07726.7489,W,2,09,1.01,161.6,M,-34.3,M,0000,0000*58
$GPRMC,173242.500,A,4307.7673,N,07726.7498,W,9.13,263.87,120823,,,D*77
$GPGGA,173242.750,4307.7673,N,07726.7507,W,2,09,1.01,161.7,M,-34.3,M,0000,0000*5B
$GPRMC,173243.000,A,4307.7673,N,07726.7515,W,8.68,266.74,120823,,,D*73
$GPGGA,173243.250,4307.7674,N,07726.7523,W,2,09,1.01,161.7,M,-34.3,M,0000,0000*5E
$GPRMC,173243.500,A,4307.7676,N,07726.7531,W,8.67,269.82,120823,,,D*7C
$GPGGA,173243.750,4307.7677,N,07726.7540,W,2,09,1.01,161.7,M,-34.3,M,0000,0000*5D
$GPRMC,173244.000,A,4307.7677,N,07726.7548,W,8.49,270.77,120823,,,D*7F
$GPGGA,173244.250,4307.7678,N,07726.7556,W,2,09,1.01,161.6,M,-34.3,M,0000,0000*56
$GPRMC,173244.500,A,4307.7679,N,07726.7563,W,8.18,270.91,120823,,,D*71
$GPGGA,173244.750,4307.7680,N,07726.7571,W,2,09,1.01,161.6,M,-34.3,M,0000,0000*51
$GPRMC,173245.000,A,4307.7680,N,07726.7579,W,8.06,271.77,120823,,,D*7E
$GPGGA,173245.250,4307.7681,N,07726.7586,W,2,09,1.01,161.7,M,-34.3,M,0000,0000*5D
$GPRMC,173245.500,A,4307.7681,N,07726.7594,W,7.92,272.29,120823,,,D*73
$GPGGA,173245.750,4307.7682,N,07726.7602,W,2,09,1.01,161.7,M,-34.3,M,0000,0000*54
$GPRMC,173246.000,A,4307.7682,N,07726.7610,W,7.62,271.24,120823,,,D*78
$GPGGA,173246.250,4307.7683,N,07726.7617,W,2,09,1.01,161.7,M,-34.3,M,0000,0000*57
$GPRMC,173246.500,A,4307.7683,N,07726.7625,W,7.44,271.09,120823,,,D*71
$GPGGA,173246.750,4307.7683,N,07726.7632,W,2,08,1.39,161.6,M,-34.3,M,0000,0000*5E
$GPRMC,173247.000,A,4307.7683,N,07726.7639,W,7.23,270.30,120823,,,D*72
$GPGGA,173247.250,4307.7684,N,07726.7646,W,2,08,1.39,161.6,M,-34.3,M,0000,0000*5E
$GPRMC,173247.500,A,4307.7684,N,07726.7653,W,6.93,269.62,120823,,,D*79
$GPGGA,173247.750,4307.7684,N,07726.7660,W,2,09,1.01,161.6,M,-34.3,M,0000,0000*55
$GPRMC,173248.000,A,4307.7684,N,07726.7667,W,7.16,271.23,120823,,,D*74
