Vers 81
USE_SERIAL_FEEDBACK=true
DEVELOPMENT_MODE=false
USE_RMC_ONLY=false

$GPRMC,222124.000,A,4305.1411,N,07740.8736,W,0.05,156.95,021023,,,A*79
$GPGGA,222124.250,4305.1411,N,07740.8736,W,1,04,2.24,119.4,M,-34.4,M,,*56
$GPRMC,222124.500,A,4305.1411,N,07740.8736,W,0.03,168.25,021023,,,A*7C
$GPGGA,222124.750,4305.1410,N,07740.8736,W,1,04,2.24,119.2,M,-34.4,M,,*54
$GPRMC,222125.000,A,4305.1409,N,07740.8735,W,0.04,155.12,021023,,,A*7F
$GPGGA,222125.250,4305.1409,N,07740.8735,W,1,04,2.24,119.0,M,-34.4,M,,*59
$GPRMC,222125.500,A,4305.1408,N,07740.8735,W,0.03,265.68,021023,,,A*71
$GPGGA,222125.750,4305.1408,N,07740.8735,W,1,04,2.24,118.9,M,-34.4,M,,*55
$GPRMC,222126.000,A,4305.1407,N,07740.8735,W,0.02,187.64,021023,,,A*7A
$GPGGA,222126.250,4305.1405,N,07740.8735,W,1,04,2.24,118.4,M,-34.4,M,,*53
$GPRMC,222126.500,A,4305.1404,N,07740.8735,W,0.07,110.80,021023,,,A*7D
$GPGGA,222126.750,4305.1402,N,07740.8735,W,1,04,2.24,117.8,M,-34.4,M,,*52
$GPRMC,222127.000,A,4305.1400,N,07740.8734,W,0.03,146.10,021023,,,A*72
$GPGGA,222127.250,4305.1398,N,07740.8734,W,1,04,2.24,117.0,M,-34.4,M,,*5B
$GPRMC,222127.500,A,4305.1396,N,07740.8734,W,0.03,168.55,021023,,,A*72
$GPGGA,222127.750,4305.1394,N,07740.8733,W,1,04,2.24,116.3,M,-34.4,M,,*57
$GPRMC,222128.000,A,4305.1392,N,07740.8733,W,0.03,158.54,021023,,,A*79
$GPGGA,222128.250,4305.1389,N,07740.8733,W,1,04,2.24,115.3,M,-34.4,M,,*52
$GPRMC,222128.500,A,4305.1387,N,07740.8732,W,0.02,153.82,021023,,,A*78
$GPGGA,222128.750,4305.1383,N,07740.8732,W,1,04,2.24,114.2,M,-34.4,M,,*5C
$GPRMC,222129.000,A,4305.1380,N,07740.8731,W,0.09,159.81,021023,,,A*7A
$GPGGA,222129.250,4305.1376,N,07740.8731,W,1,04,2.24,112.7,M,-34.4,M,,*52
$GPRMC,222129.500,A,4305.1371,N,07740.8730,W,0.06,150.49,021023,,,A*72
$GPGGA,222129.750,4305.1367,N,07740.8730,W,1,04,2.24,110.9,M,-34.4,M,,*5A
$GPRMC,222130.000,A,4305.1363,N,07740.8730,W,0.03,160.29,021023,,,A*7C
$GPGGA,222130.250,4305.1357,N,07740.8729,W,1,04,2.24,108.9,M,-34.4,M,,*55
$GPRMC,222130.500,A,4305.1353,N,07740.8729,W,0.03,173.17,021023,,,A*7D
$GPGGA,222130.750,4305.1348,N,07740.8728,W,1,04,2.24,106.9,M,-34.4,M,,*51
$GPRMC,222131.000,A,4305.1343,N,07740.8728,W,0.06,114.83,021023,,,A*70
$GPGGA,222131.250,4305.1337,N,07740.8727,W,1,04,2.24,104.7,M,-34.4,M,,*5E
$GPRMC,222131.500,A,4305.1332,N,07740.8726,W,0.05,146.72,021023,,,A*77
$GPGGA,222131.750,4305.1326,N,07740.8726,W,1,04,2.24,102.5,M,-34.4,M,,*5E
$GPRMC,222132.000,A,4305.1321,N,07740.8725,W,0.09,142.20,021023,,,A*7F
$GPGGA,222132.250,4305.1556,N,07740.8732,W,1,07,1.25,151.2,M,-34.4,M,,*5C
$GPRMC,222132.500,A,4305.1650,N,07740.8731,W,0.24,173.95,021023,,,A*7F
$GPGGA,222132.750,4305.1677,N,07740.8733,W,1,07,1.25,168.8,M,-34.4,M,,*58
$GPRMC,222133.000,A,4305.1685,N,07740.8732,W,0.13,183.34,021023,,,A*70
$GPGGA,222133.250,4305.1688,N,07740.8730,W,1,07,1.25,170.0,M,-34.4,M,,*5E
$GPRMC,222133.500,A,4305.1689,N,07740.8729,W,0.14,131.96,021023,,,A*75
$GPGGA,222133.750,4305.1691,N,07740.8729,W,1,07,1.25,170.8,M,-34.4,M,,*53
$GPRMC,222134.000,A,4305.1692,N,07740.8728,W,0.14,140.06,021023,,,A*73
$GPGGA,222134.250,4305.1692,N,07740.8727,W,1,07,1.25,171.2,M,-34.4,M,,*57
$GPRMC,222134.500,A,4305.1691,N,07740.8726,W,0.11,128.22,021023,,,A*76
$GPGGA,222134.750,4305.1690,N,07740.8725,W,1,07,1.25,171.7,M,-34.4,M,,*57
$GPRMC,222135.000,A,4305.1689,N,07740.8723,W,0.19,120.43,021023,,,A*79
$GPGGA,222135.250,4305.1688,N,07740.8722,W,1,07,1.25,172.4,M,-34.4,M,,*5D
$GPRMC,222135.500,A,4305.1687,N,07740.8721,W,0.20,177.05,021023,,,A*7A
$GPGGA,222135.750,4305.1686,N,07740.8720,W,1,07,1.25,173.1,M,-34.4,M,,*50
$GPRMC,222136.000,A,4305.1683,N,07740.8720,W,0.18,199.75,021023,,,A*75
$GPGGA,222136.250,4305.1681,N,07740.8719,W,1,07,1.25,174.6,M,-34.4,M,,*5B
$GPRMC,222136.500,A,4305.1679,N,07740.8719,W,0.11,237.37,021023,,,A*77
$GPGGA,222136.750,4305.1679,N,07740.8719,W,1,07,1.25,175.2,M,-34.4,M,,*5C
$GPRMC,222137.000,A,4305.1678,N,07740.8719,W,0.06,210.63,021023,,,A*70
$GPGGA,222137.250,4305.1677,N,07740.8719,W,1,07,1.25,175.7,M,-34.4,M,,*53
$GPRMC,222137.500,A,4305.1677,N,07740.8719,W,0.08,300.69,021023,,,A*7E
$GPGGA,222137.750,4305.1675,N,07740.8719,W,1,07,1.25,176.1,M,-34.4,M,,*51
$GPRMC,222138.000,A,4305.1674,N,07740.8719,W,0.04,276.14,021023,,,A*71
$GPGGA,222138.250,4305.1674,N,07740.8719,W,1,07,1.25,176.3,M,-34.4,M,,*58
$GPRMC,222138.500,A,4305.1673,N,07740.8719,W,0.09,276.88,021023,,,A*7B
$GPGGA,222138.750,4305.1672,N,07740.8718,W,1,07,1.25,176.5,M,-34.4,M,,*5C
$GPRMC,222139.000,A,4305.1671,N,07740.8718,W,0.09,237.00,021023,,,A*79
$GPGGA,222139.250,4305.1670,N,07740.8717,W,1,07,1.25,176.6,M,-34.4,M,,*56
$GPRMC,222139.500,A,4305.1669,N,07740.8717,W,0.08,221.97,021023,,,A*72
$GPGGA,222139.750,4305.1668,N,07740.8717,W,1,07,1.25,176.8,M,-34.4,M,,*54
$GPRMC,222140.000,A,4305.1667,N,07740.8716,W,0.06,249.16,021023,,,A*7F
$GPGGA,222140.250,4305.1667,N,07740.8716,W,1,07,1.25,177.0,M,-34.4,M,,*58
$GPRMC,222140.500,A,4305.1667,N,07740.8716,W,0.07,293.52,021023,,,A*7C
$GPGGA,222140.750,4305.1667,N,07740.8716,W,1,07,1.25,177.0,M,-34.4,M,,*5D
$GPRMC,222141.000,A,4305.1667,N,07740.8716,W,0.05,330.45,021023,,,A*74
$GPGGA,222141.250,4305.1667,N,07740.8716,W,1,07,1.25,177.1,M,-34.4,M,,*58
$GPRMC,222141.500,A,4305.1667,N,07740.8716,W,0.03,113.44,021023,,,A*75
$GPGGA,222141.750,4305.1667,N,07740.8716,W,1,07,1.25,177.1,M,-34.4,M,,*5D
$GPRMC,222142.000,A,4305.1667,N,07740.8716,W,0.05,359.85,021023,,,A*74
$GPGGA,222142.250,4305.1667,N,07740.8716,W,1,07,1.33,177.1,M,-34.4,M,,*5C
$GPRMC,222142.500,A,4305.1667,N,07740.8716,W,0.06,119.02,021023,,,A*7B
$GPGGA,222142.750,4305.1667,N,07740.8716,W,1,07,1.25,177.1,M,-34.4,M,,*5E
$GPRMC,222143.000,A,4305.1667,N,07740.8716,W,0.04,334.86,021023,,,A*7C
$GPGGA,222143.250,4305.1667,N,07740.8716,W,1,07,1.25,177.1,M,-34.4,M,,*5A
$GPRMC,222143.500,A,4305.1667,N,07740.8716,W,0.05,317.68,021023,,,A*79
$GPGGA,222143.750,4305.1667,N,07740.8716,W,1,07,1.25,177.1,M,-34.4,M,,*5F
$GPRMC,222144.000,A,4305.1667,N,07740.8717,W,0.00,147.64,021023,,,A*74
$GPGGA,222144.250,4305.1667,N,07740.8716,W,1,07,1.25,177.1,M,-34.4,M,,*5D
$GPRMC,222144.500,A,4305.1667,N,07740.8716,W,0.03,59.06,021023,,,A*49
$GPGGA,222144.750,4305.1667,N,07740.8716,W,1,07,1.25,177.1,M,-34.4,M,,*58
$GPRMC,222145.000,A,4305.1667,N,07740.8716,W,0.02,291.28,021023,,,A*76
$GPGGA,222145.250,4305.1667,N,07740.8716,W,1,07,1.25,177.1,M,-34.4,M,,*5C
$GPRMC,222145.500,A,4305.1667,N,07740.8716,W,0.03,285.85,021023,,,A*70
$GPGGA,222145.750,4305.1667,N,07740.8716,W,1,07,1.25,177.1,M,-34.4,M,,*59
$GPRMC,222146.000,A,4305.1667,N,07740.8716,W,0.05,287.60,021023,,,A*79
$GPGGA,222146.250,4305.1667,N,07740.8717,W,1,07,1.25,177.1,M,-34.4,M,,*5E
$GPRMC,222146.500,A,4305.1667,N,07740.8717,W,0.03,261.11,021023,,,A*75
$GPGGA,222146.750,4305.1667,N,07740.8717,W,1,07,1.25,177.1,M,-34.4,M,,*5B
$GPRMC,222147.000,A,4305.1667,N,07740.8717,W,0.03,296.32,021023,,,A*78
$GPGGA,222147.250,4305.1667,N,07740.8717,W,1,07,1.25,177.1,M,-34.4,M,,*5F
$GPRMC,222147.500,A,4305.1667,N,07740.8717,W,0.03,3.07,021023,,,A*75
$GPGGA,222147.750,4305.1667,N,07740.8717,W,1,07,1.33,177.1,M,-34.4,M,,*5D
$GPRMC,222148.000,A,4305.1667,N,07740.8717,W,0.06,314.25,021023,,,A*7F
$GPGGA,222148.250,4305.1667,N,07740.8717,W,1,07,1.25,177.1,M,-34.4,M,,*50
$GPRMC,222148.500,A,4305.1667,N,07740.8717,W,0.04,291.86,021023,,,A*7D
$GPGGA,222148.750,4305.1667,N,07740.8717,W,1,07,1.25,177.1,M,-34.4,M,,*55
$GPRMC,222149.000,A,4305.1667,N,07740.8717,W,0.01,226.05,021023,,,A*7B
$GPGGA,222149.250,4305.1667,N,07740.8717,W,1,07,1.33,177.1,M,-34.4,M,,*56
$GPRMC,222149.500,A,4305.1667,N,07740.8717,W,0.02,22.22,021023,,,A*4E
$GPGGA,222149.750,4305.1667,N,07740.8717,W,1,07,1.33,177.1,M,-34.4,M,,*53
$GPRMC,222150.000,A,4305.1667,N,07740.8717,W,0.02,294.11,021023,,,A*7C
$GPGGA,222150.250,4305.1667,N,07740.8717,W,1,08,1.16,177.1,M,-34.4,M,,*56
$GPRMC,222150.500,A,4305.1667,N,07740.8717,W,0.01,177.66,021023,,,A*74
$GPGGA,222150.750,4305.1667,N,07740.8717,W,1,08,1.16,177.1,M,-34.4,M,,*53
$GPRMC,222151.000,A,4305.1667,N,07740.8717,W,0.01,211.70,021023,,,A*74
$GPGGA,222151.250,4305.1667,N,07740.8717,W,1,08,1.16,177.1,M,-34.4,M,,*57
$GPRMC,222151.500,A,4305.1667,N,07740.8717,W,0.00,241.70,021023,,,A*75
$GPGGA,222151.750,4305.1667,N,07740.8717,W,1,08,1.16,177.1,M,-34.4,M,,*52
$GPRMC,222152.000,A,4305.1667,N,07740.8717,W,0.01,128.73,021023,,,A*7D
$GPGGA,222152.250,4305.1667,N,07740.8717,W,1,08,1.16,177.1,M,-34.4,M,,*54
$GPRMC,222152.500,A,4305.1667,N,07740.8717,W,0.01,290.07,021023,,,A*7B
$GPGGA,222152.750,4305.1667,N,07740.8716,W,1,08,1.16,177.1,M,-34.4,M,,*50
$GPRMC,222153.000,A,4305.1667,N,07740.8716,W,0.01,129.34,021023,,,A*7F
$GPGGA,222153.250,4305.1667,N,07740.8716,W,1,08,1.16,177.1,M,-34.4,M,,*54
$GPRMC,222153.500,A,4305.1667,N,07740.8716,W,0.01,334.99,021023,,,A*73
$GPGGA,222153.750,4305.1667,N,07740.8716,W,1,08,1.16,177.1,M,-34.4,M,,*51
$GPRMC,222154.000,A,4305.1667,N,07740.8716,W,0.06,22.20,021023,,,A*40
$GPGGA,222154.250,4305.1667,N,07740.8716,W,1,08,1.16,177.1,M,-34.4,M,,*53
$GPRMC,222154.500,A,4305.1667,N,07740.8716,W,0.12,25.04,021023,,,A*41
$GPGGA,222154.750,4305.1667,N,07740.8716,W,1,08,1.16,177.1,M,-34.4,M,,*56
$GPRMC,222155.000,A,4305.1667,N,07740.8716,W,1.34,16.62,021023,,,A*40
$GPGGA,222155.250,4305.1667,N,07740.8716,W,1,08,1.09,177.1,M,-34.4,M,,*5C
$GPRMC,222155.500,A,4305.1669,N,07740.8715,W,2.83,18.11,021023,,,A*4D
$GPGGA,222155.750,4305.1670,N,07740.8714,W,1,08,1.09,177.1,M,-34.4,M,,*5D
$GPRMC,222156.000,A,4305.1672,N,07740.8713,W,3.09,16.55,021023,,,A*4A
$GPGGA,222156.250,4305.1674,N,07740.8712,W,1,08,1.09,177.0,M,-34.4,M,,*58
$GPRMC,222156.500,A,4305.1676,N,07740.8710,W,3.37,24.70,021023,,,A*43
$GPGGA,222156.750,4305.1678,N,07740.8708,W,1,08,1.09,177.0,M,-34.4,M,,*5A
$GPRMC,222157.000,A,4305.1680,N,07740.8706,W,3.38,32.09,021023,,,A*4F
$GPGGA,222157.250,4305.1682,N,07740.8704,W,1,08,1.09,177.0,M,-34.4,M,,*57
$GPRMC,222157.500,A,4305.1684,N,07740.8702,W,3.38,44.01,021023,,,A*43
$GPGGA,222157.750,4305.1685,N,07740.8699,W,1,08,1.09,177.0,M,-34.4,M,,*50
$GPRMC,222158.000,A,4305.1687,N,07740.8696,W,3.73,49.19,021023,,,A*4D
$GPGGA,222158.250,4305.1688,N,07740.8693,W,1,08,1.09,176.9,M,-34.4,M,,*55
$GPRMC,222158.500,A,4305.1690,N,07740.8690,W,3.46,57.05,021023,,,A*4C
$GPGGA,222158.750,4305.1691,N,07740.8687,W,1,08,1.09,176.9,M,-34.4,M,,*5D
$GPRMC,222159.000,A,4305.1692,N,07740.8685,W,2.68,60.23,021023,,,A*43
$GPGGA,222159.250,4305.1692,N,07740.8683,W,1,08,1.09,176.8,M,-34.4,M,,*5F
$GPRMC,222159.500,A,4305.1692,N,07740.8681,W,1.31,76.01,021023,,,A*4A
$GPGGA,222159.750,4305.1692,N,07740.8680,W,1,08,1.09,176.8,M,-34.4,M,,*59
$GPRMC,222200.000,A,4305.1691,N,07740.8680,W,0.68,101.25,021023,,,A*78
$GPGGA,222200.250,4305.1691,N,07740.8681,W,1,08,1.09,176.7,M,-34.4,M,,*5E
$GPRMC,222200.500,A,4305.1691,N,07740.8683,W,0.54,244.76,021023,,,A*75
$GPGGA,222200.750,4305.1690,N,07740.8685,W,1,08,1.09,176.7,M,-34.4,M,,*5E
$GPRMC,222201.000,A,4305.1689,N,07740.8687,W,1.31,242.95,021023,,,A*75
$GPGGA,222201.250,4305.1688,N,07740.8691,W,1,08,1.09,176.6,M,-34.4,M,,*57
$GPRMC,222201.500,A,4305.1687,N,07740.8695,W,2.98,251.31,021023,,,A*71
$GPGGA,222201.750,4305.1687,N,07740.8699,W,1,08,1.09,176.5,M,-34.4,M,,*56
$GPRMC,222202.000,A,4305.1686,N,07740.8703,W,4.34,259.82,021023,,,A*78
$GPGGA,222202.250,4305.1685,N,07740.8708,W,1,08,1.16,176.4,M,-34.4,M,,*54
$GPRMC,222202.500,A,4305.1684,N,07740.8713,W,5.33,262.64,021023,,,A*78
$GPGGA,222202.750,4305.1684,N,07740.8719,W,1,08,1.16,176.3,M,-34.4,M,,*57
$GPRMC,222203.000,A,4305.1683,N,07740.8724,W,5.95,264.45,021023,,,A*76
$GPGGA,222203.250,4305.1683,N,07740.8730,W,1,08,1.16,176.2,M,-34.4,M,,*5E
$GPRMC,222203.500,A,4305.1683,N,07740.8735,W,5.81,268.11,021023,,,A*7B
$GPGGA,222203.750,4305.1683,N,07740.8741,W,1,08,1.16,176.2,M,-34.4,M,,*5D
$GPRMC,222204.000,A,4305.1684,N,07740.8746,W,5.73,273.87,021023,,,A*72
$GPGGA,222204.250,4305.1684,N,07740.8751,W,1,08,1.16,176.2,M,-34.4,M,,*59
$GPRMC,222204.500,A,4305.1685,N,07740.8757,W,5.82,277.76,021023,,,A*72
$GPGGA,222204.750,4305.1686,N,07740.8762,W,1,08,1.16,176.1,M,-34.4,M,,*5D
$GPRMC,222205.000,A,4305.1687,N,07740.8768,W,5.98,285.10,021023,,,A*7E
$GPGGA,222205.250,4305.1688,N,07740.8773,W,1,08,1.16,176.0,M,-34.4,M,,*56
$GPRMC,222205.500,A,4305.1690,N,07740.8778,W,5.80,293.82,021023,,,A*79
$GPGGA,222205.750,4305.1692,N,07740.8783,W,1,08,1.16,175.8,M,-34.4,M,,*5C
$GPRMC,222206.000,A,4305.1695,N,07740.8789,W,6.42,302.95,021023,,,A*76
$GPGGA,222206.250,4305.1698,N,07740.8794,W,1,08,1.16,175.6,M,-34.4,M,,*58
$GPRMC,222206.500,A,4305.1701,N,07740.8799,W,7.12,312.93,021023,,,A*7D
$GPGGA,222206.750,4305.1705,N,07740.8804,W,1,08,1.16,175.4,M,-34.4,M,,*5C
$GPRMC,222207.000,A,4305.1710,N,07740.8809,W,7.64,322.61,021023,,,A*70
$GPGGA,222207.250,4305.1716,N,07740.8813,W,1,08,1.16,175.3,M,-34.4,M,,*5B
$GPRMC,222207.500,A,4305.1722,N,07740.8816,W,8.70,334.63,021023,,,A*75
$GPGGA,222207.750,4305.1727,N,07740.8819,W,1,08,1.16,175.4,M,-34.4,M,,*51
$GPRMC,222208.000,A,4305.1734,N,07740.8822,W,9.05,343.98,021023,,,A*78
$GPGGA,222208.250,4305.1740,N,07740.8824,W,1,08,1.16,175.3,M,-34.4,M,,*53
$GPRMC,222208.500,A,4305.1747,N,07740.8825,W,9.49,351.87,021023,,,A*7B
$GPGGA,222208.750,4305.1754,N,07740.8827,W,1,08,1.16,175.2,M,-34.4,M,,*51
$GPRMC,222209.000,A,4305.1761,N,07740.8828,W,10.04,355.04,021023,,,A*48
$GPGGA,222209.250,4305.1768,N,07740.8830,W,1,08,1.16,175.2,M,-34.4,M,,*5C
$GPRMC,222209.500,A,4305.1776,N,07740.8834,W,10.23,356.12,021023,,,A*47
$GPGGA,222209.750,4305.1784,N,07740.8838,W,1,08,1.16,175.1,M,-34.4,M,,*50
$GPRMC,222210.000,A,4305.1792,N,07740.8840,W,10.34,357.30,021023,,,A*44
$GPGGA,222210.250,4305.1800,N,07740.8842,W,1,08,1.15,175.1,M,-34.4,M,,*50
$GPRMC,222210.500,A,4305.1808,N,07740.8843,W,10.56,358.34,021023,,,A*41
$GPGGA,222210.750,4305.1817,N,07740.8843,W,1,08,1.16,175.2,M,-34.4,M,,*52
$GPRMC,222211.000,A,4305.1826,N,07740.8844,W,10.91,359.08,021023,,,A*4B
$GPGGA,222211.250,4305.1835,N,07740.8844,W,1,08,1.16,175.2,M,-34.4,M,,*51
$GPRMC,222211.500,A,4305.1843,N,07740.8844,W,11.17,359.25,021023,,,A*4D
$GPGGA,222211.750,4305.1852,N,07740.8844,W,1,08,1.16,175.2,M,-34.4,M,,*55
$GPRMC,222212.000,A,4305.1862,N,07740.8845,W,12.00,359.00,021023,,,A*4B
$GPGGA,222212.250,4305.1872,N,07740.8846,W,1,08,1.16,175.1,M,-34.4,M,,*50
$GPRMC,222212.500,A,4305.1881,N,07740.8847,W,13.04,359.06,021023,,,A*42
$GPGGA,222212.750,4305.1891,N,07740.8848,W,1,08,1.16,175.0,M,-34.4,M,,*57
$GPRMC,222213.000,A,4305.1901,N,07740.8848,W,13.45,358.76,021023,,,A*43
$GPGGA,222213.250,4305.1912,N,07740.8849,W,1,08,1.16,175.0,M,-34.4,M,,*58
$GPRMC,222213.500,A,4305.1923,N,07740.8849,W,14.49,359.43,021023,,,A*4B
$GPGGA,222213.750,4305.1934,N,07740.8849,W,1,08,1.16,174.9,M,-34.4,M,,*51
$GPRMC,222214.000,A,4305.1946,N,07740.8849,W,15.40,0.12,021023,,,A*49
$GPGGA,222214.250,4305.1957,N,07740.8849,W,1,08,1.15,174.9,M,-34.4,M,,*55
$GPRMC,222214.500,A,4305.1970,N,07740.8848,W,16.59,0.47,021023,,,A*43
$GPGGA,222214.750,4305.1983,N,07740.8848,W,1,08,1.16,174.8,M,-34.4,M,,*5A
$GPRMC,222215.000,A,4305.1996,N,07740.8848,W,17.45,1.30,021023,,,A*42
$GPGGA,222215.250,4305.2009,N,07740.8848,W,1,08,1.15,174.7,M,-34.4,M,,*5A
$GPRMC,222215.500,A,4305.2022,N,07740.8848,W,18.16,1.44,021023,,,A*48
$GPGGA,222215.750,4305.2036,N,07740.8848,W,1,08,1.16,174.5,M,-34.4,M,,*52
$GPRMC,222216.000,A,4305.2050,N,07740.8848,W,18.62,1.17,021023,,,A*4E
$GPGGA,222216.250,4305.2064,N,07740.8848,W,1,08,1.16,174.3,M,-34.4,M,,*55
$GPRMC,222216.500,A,4305.2077,N,07740.8849,W,18.86,0.23,021023,,,A*43
$GPGGA,222216.750,4305.2091,N,07740.8849,W,1,08,1.15,174.2,M,-34.4,M,,*59
$GPRMC,222217.000,A,4305.2105,N,07740.8849,W,19.08,359.75,021023,,,A*48
$GPGGA,222217.250,4305.2119,N,07740.8849,W,1,08,1.15,174.1,M,-34.4,M,,*5F
$GPRMC,222217.500,A,4305.2133,N,07740.8849,W,19.26,359.25,021023,,,A*41
$GPGGA,222217.750,4305.2147,N,07740.8850,W,1,08,1.16,173.9,M,-34.4,M,,*55
$GPRMC,222218.000,A,4305.2161,N,07740.8851,W,19.24,358.40,021023,,,A*45
$GPGGA,222218.250,4305.2175,N,07740.8853,W,1,08,1.16,173.8,M,-34.4,M,,*5C
$GPRMC,222218.500,A,4305.2188,N,07740.8854,W,19.02,357.59,021023,,,A*41
$GPGGA,222218.750,4305.2202,N,07740.8855,W,1,08,1.16,173.6,M,-34.4,M,,*52
$GPRMC,222219.000,A,4305.2215,N,07740.8856,W,18.80,357.19,021023,,,A*4F
$GPGGA,222219.250,4305.2228,N,07740.8857,W,1,08,1.16,173.3,M,-34.4,M,,*59
$GPRMC,222219.500,A,4305.2241,N,07740.8859,W,18.54,355.85,021023,,,A*4A
$GPGGA,222219.750,4305.2254,N,07740.8860,W,1,08,1.16,173.0,M,-34.4,M,,*50
$GPRMC,222220.000,A,4305.2267,N,07740.8862,W,18.56,354.69,021023,,,A*48
$GPGGA,222220.250,4305.2280,N,07740.8864,W,1,08,1.16,172.8,M,-34.4,M,,*5B
$GPRMC,222220.500,A,4305.2293,N,07740.8866,W,18.65,353.34,021023,,,A*4D
$GPGGA,222220.750,4305.2306,N,07740.8869,W,1,08,1.16,172.8,M,-34.4,M,,*5C
$GPRMC,222221.000,A,4305.2319,N,07740.8872,W,18.63,352.25,021023,,,A*48
$GPGGA,222221.250,4305.2331,N,07740.8874,W,1,08,1.16,172.7,M,-34.4,M,,*5F
$GPRMC,222221.500,A,4305.2344,N,07740.8877,W,18.23,351.11,021023,,,A*40
$GPGGA,222221.750,4305.2355,N,07740.8881,W,1,08,1.15,172.7,M,-34.4,M,,*51
$GPRMC,222222.000,A,4305.2366,N,07740.8885,W,17.63,349.83,021023,,,A*42
$GPGGA,222222.250,4305.2377,N,07740.8889,W,1,08,1.15,172.8,M,-34.4,M,,*50
$GPRMC,222222.500,A,4305.2387,N,07740.8892,W,16.47,349.35,021023,,,A*44
$GPGGA,222222.750,4305.2398,N,07740.8895,W,1,08,1.15,172.8,M,-34.4,M,,*59
$GPRMC,222223.000,A,4305.2406,N,07740.8897,W,14.71,349.70,021023,,,A*4D
$GPGGA,222223.250,4305.2414,N,07740.8898,W,1,08,1.15,172.8,M,-34.4,M,,*53
$GPRMC,222223.500,A,4305.2420,N,07740.8900,W,12.24,350.62,021023,,,A*4E
$GPGGA,222223.750,4305.2425,N,07740.8903,W,1,08,1.16,172.8,M,-34.4,M,,*54
$GPRMC,222224.000,A,4305.2429,N,07740.8905,W,9.69,351.74,021023,,,A*75
$GPGGA,222224.250,4305.2431,N,07740.8906,W,1,08,1.15,172.5,M,-34.4,M,,*58
$GPRMC,222224.500,A,4305.2433,N,07740.8907,W,6.82,352.87,021023,,,A*7C
$GPGGA,222224.750,4305.2435,N,07740.8907,W,1,08,1.15,172.3,M,-34.4,M,,*5E
$GPRMC,222225.000,A,4305.2437,N,07740.8907,W,5.35,359.51,021023,,,A*73
$GPGGA,222225.250,4305.2440,N,07740.8907,W,1,08,1.16,172.5,M,-34.4,M,,*5D
$GPRMC,222225.500,A,4305.2443,N,07740.8907,W,4.43,4.27,021023,,,A*7F
$GPGGA,222225.750,4305.2446,N,07740.8906,W,1,08,1.16,172.6,M,-34.4,M,,*5C
$GPRMC,222226.000,A,4305.2448,N,07740.8905,W,4.90,359.31,021023,,,A*72
$GPGGA,222226.250,4305.2451,N,07740.8905,W,1,08,1.16,172.7,M,-34.4,M,,*5E
$GPRMC,222226.500,A,4305.2454,N,07740.8905,W,4.68,5.30,021023,,,A*76
$GPGGA,222226.750,4305.2457,N,07740.8904,W,1,08,1.16,172.6,M,-34.4,M,,*5D
$GPRMC,222227.000,A,4305.2460,N,07740.8904,W,3.92,9.89,021023,,,A*78
$GPGGA,222227.250,4305.2462,N,07740.8903,W,1,08,1.15,172.7,M,-34.4,M,,*5A
$GPRMC,222227.500,A,4305.2463,N,07740.8903,W,2.78,12.08,021023,,,A*4F
$GPGGA,222227.750,4305.2462,N,07740.8903,W,1,08,1.15,172.8,M,-34.4,M,,*50
$GPRMC,222228.000,A,4305.2462,N,07740.8903,W,1.36,12.08,021023,,,A*4D
$GPGGA,222228.250,4305.2462,N,07740.8902,W,1,08,1.09,173.0,M,-34.4,M,,*5F
$GPRMC,222228.500,A,4305.2461,N,07740.8902,W,0.61,12.08,021023,,,A*49
$GPGGA,222228.750,4305.2460,N,07740.8902,W,1,08,1.09,173.1,M,-34.4,M,,*59
$GPRMC,222229.000,A,4305.2459,N,07740.8902,W,0.38,12.08,021023,,,A*4A
$GPGGA,222229.250,4305.2458,N,07740.8902,W,1,08,1.09,173.2,M,-34.4,M,,*55
$GPRMC,222229.500,A,4305.2458,N,07740.8903,W,0.32,12.08,021023,,,A*45
$GPGGA,222229.750,4305.2457,N,07740.8902,W,1,08,1.09,173.3,M,-34.4,M,,*5E
$GPRMC,222230.000,A,4305.2456,N,07740.8902,W,0.26,12.08,021023,,,A*42
$GPGGA,222230.250,4305.2455,N,07740.8902,W,1,08,1.09,173.4,M,-34.4,M,,*56
$GPRMC,222230.500,A,4305.2454,N,07740.8902,W,0.22,12.08,021023,,,A*41
$GPGGA,222230.750,4305.2453,N,07740.8902,W,1,08,1.09,173.4,M,-34.4,M,,*55
$GPRMC,222231.000,A,4305.2453,N,07740.8901,W,0.40,12.08,021023,,,A*45
$GPGGA,222231.250,4305.2454,N,07740.8901,W,1,08,1.09,173.4,M,-34.4,M,,*55
$GPRMC,222231.500,A,4305.2455,N,07740.8901,W,0.80,12.08,021023,,,A*4A
$GPGGA,222231.750,4305.2455,N,07740.8901,W,1,08,1.09,173.4,M,-34.4,M,,*51
$GPRMC,222232.000,A,4305.2456,N,07740.8901,W,1.05,12.08,021023,,,A*43
$GPGGA,222232.250,4305.2456,N,07740.8900,W,1,08,1.09,173.4,M,-34.4,M,,*55
$GPRMC,222232.500,A,4305.2457,N,07740.8900,W,1.57,12.08,021023,,,A*41
$GPGGA,222232.750,4305.2458,N,07740.8899,W,1,08,1.09,173.4,M,-34.4,M,,*5F
$GPRMC,222233.000,A,4305.2462,N,07740.8895,W,3.83,36.78,021023,,,A*44
$GPGGA,222233.250,4305.2468,N,07740.8887,W,1,08,1.09,173.5,M,-34.4,M,,*56
$GPRMC,222233.500,A,4305.2474,N,07740.8879,W,8.23,44.61,021023,,,A*48
$GPGGA,222233.750,4305.2480,N,07740.8869,W,1,08,1.09,173.7,M,-34.4,M,,*57
$GPRMC,222234.000,A,4305.2487,N,07740.8857,W,12.25,52.38,021023,,,A*7C
$GPGGA,222234.250,4305.2493,N,07740.8844,W,1,08,1.15,173.8,M,-34.4,M,,*5A
$GPRMC,222234.500,A,4305.2499,N,07740.8831,W,14.95,59.14,021023,,,A*7E
$GPGGA,222234.750,4305.2505,N,07740.8817,W,1,08,1.15,173.9,M,-34.4,M,,*56
$GPRMC,222235.000,A,4305.2511,N,07740.8801,W,17.05,63.68,021023,,,A*70
$GPGGA,222235.250,4305.2515,N,07740.8784,W,1,08,1.15,174.0,M,-34.4,M,,*58
$GPRMC,222235.500,A,4305.2519,N,07740.8766,W,19.14,70.49,021023,,,A*7C
$GPGGA,222235.750,4305.2523,N,07740.8747,W,1,07,1.24,174.2,M,-34.4,M,,*58
$GPRMC,222236.000,A,4305.2527,N,07740.8727,W,20.66,73.63,021023,,,A*76
$GPGGA,222236.250,4305.2531,N,07740.8707,W,1,07,1.24,174.4,M,-34.4,M,,*5F
$GPRMC,222236.500,A,4305.2535,N,07740.8685,W,22.01,75.71,021023,,,A*7F
$GPGGA,222236.750,4305.2538,N,07740.8664,W,1,07,1.23,174.5,M,-34.4,M,,*51
$GPRMC,222237.000,A,4305.2542,N,07740.8643,W,22.97,76.78,021023,,,A*74
$GPGGA,222237.250,4305.2546,N,07740.8620,W,1,07,1.24,174.7,M,-34.4,M,,*59
$GPRMC,222237.500,A,4305.2549,N,07740.8597,W,23.96,76.78,021023,,,A*70
$GPGGA,222237.750,4305.2553,N,07740.8574,W,1,07,1.24,174.9,M,-34.4,M,,*54
$GPRMC,222238.000,A,4305.2556,N,07740.8551,W,24.49,77.20,021023,,,A*77
$GPGGA,222238.250,4305.2559,N,07740.8527,W,1,07,1.24,175.1,M,-34.4,M,,*5B
$GPRMC,222238.500,A,4305.2563,N,07740.8503,W,24.76,77.44,021023,,,A*7D
$GPGGA,222238.750,4305.2566,N,07740.8480,W,1,07,1.23,175.4,M,-34.4,M,,*5C
$GPRMC,222239.000,A,4305.2569,N,07740.8458,W,23.75,77.80,021023,,,A*70
$GPGGA,222239.250,4305.2572,N,07740.8436,W,1,07,1.24,175.5,M,-34.4,M,,*56
$GPRMC,222239.500,A,4305.2575,N,07740.8414,W,23.11,78.68,021023,,,A*7B
$GPGGA,222239.750,4305.2578,N,07740.8392,W,1,07,1.23,175.7,M,-34.4,M,,*55
$GPRMC,222240.000,A,4305.2581,N,07740.8370,W,23.12,79.24,021023,,,A*74
$GPGGA,222240.250,4305.2583,N,07740.8348,W,1,07,1.24,175.8,M,-34.4,M,,*55
$GPRMC,222240.500,A,4305.2586,N,07740.8326,W,23.20,79.84,021023,,,A*7E
$GPGGA,222240.750,4305.2588,N,07740.8304,W,1,07,1.23,176.0,M,-34.4,M,,*5F
$GPRMC,222241.000,A,4305.2588,N,07740.8282,W,23.03,82.30,021023,,,A*71
$GPGGA,222241.250,4305.2590,N,07740.8260,W,1,08,1.15,176.1,M,-34.4,M,,*5A
$GPRMC,222241.500,A,4305.2592,N,07740.8238,W,22.80,82.43,021023,,,A*70
$GPGGA,222241.750,4305.2594,N,07740.8216,W,1,08,1.15,176.0,M,-34.4,M,,*5B
$GPRMC,222242.000,A,4305.2595,N,07740.8194,W,22.47,83.95,021023,,,A*75
$GPGGA,222242.250,4305.2597,N,07740.8172,W,1,08,1.15,176.0,M,-34.4,M,,*5F
$GPRMC,222242.500,A,4305.2598,N,07740.8151,W,22.07,85.36,021023,,,A*7F
$GPGGA,222242.750,4305.2599,N,07740.8129,W,1,08,1.15,176.0,M,-34.4,M,,*5A
$GPRMC,222243.000,A,4305.2600,N,07740.8108,W,21.79,86.61,021023,,,A*7E
$GPGGA,222243.250,4305.2600,N,07740.8087,W,1,08,1.15,175.8,M,-34.4,M,,*53
$GPRMC,222243.500,A,4305.2601,N,07740.8066,W,21.46,87.59,021023,,,A*75
$GPGGA,222243.750,4305.2601,N,07740.8045,W,1,08,1.15,175.7,M,-34.4,M,,*56
$GPRMC,222244.000,A,4305.2602,N,07740.8024,W,21.32,88.04,021023,,,A*76
$GPGGA,222244.250,4305.2602,N,07740.8003,W,1,08,1.15,175.6,M,-34.4,M,,*54
$GPRMC,222244.500,A,4305.2603,N,07740.7982,W,20.86,88.55,021023,,,A*72
$GPGGA,222244.750,4305.2603,N,07740.7962,W,1,08,1.15,175.4,M,-34.4,M,,*53
$GPRMC,222245.000,A,4305.2604,N,07740.7942,W,20.62,86.76,021023,,,A*78
$GPGGA,222245.250,4305.2605,N,07740.7922,W,1,08,1.15,175.5,M,-34.4,M,,*54
$GPRMC,222245.500,A,4305.2606,N,07740.7902,W,19.90,84.88,021023,,,A*7F
$GPGGA,222245.750,4305.2607,N,07740.7883,W,1,08,1.15,175.5,M,-34.4,M,,*59
$GPRMC,222246.000,A,4305.2609,N,07740.7864,W,18.91,83.58,021023,,,A*7D
$GPGGA,222246.250,4305.2610,N,07740.7846,W,1,08,1.15,175.5,M,-34.4,M,,*50
$GPRMC,222246.500,A,4305.2612,N,07740.7829,W,17.92,82.07,021023,,,A*7C
$GPGGA,222246.750,4305.2613,N,07740.7812,W,1,08,1.15,175.5,M,-34.4,M,,*57
$GPRMC,222247.000,A,4305.2615,N,07740.7795,W,16.89,81.87,021023,,,A*77
$GPGGA,222247.250,4305.2616,N,07740.7779,W,1,08,1.15,175.5,M,-34.4,M,,*54
$GPRMC,222247.500,A,4305.2617,N,07740.7762,W,15.81,83.15,021023,,,A*7A
$GPGGA,222247.750,4305.2619,N,07740.7747,W,1,08,1.15,175.5,M,-34.4,M,,*53
$GPRMC,222248.000,A,4305.2621,N,07740.7731,W,15.22,83.64,021023,,,A*7C
$GPGGA,222248.250,4305.2623,N,07740.7716,W,1,08,1.15,175.6,M,-34.4,M,,*57
$GPRMC,222248.500,A,4305.2623,N,07740.7701,W,14.42,84.25,021023,,,A*7D
$GPGGA,222248.750,4305.2623,N,07740.7687,W,1,08,1.15,175.5,M,-34.4,M,,*58
$GPRMC,222249.000,A,4305.2623,N,07740.7673,W,13.33,85.92,021023,,,A*71
$GPGGA,222249.250,4305.2623,N,07740.7661,W,1,08,1.15,175.4,M,-34.4,M,,*55
$GPRMC,222249.500,A,4305.2623,N,07740.7650,W,11.46,87.04,021023,,,A*78
$GPGGA,222249.750,4305.2623,N,07740.7639,W,1,08,1.15,175.3,M,-34.4,M,,*5A
$GPRMC,222250.000,A,4305.2624,N,07740.7629,W,9.40,87.22,021023,,,A*47
$GPGGA,222250.250,4305.2624,N,07740.7621,W,1,08,1.15,175.1,M,-34.4,M,,*5B
$GPRMC,222250.500,A,4305.2624,N,07740.7614,W,6.73,87.20,021023,,,A*41
$GPGGA,222250.750,4305.2624,N,07740.7608,W,1,08,1.15,174.9,M,-34.4,M,,*5C
$GPRMC,222251.000,A,4305.2623,N,07740.7604,W,4.49,85.70,021023,,,A*4F
$GPGGA,222251.250,4305.2624,N,07740.7600,W,1,08,1.15,174.6,M,-34.4,M,,*5F
$GPRMC,222251.500,A,4305.2624,N,07740.7597,W,3.72,84.71,021023,,,A*4B
$GPGGA,222251.750,4305.2625,N,07740.7593,W,1,08,1.09,174.3,M,-34.4,M,,*5A
$GPRMC,222252.000,A,4305.2624,N,07740.7588,W,5.17,91.59,021023,,,A*48
$GPGGA,222252.250,4305.2624,N,07740.7581,W,1,08,1.15,174.1,M,-34.4,M,,*51
$GPRMC,222252.500,A,4305.2623,N,07740.7573,W,8.14,87.89,021023,,,A*4A
$GPGGA,222252.750,4305.2623,N,07740.7565,W,1,08,1.15,174.1,M,-34.4,M,,*59
$GPRMC,222253.000,A,4305.2624,N,07740.7556,W,10.23,81.43,021023,,,A*73
$GPGGA,222253.250,4305.2625,N,07740.7546,W,1,08,1.15,174.2,M,-34.4,M,,*59
$GPRMC,222253.500,A,4305.2627,N,07740.7536,W,11.44,75.89,021023,,,A*7E
$GPGGA,222253.750,4305.2629,N,07740.7526,W,1,08,1.15,174.2,M,-34.4,M,,*56
$GPRMC,222254.000,A,4305.2632,N,07740.7515,W,12.31,70.69,021023,,,A*73
$GPGGA,222254.250,4305.2636,N,07740.7505,W,1,08,1.15,174.3,M,-34.4,M,,*5A
$GPRMC,222254.500,A,4305.2641,N,07740.7494,W,13.09,60.97,021023,,,A*70
$GPGGA,222254.750,4305.2646,N,07740.7484,W,1,08,1.15,174.2,M,-34.4,M,,*51
$GPRMC,222255.000,A,4305.2649,N,07740.7474,W,13.55,52.12,021023,,,A*77
$GPGGA,222255.250,4305.2654,N,07740.7464,W,1,08,1.15,174.0,M,-34.4,M,,*5A
$GPRMC,222255.500,A,4305.2663,N,07740.7454,W,14.79,45.99,021023,,,A*74
$GPGGA,222255.750,4305.2671,N,07740.7445,W,1,08,1.09,174.0,M,-34.4,M,,*56
$GPRMC,222256.000,A,4305.2680,N,07740.7438,W,15.01,34.29,021023,,,A*76
$GPGGA,222256.250,4305.2690,N,07740.7430,W,1,08,1.15,173.9,M,-34.4,M,,*5E
$GPRMC,222256.500,A,4305.2701,N,07740.7429,W,15.79,18.96,021023,,,A*7E
$GPGGA,222256.750,4305.2712,N,07740.7426,W,1,08,1.15,173.6,M,-34.4,M,,*58
$GPRMC,222257.000,A,4305.2723,N,07740.7425,W,15.72,10.80,021023,,,A*72
$GPGGA,222257.250,4305.2735,N,07740.7424,W,1,08,1.15,173.4,M,-34.4,M,,*59
$GPRMC,222257.500,A,4305.2746,N,07740.7425,W,16.91,2.05,021023,,,A*44
$GPGGA,222257.750,4305.2758,N,07740.7426,W,1,08,1.15,173.2,M,-34.4,M,,*53
$GPRMC,222258.000,A,4305.2770,N,07740.7428,W,17.65,357.58,021023,,,A*47
$GPGGA,222258.250,4305.2782,N,07740.7430,W,1,08,1.15,173.0,M,-34.4,M,,*5B
$GPRMC,222258.500,A,4305.2795,N,07740.7433,W,18.32,354.61,021023,,,A*47
$GPGGA,222258.750,4305.2808,N,07740.7436,W,1,08,1.15,172.9,M,-34.4,M,,*5D
$GPRMC,222259.000,A,4305.2821,N,07740.7439,W,18.98,353.62,021023,,,A*4D
$GPGGA,222259.250,4305.2835,N,07740.7442,W,1,08,1.15,172.7,M,-34.4,M,,*5A
$GPRMC,222259.500,A,4305.2848,N,07740.7444,W,19.28,354.28,021023,,,A*4E
$GPGGA,222259.750,4305.2862,N,07740.7446,W,1,08,1.15,172.7,M,-34.4,M,,*59
$GPRMC,222300.000,A,4305.2876,N,07740.7448,W,19.40,355.91,021023,,,A*4A
$GPGGA,222300.250,4305.2891,N,07740.7450,W,1,08,1.15,172.6,M,-34.4,M,,*5B
$GPRMC,222300.500,A,4305.2905,N,07740.7451,W,20.09,357.22,021023,,,A*4F
$GPGGA,222300.750,4305.2920,N,07740.7453,W,1,08,1.15,172.4,M,-34.4,M,,*54
$GPRMC,222301.000,A,4305.2935,N,07740.7454,W,20.67,357.94,021023,,,A*48
$GPGGA,222301.250,4305.2950,N,07740.7456,W,1,08,1.15,172.3,M,-34.4,M,,*55
$GPRMC,222301.500,A,4305.2965,N,07740.7457,W,21.19,358.32,021023,,,A*40
$GPGGA,222301.750,4305.2980,N,07740.7458,W,1,08,1.15,172.2,M,-34.4,M,,*52
$GPRMC,222302.000,A,4305.2995,N,07740.7459,W,21.20,358.61,021023,,,A*4B
$GPGGA,222302.250,4305.3010,N,07740.7459,W,1,08,1.15,172.2,M,-34.4,M,,*54
$GPRMC,222302.500,A,4305.3025,N,07740.7460,W,20.95,358.66,021023,,,A*4F
$GPGGA,222302.750,4305.3039,N,07740.7461,W,1,08,1.15,172.2,M,-34.4,M,,*51
$GPRMC,222303.000,A,4305.3053,N,07740.7461,W,20.54,359.11,021023,,,A*47
$GPGGA,222303.250,4305.3067,N,07740.7462,W,1,08,1.15,172.2,M,-34.4,M,,*5D
$GPRMC,222303.500,A,4305.3080,N,07740.7463,W,19.65,359.28,021023,,,A*4C
$GPGGA,222303.750,4305.3093,N,07740.7463,W,1,08,1.15,172.1,M,-34.4,M,,*51
$GPRMC,222304.000,A,4305.3106,N,07740.7464,W,18.60,358.88,021023,,,A*49
$GPGGA,222304.250,4305.3117,N,07740.7464,W,1,08,1.15,172.1,M,-34.4,M,,*59
$GPRMC,222304.500,A,4305.3128,N,07740.7465,W,16.80,358.63,021023,,,A*44
$GPGGA,222304.750,4305.3139,N,07740.7465,W,1,08,1.15,172.1,M,-34.4,M,,*51
$GPRMC,222305.000,A,4305.3150,N,07740.7467,W,15.37,359.31,021023,,,A*44
$GPGGA,222305.250,4305.3160,N,07740.7469,W,1,08,1.15,172.1,M,-34.4,M,,*55
$GPRMC,222305.500,A,4305.3168,N,07740.7468,W,13.20,3.89,021023,,,A*4A
$GPGGA,222305.750,4305.3178,N,07740.7467,W,1,08,1.15,172.0,M,-34.4,M,,*56
$GPRMC,222306.000,A,4305.3186,N,07740.7465,W,12.05,10.58,021023,,,A*79
$GPGGA,222306.250,4305.3192,N,07740.7461,W,1,08,1.15,172.0,M,-34.4,M,,*52
$GPRMC,222306.500,A,4305.3198,N,07740.7458,W,10.78,23.94,021023,,,A*75
$GPGGA,222306.750,4305.3204,N,07740.7452,W,1,08,1.09,171.9,M,-34.4,M,,*5C
$GPRMC,222307.000,A,4305.3209,N,07740.7447,W,10.73,35.34,021023,,,A*72
$GPGGA,222307.250,4305.3212,N,07740.7440,W,1,08,1.15,172.0,M,-34.4,M,,*5B
$GPRMC,222307.500,A,4305.3215,N,07740.7433,W,9.85,53.88,021023,,,A*4F
$GPGGA,222307.750,4305.3217,N,07740.7425,W,1,08,1.15,172.0,M,-34.4,M,,*58
$GPRMC,222308.000,A,4305.3218,N,07740.7416,W,9.57,61.74,021023,,,A*42
$GPGGA,222308.250,4305.3219,N,07740.7408,W,1,08,1.09,172.0,M,-34.4,M,,*5E
$GPRMC,222308.500,A,4305.3218,N,07740.7400,W,7.60,78.51,021023,,,A*45
$GPGGA,222308.750,4305.3215,N,07740.7392,W,1,08,1.09,172.0,M,-34.4,M,,*53
$GPRMC,222309.000,A,4305.3208,N,07740.7382,W,8.22,109.69,021023,,,A*78
$GPGGA,222309.250,4305.3201,N,07740.7375,W,1,08,1.15,171.8,M,-34.4,M,,*5D
$GPRMC,222309.500,A,4305.3195,N,07740.7370,W,8.11,135.59,021023,,,A*7B
$GPGGA,222309.750,4305.3189,N,07740.7364,W,1,08,1.15,171.6,M,-34.4,M,,*55
$GPRMC,222310.000,A,4305.3183,N,07740.7360,W,8.87,151.07,021023,,,A*76
$GPGGA,222310.250,4305.3176,N,07740.7356,W,1,08,1.15,171.6,M,-34.4,M,,*59
$GPRMC,222310.500,A,4305.3168,N,07740.7352,W,9.71,158.49,021023,,,A*7C
$GPGGA,222310.750,4305.3161,N,07740.7348,W,1,08,1.15,171.5,M,-34.4,M,,*56
$GPRMC,222311.000,A,4305.3153,N,07740.7344,W,10.14,157.67,021023,,,A*4F
$GPGGA,222311.250,4305.3147,N,07740.7339,W,1,08,1.15,171.5,M,-34.4,M,,*50
$GPRMC,222311.500,A,4305.3141,N,07740.7333,W,10.08,144.99,021023,,,A*47
$GPGGA,222311.750,4305.3135,N,07740.7326,W,1,08,1.15,171.4,M,-34.4,M,,*5F
$GPRMC,222312.000,A,4305.3130,N,07740.7319,W,10.09,138.06,021023,,,A*43
$GPGGA,222312.250,4305.3126,N,07740.7310,W,1,08,1.15,171.5,M,-34.4,M,,*5F
$GPRMC,222312.500,A,4305.3123,N,07740.7301,W,9.96,123.50,021023,,,A*7A
$GPGGA,222312.750,4305.3120,N,07740.7289,W,1,08,1.15,171.7,M,-34.4,M,,*5F
$GPRMC,222313.000,A,4305.3118,N,07740.7278,W,9.01,103.45,021023,,,A*71
$GPGGA,222313.250,4305.3119,N,07740.7266,W,1,08,1.15,172.2,M,-34.4,M,,*56
$GPRMC,222313.500,A,4305.3120,N,07740.7255,W,9.32,88.28,021023,,,A*49
$GPGGA,222313.750,4305.3121,N,07740.7246,W,1,08,1.15,172.4,M,-34.4,M,,*5C
$GPRMC,222314.000,A,4305.3122,N,07740.7237,W,9.18,80.89,021023,,,A*46
$GPGGA,222314.250,4305.3123,N,07740.7229,W,1,08,1.15,172.5,M,-34.4,M,,*54
$GPRMC,222314.500,A,4305.3125,N,07740.7221,W,8.84,76.42,021023,,,A*49
$GPGGA,222314.750,4305.3127,N,07740.7213,W,1,08,1.15,172.6,M,-34.4,M,,*5F
$GPRMC,222315.000,A,4305.3127,N,07740.7205,W,8.47,76.02,021023,,,A*42
$GPGGA,222315.250,4305.3128,N,07740.7197,W,1,08,1.15,172.7,M,-34.4,M,,*5A
$GPRMC,222315.500,A,4305.3129,N,07740.7189,W,8.23,83.17,021023,,,A*42
$GPGGA,222315.750,4305.3128,N,07740.7180,W,1,08,1.15,172.9,M,-34.4,M,,*57
$GPRMC,222316.000,A,4305.3127,N,07740.7172,W,8.87,94.35,021023,,,A*46
$GPGGA,222316.250,4305.3125,N,07740.7164,W,1,08,1.15,173.0,M,-34.4,M,,*5E
$GPRMC,222316.500,A,4305.3123,N,07740.7156,W,9.05,109.95,021023,,,A*75
$GPGGA,222316.750,4305.3120,N,07740.7148,W,1,08,1.15,173.0,M,-34.4,M,,*50
$GPRMC,222317.000,A,4305.3116,N,07740.7140,W,9.27,118.88,021023,,,A*7C
$GPGGA,222317.250,4305.3111,N,07740.7133,W,1,08,1.15,172.9,M,-34.4,M,,*52
$GPRMC,222317.500,A,4305.3107,N,07740.7127,W,9.16,133.73,021023,,,A*77
$GPGGA,222317.750,4305.3101,N,07740.7121,W,1,08,1.15,172.8,M,-34.4,M,,*54
$GPRMC,222318.000,A,4305.3095,N,07740.7117,W,9.32,147.42,021023,,,A*73
$GPGGA,222318.250,4305.3089,N,07740.7114,W,1,08,1.15,172.6,M,-34.4,M,,*57
$GPRMC,222318.500,A,4305.3083,N,07740.7110,W,9.55,158.73,021023,,,A*7B
$GPGGA,222318.750,4305.3076,N,07740.7108,W,1,08,1.15,172.5,M,-34.4,M,,*5C
$GPRMC,222319.000,A,4305.3070,N,07740.7106,W,9.58,165.86,021023,,,A*7D
$GPGGA,222319.250,4305.3063,N,07740.7104,W,1,08,1.15,172.4,M,-34.4,M,,*51
$GPRMC,222319.500,A,4305.3057,N,07740.7103,W,9.82,169.65,021023,,,A*7E
$GPGGA,222319.750,4305.3050,N,07740.7101,W,1,08,1.15,172.2,M,-34.4,M,,*57
$GPRMC,222320.000,A,4305.3044,N,07740.7101,W,9.53,171.83,021023,,,A*7C
$GPGGA,222320.250,4305.3038,N,07740.7101,W,1,08,1.15,172.1,M,-34.4,M,,*55
$GPRMC,222320.500,A,4305.3032,N,07740.7101,W,9.43,175.56,021023,,,A*75
$GPGGA,222320.750,4305.3028,N,07740.7102,W,1,07,1.60,172.0,M,-34.4,M,,*5E
$GPRMC,222321.000,A,4305.3023,N,07740.7102,W,8.88,176.97,021023,,,A*7A
$GPGGA,222321.250,4305.3019,N,07740.7103,W,1,08,1.15,171.9,M,-34.4,M,,*5E
$GPRMC,222321.500,A,4305.3014,N,07740.7102,W,8.51,176.83,021023,,,A*7A
$GPGGA,222321.750,4305.3009,N,07740.7101,W,1,08,1.15,172.0,M,-34.4,M,,*52
$GPRMC,222322.000,A,4305.3005,N,07740.7100,W,8.07,176.74,021023,,,A*75
$GPGGA,222322.250,4305.3001,N,07740.7100,W,1,08,1.15,171.9,M,-34.4,M,,*57
$GPRMC,222322.500,A,4305.2997,N,07740.7100,W,7.82,177.57,021023,,,A*71
$GPGGA,222322.750,4305.2992,N,07740.7100,W,1,08,1.15,171.9,M,-34.4,M,,*50
$GPRMC,222323.000,A,4305.2987,N,07740.7100,W,7.69,178.38,021023,,,A*77
$GPGGA,222323.250,4305.2981,N,07740.7101,W,1,08,1.15,171.8,M,-34.4,M,,*56
$GPRMC,222323.500,A,4305.2976,N,07740.7100,W,7.16,178.77,021023,,,A*7F
$GPGGA,222323.750,4305.2971,N,07740.7100,W,1,08,1.15,171.7,M,-34.4,M,,*52
$GPRMC,222324.000,A,4305.2966,N,07740.7100,W,6.82,181.25,021023,,,A*71
$GPGGA,222324.250,4305.2962,N,07740.7100,W,1,08,1.15,171.6,M,-34.4,M,,*53
$GPRMC,222324.500,A,4305.2958,N,07740.7100,W,6.53,181.32,021023,,,A*73
$GPGGA,222324.750,4305.2954,N,07740.7100,W,1,08,1.15,171.5,M,-34.4,M,,*50
$GPRMC,222325.000,A,4305.2950,N,07740.7099,W,6.21,176.15,021023,,,A*76
$GPGGA,222325.250,4305.2946,N,07740.7098,W,1,08,1.15,171.5,M,-34.4,M,,*57
$GPRMC,222325.500,A,4305.2941,N,07740.7095,W,6.53,166.76,021023,,,A*7E
$GPGGA,222325.750,4305.2936,N,07740.7093,W,1,08,1.15,171.3,M,-34.4,M,,*58
$GPRMC,222326.000,A,4305.2932,N,07740.7090,W,6.79,157.18,021023,,,A*7B
$GPGGA,222326.250,4305.2928,N,07740.7087,W,1,08,1.15,171.2,M,-34.4,M,,*55
$GPRMC,222326.500,A,4305.2925,N,07740.7082,W,7.25,139.71,021023,,,A*74
$GPGGA,222326.750,4305.2921,N,07740.7078,W,1,08,1.15,171.3,M,-34.4,M,,*58
$GPRMC,222327.000,A,4305.2917,N,07740.7072,W,7.88,129.71,021023,,,A*78
$GPGGA,222327.250,4305.2914,N,07740.7066,W,1,08,1.15,171.4,M,-34.4,M,,*52
$GPRMC,222327.500,A,4305.2911,N,07740.7059,W,8.15,115.94,021023,,,A*7D
$GPGGA,222327.750,4305.2909,N,07740.7052,W,1,08,1.15,171.5,M,-34.4,M,,*5D
$GPRMC,222328.000,A,4305.2908,N,07740.7044,W,8.65,104.40,021023,,,A*7D
$GPGGA,222328.250,4305.2907,N,07740.7034,W,1,08,1.15,171.8,M,-34.4,M,,*54
$GPRMC,222328.500,A,4305.2905,N,07740.7025,W,9.32,94.85,021023,,,A*40
$GPGGA,222328.750,4305.2903,N,07740.7017,W,1,08,1.15,171.9,M,-34.4,M,,*55
$GPRMC,222329.000,A,4305.2903,N,07740.7007,W,10.07,89.52,021023,,,A*7A
$GPGGA,222329.250,4305.2904,N,07740.6998,W,1,08,1.15,172.0,M,-34.4,M,,*53
$GPRMC,222329.500,A,4305.2905,N,07740.6989,W,10.01,86.11,021023,,,A*79
$GPGGA,222329.750,4305.2906,N,07740.6979,W,1,08,1.15,172.1,M,-34.4,M,,*5A
$GPRMC,222330.000,A,4305.2907,N,07740.6969,W,10.19,85.97,021023,,,A*7C
$GPGGA,222330.250,4305.2908,N,07740.6957,W,1,08,1.15,172.2,M,-34.4,M,,*56
$GPRMC,222330.500,A,4305.2908,N,07740.6945,W,11.01,87.13,021023,,,A*7E
$GPGGA,222330.750,4305.2909,N,07740.6933,W,1,08,1.15,172.2,M,-34.4,M,,*50
$GPRMC,222331.000,A,4305.2910,N,07740.6921,W,11.68,88.21,021023,,,A*70
$GPGGA,222331.250,4305.2911,N,07740.6909,W,1,08,1.15,172.3,M,-34.4,M,,*55
$GPRMC,222331.500,A,4305.2911,N,07740.6896,W,12.36,90.39,021023,,,A*71
$GPGGA,222331.750,4305.2912,N,07740.6884,W,1,08,1.15,172.2,M,-34.4,M,,*56
$GPRMC,222332.000,A,4305.2912,N,07740.6871,W,12.71,90.37,021023,,,A*70
$GPGGA,222332.250,4305.2912,N,07740.6858,W,1,08,1.15,172.2,M,-34.4,M,,*51
$GPRMC,222332.500,A,4305.2912,N,07740.6845,W,13.16,90.33,021023,,,A*76
$GPGGA,222332.750,4305.2913,N,07740.6832,W,1,08,1.15,172.0,M,-34.4,M,,*5B
$GPRMC,222333.000,A,4305.2913,N,07740.6819,W,13.51,90.06,021023,,,A*7F
$GPGGA,222333.250,4305.2914,N,07740.6806,W,1,08,1.15,172.1,M,-34.4,M,,*5E
$GPRMC,222333.500,A,4305.2914,N,07740.6793,W,13.78,89.93,021023,,,A*7F
$GPGGA,222333.750,4305.2914,N,07740.6779,W,1,08,1.15,172.1,M,-34.4,M,,*5C
$GPRMC,222334.000,A,4305.2914,N,07740.6766,W,14.23,90.22,021023,,,A*7C
$GPGGA,222334.250,4305.2915,N,07740.6751,W,1,08,1.15,172.1,M,-34.4,M,,*55
$GPRMC,222334.500,A,4305.2915,N,07740.6737,W,14.86,90.18,021023,,,A*7A
$GPGGA,222334.750,4305.2915,N,07740.6723,W,1,08,1.15,172.2,M,-34.4,M,,*56
$GPRMC,222335.000,A,4305.2915,N,07740.6708,W,15.20,89.81,021023,,,A*77
$GPGGA,222335.250,4305.2916,N,07740.6694,W,1,08,1.15,172.1,M,-34.4,M,,*5F
$GPRMC,222335.500,A,4305.2916,N,07740.6678,W,15.64,89.10,021023,,,A*7F
$GPGGA,222335.750,4305.2916,N,07740.6663,W,1,08,1.15,172.2,M,-34.4,M,,*51
$GPRMC,222336.000,A,4305.2916,N,07740.6645,W,16.07,89.27,021023,,,A*75
$GPGGA,222336.250,4305.2916,N,07740.6628,W,1,08,1.15,172.1,M,-34.4,M,,*5B
$GPRMC,222336.500,A,4305.2916,N,07740.6612,W,16.38,89.21,021023,,,A*78
$GPGGA,222336.750,4305.2916,N,07740.6596,W,1,08,1.15,172.1,M,-34.4,M,,*58
$GPRMC,222337.000,A,4305.2917,N,07740.6579,W,16.90,90.11,021023,,,A*7A
$GPGGA,222337.250,4305.2917,N,07740.6561,W,1,08,1.15,172.1,M,-34.4,M,,*55
$GPRMC,222337.500,A,4305.2917,N,07740.6544,W,16.92,90.09,021023,,,A*7A
$GPGGA,222337.750,4305.2918,N,07740.6526,W,1,08,1.15,172.1,M,-34.4,M,,*5C
$GPRMC,222338.000,A,4305.2918,N,07740.6509,W,17.32,90.09,021023,,,A*7D
$GPGGA,222336.250,4305.2922,N,07740.6492,W,1,08,1.15,172.2,M,-34.4,M,,*5C
$GPRMC,222336.500,A,4305.2922,N,07740.6474,W,17.72,89.98,021023,,,A*70
$GPGGA,222336.750,4305.2925,N,07740.6457,W,1,08,1.15,172.1,M,-34.4,M,,*54
$GPRMC,222337.000,A,4305.2928,N,07740.6441,W,18.02,89.33,021023,,,A*71
$GPGGA,222337.250,4305.2929,N,07740.6423,W,1,08,1.15,172.1,M,-34.4,M,,*5F
$GPRMC,222337.500,A,4305.2930,N,07740.6405,W,18.06,89.37,021023,,,A*7D
$GPGGA,222337.750,4305.2932,N,07740.6388,W,1,08,1.15,172.1,M,-34.4,M,,*56
$GPRMC,222337.999,A,4305.2934,N,07740.6371,W,17.79,89.69,021023,,,A*7D
$GPGGA,222338.249,4305.2933,N,07740.6353,W,1,08,1.15,171.9,M,-34.4,M,,*58
$GPRMC,222338.500,A,4305.2934,N,07740.6337,W,17.43,89.86,021023,,,A*74
$GPGGA,222338.750,4305.2935,N,07740.6320,W,1,08,1.15,171.8,M,-34.4,M,,*56
$GPRMC,222339.000,A,4305.2936,N,07740.6304,W,16.92,89.47,021023,,,A*72
$GPGGA,222339.250,4305.2936,N,07740.6289,W,1,08,1.15,171.7,M,-34.4,M,,*5C
$GPRMC,222339.500,A,4305.2936,N,07740.6274,W,15.39,87.51,021023,,,A*7A
$GPGGA,222339.750,4305.2938,N,07740.6262,W,1,08,1.15,171.5,M,-34.4,M,,*50
$GPRMC,222340.000,A,4305.2939,N,07740.6249,W,14.57,86.22,021023,,,A*7C
$GPGGA,222340.250,4305.2940,N,07740.6236,W,1,08,1.15,171.5,M,-34.4,M,,*55
$GPRMC,222340.500,A,4305.2941,N,07740.6223,W,13.70,86.23,021023,,,A*79
$GPGGA,222340.750,4305.2943,N,07740.6211,W,1,08,1.15,171.4,M,-34.4,M,,*57
$GPRMC,222341.000,A,4305.2944,N,07740.6199,W,12.54,87.40,021023,,,A*79
$GPGGA,222341.250,4305.2946,N,07740.6189,W,1,08,1.15,171.4,M,-34.4,M,,*54
$GPRMC,222341.500,A,4305.2945,N,07740.6178,W,11.37,89.67,021023,,,A*7F
$GPGGA,222341.750,4305.2945,N,07740.6170,W,1,08,1.15,171.1,M,-34.4,M,,*51
$GPRMC,222342.000,A,4305.2945,N,07740.6161,W,9.55,89.65,021023,,,A*4E
$GPGGA,222342.250,4305.2945,N,07740.6152,W,1,08,1.15,171.0,M,-34.4,M,,*56
$GPRMC,222342.500,A,4305.2946,N,07740.6144,W,7.47,90.34,021023,,,A*4E
$GPGGA,222342.750,4305.2945,N,07740.6136,W,1,08,1.15,170.8,M,-34.4,M,,*58
$GPRMC,222343.000,A,4305.2944,N,07740.6129,W,5.60,92.43,021023,,,A*46
$GPGGA,222343.250,4305.2943,N,07740.6124,W,1,08,1.15,170.6,M,-34.4,M,,*57
$GPRMC,222343.500,A,4305.2942,N,07740.6119,W,3.81,92.27,021023,,,A*4D
$GPGGA,222343.750,4305.2941,N,07740.6116,W,1,08,1.09,170.3,M,-34.4,M,,*59
$GPRMC,222344.000,A,4305.2940,N,07740.6114,W,2.33,93.11,021023,,,A*4C
$GPGGA,222344.250,4305.2940,N,07740.6111,W,1,08,1.09,170.1,M,-34.4,M,,*5F
$GPRMC,222344.500,A,4305.2940,N,07740.6108,W,1.45,93.11,021023,,,A*46
$GPGGA,222344.750,4305.2940,N,07740.6106,W,1,08,1.09,169.9,M,-34.4,M,,*5C
$GPRMC,222345.000,A,4305.2940,N,07740.6106,W,0.64,93.11,021023,,,A*4E
$GPGGA,222345.250,4305.2941,N,07740.6106,W,1,08,1.09,169.8,M,-34.4,M,,*58
$GPRMC,222345.500,A,4305.2942,N,07740.6105,W,0.84,93.11,021023,,,A*44
$GPGGA,222345.750,4305.2942,N,07740.6104,W,1,08,1.09,169.7,M,-34.4,M,,*53
$GPRMC,222346.000,A,4305.2943,N,07740.6102,W,2.18,93.11,021023,,,A*43
$GPGGA,222346.250,4305.2943,N,07740.6099,W,1,08,1.09,169.6,M,-34.4,M,,*50
$GPRMC,222346.500,A,4305.2944,N,07740.6096,W,4.14,84.53,021023,,,A*47
$GPGGA,222346.750,4305.2945,N,07740.6091,W,1,08,1.15,169.5,M,-34.4,M,,*55
$GPRMC,222347.000,A,4305.2946,N,07740.6086,W,5.89,76.00,021023,,,A*4E
$GPGGA,222347.250,4305.2947,N,07740.6081,W,1,08,1.15,169.5,M,-34.4,M,,*52
$GPRMC,222347.500,A,4305.2949,N,07740.6075,W,6.27,74.43,021023,,,A*4A
$GPGGA,222347.750,4305.2950,N,07740.6069,W,1,08,1.15,169.4,M,-34.4,M,,*56
$GPRMC,222348.000,A,4305.2952,N,07740.6063,W,7.05,64.24,021023,,,A*4C
$GPGGA,222348.250,4305.2955,N,07740.6057,W,1,08,1.15,169.3,M,-34.4,M,,*53
$GPRMC,222348.500,A,4305.2959,N,07740.6052,W,8.00,51.30,021023,,,A*49
$GPGGA,222348.750,4305.2963,N,07740.6046,W,1,08,1.15,169.2,M,-34.4,M,,*52
$GPRMC,222349.000,A,4305.2968,N,07740.6040,W,9.28,42.69,021023,,,A*49
$GPGGA,222349.250,4305.2975,N,07740.6034,W,1,08,1.15,169.2,M,-34.4,M,,*54
$GPRMC,222349.500,A,4305.2980,N,07740.6027,W,10.69,31.07,021023,,,A*7A
$GPGGA,222349.750,4305.2988,N,07740.6025,W,1,08,1.15,169.1,M,-34.4,M,,*50
$GPRMC,222350.000,A,4305.2998,N,07740.6023,W,12.08,17.87,021023,,,A*73
$GPGGA,222350.250,4305.3006,N,07740.6022,W,1,08,1.15,169.0,M,-34.4,M,,*55
$GPRMC,222350.500,A,4305.3015,N,07740.6020,W,13.33,10.72,021023,,,A*7C
$GPGGA,222350.750,4305.3024,N,07740.6020,W,1,08,1.15,168.8,M,-34.4,M,,*5B
$GPRMC,222351.000,A,4305.3032,N,07740.6020,W,13.84,4.26,021023,,,A*45
$GPGGA,222351.250,4305.3041,N,07740.6023,W,1,08,1.15,168.6,M,-34.4,M,,*51
$GPRMC,222351.500,A,4305.3051,N,07740.6025,W,14.01,356.77,021023,,,A*4A
$GPGGA,222351.750,4305.3061,N,07740.6028,W,1,08,1.15,168.4,M,-34.4,M,,*5F
$GPRMC,222352.000,A,4305.3070,N,07740.6031,W,14.09,351.54,021023,,,A*44
$GPGGA,222352.250,4305.3079,N,07740.6034,W,1,08,1.15,168.3,M,-34.4,M,,*5A
$GPRMC,222352.500,A,4305.3087,N,07740.6038,W,13.45,347.49,021023,,,A*44
$GPGGA,222352.750,4305.3095,N,07740.6041,W,1,08,1.15,168.0,M,-34.4,M,,*5C
$GPRMC,222353.000,A,4305.3104,N,07740.6045,W,13.07,345.88,021023,,,A*49
$GPGGA,222353.250,4305.3112,N,07740.6049,W,1,08,1.15,167.7,M,-34.4,M,,*56
$GPRMC,222353.500,A,4305.3120,N,07740.6053,W,13.05,343.20,021023,,,A*4B
$GPGGA,222353.750,4305.3128,N,07740.6057,W,1,08,1.15,167.3,M,-34.4,M,,*51
$GPRMC,222354.000,A,4305.3135,N,07740.6061,W,12.96,345.26,021023,,,A*47
$GPGGA,222354.250,4305.3144,N,07740.6064,W,1,08,1.15,167.1,M,-34.4,M,,*5B
$GPRMC,222354.500,A,4305.3153,N,07740.6066,W,12.73,349.30,021023,,,A*45
$GPGGA,222354.750,4305.3162,N,07740.6067,W,1,08,1.15,166.7,M,-34.4,M,,*5E
$GPRMC,222355.000,A,4305.3171,N,07740.6068,W,12.76,356.70,021023,,,A*40
$GPGGA,222355.250,4305.3181,N,07740.6068,W,1,08,1.15,166.5,M,-34.4,M,,*5A
$GPRMC,222355.500,A,4305.3191,N,07740.6067,W,13.33,1.99,021023,,,A*42
$GPGGA,222355.750,4305.3201,N,07740.6065,W,1,08,1.15,166.2,M,-34.4,M,,*5E
$GPRMC,222356.000,A,4305.3210,N,07740.6063,W,13.49,6.99,021023,,,A*40
$GPGGA,222356.250,4305.3219,N,07740.6060,W,1,08,1.15,165.9,M,-34.4,M,,*5C
$GPRMC,222356.500,A,4305.3228,N,07740.6056,W,13.35,14.53,021023,,,A*76
$GPGGA,222356.750,4305.3238,N,07740.6052,W,1,08,1.15,165.7,M,-34.4,M,,*55
$GPRMC,222357.000,A,4305.3247,N,07740.6048,W,13.62,15.88,021023,,,A*71
$GPGGA,222357.250,4305.3255,N,07740.6042,W,1,08,1.15,165.5,M,-34.4,M,,*59
$GPRMC,222357.500,A,4305.3266,N,07740.6039,W,13.72,15.85,021023,,,A*7D
$GPGGA,222357.750,4305.3277,N,07740.6037,W,1,08,1.15,165.3,M,-34.4,M,,*58
$GPRMC,222358.000,A,4305.3287,N,07740.6035,W,13.76,11.99,021023,,,A*79
$GPGGA,222358.250,4305.3297,N,07740.6034,W,1,08,1.15,165.2,M,-34.4,M,,*5E
$GPRMC,222358.500,A,4305.3307,N,07740.6033,W,14.00,6.49,021023,,,A*4E
$GPGGA,222358.750,4305.3317,N,07740.6033,W,1,08,1.15,165.2,M,-34.4,M,,*55
$GPRMC,222359.000,A,4305.3327,N,07740.6033,W,14.28,1.06,021023,,,A*4E
$GPGGA,222359.250,4305.3337,N,07740.6033,W,1,07,1.23,165.0,M,-34.4,M,,*5B
$GPRMC,222359.500,A,4305.3347,N,07740.6035,W,14.41,355.72,021023,,,A*45
$GPGGA,222359.750,4305.3358,N,07740.6038,W,1,08,1.15,164.9,M,-34.4,M,,*5E
$GPRMC,222400.000,A,4305.3368,N,07740.6040,W,14.40,350.90,021023,,,A*4C
$GPGGA,222400.250,4305.3378,N,07740.6044,W,1,08,1.15,164.8,M,-34.4,M,,*58
$GPRMC,222400.500,A,4305.3389,N,07740.6047,W,14.43,348.37,021023,,,A*46
$GPGGA,222400.750,4305.3399,N,07740.6051,W,1,08,1.15,164.6,M,-34.4,M,,*58
$GPRMC,222401.000,A,4305.3409,N,07740.6055,W,14.20,346.47,021023,,,A*42
$GPGGA,222401.250,4305.3418,N,07740.6058,W,1,07,1.23,164.4,M,-34.4,M,,*53
$GPRMC,222401.500,A,4305.3426,N,07740.6062,W,13.56,348.28,021023,,,A*4F
$GPGGA,222401.750,4305.3435,N,07740.6064,W,1,07,1.24,164.0,M,-34.4,M,,*55
$GPRMC,222402.000,A,4305.3445,N,07740.6067,W,13.49,350.75,021023,,,A*46
$GPGGA,222402.250,4305.3453,N,07740.6068,W,1,08,1.15,163.8,M,-34.4,M,,*5D
$GPRMC,222402.500,A,4305.3462,N,07740.6069,W,13.03,354.32,021023,,,A*41
$GPGGA,222402.750,4305.3470,N,07740.6069,W,1,07,1.23,163.5,M,-34.4,M,,*5F
$GPRMC,222403.000,A,4305.3478,N,07740.6068,W,11.99,359.54,021023,,,A*43
$GPGGA,222403.250,4305.3485,N,07740.6067,W,1,07,1.24,163.5,M,-34.4,M,,*58
$GPRMC,222403.500,A,4305.3491,N,07740.6065,W,10.43,6.87,021023,,,A*4D
$GPGGA,222403.750,4305.3497,N,07740.6063,W,1,08,1.15,163.2,M,-34.4,M,,*50
$GPRMC,222404.000,A,4305.3503,N,07740.6061,W,9.16,11.67,021023,,,A*41
$GPGGA,222404.250,4305.3509,N,07740.6058,W,1,08,1.15,163.1,M,-34.4,M,,*5F
$GPRMC,222404.500,A,4305.3515,N,07740.6054,W,8.74,17.38,021023,,,A*4C
$GPGGA,222404.750,4305.3521,N,07740.6050,W,1,08,1.15,163.1,M,-34.4,M,,*58
$GPRMC,222405.000,A,4305.3525,N,07740.6044,W,8.72,21.90,021023,,,A*4B
$GPGGA,222405.250,4305.3530,N,07740.6037,W,1,08,1.15,163.2,M,-34.4,M,,*5E
$GPRMC,222405.500,A,4305.3535,N,07740.6029,W,8.95,30.28,021023,,,A*4E
$GPGGA,222405.750,4305.3539,N,07740.6019,W,1,07,1.23,163.1,M,-34.4,M,,*57
$GPRMC,222406.000,A,4305.3545,N,07740.6010,W,10.28,41.59,021023,,,A*7A
$GPGGA,222406.250,4305.3551,N,07740.5999,W,1,07,1.23,163.1,M,-34.4,M,,*5D
$GPRMC,222406.500,A,4305.3555,N,07740.5988,W,11.66,53.65,021023,,,A*72
$GPGGA,222406.750,4305.3557,N,07740.5974,W,1,08,1.15,163.2,M,-34.4,M,,*54
$GPRMC,222407.000,A,4305.3560,N,07740.5961,W,12.89,67.55,021023,,,A*71
$GPGGA,222407.250,4305.3561,N,07740.5947,W,1,08,1.15,163.3,M,-34.4,M,,*54
$GPRMC,222407.500,A,4305.3562,N,07740.5932,W,14.63,78.65,021023,,,A*7F
$GPGGA,222407.750,4305.3564,N,07740.5916,W,1,08,1.15,163.3,M,-34.4,M,,*50
$GPRMC,222408.000,A,4305.3565,N,07740.5899,W,16.28,83.40,021023,,,A*7C
$GPGGA,222408.250,4305.3566,N,07740.5881,W,1,08,1.15,163.2,M,-34.4,M,,*56
$GPRMC,222408.500,A,4305.3566,N,07740.5862,W,17.98,86.14,021023,,,A*70
$GPGGA,222408.750,4305.3567,N,07740.5843,W,1,08,1.15,163.2,M,-34.4,M,,*5C
$GPRMC,222409.000,A,4305.3568,N,07740.5823,W,19.20,86.60,021023,,,A*71
$GPGGA,222409.250,4305.3568,N,07740.5802,W,1,08,1.15,163.1,M,-34.4,M,,*51
$GPRMC,222409.500,A,4305.3568,N,07740.5781,W,20.70,86.55,021023,,,A*7A
$GPGGA,222409.750,4305.3569,N,07740.5759,W,1,08,1.15,163.0,M,-34.4,M,,*55
$GPRMC,222410.000,A,4305.3571,N,07740.5737,W,21.89,85.71,021023,,,A*70
$GPGGA,222410.250,4305.3573,N,07740.5714,W,1,08,1.15,163.0,M,-34.4,M,,*5A
$GPRMC,222410.500,A,4305.3575,N,07740.5692,W,22.79,85.53,021023,,,A*73
$GPGGA,222410.750,4305.3576,N,07740.5669,W,1,08,1.15,163.0,M,-34.4,M,,*51
$GPRMC,222411.000,A,4305.3577,N,07740.5646,W,23.29,86.01,021023,,,A*7C
$GPGGA,222411.250,4305.3578,N,07740.5623,W,1,08,1.15,162.9,M,-34.4,M,,*5D
$GPRMC,222411.500,A,4305.3579,N,07740.5599,W,23.38,86.55,021023,,,A*77
$GPGGA,222411.750,4305.3580,N,07740.5576,W,1,08,1.15,162.8,M,-34.4,M,,*5D
$GPRMC,222412.000,A,4305.3581,N,07740.5554,W,23.39,86.88,021023,,,A*76
$GPGGA,222412.250,4305.3582,N,07740.5532,W,1,08,1.15,162.8,M,-34.4,M,,*59
$GPRMC,222412.500,A,4305.3584,N,07740.5510,W,23.05,84.86,021023,,,A*75
$GPGGA,222412.750,4305.3586,N,07740.5489,W,1,08,1.15,163.1,M,-34.4,M,,*51
$GPRMC,222413.000,A,4305.3587,N,07740.5467,W,22.14,85.45,021023,,,A*7C
$GPGGA,222413.250,4305.3589,N,07740.5446,W,1,08,1.15,163.1,M,-34.4,M,,*59
$GPRMC,222413.500,A,4305.3590,N,07740.5425,W,22.17,85.73,021023,,,A*7F
$GPGGA,222413.750,4305.3590,N,07740.5403,W,1,08,1.15,163.1,M,-34.4,M,,*55
$GPRMC,222414.000,A,4305.3591,N,07740.5382,W,22.21,86.97,021023,,,A*7A
$GPGGA,222414.250,4305.3592,N,07740.5360,W,1,08,1.15,163.0,M,-34.4,M,,*56
$GPRMC,222414.500,A,4305.3591,N,07740.5339,W,21.59,88.62,021023,,,A*77
$GPGGA,222414.750,4305.3590,N,07740.5318,W,1,08,1.15,162.5,M,-34.4,M,,*5A
$GPRMC,222415.000,A,4305.3589,N,07740.5297,W,21.01,92.20,021023,,,A*7F
$GPGGA,222415.250,4305.3587,N,07740.5277,W,1,08,1.15,162.3,M,-34.4,M,,*56
$GPRMC,222415.500,A,4305.3584,N,07740.5257,W,20.58,97.47,021023,,,A*72
$GPGGA,222415.750,4305.3580,N,07740.5238,W,1,08,1.15,162.0,M,-34.4,M,,*5C
$GPRMC,222416.000,A,4305.3575,N,07740.5221,W,19.49,105.61,021023,,,A*4F
$GPGGA,222416.250,4305.3569,N,07740.5204,W,1,08,1.15,161.6,M,-34.4,M,,*57
$GPRMC,222416.500,A,4305.3562,N,07740.5187,W,19.13,117.86,021023,,,A*46
$GPGGA,222416.750,4305.3553,N,07740.5171,W,1,08,1.15,161.2,M,-34.4,M,,*5E
$GPRMC,222417.000,A,4305.3544,N,07740.5157,W,19.40,125.92,021023,,,A*49
$GPGGA,222417.250,4305.3533,N,07740.5143,W,1,08,1.15,160.6,M,-34.4,M,,*58
$GPRMC,222417.500,A,4305.3522,N,07740.5130,W,19.39,133.80,021023,,,A*47
$GPGGA,222417.750,4305.3510,N,07740.5119,W,1,08,1.15,160.2,M,-34.4,M,,*57
$GPRMC,222418.000,A,4305.3498,N,07740.5108,W,19.30,141.79,021023,,,A*4C
$GPGGA,222418.250,4305.3485,N,07740.5099,W,1,08,1.15,159.6,M,-34.4,M,,*57
$GPRMC,222418.500,A,4305.3471,N,07740.5091,W,19.28,151.78,021023,,,A*46
$GPGGA,222418.750,4305.3458,N,07740.5084,W,1,08,1.15,159.4,M,-34.4,M,,*5C
$GPRMC,222419.000,A,4305.3445,N,07740.5078,W,19.55,157.60,021023,,,A*47
$GPGGA,222419.250,4305.3432,N,07740.5072,W,1,08,1.15,158.9,M,-34.4,M,,*51
$GPRMC,222419.500,A,4305.3418,N,07740.5067,W,19.70,163.19,021023,,,A*4A
$GPGGA,222419.750,4305.3403,N,07740.5063,W,1,08,1.15,158.6,M,-34.4,M,,*59
$GPRMC,222420.000,A,4305.3389,N,07740.5061,W,20.30,169.14,021023,,,A*45
$GPGGA,222420.250,4305.3374,N,07740.5060,W,1,08,1.15,158.3,M,-34.4,M,,*57
$GPRMC,222420.500,A,4305.3359,N,07740.5059,W,20.96,176.09,021023,,,A*48
$GPGGA,222420.750,4305.3343,N,07740.5059,W,1,08,1.15,158.1,M,-34.4,M,,*5E
$GPRMC,222421.000,A,4305.3327,N,07740.5059,W,21.61,178.65,021023,,,A*48
$GPGGA,222421.250,4305.3311,N,07740.5059,W,1,08,1.15,158.0,M,-34.4,M,,*5C
$GPRMC,222421.500,A,4305.3295,N,07740.5059,W,22.32,179.57,021023,,,A*40
$GPGGA,222421.750,4305.3278,N,07740.5059,W,1,08,1.15,158.1,M,-34.4,M,,*56
$GPRMC,222422.000,A,4305.3263,N,07740.5059,W,22.14,179.23,021023,,,A*48
$GPGGA,222422.250,4305.3247,N,07740.5059,W,1,08,1.15,158.0,M,-34.4,M,,*5D
$GPRMC,222422.500,A,4305.3231,N,07740.5059,W,21.51,176.92,021023,,,A*4D
$GPGGA,222422.750,4305.3216,N,07740.5058,W,1,08,1.15,158.1,M,-34.4,M,,*5C
$GPRMC,222423.000,A,4305.3200,N,07740.5056,W,21.18,174.38,021023,,,A*4B
$GPGGA,222423.250,4305.3185,N,07740.5054,W,1,08,1.15,158.1,M,-34.4,M,,*5D
$GPRMC,222423.500,A,4305.3170,N,07740.5051,W,20.93,169.95,021023,,,A*44
$GPGGA,222423.750,4305.3156,N,07740.5047,W,1,08,1.15,158.2,M,-34.4,M,,*57
$GPRMC,222424.000,A,4305.3142,N,07740.5043,W,20.94,166.08,021023,,,A*48
$GPGGA,222424.250,4305.3128,N,07740.5037,W,1,08,1.15,158.1,M,-34.4,M,,*58
$GPRMC,222424.500,A,4305.3115,N,07740.5030,W,20.70,160.53,021023,,,A*49
$GPGGA,222424.750,4305.3102,N,07740.5023,W,1,08,1.15,158.1,M,-34.4,M,,*50
$GPRMC,222425.000,A,4305.3089,N,07740.5014,W,20.67,156.08,021023,,,A*42
$GPGGA,222425.250,4305.3077,N,07740.5005,W,1,08,1.15,158.0,M,-34.4,M,,*52
$GPRMC,222425.500,A,4305.3064,N,07740.4995,W,20.67,150.63,021023,,,A*4E
$GPGGA,222425.750,4305.3053,N,07740.4984,W,1,08,1.15,158.0,M,-34.4,M,,*50
$GPRMC,222426.000,A,4305.3042,N,07740.4973,W,20.44,145.25,021023,,,A*43
$GPGGA,222426.250,4305.3031,N,07740.4960,W,1,08,1.15,158.2,M,-34.4,M,,*5A
$GPRMC,222426.500,A,4305.3021,N,07740.4947,W,20.52,138.09,021023,,,A*47
$GPGGA,222426.750,4305.3011,N,07740.4934,W,1,08,1.15,158.3,M,-34.4,M,,*5D
$GPRMC,222427.000,A,4305.3002,N,07740.4920,W,20.44,132.22,021023,,,A*47
$GPGGA,222427.250,4305.2993,N,07740.4905,W,1,08,1.15,158.4,M,-34.4,M,,*5E
$GPRMC,222427.500,A,4305.2985,N,07740.4889,W,20.43,126.07,021023,,,A*42
$GPGGA,222427.750,4305.2977,N,07740.4873,W,1,08,1.15,158.5,M,-34.4,M,,*50
$GPRMC,222428.000,A,4305.2969,N,07740.4858,W,19.81,123.54,021023,,,A*41
$GPGGA,222428.250,4305.2962,N,07740.4843,W,1,08,1.15,158.5,M,-34.4,M,,*5D
$GPRMC,222428.500,A,4305.2954,N,07740.4829,W,18.88,125.70,021023,,,A*44
$GPGGA,222428.750,4305.2946,N,07740.4815,W,1,08,1.15,158.5,M,-34.4,M,,*5D
$GPRMC,222429.000,A,4305.2938,N,07740.4802,W,18.44,129.11,021023,,,A*48
$GPGGA,222429.250,4305.2929,N,07740.4790,W,1,08,1.14,158.5,M,-34.4,M,,*53
$GPRMC,222429.500,A,4305.2920,N,07740.4778,W,17.76,135.16,021023,,,A*42
$GPGGA,222429.750,4305.2911,N,07740.4767,W,1,08,1.15,158.3,M,-34.4,M,,*52
$GPRMC,222430.000,A,4305.2901,N,07740.4756,W,17.48,139.09,021023,,,A*4F
$GPGGA,222430.250,4305.2892,N,07740.4747,W,1,08,1.15,158.2,M,-34.4,M,,*56
$GPRMC,222430.500,A,4305.2882,N,07740.4740,W,16.48,150.46,021023,,,A*42
$GPGGA,222430.750,4305.2873,N,07740.4732,W,1,08,1.15,158.1,M,-34.4,M,,*5D
$GPRMC,222431.000,A,4305.2863,N,07740.4727,W,15.32,153.59,021023,,,A*4B
$GPGGA,222431.250,4305.2853,N,07740.4722,W,1,08,1.14,158.3,M,-34.4,M,,*59
$GPRMC,222431.500,A,4305.2844,N,07740.4718,W,14.26,159.31,021023,,,A*47
$GPGGA,222431.750,4305.2835,N,07740.4714,W,1,08,1.15,158.4,M,-34.4,M,,*5F
$GPRMC,222432.000,A,4305.2827,N,07740.4712,W,12.76,164.28,021023,,,A*4B
$GPGGA,222432.250,4305.2820,N,07740.4710,W,1,08,1.14,158.5,M,-34.4,M,,*59
$GPRMC,222432.500,A,4305.2812,N,07740.4709,W,11.30,168.86,021023,,,A*4B
$GPGGA,222432.750,4305.2805,N,07740.4708,W,1,08,1.14,158.5,M,-34.4,M,,*52
$GPRMC,222433.000,A,4305.2799,N,07740.4708,W,9.85,171.12,021023,,,A*70
$GPGGA,222433.250,4305.2794,N,07740.4709,W,1,08,1.15,158.5,M,-34.4,M,,*51
$GPRMC,222433.500,A,4305.2792,N,07740.4711,W,7.08,180.89,021023,,,A*71
$GPGGA,222433.750,4305.2790,N,07740.4713,W,1,08,1.15,158.5,M,-34.4,M,,*5B
$GPRMC,222434.000,A,4305.2787,N,07740.4715,W,5.38,188.58,021023,,,A*76
$GPGGA,222434.250,4305.2785,N,07740.4716,W,1,08,1.15,158.6,M,-34.4,M,,*5B
$GPRMC,222434.500,A,4305.2783,N,07740.4718,W,4.74,194.79,021023,,,A*7D
$GPGGA,222434.750,4305.2781,N,07740.4719,W,1,08,1.15,158.8,M,-34.4,M,,*5B
$GPRMC,222435.000,A,4305.2778,N,07740.4720,W,4.81,195.20,021023,,,A*71
$GPGGA,222435.250,4305.2775,N,07740.4723,W,1,08,1.14,158.8,M,-34.4,M,,*5C
$GPRMC,222435.500,A,4305.2770,N,07740.4726,W,6.57,200.70,021023,,,A*79
$GPGGA,222435.750,4305.2765,N,07740.4730,W,1,08,1.15,158.9,M,-34.4,M,,*5A
$GPRMC,222436.000,A,4305.2760,N,07740.4735,W,8.52,208.67,021023,,,A*79
$GPGGA,222436.250,4305.2754,N,07740.4740,W,1,08,1.15,159.0,M,-34.4,M,,*51
$GPRMC,222436.500,A,4305.2748,N,07740.4745,W,10.05,211.14,021023,,,A*46
$GPGGA,222436.750,4305.2742,N,07740.4751,W,1,08,1.15,159.2,M,-34.4,M,,*51
$GPRMC,222437.000,A,4305.2736,N,07740.4757,W,10.93,213.17,021023,,,A*46
$GPGGA,222437.250,4305.2730,N,07740.4763,W,1,08,1.15,159.3,M,-34.4,M,,*50
$GPRMC,222437.500,A,4305.2722,N,07740.4770,W,12.18,212.24,021023,,,A*43
$GPGGA,222437.750,4305.2714,N,07740.4777,W,1,08,1.15,159.1,M,-34.4,M,,*54
$GPRMC,222438.000,A,4305.2707,N,07740.4783,W,12.76,208.97,021023,,,A*49
$GPGGA,222438.250,4305.2700,N,07740.4789,W,1,08,1.08,159.4,M,-34.4,M,,*53
$GPRMC,222438.500,A,4305.2692,N,07740.4794,W,13.17,202.35,021023,,,A*43
$GPGGA,222438.750,4305.2684,N,07740.4799,W,1,08,1.15,159.3,M,-34.4,M,,*51
$GPRMC,222439.000,A,4305.2674,N,07740.4802,W,13.44,192.62,021023,,,A*41
$GPGGA,222439.250,4305.2665,N,07740.4805,W,1,08,1.15,159.4,M,-34.4,M,,*57
$GPRMC,222439.500,A,4305.2656,N,07740.4806,W,13.68,182.82,021023,,,A*41
$GPGGA,222439.750,4305.2648,N,07740.4807,W,1,08,1.14,159.4,M,-34.4,M,,*5E
$GPRMC,222440.000,A,4305.2639,N,07740.4807,W,13.56,182.02,021023,,,A*47
$GPGGA,222440.250,4305.2629,N,07740.4807,W,1,08,1.15,159.4,M,-34.4,M,,*53
$GPRMC,222440.500,A,4305.2621,N,07740.4805,W,13.32,174.98,021023,,,A*41
$GPGGA,222440.750,4305.2612,N,07740.4802,W,1,08,1.14,159.5,M,-34.4,M,,*5B
$GPRMC,222441.000,A,4305.2603,N,07740.4799,W,13.67,168.66,021023,,,A*43
$GPGGA,222441.250,4305.2594,N,07740.4795,W,1,08,1.14,159.5,M,-34.4,M,,*53
$GPRMC,222441.500,A,4305.2586,N,07740.4789,W,13.94,160.30,021023,,,A*4E
$GPGGA,222441.750,4305.2579,N,07740.4782,W,1,08,1.14,159.5,M,-34.4,M,,*53
$GPRMC,222442.000,A,4305.2572,N,07740.4775,W,13.72,147.84,021023,,,A*42
$GPGGA,222442.250,4305.2566,N,07740.4766,W,1,08,1.14,159.6,M,-34.4,M,,*52
$GPRMC,222442.500,A,4305.2559,N,07740.4757,W,13.96,138.28,021023,,,A*4A
$GPGGA,222442.750,4305.2553,N,07740.4748,W,1,08,1.14,159.7,M,-34.4,M,,*5C
$GPRMC,222443.000,A,4305.2549,N,07740.4737,W,13.95,128.91,021023,,,A*49
$GPGGA,222443.250,4305.2545,N,07740.4724,W,1,08,1.15,159.8,M,-34.4,M,,*5B
$GPRMC,222443.500,A,4305.2543,N,07740.4710,W,14.37,114.16,021023,,,A*4C
$GPGGA,222443.750,4305.2541,N,07740.4697,W,1,08,1.14,160.0,M,-34.4,M,,*50
$GPRMC,222444.000,A,4305.2539,N,07740.4684,W,14.26,107.49,021023,,,A*47
$GPGGA,222444.250,4305.2538,N,07740.4671,W,1,08,1.15,160.1,M,-34.4,M,,*54
$GPRMC,222444.500,A,4305.2538,N,07740.4659,W,13.60,99.65,021023,,,A*7E
$GPGGA,222444.750,4305.2539,N,07740.4646,W,1,08,1.14,160.1,M,-34.4,M,,*55
$GPRMC,222445.000,A,4305.2541,N,07740.4634,W,12.94,90.15,021023,,,A*7B
$GPGGA,222445.250,4305.2545,N,07740.4622,W,1,08,1.14,160.1,M,-34.4,M,,*58
$GPRMC,222445.500,A,4305.2549,N,07740.4611,W,12.31,77.29,021023,,,A*78
$GPGGA,222445.750,4305.2557,N,07740.4600,W,1,08,1.14,160.2,M,-34.4,M,,*5D
$GPRMC,222446.000,A,4305.2566,N,07740.4588,W,12.97,64.47,021023,,,A*76
$GPGGA,222446.250,4305.2576,N,07740.4579,W,1,08,1.15,160.2,M,-34.4,M,,*54
$GPRMC,222446.500,A,4305.2588,N,07740.4570,W,13.09,50.20,021023,,,A*74
$GPGGA,222446.750,4305.2599,N,07740.4562,W,1,07,2.14,160.2,M,-34.4,M,,*57
$GPRMC,222447.000,A,4305.2609,N,07740.4556,W,12.99,41.56,021023,,,A*77
$GPGGA,222447.250,4305.2621,N,07740.4550,W,1,08,1.15,160.2,M,-34.4,M,,*5F
$GPRMC,222447.500,A,4305.2632,N,07740.4546,W,13.30,30.74,021023,,,A*7F
$GPGGA,222447.750,4305.2644,N,07740.4542,W,1,08,1.14,160.1,M,-34.4,M,,*58
$GPRMC,222448.000,A,4305.2654,N,07740.4539,W,13.61,23.06,021023,,,A*7E
$GPGGA,222448.250,4305.2664,N,07740.4535,W,1,08,1.08,160.1,M,-34.4,M,,*5D
