Vers 81
USE_SERIAL_FEEDBACK=true
DEVELOPMENT_MODE=false
USE_RMC_ONLY=false

$GPRMC,200005.750,A,4308.2947,N,07726.2652,W,0.08,21.45,100923,,,A*4A
$GPGGA,200006.000,4308.2947,N,07726.2653,W,1,07,1.40,134.2,M,-34.4,M,,*53
$GPRMC,200006.250,A,4308.2947,N,07726.2653,W,0.10,90.95,100923,,,A*43
$GPGGA,200006.500,4308.2947,N,07726.2653,W,1,07,1.40,134.6,M,-34.4,M,,*52
$GPRMC,200006.750,A,4308.2944,N,07726.2653,W,0.11,113.65,100923,,,A*71
$GPGGA,200007.000,4308.2941,N,07726.2652,W,1,07,1.40,133.7,M,-34.4,M,,*57
$GPRMC,200007.250,A,4308.2942,N,07726.2652,W,0.16,124.24,100923,,,A*74
$GPGGA,200007.500,4308.2943,N,07726.2653,W,1,07,1.40,134.2,M,-34.4,M,,*53
$GPRMC,200007.750,A,4308.2947,N,07726.2653,W,0.15,155.04,100923,,,A*72
$GPGGA,200008.000,4308.2952,N,07726.2653,W,1,07,1.40,136.0,M,-34.4,M,,*59
$GPRMC,200008.250,A,4308.2956,N,07726.2653,W,0.14,163.98,100923,,,A*79
$GPGGA,200008.500,4308.2960,N,07726.2652,W,1,07,1.40,137.6,M,-34.4,M,,*5B
$GPRMC,200008.750,A,4308.2963,N,07726.2652,W,0.14,155.05,100923,,,A*7A
$GPGGA,200009.000,4308.2966,N,07726.2652,W,1,07,1.40,138.8,M,-34.4,M,,*58
$GPRMC,200009.250,A,4308.2969,N,07726.2651,W,0.18,136.30,100923,,,A*78
$GPGGA,200009.500,4308.2972,N,07726.2650,W,1,07,1.40,139.9,M,-34.4,M,,*5A
$GPRMC,200009.750,A,4308.2975,N,07726.2650,W,0.10,132.90,100923,,,A*77
$GPGGA,200010.000,4308.2977,N,07726.2650,W,1,07,1.40,140.7,M,-34.4,M,,*52
$GPRMC,200010.250,A,4308.2979,N,07726.2650,W,0.10,234.08,100923,,,A*72
$GPGGA,200010.500,4308.2980,N,07726.2650,W,1,07,1.40,141.4,M,-34.4,M,,*5D
$GPRMC,200010.750,A,4308.2982,N,07726.2649,W,0.12,240.71,100923,,,A*74
$GPGGA,200011.000,4308.2983,N,07726.2649,W,1,07,1.40,142.0,M,-34.4,M,,*55
$GPRMC,200011.250,A,4308.2984,N,07726.2649,W,0.16,229.61,100923,,,A*7C
$GPGGA,200011.500,4308.2985,N,07726.2648,W,1,07,1.40,142.4,M,-34.4,M,,*53
$GPRMC,200011.750,A,4308.2986,N,07726.2648,W,0.17,223.75,100923,,,A*74
$GPGGA,200012.000,4308.2987,N,07726.2647,W,1,07,1.40,142.7,M,-34.4,M,,*5B
$GPRMC,200012.250,A,4308.2988,N,07726.2647,W,0.16,238.67,100923,,,A*7B
$GPGGA,200012.500,4308.2988,N,07726.2646,W,1,07,1.40,143.0,M,-34.4,M,,*56
$GPRMC,200012.750,A,4308.2989,N,07726.2646,W,0.16,233.74,100923,,,A*77
$GPGGA,200013.000,4308.2989,N,07726.2645,W,1,07,1.40,143.3,M,-34.4,M,,*53
$GPRMC,200013.250,A,4308.2990,N,07726.2645,W,0.16,226.87,100923,,,A*70
$GPGGA,200013.500,4308.2990,N,07726.2644,W,1,07,1.40,143.5,M,-34.4,M,,*59
$GPRMC,200013.750,A,4308.2990,N,07726.2644,W,0.18,246.98,100923,,,A*72
$GPGGA,200014.000,4308.2991,N,07726.2644,W,1,07,1.40,143.7,M,-34.4,M,,*58
$GPRMC,200014.250,A,4308.2991,N,07726.2644,W,0.25,261.79,100923,,,A*75
$GPGGA,200014.500,4308.2991,N,07726.2644,W,1,07,1.40,144.0,M,-34.4,M,,*5D
$GPRMC,200014.750,A,4308.2991,N,07726.2643,W,0.21,256.97,100923,,,A*77
$GPGGA,200015.000,4308.2992,N,07726.2643,W,1,07,1.40,144.3,M,-34.4,M,,*5E
$GPRMC,200015.250,A,4308.2992,N,07726.2642,W,0.15,246.86,100923,,,A*77
$GPGGA,200015.500,4308.2993,N,07726.2641,W,1,07,1.40,144.7,M,-34.4,M,,*5C
$GPRMC,200015.750,A,4308.2994,N,07726.2641,W,0.08,216.14,100923,,,A*75
$GPGGA,200016.000,4308.2995,N,07726.2640,W,1,07,1.40,145.2,M,-34.4,M,,*59
$GPRMC,200016.250,A,4308.2995,N,07726.2639,W,0.07,138.30,100923,,,A*7B
$GPGGA,200016.500,4308.2996,N,07726.2639,W,1,07,1.40,145.6,M,-34.4,M,,*55
$GPRMC,200016.750,A,4308.2996,N,07726.2639,W,0.05,215.10,100923,,,A*71
$GPGGA,200017.000,4308.2996,N,07726.2638,W,1,07,1.40,145.9,M,-34.4,M,,*5F
$GPRMC,200017.250,A,4308.2996,N,07726.2638,W,0.08,191.54,100923,,,A*76
$GPGGA,200017.500,4308.2996,N,07726.2638,W,1,07,1.40,146.3,M,-34.4,M,,*53
$GPRMC,200017.750,A,4308.2997,N,07726.2638,W,0.15,178.94,100923,,,A*75
$GPGGA,200018.000,4308.2997,N,07726.2638,W,1,07,1.40,146.6,M,-34.4,M,,*5D
$GPRMC,200018.250,A,4308.2997,N,07726.2637,W,0.14,160.57,100923,,,A*77
$GPGGA,200018.500,4308.2998,N,07726.2638,W,1,07,1.40,147.0,M,-34.4,M,,*50
$GPRMC,200018.750,A,4308.2998,N,07726.2638,W,0.10,172.89,100923,,,A*76
$GPGGA,200019.000,4308.2998,N,07726.2638,W,1,07,1.40,147.2,M,-34.4,M,,*56
$GPRMC,200019.250,A,4308.2998,N,07726.2638,W,0.16,177.87,100923,,,A*7F
$GPGGA,200019.500,4308.2997,N,07726.2638,W,1,07,1.40,147.4,M,-34.4,M,,*5A
$GPRMC,200019.750,A,4308.2997,N,07726.2637,W,0.23,174.70,100923,,,A*77
$GPGGA,200020.000,4308.2998,N,07726.2638,W,1,07,1.40,147.5,M,-34.4,M,,*5B
$GPRMC,200020.250,A,4308.2998,N,07726.2637,W,0.15,190.23,100923,,,A*7E
$GPGGA,200020.500,4308.2998,N,07726.2637,W,1,07,1.40,147.7,M,-34.4,M,,*53
$GPRMC,200020.750,A,4308.2998,N,07726.2637,W,0.11,190.54,100923,,,A*7F
$GPGGA,200021.000,4308.2999,N,07726.2637,W,1,07,1.40,147.8,M,-34.4,M,,*59
$GPRMC,200021.250,A,4308.2999,N,07726.2636,W,0.06,182.83,100923,,,A*74
$GPGGA,200021.500,4308.3000,N,07726.2636,W,1,07,1.40,148.0,M,-34.4,M,,*52
$GPRMC,200021.750,A,4308.3000,N,07726.2636,W,0.08,153.23,100923,,,A*71
$GPGGA,200022.000,4308.3000,N,07726.2636,W,1,07,1.40,148.3,M,-34.4,M,,*57
$GPRMC,200022.250,A,4308.3001,N,07726.2636,W,0.01,196.45,100923,,,A*76
$GPGGA,200022.500,4308.3002,N,07726.2635,W,1,07,1.40,148.6,M,-34.4,M,,*56
$GPRMC,200022.750,A,4308.3003,N,07726.2635,W,0.08,78.27,100923,,,A*4E
$GPGGA,200023.000,4308.3003,N,07726.2634,W,1,07,1.40,148.9,M,-34.4,M,,*5D
$GPRMC,200023.250,A,4308.3004,N,07726.2634,W,0.18,63.78,100923,,,A*4D
$GPGGA,200023.500,4308.3005,N,07726.2634,W,1,07,1.40,149.2,M,-34.4,M,,*54
$GPRMC,200023.750,A,4308.3005,N,07726.2633,W,0.20,68.92,100923,,,A*4A
$GPGGA,200024.000,4308.3006,N,07726.2633,W,1,07,1.40,149.5,M,-34.4,M,,*55
$GPRMC,200024.250,A,4308.3006,N,07726.2633,W,0.19,82.16,100923,,,A*49
$GPGGA,200024.500,4308.3006,N,07726.2633,W,1,07,1.40,149.7,M,-34.4,M,,*52
$GPRMC,200024.750,A,4308.3007,N,07726.2633,W,0.17,85.60,100923,,,A*45
$GPGGA,200025.000,4308.3007,N,07726.2632,W,1,07,1.40,149.9,M,-34.4,M,,*58
$GPRMC,200025.250,A,4308.3008,N,07726.2633,W,0.12,93.46,100923,,,A*48
$GPGGA,200025.500,4308.3008,N,07726.2633,W,1,07,1.40,150.0,M,-34.4,M,,*52
$GPRMC,200025.750,A,4308.3009,N,07726.2633,W,0.08,93.78,100923,,,A*4A
$GPGGA,200026.000,4308.3008,N,07726.2633,W,1,07,1.40,150.1,M,-34.4,M,,*55
$GPRMC,200026.250,A,4308.3009,N,07726.2633,W,0.08,179.18,100923,,,A*7F
$GPGGA,200026.500,4308.3009,N,07726.2633,W,1,07,1.40,150.2,M,-34.4,M,,*52
$GPRMC,200026.750,A,4308.3010,N,07726.2634,W,0.07,246.41,100923,,,A*79
$GPGGA,200027.000,4308.3011,N,07726.2633,W,1,07,1.40,150.3,M,-34.4,M,,*5E
$GPRMC,200027.250,A,4308.3013,N,07726.2633,W,0.16,307.41,100923,,,A*7D
$GPGGA,200027.500,4308.3014,N,07726.2632,W,1,07,1.40,150.4,M,-34.4,M,,*58
$GPRMC,200027.750,A,4308.3014,N,07726.2631,W,0.06,305.83,100923,,,A*70
$GPGGA,200028.000,4308.3016,N,07726.2631,W,1,07,1.40,150.6,M,-34.4,M,,*51
$GPRMC,200028.250,A,4308.3017,N,07726.2630,W,0.14,332.20,100923,,,A*76
$GPGGA,200028.500,4308.3019,N,07726.2630,W,1,07,1.40,150.7,M,-34.4,M,,*5B
$GPRMC,200028.750,A,4308.3020,N,07726.2630,W,0.18,337.12,100923,,,A*7F
$GPGGA,200029.000,4308.3021,N,07726.2630,W,1,07,1.40,150.8,M,-34.4,M,,*5B
$GPRMC,200029.250,A,4308.3022,N,07726.2630,W,0.19,323.27,100923,,,A*7B
$GPGGA,200029.500,4308.3023,N,07726.2629,W,1,07,1.40,150.9,M,-34.4,M,,*55
$GPRMC,200029.750,A,4308.3024,N,07726.2629,W,0.20,323.22,100923,,,A*7F
$GPGGA,200030.000,4308.3025,N,07726.2629,W,1,07,1.40,151.0,M,-34.4,M,,*56
$GPRMC,200030.250,A,4308.3026,N,07726.2628,W,0.21,346.66,100923,,,A*73
$GPGGA,200030.500,4308.3028,N,07726.2628,W,1,07,1.75,151.0,M,-34.4,M,,*59
$GPRMC,200030.750,A,4308.3028,N,07726.2627,W,0.20,4.23,100923,,,A*72
$GPGGA,200031.000,4308.3029,N,07726.2626,W,1,07,1.75,151.1,M,-34.4,M,,*53
$GPRMC,200031.250,A,4308.3029,N,07726.2626,W,0.16,56.71,100923,,,A*43
$GPGGA,200031.500,4308.3030,N,07726.2626,W,1,07,1.40,151.1,M,-34.4,M,,*58
$GPRMC,200031.750,A,4308.3031,N,07726.2626,W,0.12,43.10,100923,,,A*48
$GPGGA,200032.000,4308.3031,N,07726.2626,W,1,07,1.40,151.2,M,-34.4,M,,*5C
$GPRMC,200032.250,A,4308.3032,N,07726.2625,W,0.12,17.13,100923,,,A*4C
$GPGGA,200032.500,4308.3032,N,07726.2625,W,1,07,1.40,151.2,M,-34.4,M,,*59
$GPRMC,200032.750,A,4308.3033,N,07726.2625,W,0.09,350.37,100923,,,A*74
$GPGGA,200033.000,4308.3033,N,07726.2625,W,1,07,1.75,151.3,M,-34.4,M,,*5B
$GPRMC,200033.250,A,4308.3034,N,07726.2624,W,0.07,1.39,100923,,,A*71
$GPGGA,200033.500,4308.3035,N,07726.2623,W,1,07,1.75,151.4,M,-34.4,M,,*59
$GPRMC,200033.750,A,4308.3036,N,07726.2622,W,0.15,53.91,100923,,,A*46
$GPGGA,200034.000,4308.3036,N,07726.2622,W,1,07,1.40,151.4,M,-34.4,M,,*5F
$GPRMC,200034.250,A,4308.3038,N,07726.2622,W,0.23,6.14,100923,,,A*72
$GPGGA,200034.500,4308.3039,N,07726.2621,W,1,07,1.75,151.5,M,-34.4,M,,*51
$GPRMC,200034.750,A,4308.3039,N,07726.2621,W,0.28,359.60,100923,,,A*74
$GPGGA,200035.000,4308.3040,N,07726.2621,W,1,07,1.75,151.5,M,-34.4,M,,*5B
$GPRMC,200035.250,A,4308.3040,N,07726.2621,W,0.25,349.87,100923,,,A*7B
$GPGGA,200035.500,4308.3040,N,07726.2621,W,1,07,1.75,151.5,M,-34.4,M,,*5E
$GPRMC,200035.750,A,4308.3040,N,07726.2621,W,0.13,329.68,100923,,,A*7C
$GPGGA,200036.000,4308.3040,N,07726.2621,W,1,07,1.40,151.5,M,-34.4,M,,*5E
$GPRMC,200036.250,A,4308.3040,N,07726.2621,W,0.05,247.47,100923,,,A*79
$GPGGA,200036.500,4308.3040,N,07726.2621,W,1,07,1.40,151.5,M,-34.4,M,,*5B
$GPRMC,200036.750,A,4308.3040,N,07726.2621,W,0.10,279.39,100923,,,A*7C
$GPGGA,200037.000,4308.3040,N,07726.2621,W,1,07,1.40,151.5,M,-34.4,M,,*5F
$GPRMC,200037.250,A,4308.3040,N,07726.2621,W,0.15,272.00,100923,,,A*7C
$GPGGA,200037.500,4308.3040,N,07726.2622,W,1,07,1.40,151.5,M,-34.4,M,,*59
$GPRMC,200037.750,A,4308.3040,N,07726.2622,W,0.09,223.49,100923,,,A*7E
$GPGGA,200038.000,4308.3040,N,07726.2622,W,1,07,1.40,151.5,M,-34.4,M,,*53
$GPRMC,200038.250,A,4308.3040,N,07726.2622,W,0.07,164.49,100923,,,A*7A
$GPGGA,200038.500,4308.3040,N,07726.2622,W,1,07,1.40,151.5,M,-34.4,M,,*56
$GPRMC,200038.750,A,4308.3040,N,07726.2622,W,0.05,183.33,100923,,,A*79
$GPGGA,200039.000,4308.3040,N,07726.2622,W,1,07,1.40,151.5,M,-34.4,M,,*52
$GPRMC,200039.250,A,4308.3040,N,07726.2622,W,0.10,65.73,100923,,,A*44
$GPGGA,200039.500,4308.3040,N,07726.2622,W,1,07,1.40,151.5,M,-34.4,M,,*57
$GPRMC,200039.750,A,4308.3040,N,07726.2621,W,0.14,53.43,100923,,,A*40
$GPGGA,200040.000,4308.3040,N,07726.2621,W,1,07,1.40,151.5,M,-34.4,M,,*5F
$GPRMC,200040.250,A,4308.3040,N,07726.2621,W,0.22,27.63,100923,,,A*4F
$GPGGA,200040.500,4308.3041,N,07726.2621,W,1,07,1.40,151.5,M,-34.4,M,,*5B
$GPRMC,200040.750,A,4308.3041,N,07726.2621,W,0.39,9.31,100923,,,A*7A
$GPGGA,200041.000,4308.3041,N,07726.2621,W,1,07,1.75,151.5,M,-34.4,M,,*59
$GPRMC,200041.250,A,4308.3042,N,07726.2621,W,0.84,0.69,100923,,,A*7F
$GPGGA,200041.500,4308.3043,N,07726.2620,W,1,07,1.75,151.5,M,-34.4,M,,*5F
$GPRMC,200041.750,A,4308.3046,N,07726.2620,W,1.26,2.40,100923,,,A*7F
$GPGGA,200042.000,4308.3050,N,07726.2619,W,1,07,1.75,151.5,M,-34.4,M,,*51
$GPRMC,200042.250,A,4308.3053,N,07726.2619,W,2.87,354.86,100923,,,A*75
$GPGGA,200042.500,4308.3056,N,07726.2619,W,1,07,1.75,151.6,M,-34.4,M,,*51
$GPRMC,200042.750,A,4308.3059,N,07726.2620,W,4.08,358.79,100923,,,A*7D
$GPGGA,200043.000,4308.3063,N,07726.2620,W,1,07,1.75,151.6,M,-34.4,M,,*59
$GPRMC,200043.250,A,4308.3067,N,07726.2619,W,5.31,2.39,100923,,,A*7D
$GPGGA,200043.500,4308.3071,N,07726.2619,W,1,07,1.75,151.6,M,-34.4,M,,*55
$GPRMC,200043.750,A,4308.3075,N,07726.2620,W,5.81,0.19,100923,,,A*7A
$GPGGA,200044.000,4308.3079,N,07726.2620,W,1,07,1.75,151.6,M,-34.4,M,,*55
$GPRMC,200044.250,A,4308.3083,N,07726.2620,W,5.66,0.20,100923,,,A*72
$GPGGA,200044.500,4308.3087,N,07726.2621,W,1,07,1.75,151.6,M,-34.4,M,,*50
$GPRMC,200044.750,A,4308.3090,N,07726.2621,W,5.49,357.71,100923,,,A*7C
$GPGGA,200045.000,4308.3094,N,07726.2622,W,1,07,1.75,151.6,M,-34.4,M,,*55
$GPRMC,200045.250,A,4308.3098,N,07726.2622,W,5.95,0.52,100923,,,A*72
$GPGGA,200045.500,4308.3102,N,07726.2622,W,1,07,1.75,151.6,M,-34.4,M,,*5E
$GPRMC,200045.750,A,4308.3105,N,07726.2622,W,5.32,0.00,100923,,,A*78
$GPGGA,200046.000,4308.3108,N,07726.2623,W,1,07,1.75,151.6,M,-34.4,M,,*53
$GPRMC,200046.250,A,4308.3112,N,07726.2623,W,5.05,0.72,100923,,,A*78
$GPGGA,200046.500,4308.3115,N,07726.2623,W,1,07,1.75,151.6,M,-34.4,M,,*5A
$GPRMC,200046.750,A,4308.3117,N,07726.2624,W,4.47,358.96,100923,,,A*7C
$GPGGA,200047.000,4308.3120,N,07726.2624,W,1,07,1.75,151.6,M,-34.4,M,,*5F
$GPRMC,200047.250,A,4308.3123,N,07726.2625,W,4.35,358.37,100923,,,A*70
$GPGGA,200047.500,4308.3125,N,07726.2626,W,1,07,1.75,151.6,M,-34.4,M,,*5D
$GPRMC,200047.750,A,4308.3128,N,07726.2626,W,4.31,353.58,100923,,,A*7B
$GPGGA,200048.000,4308.3130,N,07726.2628,W,1,07,1.75,151.6,M,-34.4,M,,*5D
$GPRMC,200048.250,A,4308.3133,N,07726.2630,W,4.21,341.90,100923,,,A*7A
$GPGGA,200048.500,4308.3136,N,07726.2632,W,1,07,1.75,151.7,M,-34.4,M,,*54
$GPRMC,200048.750,A,4308.3138,N,07726.2634,W,4.25,333.23,100923,,,A*79
$GPGGA,200049.000,4308.3140,N,07726.2636,W,1,07,1.75,152.0,M,-34.4,M,,*51
$GPRMC,200049.250,A,4308.3141,N,07726.2640,W,3.67,318.72,100923,,,A*7C
$GPGGA,200049.500,4308.3142,N,07726.2642,W,1,07,1.40,152.1,M,-34.4,M,,*52
$GPRMC,200049.750,A,4308.3144,N,07726.2645,W,3.27,320.20,100923,,,A*71
$GPGGA,200050.000,4308.3145,N,07726.2647,W,1,07,1.40,152.2,M,-34.4,M,,*5E
$GPRMC,200050.250,A,4308.3145,N,07726.2650,W,2.82,305.93,100923,,,A*78
$GPGGA,200050.500,4308.3145,N,07726.2653,W,1,07,1.40,152.2,M,-34.4,M,,*5E
$GPRMC,200050.750,A,4308.3145,N,07726.2656,W,2.56,291.60,100923,,,A*72
$GPGGA,200051.000,4308.3146,N,07726.2658,W,1,07,1.40,152.3,M,-34.4,M,,*53
$GPRMC,200051.250,A,4308.3147,N,07726.2659,W,2.21,296.79,100923,,,A*74
$GPGGA,200051.500,4308.3147,N,07726.2661,W,1,07,1.40,152.4,M,-34.4,M,,*5A
$GPRMC,200051.750,A,4308.3147,N,07726.2663,W,1.98,292.70,100923,,,A*74
$GPGGA,200052.000,4308.3146,N,07726.2665,W,1,07,1.40,152.5,M,-34.4,M,,*58
$GPRMC,200052.250,A,4308.3146,N,07726.2665,W,0.84,285.62,100923,,,A*7C
$GPGGA,200052.500,4308.3146,N,07726.2665,W,1,07,1.40,152.5,M,-34.4,M,,*5D
$GPRMC,200052.750,A,4308.3146,N,07726.2665,W,0.26,322.67,100923,,,A*78
$GPGGA,200053.000,4308.3146,N,07726.2662,W,1,07,1.40,152.5,M,-34.4,M,,*5E
$GPRMC,200053.250,A,4308.3146,N,07726.2658,W,1.30,78.91,100923,,,A*41
$GPGGA,200053.500,4308.3147,N,07726.2653,W,1,07,1.40,152.4,M,-34.4,M,,*59
$GPRMC,200053.750,A,4308.3148,N,07726.2648,W,2.53,79.34,100923,,,A*43
$GPGGA,200054.000,4308.3149,N,07726.2642,W,1,07,1.40,152.4,M,-34.4,M,,*55
$GPRMC,200054.250,A,4308.3149,N,07726.2636,W,5.25,87.49,100923,,,A*44
$GPGGA,200054.500,4308.3149,N,07726.2630,W,1,07,1.75,152.4,M,-34.4,M,,*53
$GPRMC,200054.750,A,4308.3148,N,07726.2623,W,6.87,91.87,100923,,,A*4A
$GPGGA,200055.000,4308.3148,N,07726.2615,W,1,07,1.75,152.4,M,-34.4,M,,*51
$GPRMC,200055.250,A,4308.3148,N,07726.2607,W,8.10,92.71,100923,,,A*42
$GPGGA,200055.500,4308.3146,N,07726.2599,W,1,07,1.75,152.4,M,-34.4,M,,*5D
$GPRMC,200055.750,A,4308.3146,N,07726.2589,W,9.42,95.32,100923,,,A*4A
$GPGGA,200056.000,4308.3145,N,07726.2580,W,1,07,1.75,152.4,M,-34.4,M,,*50
$GPRMC,200056.250,A,4308.3145,N,07726.2569,W,10.60,93.18,100923,,,A*77
$GPGGA,200056.500,4308.3145,N,07726.2558,W,1,07,1.40,152.3,M,-34.4,M,,*51
$GPRMC,200056.750,A,4308.3144,N,07726.2546,W,11.86,92.23,100923,,,A*7E
$GPGGA,200057.000,4308.3144,N,07726.2534,W,1,07,1.75,152.2,M,-34.4,M,,*59
$GPRMC,200057.250,A,4308.3143,N,07726.2521,W,13.14,92.44,100923,,,A*74
$GPGGA,200057.500,4308.3142,N,07726.2508,W,1,07,1.75,152.1,M,-34.4,M,,*56
$GPRMC,200057.750,A,4308.3142,N,07726.2495,W,13.76,92.36,100923,,,A*7F
$GPGGA,200058.000,4308.3140,N,07726.2482,W,1,07,1.75,151.9,M,-34.4,M,,*56
$GPRMC,200058.250,A,4308.3140,N,07726.2469,W,14.11,92.16,100923,,,A*70
$GPGGA,200058.500,4308.3139,N,07726.2455,W,1,07,1.40,151.8,M,-34.4,M,,*50
$GPRMC,200058.750,A,4308.3138,N,07726.2442,W,14.43,92.98,100923,,,A*72
$GPGGA,200059.000,4308.3137,N,07726.2428,W,1,07,1.75,151.6,M,-34.4,M,,*58
$GPRMC,200059.250,A,4308.3136,N,07726.2414,W,15.01,92.76,100923,,,A*7C
$GPGGA,200059.500,4308.3136,N,07726.2399,W,1,07,1.75,151.4,M,-34.4,M,,*53
$GPRMC,200059.750,A,4308.3135,N,07726.2384,W,15.58,92.79,100923,,,A*77
$GPGGA,200100.000,4308.3134,N,07726.2369,W,1,07,1.75,151.3,M,-34.4,M,,*51
$GPRMC,200100.250,A,4308.3133,N,07726.2354,W,16.01,93.34,100923,,,A*73
$GPGGA,200100.500,4308.3132,N,07726.2339,W,1,07,1.40,151.2,M,-34.4,M,,*50
$GPRMC,200100.750,A,4308.3131,N,07726.2323,W,16.43,93.14,100923,,,A*70
$GPGGA,200101.000,4308.3130,N,07726.2307,W,1,07,1.75,151.1,M,-34.4,M,,*5E
$GPRMC,200101.250,A,4308.3129,N,07726.2291,W,16.97,92.77,100923,,,A*78
$GPGGA,200101.500,4308.3129,N,07726.2274,W,1,07,1.75,151.0,M,-34.4,M,,*57
$GPRMC,200101.750,A,4308.3128,N,07726.2257,W,17.43,91.84,100923,,,A*71
$GPGGA,200102.000,4308.3128,N,07726.2240,W,1,07,1.75,150.8,M,-34.4,M,,*5E
$GPRMC,200102.250,A,4308.3127,N,07726.2222,W,18.10,91.87,100923,,,A*70
$GPGGA,200102.500,4308.3127,N,07726.2203,W,1,07,1.75,150.6,M,-34.4,M,,*5D
$GPRMC,200102.750,A,4308.3126,N,07726.2185,W,18.80,91.07,100923,,,A*7B
$GPGGA,200103.000,4308.3126,N,07726.2167,W,1,07,1.75,150.6,M,-34.4,M,,*59
$GPRMC,200103.250,A,4308.3126,N,07726.2149,W,18.87,90.47,100923,,,A*7D
$GPGGA,200103.500,4308.3125,N,07726.2131,W,1,07,1.75,150.5,M,-34.4,M,,*5F
$GPRMC,200103.750,A,4308.3125,N,07726.2112,W,19.20,90.78,100923,,,A*75
$GPGGA,200104.000,4308.3125,N,07726.2093,W,1,07,1.75,150.5,M,-34.4,M,,*54
$GPRMC,200104.250,A,4308.3124,N,07726.2074,W,19.88,91.42,100923,,,A*7D
$GPGGA,200104.500,4308.3123,N,07726.2055,W,1,07,1.40,150.4,M,-34.4,M,,*5A
$GPRMC,200104.750,A,4308.3123,N,07726.2034,W,20.64,90.97,100923,,,A*7A
$GPGGA,200105.000,4308.3122,N,07726.2014,W,1,07,1.75,150.3,M,-34.4,M,,*5B
$GPRMC,200105.250,A,4308.3121,N,07726.1994,W,20.91,91.82,100923,,,A*73
$GPGGA,200105.500,4308.3120,N,07726.1973,W,1,07,1.75,150.4,M,-34.4,M,,*50
$GPRMC,200105.750,A,4308.3119,N,07726.1952,W,21.56,92.46,100923,,,A*76
$GPGGA,200106.000,4308.3119,N,07726.1931,W,1,07,1.75,150.4,M,-34.4,M,,*5A
$GPRMC,200106.250,A,4308.3118,N,07726.1910,W,21.95,92.13,100923,,,A*78
$GPGGA,200106.500,4308.3117,N,07726.1889,W,1,07,1.75,150.4,M,-34.4,M,,*53
$GPRMC,200106.750,A,4308.3116,N,07726.1868,W,22.17,92.64,100923,,,A*74
$GPGGA,200107.000,4308.3115,N,07726.1846,W,1,07,1.75,150.3,M,-34.4,M,,*51
$GPRMC,200107.250,A,4308.3114,N,07726.1825,W,22.37,93.15,100923,,,A*7E
$GPGGA,200107.500,4308.3112,N,07726.1803,W,1,07,1.75,150.1,M,-34.4,M,,*50
$GPRMC,200107.750,A,4308.3111,N,07726.1782,W,22.44,93.08,100923,,,A*74
$GPGGA,200108.000,4308.3110,N,07726.1759,W,1,07,1.75,150.0,M,-34.4,M,,*59
$GPRMC,200108.250,A,4308.3109,N,07726.1737,W,22.87,93.26,100923,,,A*7A
$GPGGA,200108.500,4308.3108,N,07726.1715,W,1,07,1.75,149.9,M,-34.4,M,,*5C
$GPRMC,200108.750,A,4308.3107,N,07726.1693,W,22.98,92.92,100923,,,A*7E
$GPGGA,200109.000,4308.3106,N,07726.1671,W,1,07,1.75,149.7,M,-34.4,M,,*5B
$GPRMC,200109.250,A,4308.3105,N,07726.1648,W,23.22,92.96,100923,,,A*7A
$GPGGA,200109.500,4308.3103,N,07726.1626,W,1,07,1.75,149.5,M,-34.4,M,,*5B
$GPRMC,200109.750,A,4308.3102,N,07726.1604,W,23.24,92.69,100923,,,A*76
$GPGGA,200110.000,4308.3103,N,07726.1580,W,1,07,1.75,149.3,M,-34.4,M,,*5F
$GPRMC,200110.250,A,4308.3104,N,07726.1556,W,23.48,89.70,100923,,,A*71
$GPGGA,200110.500,4308.3105,N,07726.1533,W,1,07,1.75,149.2,M,-34.4,M,,*55
$GPRMC,200110.750,A,4308.3107,N,07726.1510,W,23.44,87.99,100923,,,A*70
$GPGGA,200111.000,4308.3108,N,07726.1488,W,1,07,1.75,149.0,M,-34.4,M,,*5F
$GPRMC,200111.250,A,4308.3111,N,07726.1464,W,23.39,85.23,100923,,,A*78
$GPGGA,200111.500,4308.3114,N,07726.1442,W,1,07,1.39,148.9,M,-34.4,M,,*51
$GPRMC,200111.750,A,4308.3119,N,07726.1419,W,23.18,81.62,100923,,,A*7D
$GPGGA,200112.000,4308.3125,N,07726.1397,W,1,07,1.75,148.8,M,-34.4,M,,*53
$GPRMC,200112.250,A,4308.3139,N,07726.1375,W,23.17,70.26,100923,,,A*75
$GPGGA,200112.500,4308.3148,N,07726.1356,W,1,07,1.39,148.8,M,-34.4,M,,*58
$GPRMC,200112.750,A,4308.3158,N,07726.1338,W,22.32,61.85,100923,,,A*71
$GPGGA,200113.000,4308.3168,N,07726.1320,W,1,07,1.75,148.8,M,-34.4,M,,*57
$GPRMC,200113.250,A,4308.3178,N,07726.1302,W,22.58,55.90,100923,,,A*71
$GPGGA,200113.500,4308.3188,N,07726.1284,W,1,07,1.39,148.8,M,-34.4,M,,*5B
$GPRMC,200113.750,A,4308.3200,N,07726.1267,W,22.93,49.96,100923,,,A*76
$GPGGA,200114.000,4308.3213,N,07726.1251,W,1,07,1.75,148.9,M,-34.4,M,,*59
$GPRMC,200114.250,A,4308.3227,N,07726.1236,W,23.67,43.19,100923,,,A*72
$GPGGA,200114.500,4308.3240,N,07726.1222,W,1,07,1.39,148.9,M,-34.4,M,,*56
$GPRMC,200114.750,A,4308.3253,N,07726.1209,W,23.08,38.46,100923,,,A*77
$GPGGA,200115.000,4308.3266,N,07726.1197,W,1,07,1.75,148.9,M,-34.4,M,,*53
$GPRMC,200115.250,A,4308.3279,N,07726.1185,W,22.55,36.21,100923,,,A*7A
$GPGGA,200115.500,4308.3292,N,07726.1174,W,1,07,1.75,148.9,M,-34.4,M,,*50
$GPRMC,200115.750,A,4308.3305,N,07726.1164,W,22.36,32.04,100923,,,A*7C
$GPGGA,200116.000,4308.3320,N,07726.1155,W,1,07,1.75,148.8,M,-34.4,M,,*5C
$GPRMC,200116.250,A,4308.3337,N,07726.1147,W,23.13,25.13,100923,,,A*7C
$GPGGA,200116.500,4308.3353,N,07726.1139,W,1,07,1.39,148.9,M,-34.4,M,,*5E
$GPRMC,200116.750,A,4308.3368,N,07726.1132,W,23.19,21.60,100923,,,A*7B
$GPGGA,200117.000,4308.3383,N,07726.1128,W,1,07,1.39,148.9,M,-34.4,M,,*57
$GPRMC,200117.250,A,4308.3399,N,07726.1125,W,23.46,13.25,100923,,,A*7D
$GPGGA,200117.500,4308.3416,N,07726.1123,W,1,07,1.75,148.8,M,-34.4,M,,*5B
$GPRMC,200117.750,A,4308.3433,N,07726.1121,W,24.09,8.49,100923,,,A*47
$GPGGA,200118.000,4308.3450,N,07726.1120,W,1,07,1.75,148.7,M,-34.4,M,,*5F
$GPRMC,200118.250,A,4308.3467,N,07726.1118,W,24.41,5.76,100923,,,A*4B
$GPGGA,200118.500,4308.3486,N,07726.1116,W,1,07,1.75,148.8,M,-34.4,M,,*5B
$GPRMC,200118.750,A,4308.3505,N,07726.1116,W,25.37,2.99,100923,,,A*43
$GPGGA,200119.000,4308.3523,N,07726.1117,W,1,07,1.75,149.2,M,-34.4,M,,*5B
$GPRMC,200119.250,A,4308.3542,N,07726.1117,W,25.82,0.85,100923,,,A*44
$GPGGA,200119.500,4308.3560,N,07726.1118,W,1,07,1.39,149.5,M,-34.4,M,,*59
$GPRMC,200119.750,A,4308.3579,N,07726.1119,W,25.86,359.41,100923,,,A*44
$GPGGA,200120.000,4308.3598,N,07726.1120,W,1,07,1.75,149.7,M,-34.4,M,,*50
$GPRMC,200120.250,A,4308.3617,N,07726.1122,W,25.83,358.62,100923,,,A*4D
$GPGGA,200120.500,4308.3635,N,07726.1123,W,1,07,1.39,150.0,M,-34.4,M,,*55
$GPRMC,200120.750,A,4308.3654,N,07726.1124,W,25.84,358.69,100923,,,A*45
$GPGGA,200121.000,4308.3673,N,07726.1125,W,1,07,1.75,150.4,M,-34.4,M,,*59
$GPRMC,200121.250,A,4308.3692,N,07726.1125,W,25.89,359.67,100923,,,A*48
$GPGGA,200121.500,4308.3711,N,07726.1126,W,1,07,1.75,150.6,M,-34.4,M,,*58
$GPRMC,200121.750,A,4308.3730,N,07726.1126,W,25.91,359.90,100923,,,A*46
$GPGGA,200122.000,4308.3748,N,07726.1127,W,1,07,1.75,150.9,M,-34.4,M,,*5C
$GPRMC,200122.250,A,4308.3767,N,07726.1126,W,26.22,1.03,100923,,,A*4D
$GPGGA,200122.500,4308.3786,N,07726.1126,W,1,07,1.75,151.2,M,-34.4,M,,*50
$GPRMC,200122.750,A,4308.3804,N,07726.1125,W,26.10,1.89,100923,,,A*42
$GPGGA,200123.000,4308.3823,N,07726.1124,W,1,07,1.75,151.4,M,-34.4,M,,*50
$GPRMC,200123.250,A,4308.3841,N,07726.1124,W,26.10,2.30,100923,,,A*47
$GPGGA,200123.500,4308.3860,N,07726.1123,W,1,07,1.39,151.7,M,-34.4,M,,*5E
$GPRMC,200123.750,A,4308.3878,N,07726.1122,W,25.92,2.24,100923,,,A*42
$GPGGA,200124.000,4308.3896,N,07726.1122,W,1,07,1.75,151.9,M,-34.4,M,,*52
$GPRMC,200124.250,A,4308.3914,N,07726.1121,W,25.63,2.18,100923,,,A*49
$GPGGA,200124.500,4308.3932,N,07726.1121,W,1,07,1.39,152.2,M,-34.4,M,,*5B
$GPRMC,200124.750,A,4308.3950,N,07726.1121,W,25.31,1.73,100923,,,A*45
$GPGGA,200125.000,4308.3968,N,07726.1121,W,1,07,1.75,152.5,M,-34.4,M,,*5F
$GPRMC,200125.250,A,4308.3986,N,07726.1121,W,25.27,1.23,100923,,,A*48
$GPGGA,200125.500,4308.4003,N,07726.1121,W,1,07,1.75,152.7,M,-34.4,M,,*5B
$GPRMC,200125.750,A,4308.4022,N,07726.1120,W,25.22,1.31,100923,,,A*4A
$GPGGA,200126.000,4308.4039,N,07726.1120,W,1,07,1.75,153.0,M,-34.4,M,,*53
$GPRMC,200126.250,A,4308.4057,N,07726.1120,W,24.79,0.97,100923,,,A*4C
$GPGGA,200126.500,4308.4075,N,07726.1120,W,1,07,1.75,153.2,M,-34.4,M,,*5C
$GPRMC,200126.750,A,4308.4092,N,07726.1120,W,24.36,0.58,100923,,,A*48
$GPGGA,200127.000,4308.4109,N,07726.1120,W,1,07,1.74,153.5,M,-34.4,M,,*54
$GPRMC,200127.250,A,4308.4126,N,07726.1120,W,24.06,0.90,100923,,,A*45
$GPGGA,200127.500,4308.4143,N,07726.1120,W,1,07,1.74,153.7,M,-34.4,M,,*5D
$GPRMC,200127.750,A,4308.4159,N,07726.1120,W,23.48,1.55,100923,,,A*4D
$GPGGA,200128.000,4308.4175,N,07726.1119,W,1,07,1.74,153.9,M,-34.4,M,,*56
$GPRMC,200128.250,A,4308.4191,N,07726.1119,W,22.35,2.91,100923,,,A*49
$GPGGA,200128.500,4308.4206,N,07726.1118,W,1,07,1.74,153.9,M,-34.4,M,,*55
$GPRMC,200128.750,A,4308.4220,N,07726.1117,W,21.43,4.89,100923,,,A*46
$GPGGA,200129.000,4308.4234,N,07726.1115,W,1,07,1.74,153.8,M,-34.4,M,,*5C
$GPRMC,200129.250,A,4308.4248,N,07726.1114,W,20.32,6.19,100923,,,A*43
$GPGGA,200129.500,4308.4261,N,07726.1113,W,1,07,1.74,154.0,M,-34.4,M,,*50
$GPRMC,200129.750,A,4308.4273,N,07726.1111,W,18.99,7.06,100923,,,A*4E
$GPGGA,200130.000,4308.4279,N,07726.1115,W,1,07,1.74,154.3,M,-34.4,M,,*51
$GPRMC,200130.250,A,4308.4286,N,07726.1116,W,14.18,4.73,100923,,,A*4A
$GPGGA,200130.500,4308.4293,N,07726.1116,W,1,07,1.74,154.5,M,-34.4,M,,*55
$GPRMC,200130.750,A,4308.4298,N,07726.1117,W,11.22,2.05,100923,,,A*4A
$GPGGA,200131.000,4308.4303,N,07726.1116,W,1,07,1.74,154.7,M,-34.4,M,,*5B
$GPRMC,200131.250,A,4308.4308,N,07726.1116,W,8.66,6.14,100923,,,A*7B
$GPGGA,200131.500,4308.4312,N,07726.1115,W,1,07,1.74,154.7,M,-34.4,M,,*5D
$GPRMC,200131.750,A,4308.4316,N,07726.1114,W,7.17,12.04,100923,,,A*4E
$GPGGA,200132.000,4308.4319,N,07726.1112,W,1,07,1.74,155.0,M,-34.4,M,,*51
$GPRMC,200132.250,A,4308.4322,N,07726.1111,W,5.78,18.43,100923,,,A*48
$GPGGA,200132.500,4308.4323,N,07726.1112,W,1,07,1.74,155.1,M,-34.4,M,,*5C
$GPRMC,200132.750,A,4308.4325,N,07726.1111,W,4.29,13.80,100923,,,A*4B
$GPGGA,200133.000,4308.4328,N,07726.1111,W,1,07,1.74,155.3,M,-34.4,M,,*52
$GPRMC,200133.250,A,4308.4331,N,07726.1109,W,4.91,20.07,100923,,,A*4F
$GPGGA,200133.500,4308.4334,N,07726.1107,W,1,07,1.74,155.4,M,-34.4,M,,*5A
$GPRMC,200133.750,A,4308.4338,N,07726.1105,W,5.74,28.23,100923,,,A*4B
$GPGGA,200134.000,4308.4342,N,07726.1102,W,1,07,1.74,155.3,M,-34.4,M,,*5B
$GPRMC,200134.250,A,4308.4346,N,07726.1097,W,7.01,39.06,100923,,,A*4D
$GPGGA,200134.500,4308.4350,N,07726.1092,W,1,07,1.74,155.4,M,-34.4,M,,*52
$GPRMC,200134.750,A,4308.4355,N,07726.1086,W,8.40,44.63,100923,,,A*49
$GPGGA,200135.000,4308.4358,N,07726.1080,W,1,07,1.74,155.1,M,-34.4,M,,*58
$GPRMC,200135.250,A,4308.4363,N,07726.1071,W,10.17,52.30,100923,,,A*7A
$GPGGA,200135.500,4308.4367,N,07726.1062,W,1,07,1.39,154.6,M,-34.4,M,,*52
$GPRMC,200135.750,A,4308.4372,N,07726.1050,W,12.32,58.43,100923,,,A*77
$GPGGA,200136.000,4308.4377,N,07726.1039,W,1,07,1.74,154.3,M,-34.4,M,,*57
$GPRMC,200136.250,A,4308.4381,N,07726.1027,W,13.67,61.69,100923,,,A*7E
$GPGGA,200136.500,4308.4385,N,07726.1013,W,1,07,1.74,153.9,M,-34.4,M,,*5A
$GPRMC,200136.750,A,4308.4386,N,07726.0999,W,15.02,69.03,100923,,,A*70
$GPGGA,200137.000,4308.4384,N,07726.0983,W,1,07,1.39,153.4,M,-34.4,M,,*5A
$GPRMC,200137.250,A,4308.4384,N,07726.0968,W,16.05,79.80,100923,,,A*76
$GPGGA,200137.500,4308.4384,N,07726.0952,W,1,07,1.39,152.9,M,-34.4,M,,*5F
$GPRMC,200137.750,A,4308.4384,N,07726.0935,W,16.96,84.59,100923,,,A*77
$GPGGA,200138.000,4308.4385,N,07726.0918,W,1,07,1.74,152.5,M,-34.4,M,,*5F
$GPRMC,200138.250,A,4308.4386,N,07726.0901,W,17.67,84.66,100923,,,A*7B
$GPGGA,200138.500,4308.4387,N,07726.0883,W,1,07,1.39,152.1,M,-34.4,M,,*56
$GPRMC,200138.750,A,4308.4391,N,07726.0860,W,20.22,83.77,100923,,,A*7C
$GPGGA,200139.000,4308.4391,N,07726.0839,W,1,07,1.74,151.4,M,-34.4,M,,*5B
$GPRMC,200139.250,A,4308.4392,N,07726.0817,W,21.62,85.32,100923,,,A*79
$GPGGA,200139.500,4308.4393,N,07726.0795,W,1,07,1.74,150.9,M,-34.4,M,,*59
$GPRMC,200139.750,A,4308.4394,N,07726.0773,W,22.67,85.73,100923,,,A*74
$GPGGA,200140.000,4308.4395,N,07726.0750,W,1,07,1.74,150.5,M,-34.4,M,,*51
$GPRMC,200140.250,A,4308.4397,N,07726.0727,W,23.45,84.77,100923,,,A*79
$GPGGA,200140.500,4308.4399,N,07726.0704,W,1,07,1.39,150.3,M,-34.4,M,,*56
$GPRMC,200140.750,A,4308.4402,N,07726.0680,W,24.27,83.22,100923,,,A*7F
$GPGGA,200141.000,4308.4405,N,07726.0657,W,1,07,1.74,150.1,M,-34.4,M,,*5C
$GPRMC,200141.250,A,4308.4407,N,07726.0634,W,24.46,82.69,100923,,,A*78
$GPGGA,200141.500,4308.4410,N,07726.0611,W,1,07,1.74,150.1,M,-34.4,M,,*5F
$GPRMC,200141.750,A,4308.4413,N,07726.0587,W,24.82,81.83,100923,,,A*7C
$GPGGA,200142.000,4308.4417,N,07726.0563,W,1,07,1.74,150.1,M,-34.4,M,,*58
$GPRMC,200142.250,A,4308.4421,N,07726.0538,W,25.78,80.64,100923,,,A*73
$GPGGA,200142.500,4308.4425,N,07726.0513,W,1,07,1.39,150.0,M,-34.4,M,,*53
$GPRMC,200142.750,A,4308.4429,N,07726.0487,W,26.84,79.74,100923,,,A*7C
$GPGGA,200143.000,4308.4433,N,07726.0462,W,1,07,1.74,150.0,M,-34.4,M,,*5E
$GPRMC,200143.250,A,4308.4438,N,07726.0436,W,27.34,78.03,100923,,,A*79
$GPGGA,200143.500,4308.4444,N,07726.0410,W,1,07,1.39,150.0,M,-34.4,M,,*57
$GPRMC,200143.750,A,4308.4449,N,07726.0384,W,27.67,75.75,100923,,,A*7E
$GPGGA,200144.000,4308.4455,N,07726.0358,W,1,07,1.74,149.9,M,-34.4,M,,*56
$GPRMC,200144.250,A,4308.4460,N,07726.0331,W,28.26,74.31,100923,,,A*72
$GPGGA,200144.500,4308.4465,N,07726.0305,W,1,07,1.39,149.7,M,-34.4,M,,*5F
$GPRMC,200144.750,A,4308.4470,N,07726.0278,W,28.35,73.81,100923,,,A*74
$GPGGA,200145.000,4308.4476,N,07726.0252,W,1,07,1.74,149.5,M,-34.4,M,,*51
$GPRMC,200145.250,A,4308.4482,N,07726.0226,W,28.35,72.21,100923,,,A*7D
$GPGGA,200145.500,4308.4488,N,07726.0200,W,1,07,1.39,149.3,M,-34.4,M,,*5D
$GPRMC,200145.750,A,4308.4494,N,07726.0174,W,28.39,71.25,100923,,,A*70
$GPGGA,200146.000,4308.4501,N,07726.0147,W,1,07,1.74,149.1,M,-34.4,M,,*50
$GPRMC,200146.250,A,4308.4508,N,07726.0121,W,28.81,69.91,100923,,,A*77
$GPGGA,200146.500,4308.4516,N,07726.0095,W,1,07,1.39,149.0,M,-34.4,M,,*55
$GPRMC,200146.750,A,4308.4524,N,07726.0070,W,28.89,68.77,100923,,,A*78
$GPGGA,200147.000,4308.4533,N,07726.0045,W,1,07,1.74,148.9,M,-34.4,M,,*5A
$GPRMC,200147.250,A,4308.4544,N,07726.0021,W,29.00,64.07,100923,,,A*75
$GPGGA,200147.500,4308.4555,N,07725.9996,W,1,07,1.39,148.6,M,-34.4,M,,*54
$GPRMC,200147.750,A,4308.4565,N,07725.9970,W,30.21,61.59,100923,,,A*71
$GPGGA,200148.000,4308.4576,N,07725.9945,W,1,07,1.74,148.6,M,-34.4,M,,*58
$GPRMC,200148.250,A,4308.4587,N,07725.9920,W,30.37,58.46,100923,,,A*71
$GPGGA,200148.500,4308.4599,N,07725.9895,W,1,07,1.39,148.6,M,-34.4,M,,*59
$GPRMC,200148.750,A,4308.4610,N,07725.9871,W,30.02,54.89,100923,,,A*75
$GPGGA,200149.000,4308.4623,N,07725.9847,W,1,07,1.74,148.7,M,-34.4,M,,*58
$GPRMC,200149.250,A,4308.4636,N,07725.9824,W,30.28,52.04,100923,,,A*7E
$GPGGA,200149.500,4308.4649,N,07725.9800,W,1,07,1.39,148.7,M,-34.4,M,,*5B
$GPRMC,200149.750,A,4308.4664,N,07725.9777,W,30.17,49.90,100923,,,A*7E
$GPGGA,200150.000,4308.4679,N,07725.9754,W,1,07,1.74,148.7,M,-34.4,M,,*52
$GPRMC,200150.250,A,4308.4694,N,07725.9731,W,31.87,47.79,100923,,,A*7F
$GPGGA,200150.500,4308.4710,N,07725.9708,W,1,07,1.39,148.9,M,-34.4,M,,*57
$GPRMC,200150.750,A,4308.4725,N,07725.9686,W,31.67,46.80,100923,,,A*75
$GPGGA,200151.000,4308.4740,N,07725.9663,W,1,07,1.74,149.1,M,-34.4,M,,*5A
$GPRMC,200151.250,A,4308.4757,N,07725.9640,W,32.04,45.60,100923,,,A*75
$GPGGA,200151.500,4308.4774,N,07725.9617,W,1,07,1.39,149.2,M,-34.4,M,,*51
$GPRMC,200151.750,A,4308.4791,N,07725.9594,W,33.31,45.59,100923,,,A*7D
$GPGGA,200152.000,4308.4807,N,07725.9570,W,1,07,1.74,149.3,M,-34.4,M,,*56
$GPRMC,200152.250,A,4308.4824,N,07725.9547,W,33.68,45.92,100923,,,A*7F
$GPGGA,200152.500,4308.4840,N,07725.9524,W,1,07,1.39,149.3,M,-34.4,M,,*58
$GPRMC,200152.750,A,4308.4857,N,07725.9501,W,33.89,46.16,100923,,,A*7C
$GPGGA,200153.000,4308.4874,N,07725.9477,W,1,07,1.74,149.3,M,-34.4,M,,*55
$GPRMC,200153.250,A,4308.4892,N,07725.9452,W,34.30,46.25,100923,,,A*73
$GPGGA,200153.500,4308.4909,N,07725.9428,W,1,07,1.39,149.4,M,-34.4,M,,*5F
$GPRMC,200153.750,A,4308.4926,N,07725.9403,W,34.78,46.69,100923,,,A*78
$GPGGA,200154.000,4308.4944,N,07725.9378,W,1,07,1.74,149.4,M,-34.4,M,,*5F
$GPRMC,200154.250,A,4308.4961,N,07725.9354,W,35.36,46.58,100923,,,A*75
$GPGGA,200154.500,4308.4978,N,07725.9329,W,1,07,1.74,149.5,M,-34.4,M,,*50
$GPRMC,200154.750,A,4308.4996,N,07725.9304,W,35.45,45.85,100923,,,A*7A
$GPGGA,200155.000,4308.5013,N,07725.9279,W,1,07,1.74,149.3,M,-34.4,M,,*53
$GPRMC,200155.250,A,4308.5031,N,07725.9253,W,35.98,46.23,100923,,,A*77
$GPGGA,200155.500,4308.5049,N,07725.9228,W,1,07,1.74,149.7,M,-34.4,M,,*59
$GPRMC,200155.750,A,4308.5067,N,07725.9203,W,35.97,46.23,100923,,,A*7B
$GPGGA,200156.000,4308.5085,N,07725.9177,W,1,07,1.74,149.7,M,-34.4,M,,*56
$GPRMC,200156.250,A,4308.5102,N,07725.9152,W,36.26,46.73,100923,,,A*74
$GPGGA,200156.500,4308.5119,N,07725.9127,W,1,07,1.74,149.7,M,-34.4,M,,*52
$GPRMC,200156.750,A,4308.5137,N,07725.9101,W,36.29,46.65,100923,,,A*79
$GPGGA,200157.000,4308.5154,N,07725.9076,W,1,07,1.74,149.6,M,-34.4,M,,*5B
$GPRMC,200157.250,A,4308.5172,N,07725.9051,W,36.48,46.51,100923,,,A*78
$GPGGA,200157.500,4308.5189,N,07725.9026,W,1,07,1.74,149.5,M,-34.4,M,,*58
$GPRMC,200157.750,A,4308.5206,N,07725.9001,W,36.79,46.46,100923,,,A*7C
$GPGGA,200158.000,4308.5224,N,07725.8975,W,1,07,1.74,149.4,M,-34.4,M,,*59
$GPRMC,200158.250,A,4308.5241,N,07725.8950,W,36.83,46.30,100923,,,A*7D
$GPGGA,200158.500,4308.5259,N,07725.8924,W,1,07,1.74,149.6,M,-34.4,M,,*50
$GPRMC,200158.750,A,4308.5277,N,07725.8899,W,36.61,46.40,100923,,,A*72
$GPGGA,200159.000,4308.5294,N,07725.8873,W,1,07,1.74,149.7,M,-34.4,M,,*57
$GPRMC,200159.250,A,4308.5312,N,07725.8848,W,36.63,46.52,100923,,,A*79
$GPGGA,200159.500,4308.5330,N,07725.8822,W,1,07,1.74,149.9,M,-34.4,M,,*57
$GPRMC,200159.750,A,4308.5347,N,07725.8797,W,36.63,46.41,100923,,,A*73
$GPGGA,200200.000,4308.5365,N,07725.8772,W,1,07,1.74,150.0,M,-34.4,M,,*56
$GPRMC,200200.250,A,4308.5383,N,07725.8746,W,36.58,46.46,100923,,,A*72
$GPGGA,200200.500,4308.5400,N,07725.8721,W,1,07,1.74,150.2,M,-34.4,M,,*53
$GPRMC,200200.750,A,4308.5418,N,07725.8696,W,36.31,46.76,100923,,,A*72
$GPGGA,200201.000,4308.5436,N,07725.8670,W,1,07,1.74,150.3,M,-34.4,M,,*56
$GPRMC,200201.250,A,4308.5453,N,07725.8645,W,36.27,46.99,100923,,,A*71
$GPGGA,200201.500,4308.5470,N,07725.8620,W,1,07,1.74,150.4,M,-34.4,M,,*53
$GPRMC,200201.750,A,4308.5487,N,07725.8596,W,36.06,46.85,100923,,,A*7E
$GPGGA,200202.000,4308.5503,N,07725.8571,W,1,07,1.74,150.5,M,-34.4,M,,*56
$GPRMC,200202.250,A,4308.5520,N,07725.8547,W,34.92,46.75,100923,,,A*78
$GPGGA,200202.500,4308.5537,N,07725.8523,W,1,07,1.74,150.6,M,-34.4,M,,*50
$GPRMC,200202.750,A,4308.5553,N,07725.8499,W,34.61,46.67,100923,,,A*74
$GPGGA,200203.000,4308.5570,N,07725.8475,W,1,07,1.74,150.6,M,-34.4,M,,*55
$GPRMC,200203.250,A,4308.5586,N,07725.8451,W,34.23,46.62,100923,,,A*7F
$GPGGA,200203.500,4308.5602,N,07725.8428,W,1,07,1.74,150.7,M,-34.4,M,,*5F
$GPRMC,200203.750,A,4308.5618,N,07725.8404,W,33.64,46.70,100923,,,A*79
$GPGGA,200204.000,4308.5635,N,07725.8381,W,1,07,1.74,150.7,M,-34.4,M,,*5D
$GPRMC,200204.250,A,4308.5650,N,07725.8358,W,33.33,46.83,100923,,,A*77
$GPGGA,200204.500,4308.5666,N,07725.8335,W,1,07,1.74,150.8,M,-34.4,M,,*5E
$GPRMC,200204.750,A,4308.5682,N,07725.8312,W,32.89,46.38,100923,,,A*73
$GPGGA,200205.000,4308.5698,N,07725.8289,W,1,07,1.74,150.8,M,-34.4,M,,*5D
$GPRMC,200205.250,A,4308.5715,N,07725.8266,W,32.88,46.37,100923,,,A*74
$GPGGA,200205.500,4308.5731,N,07725.8243,W,1,07,1.39,150.8,M,-34.4,M,,*55
$GPRMC,200205.750,A,4308.5746,N,07725.8220,W,32.59,46.35,100923,,,A*7B
$GPGGA,200206.000,4308.5762,N,07725.8198,W,1,07,1.74,150.7,M,-34.4,M,,*56
$GPRMC,200206.250,A,4308.5777,N,07725.8176,W,32.42,46.69,100923,,,A*7C
$GPGGA,200206.500,4308.5792,N,07725.8153,W,1,07,1.39,150.7,M,-34.4,M,,*52
$GPRMC,200206.750,A,4308.5808,N,07725.8132,W,32.17,46.17,100923,,,A*77
$GPGGA,200207.000,4308.5823,N,07725.8110,W,1,07,1.74,150.6,M,-34.4,M,,*5C
$GPRMC,200207.250,A,4308.5838,N,07725.8088,W,31.72,46.34,100923,,,A*71
$GPGGA,200207.500,4308.5853,N,07725.8067,W,1,07,1.74,150.6,M,-34.4,M,,*5F
$GPRMC,200207.750,A,4308.5868,N,07725.8046,W,30.65,46.37,100923,,,A*77
$GPGGA,200208.000,4308.5883,N,07725.8025,W,1,07,1.74,150.4,M,-34.4,M,,*5C
$GPRMC,200208.250,A,4308.5898,N,07725.8003,W,30.65,46.76,100923,,,A*76
$GPGGA,200208.500,4308.5912,N,07725.7982,W,1,07,1.74,150.3,M,-34.4,M,,*5C
$GPRMC,200208.750,A,4308.5927,N,07725.7961,W,30.77,47.68,100923,,,A*79
$GPGGA,200209.000,4308.5941,N,07725.7939,W,1,07,1.74,150.0,M,-34.4,M,,*5D
$GPRMC,200209.250,A,4308.5956,N,07725.7917,W,30.85,48.66,100923,,,A*76
$GPGGA,200209.500,4308.5970,N,07725.7895,W,1,07,1.74,149.8,M,-34.4,M,,*5D
$GPRMC,200209.750,A,4308.5985,N,07725.7872,W,31.53,49.17,100923,,,A*72
$GPGGA,200210.000,4308.5999,N,07725.7849,W,1,07,1.74,149.5,M,-34.4,M,,*5B
$GPRMC,200210.250,A,4308.6013,N,07725.7826,W,31.52,51.07,100923,,,A*72
$GPGGA,200210.500,4308.6025,N,07725.7804,W,1,07,1.39,149.2,M,-34.4,M,,*54
$GPRMC,200210.750,A,4308.6038,N,07725.7781,W,31.74,52.24,100923,,,A*7A
$GPGGA,200211.000,4308.6051,N,07725.7758,W,1,07,1.74,148.9,M,-34.4,M,,*56
$GPRMC,200211.250,A,4308.6064,N,07725.7734,W,31.62,53.06,100923,,,A*7F
$GPGGA,200211.500,4308.6077,N,07725.7711,W,1,07,1.39,148.6,M,-34.4,M,,*5C
$GPRMC,200211.750,A,4308.6089,N,07725.7686,W,31.38,54.19,100923,,,A*77
$GPGGA,200212.000,4308.6101,N,07725.7660,W,1,07,1.39,148.3,M,-34.4,M,,*58
$GPRMC,200212.250,A,4308.6112,N,07725.7635,W,32.18,57.13,100923,,,A*72
$GPGGA,200212.500,4308.6122,N,07725.7609,W,1,07,1.39,148.0,M,-34.4,M,,*50
$GPRMC,200212.750,A,4308.6132,N,07725.7582,W,32.17,60.93,100923,,,A*79
$GPGGA,200213.000,4308.6141,N,07725.7555,W,1,07,1.74,147.7,M,-34.4,M,,*5A
$GPRMC,200213.250,A,4308.6150,N,07725.7527,W,32.51,64.10,100923,,,A*7B
$GPGGA,200213.500,4308.6156,N,07725.7499,W,1,07,1.74,147.5,M,-34.4,M,,*5A
$GPRMC,200213.750,A,4308.6161,N,07725.7471,W,32.36,71.17,100923,,,A*7C
$GPGGA,200214.000,4308.6166,N,07725.7441,W,1,07,1.74,147.1,M,-34.4,M,,*5A
$GPRMC,200214.250,A,4308.6171,N,07725.7412,W,32.41,75.25,100923,,,A*7F
$GPGGA,200214.500,4308.6175,N,07725.7382,W,1,07,1.39,146.8,M,-34.4,M,,*54
$GPRMC,200214.750,A,4308.6179,N,07725.7351,W,32.47,77.88,100923,,,A*71
$GPGGA,200215.000,4308.6182,N,07725.7320,W,1,07,1.74,146.4,M,-34.4,M,,*55
$GPRMC,200215.250,A,4308.6184,N,07725.7289,W,33.32,82.24,100923,,,A*7C
$GPGGA,200215.500,4308.6186,N,07725.7258,W,1,07,1.39,146.1,M,-34.4,M,,*56
$GPRMC,200215.750,A,4308.6186,N,07725.7226,W,33.50,85.00,100923,,,A*7B
$GPGGA,200216.000,4308.6187,N,07725.7195,W,1,07,1.39,145.6,M,-34.4,M,,*57
$GPRMC,200216.250,A,4308.6186,N,07725.7164,W,33.52,87.74,100923,,,A*7B
$GPGGA,200216.500,4308.6186,N,07725.7132,W,1,07,1.39,145.2,M,-34.4,M,,*5A
$GPRMC,200216.750,A,4308.6184,N,07725.7101,W,33.32,89.97,100923,,,A*7A
$GPGGA,200217.000,4308.6182,N,07725.7070,W,1,07,1.74,144.8,M,-34.4,M,,*5F
$GPRMC,200217.250,A,4308.6180,N,07725.7039,W,33.27,91.73,100923,,,A*77
$GPGGA,200217.500,4308.6178,N,07725.7008,W,1,07,1.39,144.3,M,-34.4,M,,*52
$GPRMC,200217.750,A,4308.6177,N,07725.6977,W,32.79,92.25,100923,,,A*72
$GPGGA,200218.000,4308.6175,N,07725.6946,W,1,07,1.74,143.9,M,-34.4,M,,*53
$GPRMC,200218.250,A,4308.6173,N,07725.6915,W,32.31,92.86,100923,,,A*7D
$GPGGA,200218.500,4308.6171,N,07725.6884,W,1,07,1.74,143.5,M,-34.4,M,,*51
$GPRMC,200218.750,A,4308.6170,N,07725.6854,W,32.02,92.38,100923,,,A*7A
$GPGGA,200219.000,4308.6169,N,07725.6824,W,1,07,1.74,143.1,M,-34.4,M,,*52
$GPRMC,200219.250,A,4308.6167,N,07725.6794,W,31.74,92.13,100923,,,A*70
$GPGGA,200219.500,4308.6166,N,07725.6764,W,1,07,1.74,142.8,M,-34.4,M,,*5B
$GPRMC,200219.750,A,4308.6164,N,07725.6734,W,31.63,91.55,100923,,,A*7B
$GPGGA,200220.000,4308.6163,N,07725.6705,W,1,07,1.73,142.5,M,-34.4,M,,*5C
$GPRMC,200220.250,A,4308.6162,N,07725.6675,W,31.34,91.37,100923,,,A*70
$GPGGA,200220.500,4308.6161,N,07725.6646,W,1,08,1.25,142.4,M,-34.4,M,,*50
$GPRMC,200220.750,A,4308.6160,N,07725.6617,W,30.92,91.34,100923,,,A*7D
$GPGGA,200221.000,4308.6159,N,07725.6588,W,1,08,1.25,142.3,M,-34.4,M,,*59
$GPRMC,200221.250,A,4308.6158,N,07725.6558,W,30.60,91.61,100923,,,A*77
$GPGGA,200221.500,4308.6156,N,07725.6529,W,1,08,1.25,142.3,M,-34.4,M,,*58
$GPRMC,200221.750,A,4308.6155,N,07725.6500,W,30.27,91.51,100923,,,A*72
$GPGGA,200222.000,4308.6153,N,07725.6472,W,1,08,1.25,142.4,M,-34.4,M,,*53
$GPRMC,200222.250,A,4308.6152,N,07725.6443,W,30.10,91.50,100923,,,A*70
$GPGGA,200222.500,4308.6152,N,07725.6415,W,1,08,1.25,142.6,M,-34.4,M,,*54
$GPRMC,200222.750,A,4308.6151,N,07725.6388,W,29.27,91.60,100923,,,A*79
$GPGGA,200223.000,4308.6149,N,07725.6360,W,1,08,1.25,142.8,M,-34.4,M,,*51
$GPRMC,200223.250,A,4308.6148,N,07725.6334,W,29.06,91.07,100923,,,A*70
$GPGGA,200223.500,4308.6148,N,07725.6307,W,1,08,1.25,143.1,M,-34.4,M,,*5C
$GPRMC,200223.750,A,4308.6148,N,07725.6280,W,28.20,90.03,100923,,,A*7B
$GPGGA,200224.000,4308.6148,N,07725.6253,W,1,08,1.25,143.5,M,-34.4,M,,*5A
$GPRMC,200224.250,A,4308.6148,N,07725.6226,W,27.98,88.94,100923,,,A*7E
$GPGGA,200224.500,4308.6148,N,07725.6200,W,1,08,1.25,143.8,M,-34.4,M,,*54
$GPRMC,200224.750,A,4308.6148,N,07725.6173,W,27.76,88.44,100923,,,A*75
$GPGGA,200225.000,4308.6149,N,07725.6147,W,1,08,1.25,144.1,M,-34.4,M,,*5F
$GPRMC,200225.250,A,4308.6149,N,07725.6121,W,27.65,87.95,100923,,,A*76
$GPGGA,200225.500,4308.6150,N,07725.6095,W,1,08,1.25,144.4,M,-34.4,M,,*59
$GPRMC,200225.750,A,4308.6150,N,07725.6070,W,27.48,87.51,100923,,,A*79
$GPGGA,200226.000,4308.6150,N,07725.6045,W,1,08,1.25,144.7,M,-34.4,M,,*51
$GPRMC,200226.250,A,4308.6150,N,07725.6022,W,25.62,87.90,100923,,,A*7F
$GPGGA,200226.500,4308.6149,N,07725.6000,W,1,08,1.25,145.0,M,-34.4,M,,*5B
$GPRMC,200226.750,A,4308.6149,N,07725.5978,W,24.22,88.99,100923,,,A*74
$GPGGA,200227.000,4308.6150,N,07725.5956,W,1,08,1.25,145.4,M,-34.4,M,,*5A
$GPRMC,200227.250,A,4308.6150,N,07725.5935,W,23.31,88.62,100923,,,A*70
$GPGGA,200227.500,4308.6151,N,07725.5914,W,1,08,1.25,145.7,M,-34.4,M,,*5B
$GPRMC,200227.750,A,4308.6152,N,07725.5895,W,21.82,86.84,100923,,,A*70
$GPGGA,200228.000,4308.6154,N,07725.5879,W,1,08,1.25,145.9,M,-34.4,M,,*50
$GPRMC,200228.250,A,4308.6154,N,07725.5864,W,18.81,84.41,100923,,,A*70
$GPGGA,200228.500,4308.6154,N,07725.5849,W,1,08,1.25,145.9,M,-34.4,M,,*56
$GPRMC,200228.750,A,4308.6154,N,07725.5838,W,15.55,81.79,100923,,,A*76
$GPGGA,200229.000,4308.6153,N,07725.5828,W,1,08,1.25,145.9,M,-34.4,M,,*52
$GPRMC,200229.250,A,4308.6151,N,07725.5819,W,11.40,81.67,100923,,,A*7B
$GPGGA,200229.500,4308.6153,N,07725.5809,W,1,08,1.25,146.4,M,-34.4,M,,*5A
$GPRMC,200229.750,A,4308.6153,N,07725.5801,W,9.39,78.80,100923,,,A*4D
$GPGGA,200230.000,4308.6152,N,07725.5795,W,1,08,1.25,147.0,M,-34.4,M,,*59
$GPRMC,200230.250,A,4308.6150,N,07725.5791,W,6.89,82.36,100923,,,A*49
$GPGGA,200230.500,4308.6150,N,07725.5786,W,1,08,1.25,147.6,M,-34.4,M,,*5A
$GPRMC,200230.750,A,4308.6149,N,07725.5781,W,6.31,91.18,100923,,,A*48
$GPGGA,200231.000,4308.6148,N,07725.5778,W,1,08,1.25,148.3,M,-34.4,M,,*5C
$GPRMC,200231.250,A,4308.6146,N,07725.5773,W,6.11,105.02,100923,,,A*7B
$GPGGA,200231.500,4308.6143,N,07725.5769,W,1,08,1.25,148.9,M,-34.4,M,,*58
$GPRMC,200231.750,A,4308.6139,N,07725.5764,W,7.47,118.45,100923,,,A*7D
$GPGGA,200232.000,4308.6135,N,07725.5758,W,1,08,1.25,149.3,M,-34.4,M,,*56
$GPRMC,200232.250,A,4308.6130,N,07725.5753,W,8.94,125.90,100923,,,A*71
$GPGGA,200232.500,4308.6125,N,07725.5746,W,1,08,1.18,149.6,M,-34.4,M,,*56
$GPRMC,200232.750,A,4308.6120,N,07725.5740,W,10.18,131.10,100923,,,A*47
$GPGGA,200233.000,4308.6112,N,07725.5735,W,1,08,1.25,149.7,M,-34.4,M,,*5D
$GPRMC,200233.250,A,4308.6104,N,07725.5731,W,10.77,140.42,100923,,,A*4B
$GPGGA,200233.500,4308.6098,N,07725.5726,W,1,08,1.25,150.1,M,-34.4,M,,*57
$GPRMC,200233.750,A,4308.6089,N,07725.5724,W,10.80,149.09,100923,,,A*40
$GPGGA,200234.000,4308.6080,N,07725.5721,W,1,08,1.25,150.7,M,-34.4,M,,*5D
$GPRMC,200234.250,A,4308.6070,N,07725.5718,W,12.08,156.01,100923,,,A*4F
$GPGGA,200234.500,4308.6061,N,07725.5716,W,1,08,1.25,151.3,M,-34.4,M,,*56
$GPRMC,200234.750,A,4308.6046,N,07725.5721,W,13.04,169.37,100923,,,A*41
$GPGGA,200235.000,4308.6034,N,07725.5724,W,1,08,1.25,152.1,M,-34.4,M,,*52
$GPRMC,200235.250,A,4308.6023,N,07725.5725,W,14.58,176.79,100923,,,A*48
$GPGGA,200235.500,4308.6011,N,07725.5726,W,1,08,1.25,152.7,M,-34.4,M,,*54
$GPRMC,200235.750,A,4308.5999,N,07725.5726,W,15.86,179.00,100923,,,A*46
$GPGGA,200236.000,4308.5986,N,07725.5727,W,1,08,1.25,153.2,M,-34.4,M,,*53
$GPRMC,200236.250,A,4308.5972,N,07725.5729,W,17.58,182.05,100923,,,A*4A
$GPGGA,200236.500,4308.5958,N,07725.5731,W,1,08,1.25,153.7,M,-34.4,M,,*57
$GPRMC,200236.750,A,4308.5946,N,07725.5732,W,21.55,185.04,100923,,,A*4C
$GPGGA,200237.000,4308.5931,N,07725.5735,W,1,08,1.25,154.1,M,-34.4,M,,*59
$GPRMC,200237.250,A,4308.5915,N,07725.5739,W,22.38,185.21,100923,,,A*4A
$GPGGA,200237.500,4308.5899,N,07725.5741,W,1,08,1.18,154.1,M,-34.4,M,,*52
$GPRMC,200237.750,A,4308.5882,N,07725.5744,W,23.34,184.51,100923,,,A*41
$GPGGA,200238.000,4308.5865,N,07725.5747,W,1,08,1.25,154.1,M,-34.4,M,,*53
$GPRMC,200238.250,A,4308.5848,N,07725.5749,W,24.10,183.96,100923,,,A*4D
$GPGGA,200238.500,4308.5830,N,07725.5752,W,1,08,1.18,154.1,M,-34.4,M,,*5C
$GPRMC,200238.750,A,4308.5812,N,07725.5754,W,24.72,183.74,100923,,,A*43
$GPGGA,200239.000,4308.5794,N,07725.5755,W,1,08,1.25,154.1,M,-34.4,M,,*50
$GPRMC,200239.250,A,4308.5775,N,07725.5757,W,25.43,182.73,100923,,,A*4F
$GPGGA,200239.500,4308.5757,N,07725.5758,W,1,08,1.18,154.1,M,-34.4,M,,*59
$GPRMC,200239.750,A,4308.5739,N,07725.5760,W,25.84,182.48,100923,,,A*45
$GPGGA,200240.000,4308.5720,N,07725.5762,W,1,08,1.25,154.0,M,-34.4,M,,*54
$GPRMC,200240.250,A,4308.5702,N,07725.5763,W,26.07,182.59,100923,,,A*4D
$GPGGA,200240.500,4308.5684,N,07725.5765,W,1,08,1.18,153.9,M,-34.4,M,,*59
$GPRMC,200240.750,A,4308.5665,N,07725.5767,W,26.04,183.37,100923,,,A*46
$GPGGA,200241.000,4308.5646,N,07725.5769,W,1,08,1.18,153.8,M,-34.4,M,,*5E
$GPRMC,200241.250,A,4308.5627,N,07725.5770,W,26.25,182.66,100923,,,A*44
$GPGGA,200241.500,4308.5607,N,07725.5771,W,1,08,1.18,153.7,M,-34.4,M,,*58
$GPRMC,200241.750,A,4308.5588,N,07725.5772,W,26.99,182.20,100923,,,A*40
$GPGGA,200242.000,4308.5569,N,07725.5773,W,1,08,1.25,153.6,M,-34.4,M,,*58
$GPRMC,200242.250,A,4308.5549,N,07725.5773,W,27.46,181.56,100923,,,A*4B
$GPGGA,200242.500,4308.5529,N,07725.5773,W,1,08,1.25,153.5,M,-34.4,M,,*5A
$GPRMC,200242.750,A,4308.5509,N,07725.5773,W,27.69,180.72,100923,,,A*40
$GPGGA,200243.000,4308.5490,N,07725.5773,W,1,08,1.25,153.3,M,-34.4,M,,*5B
$GPRMC,200243.250,A,4308.5470,N,07725.5774,W,27.99,180.44,100923,,,A*46
$GPGGA,200243.500,4308.5450,N,07725.5774,W,1,08,1.25,153.2,M,-34.4,M,,*54
$GPRMC,200243.750,A,4308.5429,N,07725.5774,W,28.77,180.23,100923,,,A*41
$GPGGA,200244.000,4308.5406,N,07725.5775,W,1,08,1.25,153.0,M,-34.4,M,,*56
$GPRMC,200244.250,A,4308.5384,N,07725.5777,W,30.16,181.50,100923,,,A*4B
$GPGGA,200244.500,4308.5362,N,07725.5778,W,1,08,1.25,152.8,M,-34.4,M,,*52
$GPRMC,200244.750,A,4308.5340,N,07725.5778,W,30.65,181.31,100923,,,A*4A
$GPGGA,200245.000,4308.5318,N,07725.5779,W,1,08,1.25,152.7,M,-34.4,M,,*55
$GPRMC,200245.250,A,4308.5295,N,07725.5780,W,31.37,181.50,100923,,,A*41
$GPGGA,200245.500,4308.5272,N,07725.5780,W,1,08,1.25,152.7,M,-34.4,M,,*5B
$GPRMC,200245.750,A,4308.5249,N,07725.5781,W,31.60,181.35,100923,,,A*45
$GPGGA,200246.000,4308.5225,N,07725.5782,W,1,08,1.25,152.8,M,-34.4,M,,*52
$GPRMC,200246.250,A,4308.5201,N,07725.5783,W,31.83,181.58,100923,,,A*4B
$GPGGA,200246.500,4308.5178,N,07725.5784,W,1,08,1.18,152.7,M,-34.4,M,,*5B
$GPRMC,200246.750,A,4308.5154,N,07725.5785,W,31.99,181.48,100923,,,A*41
$GPGGA,200247.000,4308.5129,N,07725.5786,W,1,08,1.25,152.7,M,-34.4,M,,*57
$GPRMC,200247.250,A,4308.5105,N,07725.5787,W,32.79,181.77,100923,,,A*42
$GPGGA,200247.500,4308.5081,N,07725.5788,W,1,08,1.25,152.7,M,-34.4,M,,*5F
$GPRMC,200247.750,A,4308.5058,N,07725.5789,W,32.94,181.71,100923,,,A*45
$GPGGA,200248.000,4308.5034,N,07725.5790,W,1,08,1.25,152.7,M,-34.4,M,,*52
$GPRMC,200248.250,A,4308.5010,N,07725.5790,W,33.27,181.04,100923,,,A*40
$GPGGA,200248.500,4308.4986,N,07725.5790,W,1,08,1.25,152.9,M,-34.4,M,,*58
$GPRMC,200248.750,A,4308.4961,N,07725.5790,W,33.71,180.70,100923,,,A*4A
$GPGGA,200249.000,4308.4937,N,07725.5790,W,1,08,1.25,153.1,M,-34.4,M,,*5F
$GPRMC,200249.250,A,4308.4912,N,07725.5790,W,33.95,180.55,100923,,,A*47
$GPGGA,200249.500,4308.4889,N,07725.5788,W,1,08,1.25,153.2,M,-34.4,M,,*54
$GPRMC,200249.750,A,4308.4864,N,07725.5788,W,34.18,180.24,100923,,,A*4F
$GPGGA,200250.000,4308.4839,N,07725.5789,W,1,08,1.25,153.4,M,-34.4,M,,*55
$GPRMC,200250.250,A,4308.4814,N,07725.5789,W,34.25,180.47,100923,,,A*4F
$GPGGA,200250.500,4308.4788,N,07725.5790,W,1,08,1.18,153.6,M,-34.4,M,,*51
$GPRMC,200250.750,A,4308.4762,N,07725.5792,W,36.18,181.99,100923,,,A*40
$GPGGA,200251.000,4308.4736,N,07725.5792,W,1,08,1.25,153.5,M,-34.4,M,,*5F
$GPRMC,200251.250,A,4308.4711,N,07725.5793,W,36.68,180.93,100923,,,A*4D
$GPGGA,200251.500,4308.4685,N,07725.5793,W,1,08,1.18,153.5,M,-34.4,M,,*5C
$GPRMC,200251.750,A,4308.4659,N,07725.5793,W,36.63,180.46,100923,,,A*46
$GPGGA,200252.000,4308.4633,N,07725.5793,W,1,08,1.25,153.5,M,-34.4,M,,*59
$GPRMC,200252.250,A,4308.4608,N,07725.5793,W,36.65,180.06,100923,,,A*46
$GPGGA,200252.500,4308.4582,N,07725.5793,W,1,08,1.18,153.5,M,-34.4,M,,*5B
$GPRMC,200252.750,A,4308.4556,N,07725.5792,W,37.04,180.08,100923,,,A*42
$GPGGA,200253.000,4308.4530,N,07725.5792,W,1,08,1.25,153.5,M,-34.4,M,,*59
$GPRMC,200253.250,A,4308.4505,N,07725.5792,W,37.15,180.10,100923,,,A*49
$GPGGA,200253.500,4308.4478,N,07725.5792,W,1,08,1.25,153.5,M,-34.4,M,,*51
$GPRMC,200253.750,A,4308.4452,N,07725.5792,W,37.41,180.36,100923,,,A*4A
$GPGGA,200254.000,4308.4425,N,07725.5793,W,1,08,1.25,153.5,M,-34.4,M,,*5A
$GPRMC,200254.250,A,4308.4398,N,07725.5793,W,37.59,180.70,100923,,,A*43
$GPGGA,200254.500,4308.4371,N,07725.5794,W,1,08,1.25,153.6,M,-34.4,M,,*5D
$GPRMC,200254.750,A,4308.4344,N,07725.5795,W,38.46,180.85,100923,,,A*4A
$GPGGA,200255.000,4308.4316,N,07725.5796,W,1,08,1.25,153.6,M,-34.4,M,,*5A
$GPRMC,200255.250,A,4308.4289,N,07725.5797,W,38.71,181.01,100923,,,A*45
$GPGGA,200255.500,4308.4262,N,07725.5797,W,1,08,1.18,153.6,M,-34.4,M,,*52
$GPRMC,200255.750,A,4308.4234,N,07725.5798,W,38.95,180.69,100923,,,A*4C
$GPGGA,200256.000,4308.4206,N,07725.5798,W,1,08,1.25,153.6,M,-34.4,M,,*57
$GPRMC,200256.250,A,4308.4178,N,07725.5799,W,39.44,180.75,100923,,,A*40
$GPGGA,200256.500,4308.4149,N,07725.5800,W,1,08,1.25,153.7,M,-34.4,M,,*55
$GPRMC,200256.750,A,4308.4120,N,07725.5801,W,39.85,181.21,100923,,,A*4B
$GPGGA,200257.000,4308.4092,N,07725.5802,W,1,08,1.25,153.8,M,-34.4,M,,*5B
$GPRMC,200257.250,A,4308.4065,N,07725.5803,W,39.48,181.05,100923,,,A*4A
$GPGGA,200257.500,4308.4036,N,07725.5804,W,1,08,1.18,153.9,M,-34.4,M,,*59
$GPRMC,200257.750,A,4308.4006,N,07725.5805,W,39.71,180.98,100923,,,A*43
$GPGGA,200258.000,4308.3977,N,07725.5806,W,1,08,1.25,154.1,M,-34.4,M,,*5B
$GPRMC,200258.250,A,4308.3947,N,07725.5807,W,40.98,181.10,100923,,,A*48
$GPGGA,200258.500,4308.3917,N,07725.5808,W,1,08,1.18,154.1,M,-34.4,M,,*58
$GPRMC,200258.750,A,4308.3888,N,07725.5808,W,41.30,180.61,100923,,,A*44
$GPGGA,200259.000,4308.3859,N,07725.5809,W,1,08,1.25,154.2,M,-34.4,M,,*5B
$GPRMC,200259.250,A,4308.3829,N,07725.5809,W,41.28,180.43,100923,,,A*43
$GPGGA,200259.500,4308.3800,N,07725.5809,W,1,08,1.25,154.3,M,-34.4,M,,*53
$GPRMC,200259.750,A,4308.3771,N,07725.5810,W,41.23,180.64,100923,,,A*42
$GPGGA,200300.000,4308.3741,N,07725.5810,W,1,08,1.25,154.3,M,-34.4,M,,*59
$GPRMC,200300.250,A,4308.3712,N,07725.5811,W,41.44,180.92,100923,,,A*46
$GPGGA,200300.500,4308.3682,N,07725.5812,W,1,08,1.25,154.4,M,-34.4,M,,*57
$GPRMC,200300.750,A,4308.3653,N,07725.5812,W,41.81,180.75,100923,,,A*44
$GPGGA,200301.000,4308.3623,N,07725.5813,W,1,08,1.25,154.5,M,-34.3,M,,*5F
$GPRMC,200301.250,A,4308.3593,N,07725.5814,W,42.29,180.45,100923,,,A*4B
$GPGGA,200301.500,4308.3562,N,07725.5814,W,1,08,1.25,154.5,M,-34.3,M,,*5B
$GPRMC,200301.750,A,4308.3531,N,07725.5815,W,42.58,180.71,100923,,,A*46
$GPGGA,200302.000,4308.3500,N,07725.5817,W,1,08,1.25,154.5,M,-34.3,M,,*5A
$GPRMC,200302.250,A,4308.3469,N,07725.5818,W,43.52,181.02,100923,,,A*4F
$GPGGA,200302.500,4308.3438,N,07725.5819,W,1,08,1.18,154.6,M,-34.3,M,,*56
$GPRMC,200302.750,A,4308.3407,N,07725.5820,W,43.57,181.10,100923,,,A*4F
$GPGGA,200303.000,4308.3376,N,07725.5821,W,1,08,1.25,154.6,M,-34.3,M,,*5A
$GPRMC,200303.250,A,4308.3345,N,07725.5822,W,44.07,181.21,100923,,,A*48
$GPGGA,200303.500,4308.3314,N,07725.5823,W,1,08,1.25,154.7,M,-34.3,M,,*58
$GPRMC,200303.750,A,4308.3283,N,07725.5824,W,44.08,181.26,100923,,,A*48
$GPGGA,200304.000,4308.3251,N,07725.5826,W,1,08,1.25,154.8,M,-34.3,M,,*50
$GPRMC,200304.250,A,4308.3220,N,07725.5827,W,44.19,181.36,100923,,,A*41
$GPGGA,200304.500,4308.3189,N,07725.5829,W,1,08,1.18,154.8,M,-34.3,M,,*52
$GPRMC,200304.750,A,4308.3158,N,07725.5831,W,43.95,181.87,100923,,,A*46
$GPGGA,200305.000,4308.3128,N,07725.5832,W,1,08,1.25,155.0,M,-34.3,M,,*50
$GPRMC,200305.250,A,4308.3098,N,07725.5833,W,43.62,181.36,100923,,,A*4F
$GPGGA,200305.500,4308.3068,N,07725.5834,W,1,08,1.25,155.2,M,-34.3,M,,*54
$GPRMC,200305.750,A,4308.3036,N,07725.5835,W,43.63,181.26,100923,,,A*48
$GPGGA,200306.000,4308.3005,N,07725.5837,W,1,08,1.25,155.3,M,-34.3,M,,*5B
$GPRMC,200306.250,A,4308.2973,N,07725.5839,W,43.78,181.63,100923,,,A*40
$GPGGA,200306.500,4308.2941,N,07725.5841,W,1,08,1.18,155.4,M,-34.3,M,,*5E
$GPRMC,200306.750,A,4308.2909,N,07725.5843,W,44.70,181.62,100923,,,A*4B
$GPGGA,200307.000,4308.2877,N,07725.5844,W,1,08,1.25,155.6,M,-34.3,M,,*57
$GPRMC,200307.250,A,4308.2846,N,07725.5845,W,44.77,181.40,100923,,,A*44
$GPGGA,200307.500,4308.2813,N,07725.5847,W,1,08,1.18,155.9,M,-34.3,M,,*52
$GPRMC,200307.750,A,4308.2781,N,07725.5849,W,45.09,181.74,100923,,,A*46
$GPGGA,200308.000,4308.2749,N,07725.5850,W,1,08,1.25,156.1,M,-34.3,M,,*5B
$GPRMC,200308.250,A,4308.2717,N,07725.5852,W,45.02,181.62,100923,,,A*45
$GPGGA,200308.500,4308.2686,N,07725.5854,W,1,08,1.25,156.4,M,-34.3,M,,*5D
$GPRMC,200308.750,A,4308.2654,N,07725.5855,W,44.75,181.87,100923,,,A*4B
$GPGGA,200309.000,4308.2623,N,07725.5857,W,1,08,1.25,156.5,M,-34.3,M,,*54
$GPRMC,200309.250,A,4308.2590,N,07725.5859,W,44.75,182.11,100923,,,A*44
$GPGGA,200309.500,4308.2559,N,07725.5861,W,1,08,1.25,156.6,M,-34.3,M,,*59
$GPRMC,200309.750,A,4308.2528,N,07725.5863,W,44.58,181.91,100923,,,A*4F
$GPGGA,200310.000,4308.2497,N,07725.5865,W,1,08,1.25,156.8,M,-34.3,M,,*5D
$GPRMC,200310.250,A,4308.2466,N,07725.5866,W,44.33,181.60,100923,,,A*4F
$GPGGA,200310.500,4308.2435,N,07725.5867,W,1,08,1.25,156.9,M,-34.3,M,,*53
$GPRMC,200310.750,A,4308.2404,N,07725.5868,W,43.78,181.28,100923,,,A*44
$GPGGA,200311.000,4308.2374,N,07725.5869,W,1,08,1.25,156.8,M,-34.3,M,,*5A
$GPRMC,200311.250,A,4308.2344,N,07725.5870,W,43.37,180.93,100923,,,A*40
$GPGGA,200311.500,4308.2313,N,07725.5871,W,1,08,1.25,156.8,M,-34.3,M,,*57
$GPRMC,200311.750,A,4308.2283,N,07725.5871,W,43.37,180.90,100923,,,A*4D
$GPGGA,200312.000,4308.2252,N,07725.5872,W,1,07,1.30,156.7,M,-34.3,M,,*52
$GPRMC,200312.250,A,4308.2222,N,07725.5873,W,43.54,181.04,100923,,,A*4B
$GPGGA,200312.500,4308.2191,N,07725.5875,W,1,08,1.25,156.7,M,-34.3,M,,*57
$GPRMC,200312.750,A,4308.2161,N,07725.5876,W,43.29,181.35,100923,,,A*47
$GPGGA,200313.000,4308.2130,N,07725.5877,W,1,08,1.25,156.8,M,-34.3,M,,*55
$GPRMC,200313.250,A,4308.2100,N,07725.5878,W,43.23,181.48,100923,,,A*4A
$GPGGA,200313.500,4308.2070,N,07725.5880,W,1,08,1.18,156.8,M,-34.3,M,,*53
$GPRMC,200313.750,A,4308.2039,N,07725.5881,W,43.32,181.28,100923,,,A*44
$GPGGA,200314.000,4308.2006,N,07725.5883,W,1,08,1.25,156.8,M,-34.3,M,,*5D
$GPRMC,200314.250,A,4308.1974,N,07725.5885,W,44.58,181.77,100923,,,A*40
$GPGGA,200314.500,4308.1943,N,07725.5886,W,1,08,1.25,156.8,M,-34.3,M,,*56
$GPRMC,200314.750,A,4308.1911,N,07725.5888,W,44.79,181.51,100923,,,A*4C
$GPGGA,200315.000,4308.1879,N,07725.5889,W,1,08,1.25,156.8,M,-34.3,M,,*55
$GPRMC,200315.250,A,4308.1847,N,07725.5890,W,44.81,181.31,100923,,,A*42
$GPGGA,200315.500,4308.1816,N,07725.5892,W,1,08,1.25,156.6,M,-34.3,M,,*5D
$GPRMC,200315.750,A,4308.1785,N,07725.5893,W,44.32,181.11,100923,,,A*4F
$GPGGA,200316.000,4308.1754,N,07725.5894,W,1,08,1.25,156.5,M,-34.3,M,,*57
$GPRMC,200316.250,A,4308.1723,N,07725.5895,W,43.80,181.43,100923,,,A*4A
$GPGGA,200316.500,4308.1693,N,07725.5896,W,1,08,1.25,156.4,M,-34.3,M,,*5B
$GPRMC,200316.750,A,4308.1662,N,07725.5898,W,43.48,181.45,100923,,,A*44
$GPGGA,200317.000,4308.1631,N,07725.5899,W,1,08,1.25,156.4,M,-34.3,M,,*58
$GPRMC,200317.250,A,4308.1602,N,07725.5901,W,42.89,181.42,100923,,,A*4C
$GPGGA,200317.500,4308.1572,N,07725.5902,W,1,08,1.25,156.3,M,-34.3,M,,*5D
$GPRMC,200317.750,A,4308.1542,N,07725.5904,W,42.89,181.52,100923,,,A*4A
$GPGGA,200318.000,4308.1512,N,07725.5905,W,1,08,1.25,156.3,M,-34.3,M,,*56
$GPRMC,200318.250,A,4308.1482,N,07725.5906,W,42.88,181.56,100923,,,A*4A
$GPGGA,200318.500,4308.1453,N,07725.5907,W,1,08,1.25,156.3,M,-34.3,M,,*55
$GPRMC,200318.750,A,4308.1423,N,07725.5909,W,42.83,181.77,100923,,,A*43
$GPGGA,200319.000,4308.1393,N,07725.5911,W,1,08,1.25,156.1,M,-34.3,M,,*5F
$GPRMC,200319.250,A,4308.1363,N,07725.5912,W,42.77,181.66,100923,,,A*45
$GPGGA,200319.500,4308.1333,N,07725.5914,W,1,08,1.25,155.9,M,-34.3,M,,*5E
$GPRMC,200319.750,A,4308.1303,N,07725.5916,W,43.12,181.81,100923,,,A*49
$GPGGA,200320.000,4308.1272,N,07725.5917,W,1,08,1.25,155.8,M,-34.3,M,,*57
$GPRMC,200320.250,A,4308.1242,N,07725.5919,W,43.17,181.95,100923,,,A*4D
$GPGGA,200320.500,4308.1211,N,07725.5921,W,1,08,1.25,155.7,M,-34.3,M,,*5D
$GPRMC,200320.750,A,4308.1181,N,07725.5922,W,43.22,181.58,100923,,,A*4B
$GPGGA,200321.000,4308.1150,N,07725.5924,W,1,08,1.25,155.5,M,-34.3,M,,*58
$GPRMC,200321.250,A,4308.1119,N,07725.5926,W,43.24,181.41,100923,,,A*44
$GPGGA,200321.500,4308.1088,N,07725.5927,W,1,08,1.18,155.3,M,-34.3,M,,*52
$GPRMC,200321.750,A,4308.1058,N,07725.5929,W,43.20,181.26,100923,,,A*4F
$GPGGA,200322.000,4308.1027,N,07725.5931,W,1,08,1.25,155.1,M,-34.3,M,,*5A
$GPRMC,200322.250,A,4308.0996,N,07725.5933,W,43.04,181.22,100923,,,A*4A
$GPGGA,200322.500,4308.0966,N,07725.5934,W,1,08,1.25,154.8,M,-34.3,M,,*5F
$GPRMC,200322.750,A,4308.0935,N,07725.5936,W,42.80,181.08,100923,,,A*46
$GPGGA,200323.000,4308.0905,N,07725.5937,W,1,08,1.25,154.6,M,-34.3,M,,*53
$GPRMC,200323.250,A,4308.0875,N,07725.5938,W,42.60,180.92,100923,,,A*45
$GPGGA,200323.500,4308.0845,N,07725.5939,W,1,08,1.25,154.4,M,-34.3,M,,*5F
$GPRMC,200323.750,A,4308.0815,N,07725.5940,W,42.72,181.12,100923,,,A*43
$GPGGA,200324.000,4308.0785,N,07725.5942,W,1,08,1.25,154.3,M,-34.3,M,,*55
$GPRMC,200324.250,A,4308.0755,N,07725.5943,W,42.97,181.25,100923,,,A*46
$GPGGA,200324.500,4308.0725,N,07725.5944,W,1,08,1.25,154.1,M,-34.3,M,,*5E
$GPRMC,200324.750,A,4308.0695,N,07725.5946,W,42.97,181.60,100923,,,A*4A
$GPGGA,200325.000,4308.0664,N,07725.5947,W,1,08,1.25,153.8,M,-34.3,M,,*53
$GPRMC,200325.250,A,4308.0634,N,07725.5949,W,42.92,181.83,100923,,,A*42
$GPGGA,200325.500,4308.0604,N,07725.5951,W,1,08,1.25,153.7,M,-34.3,M,,*58
$GPRMC,200325.750,A,4308.0574,N,07725.5953,W,42.86,181.92,100923,,,A*4E
$GPGGA,200326.000,4308.0544,N,07725.5954,W,1,08,1.25,153.6,M,-34.3,M,,*5D
$GPRMC,200326.250,A,4308.0514,N,07725.5956,W,42.72,181.78,100923,,,A*44
$GPGGA,200326.500,4308.0484,N,07725.5958,W,1,08,1.25,153.5,M,-34.3,M,,*5A
$GPRMC,200326.750,A,4308.0454,N,07725.5960,W,42.64,181.80,100923,,,A*41
$GPGGA,200327.000,4308.0424,N,07725.5961,W,1,08,1.25,153.3,M,-34.3,M,,*58
$GPRMC,200327.250,A,4308.0394,N,07725.5963,W,42.64,181.88,100923,,,A*45
$GPGGA,200327.500,4308.0364,N,07725.5965,W,1,07,1.22,153.1,M,-34.3,M,,*50
$GPRMC,200327.750,A,4308.0334,N,07725.5966,W,42.84,181.40,100923,,,A*45
$GPGGA,200328.000,4308.0304,N,07725.5967,W,1,08,1.25,153.0,M,-34.3,M,,*57
$GPRMC,200328.250,A,4308.0274,N,07725.5968,W,42.90,181.40,100923,,,A*41
$GPGGA,200328.500,4308.0244,N,07725.5969,W,1,08,1.25,152.9,M,-34.3,M,,*51
$GPRMC,200328.750,A,4308.0214,N,07725.5970,W,42.95,181.52,100923,,,A*4D
$GPGGA,200329.000,4308.0185,N,07725.5972,W,1,08,1.25,152.9,M,-34.3,M,,*51
$GPRMC,200329.250,A,4308.0155,N,07725.5973,W,42.89,181.81,100923,,,A*4F
$GPGGA,200329.500,4308.0126,N,07725.5975,W,1,08,1.18,152.8,M,-34.3,M,,*55
$GPRMC,200329.750,A,4308.0096,N,07725.5977,W,42.80,182.08,100923,,,A*4B
$GPGGA,200330.000,4308.0066,N,07725.5978,W,1,08,1.25,152.8,M,-34.3,M,,*5E
$GPRMC,200330.250,A,4308.0037,N,07725.5980,W,42.79,182.33,100923,,,A*4B
$GPGGA,200330.500,4308.0008,N,07725.5982,W,1,08,1.25,152.9,M,-34.3,M,,*57
$GPRMC,200330.750,A,4307.9979,N,07725.5984,W,42.45,182.74,100923,,,A*43
$GPGGA,200331.000,4307.9950,N,07725.5985,W,1,08,1.25,153.0,M,-34.3,M,,*5E
$GPRMC,200331.250,A,4307.9921,N,07725.5987,W,42.32,182.36,100923,,,A*4F
$GPGGA,200331.500,4307.9892,N,07725.5989,W,1,08,1.25,153.2,M,-34.3,M,,*5A
$GPRMC,200331.750,A,4307.9863,N,07725.5990,W,41.45,182.20,100923,,,A*4F
