Vers 81
USE_SERIAL_FEEDBACK=true
DEVELOPMENT_MODE=false
USE_RMC_ONLY=false

$GPRMC,143533.500,A,4308.3079,N,07726.2627,W,0.04,60.16,080923,,,A*48
$GPGGA,143533.750,4308.3079,N,07726.2627,W,1,07,1.13,154.9,M,-34.4,M,,*5B
$GPRMC,143534.000,A,4308.3079,N,07726.2626,W,0.05,81.01,080923,,,A*43
$GPGGA,143534.250,4308.3080,N,07726.2626,W,1,07,1.13,154.9,M,-34.4,M,,*5E
$GPRMC,143534.500,A,4308.3080,N,07726.2626,W,0.02,209.00,080923,,,A*74
$GPGGA,143534.750,4308.3080,N,07726.2626,W,1,07,1.13,155.1,M,-34.4,M,,*52
$GPRMC,143535.000,A,4308.3080,N,07726.2626,W,0.08,259.11,080923,,,A*7F
$GPGGA,143535.250,4308.3080,N,07726.2627,W,1,07,1.13,155.3,M,-34.4,M,,*55
$GPRMC,143535.500,A,4308.3080,N,07726.2627,W,0.02,305.98,080923,,,A*78
$GPGGA,143535.750,4308.3080,N,07726.2628,W,1,07,1.13,155.4,M,-34.4,M,,*58
$GPRMC,143536.000,A,4308.3080,N,07726.2628,W,0.07,246.76,080923,,,A*72
$GPGGA,143536.250,4308.3080,N,07726.2628,W,1,07,1.13,155.2,M,-34.4,M,,*58
$GPRMC,143536.500,A,4308.3080,N,07726.2629,W,0.02,74.07,080923,,,A*46
$GPGGA,143536.750,4308.3080,N,07726.2630,W,1,07,1.13,154.9,M,-34.4,M,,*5E
$GPRMC,143537.000,A,4308.3081,N,07726.2631,W,0.06,65.93,080923,,,A*43
$GPGGA,143537.250,4308.3081,N,07726.2632,W,1,07,1.13,154.9,M,-34.4,M,,*59
$GPRMC,143537.500,A,4308.3081,N,07726.2633,W,0.02,332.07,080923,,,A*7C
$GPGGA,143537.750,4308.3081,N,07726.2634,W,1,07,1.13,155.0,M,-34.4,M,,*52
$GPRMC,143538.000,A,4308.3081,N,07726.2634,W,0.02,277.79,080923,,,A*78
$GPGGA,143538.250,4308.3081,N,07726.2635,W,1,07,1.13,155.0,M,-34.4,M,,*59
$GPRMC,143538.500,A,4308.3081,N,07726.2636,W,0.02,30.75,080923,,,A*42
$GPGGA,143538.750,4308.3081,N,07726.2636,W,1,07,1.13,154.9,M,-34.4,M,,*57
$GPRMC,143539.000,A,4308.3081,N,07726.2636,W,0.03,91.77,080923,,,A*4E
$GPGGA,143539.250,4308.3081,N,07726.2636,W,1,07,1.13,154.6,M,-34.4,M,,*5C
$GPRMC,143539.500,A,4308.3081,N,07726.2637,W,0.01,8.06,080923,,,A*7E
$GPGGA,143539.750,4308.3080,N,07726.2637,W,1,07,1.16,154.1,M,-34.4,M,,*5B
$GPRMC,143540.000,A,4308.3080,N,07726.2637,W,0.11,223.93,080923,,,A*72
$GPGGA,143540.250,4308.3080,N,07726.2637,W,1,07,1.13,153.8,M,-34.4,M,,*5B
$GPRMC,143540.500,A,4308.3079,N,07726.2637,W,0.04,235.36,080923,,,A*7D
$GPGGA,143540.750,4308.3078,N,07726.2637,W,1,07,1.13,154.1,M,-34.4,M,,*57
$GPRMC,143541.000,A,4308.3078,N,07726.2636,W,0.03,103.43,080923,,,A*7A
$GPGGA,143541.250,4308.3078,N,07726.2636,W,1,07,1.13,154.4,M,-34.4,M,,*57
$GPRMC,143541.500,A,4308.3078,N,07726.2636,W,0.09,138.45,080923,,,A*7B
$GPGGA,143541.750,4308.3077,N,07726.2636,W,1,07,1.13,154.6,M,-34.4,M,,*5F
$GPRMC,143542.000,A,4308.3077,N,07726.2636,W,0.13,100.96,080923,,,A*7C
$GPGGA,143542.250,4308.3077,N,07726.2636,W,1,07,1.13,154.6,M,-34.4,M,,*59
$GPRMC,143542.500,A,4308.3077,N,07726.2636,W,0.12,85.54,080923,,,A*4A
$GPGGA,143542.750,4308.3077,N,07726.2636,W,1,07,1.13,154.5,M,-34.4,M,,*5F
$GPRMC,143543.000,A,4308.3077,N,07726.2636,W,0.11,94.11,080923,,,A*4C
$GPGGA,143543.250,4308.3076,N,07726.2636,W,1,07,1.13,154.5,M,-34.4,M,,*5A
$GPRMC,143543.500,A,4308.3076,N,07726.2636,W,0.06,83.76,080923,,,A*49
$GPGGA,143543.750,4308.3076,N,07726.2636,W,1,07,1.13,154.4,M,-34.4,M,,*5E
$GPRMC,143544.000,A,4308.3077,N,07726.2636,W,0.10,27.19,080923,,,A*4A
$GPGGA,143544.250,4308.3076,N,07726.2636,W,1,07,1.13,154.5,M,-34.4,M,,*5D
$GPRMC,143544.500,A,4308.3076,N,07726.2636,W,0.09,45.23,080923,,,A*4B
$GPGGA,143544.750,4308.3076,N,07726.2636,W,1,07,1.13,154.7,M,-34.4,M,,*5A
$GPRMC,143545.000,A,4308.3077,N,07726.2637,W,0.17,38.67,080923,,,A*4A
$GPGGA,143545.250,4308.3077,N,07726.2637,W,1,07,1.13,154.8,M,-34.4,M,,*51
$GPRMC,143545.500,A,4308.3076,N,07726.2638,W,0.12,13.87,080923,,,A*43
$GPGGA,143545.750,4308.3076,N,07726.2638,W,1,07,1.16,154.9,M,-34.4,M,,*5E
$GPRMC,143546.000,A,4308.3076,N,07726.2638,W,0.12,74.16,080923,,,A*4C
$GPGGA,143546.250,4308.3076,N,07726.2638,W,1,07,1.13,154.9,M,-34.4,M,,*5D
$GPRMC,143546.500,A,4308.3075,N,07726.2638,W,0.04,52.49,080923,,,A*43
$GPGGA,143546.750,4308.3075,N,07726.2639,W,1,07,1.13,154.9,M,-34.4,M,,*5A
$GPRMC,143547.000,A,4308.3074,N,07726.2639,W,0.09,203.56,080923,,,A*72
$GPGGA,143547.250,4308.3074,N,07726.2640,W,1,07,1.13,154.9,M,-34.4,M,,*51
$GPRMC,143547.500,A,4308.3074,N,07726.2641,W,0.17,215.61,080923,,,A*74
$GPGGA,143547.750,4308.3074,N,07726.2641,W,1,07,1.13,155.0,M,-34.4,M,,*5D
$GPRMC,143548.000,A,4308.3074,N,07726.2641,W,0.09,221.95,080923,,,A*7D
$GPGGA,143548.250,4308.3074,N,07726.2642,W,1,07,1.13,155.1,M,-34.4,M,,*55
$GPRMC,143548.500,A,4308.3073,N,07726.2643,W,0.12,226.38,080923,,,A*77
$GPGGA,143548.750,4308.3073,N,07726.2643,W,1,07,1.13,155.3,M,-34.4,M,,*54
$GPRMC,143549.000,A,4308.3073,N,07726.2644,W,0.11,216.03,080923,,,A*7C
$GPGGA,143549.250,4308.3073,N,07726.2644,W,1,07,1.13,155.4,M,-34.4,M,,*50
$GPRMC,143549.500,A,4308.3072,N,07726.2644,W,0.06,250.90,080923,,,A*76
$GPGGA,143549.750,4308.3072,N,07726.2645,W,1,07,1.13,155.4,M,-34.4,M,,*55
$GPRMC,143550.000,A,4308.3072,N,07726.2645,W,0.09,181.13,080923,,,A*71
$GPGGA,143550.250,4308.3071,N,07726.2645,W,1,07,1.13,155.4,M,-34.4,M,,*5B
$GPRMC,143550.500,A,4308.3071,N,07726.2646,W,0.14,165.57,080923,,,A*72
$GPGGA,143550.750,4308.3071,N,07726.2646,W,1,07,1.13,155.4,M,-34.4,M,,*5D
$GPRMC,143551.000,A,4308.3071,N,07726.2647,W,0.11,171.12,080923,,,A*76
$GPGGA,143551.250,4308.3071,N,07726.2648,W,1,07,1.13,155.5,M,-34.4,M,,*56
$GPRMC,143551.500,A,4308.3070,N,07726.2648,W,0.06,210.39,080923,,,A*76
$GPGGA,143551.750,4308.3071,N,07726.2649,W,1,07,1.13,155.6,M,-34.4,M,,*51
$GPRMC,143552.000,A,4308.3070,N,07726.2649,W,0.06,244.39,080923,,,A*70
$GPGGA,143552.250,4308.3070,N,07726.2650,W,1,07,1.13,155.8,M,-34.4,M,,*50
$GPRMC,143552.500,A,4308.3070,N,07726.2650,W,0.05,232.81,080923,,,A*7C
$GPGGA,143552.750,4308.3069,N,07726.2651,W,1,07,1.13,155.8,M,-34.4,M,,*5C
$GPRMC,143553.000,A,4308.3069,N,07726.2652,W,0.21,218.61,080923,,,A*72
$GPGGA,143553.250,4308.3068,N,07726.2652,W,1,07,1.13,155.8,M,-34.4,M,,*5A
$GPRMC,143553.500,A,4308.3068,N,07726.2653,W,0.28,209.86,080923,,,A*77
$GPGGA,143553.750,4308.3067,N,07726.2653,W,1,07,1.13,155.8,M,-34.4,M,,*51
$GPRMC,143554.000,A,4308.3067,N,07726.2654,W,0.22,215.90,080923,,,A*7D
$GPGGA,143554.250,4308.3067,N,07726.2654,W,1,07,1.13,155.9,M,-34.4,M,,*55
$GPRMC,143554.500,A,4308.3067,N,07726.2655,W,0.20,229.01,080923,,,A*7C
$GPGGA,143554.750,4308.3066,N,07726.2657,W,1,07,1.13,156.0,M,-34.4,M,,*58
$GPRMC,143555.000,A,4308.3066,N,07726.2657,W,0.24,231.35,080923,,,A*71
$GPGGA,143555.250,4308.3066,N,07726.2658,W,1,07,1.13,156.1,M,-34.4,M,,*52
$GPRMC,143555.500,A,4308.3066,N,07726.2658,W,0.18,240.70,080923,,,A*73
$GPGGA,143555.750,4308.3066,N,07726.2659,W,1,07,1.13,156.1,M,-34.4,M,,*56
$GPRMC,143556.000,A,4308.3065,N,07726.2659,W,0.15,223.19,080923,,,A*70
$GPGGA,143556.250,4308.3065,N,07726.2660,W,1,07,1.13,156.1,M,-34.4,M,,*59
$GPRMC,143556.500,A,4308.3065,N,07726.2661,W,0.13,253.73,080923,,,A*73
$GPGGA,143556.750,4308.3065,N,07726.2662,W,1,07,1.13,156.1,M,-34.4,M,,*5E
$GPRMC,143557.000,A,4308.3065,N,07726.2662,W,0.19,270.46,080923,,,A*79
$GPGGA,143557.250,4308.3065,N,07726.2663,W,1,07,1.13,156.1,M,-34.4,M,,*5B
$GPRMC,143557.500,A,4308.3065,N,07726.2663,W,0.19,260.42,080923,,,A*78
$GPGGA,143557.750,4308.3064,N,07726.2664,W,1,07,1.13,156.2,M,-34.4,M,,*5B
$GPRMC,143558.000,A,4308.3064,N,07726.2664,W,0.19,228.80,080923,,,A*76
$GPGGA,143558.250,4308.3063,N,07726.2664,W,1,07,1.13,156.4,M,-34.4,M,,*50
$GPRMC,143558.500,A,4308.3063,N,07726.2664,W,0.14,202.26,080923,,,A*7D
$GPGGA,143558.750,4308.3063,N,07726.2663,W,1,07,1.13,156.5,M,-34.4,M,,*53
$GPRMC,143559.000,A,4308.3063,N,07726.2664,W,0.09,198.62,080923,,,A*75
$GPGGA,143559.250,4308.3064,N,07726.2664,W,1,07,1.13,156.5,M,-34.4,M,,*57
$GPRMC,143559.500,A,4308.3064,N,07726.2664,W,0.10,325.84,080923,,,A*73
$GPGGA,143559.750,4308.3064,N,07726.2664,W,1,07,1.13,156.4,M,-34.4,M,,*53
$GPRMC,143600.000,A,4308.3065,N,07726.2664,W,0.14,345.77,080923,,,A*76
$GPGGA,143600.250,4308.3065,N,07726.2664,W,1,07,1.16,156.4,M,-34.4,M,,*5D
$GPRMC,143600.500,A,4308.3065,N,07726.2664,W,0.19,351.77,080923,,,A*7B
$GPGGA,143600.750,4308.3065,N,07726.2663,W,1,07,1.16,156.4,M,-34.4,M,,*5F
$GPRMC,143601.000,A,4308.3065,N,07726.2663,W,0.08,18.59,080923,,,A*4A
$GPGGA,143601.250,4308.3065,N,07726.2663,W,1,07,1.13,156.5,M,-34.4,M,,*5F
$GPRMC,143601.500,A,4308.3065,N,07726.2663,W,0.02,288.87,080923,,,A*7D
$GPGGA,143601.750,4308.3066,N,07726.2663,W,1,07,1.13,156.5,M,-34.4,M,,*59
$GPRMC,143602.000,A,4308.3066,N,07726.2664,W,0.14,320.51,080923,,,A*70
$GPGGA,143602.250,4308.3066,N,07726.2664,W,1,07,1.13,156.5,M,-34.4,M,,*58
$GPRMC,143602.500,A,4308.3066,N,07726.2664,W,0.14,304.45,080923,,,A*76
$GPGGA,143602.750,4308.3066,N,07726.2664,W,1,07,1.13,156.5,M,-34.4,M,,*5D
$GPRMC,143603.000,A,4308.3065,N,07726.2664,W,0.10,269.66,080923,,,A*7E
$GPGGA,143603.250,4308.3065,N,07726.2664,W,1,07,1.13,156.5,M,-34.4,M,,*5A
$GPRMC,143603.500,A,4308.3065,N,07726.2664,W,0.13,253.89,080923,,,A*70
$GPGGA,143603.750,4308.3065,N,07726.2664,W,1,07,1.13,156.5,M,-34.4,M,,*5F
$GPRMC,143604.000,A,4308.3065,N,07726.2664,W,0.09,271.20,080923,,,A*7A
$GPGGA,143604.250,4308.3065,N,07726.2665,W,1,07,1.13,156.6,M,-34.4,M,,*5F
$GPRMC,143604.500,A,4308.3065,N,07726.2664,W,0.05,291.32,080923,,,A*7E
$GPGGA,143604.750,4308.3065,N,07726.2664,W,1,07,1.13,156.6,M,-34.4,M,,*5B
$GPRMC,143605.000,A,4308.3065,N,07726.2664,W,0.02,47.40,080923,,,A*41
$GPGGA,143605.250,4308.3065,N,07726.2665,W,1,07,1.13,156.7,M,-34.4,M,,*5F
$GPRMC,143605.500,A,4308.3065,N,07726.2665,W,0.01,200.56,080923,,,A*70
$GPGGA,143605.750,4308.3064,N,07726.2665,W,1,07,1.13,156.7,M,-34.4,M,,*5B
$GPRMC,143606.000,A,4308.3064,N,07726.2665,W,0.07,141.62,080923,,,A*70
$GPGGA,143606.250,4308.3063,N,07726.2665,W,1,07,1.13,156.8,M,-34.4,M,,*55
$GPRMC,143606.500,A,4308.3063,N,07726.2665,W,0.06,146.98,080923,,,A*71
$GPGGA,143606.750,4308.3063,N,07726.2666,W,1,07,1.13,156.7,M,-34.4,M,,*5C
$GPRMC,143607.000,A,4308.3063,N,07726.2666,W,0.04,210.29,080923,,,A*7E
$GPGGA,143607.250,4308.3063,N,07726.2667,W,1,07,1.13,156.8,M,-34.4,M,,*56
$GPRMC,143607.500,A,4308.3062,N,07726.2667,W,0.10,232.45,080923,,,A*74
$GPGGA,143607.750,4308.3062,N,07726.2668,W,1,07,1.13,156.9,M,-34.4,M,,*5C
$GPRMC,143608.000,A,4308.3062,N,07726.2668,W,0.23,243.38,080923,,,A*7D
$GPGGA,143608.250,4308.3062,N,07726.2668,W,1,07,1.13,157.0,M,-34.4,M,,*5E
$GPRMC,143608.500,A,4308.3062,N,07726.2668,W,0.17,245.28,080923,,,A*78
$GPGGA,143608.750,4308.3062,N,07726.2668,W,1,07,1.13,157.0,M,-34.4,M,,*5B
$GPRMC,143609.000,A,4308.3062,N,07726.2668,W,0.09,247.40,080923,,,A*7F
$GPGGA,143609.250,4308.3061,N,07726.2668,W,1,07,1.13,157.1,M,-34.4,M,,*5D
$GPRMC,143609.500,A,4308.3061,N,07726.2669,W,0.18,247.71,080923,,,A*7A
$GPGGA,143609.750,4308.3061,N,07726.2669,W,1,07,1.13,157.1,M,-34.4,M,,*59
$GPRMC,143610.000,A,4308.3061,N,07726.2669,W,0.17,249.76,080923,,,A*71
$GPGGA,143610.250,4308.3061,N,07726.2669,W,1,07,1.13,157.1,M,-34.4,M,,*54
$GPRMC,143610.500,A,4308.3061,N,07726.2669,W,0.18,252.52,080923,,,A*77
$GPGGA,143610.750,4308.3060,N,07726.2669,W,1,07,1.13,157.2,M,-34.4,M,,*53
$GPRMC,143611.000,A,4308.3060,N,07726.2670,W,0.17,254.45,080923,,,A*75
$GPGGA,143611.250,4308.3060,N,07726.2670,W,1,07,1.13,157.3,M,-34.4,M,,*5E
$GPRMC,143611.500,A,4308.3060,N,07726.2670,W,0.16,257.81,080923,,,A*7A
$GPGGA,143611.750,4308.3060,N,07726.2670,W,1,07,1.13,157.4,M,-34.4,M,,*5C
$GPRMC,143612.000,A,4308.3059,N,07726.2670,W,0.14,242.70,080923,,,A*7E
$GPGGA,143612.250,4308.3059,N,07726.2670,W,1,07,1.13,157.5,M,-34.4,M,,*51
$GPRMC,143612.500,A,4308.3058,N,07726.2670,W,0.16,225.57,080923,,,A*7C
$GPGGA,143612.750,4308.3058,N,07726.2670,W,1,07,1.13,157.6,M,-34.4,M,,*56
$GPRMC,143613.000,A,4308.3058,N,07726.2669,W,0.05,192.80,080923,,,A*77
$GPGGA,143613.250,4308.3057,N,07726.2670,W,1,07,1.13,157.7,M,-34.4,M,,*5C
$GPRMC,143613.500,A,4308.3056,N,07726.2669,W,0.12,191.70,080923,,,A*76
$GPGGA,143613.750,4308.3056,N,07726.2669,W,1,07,1.13,157.8,M,-34.4,M,,*5F
$GPRMC,143614.000,A,4308.3055,N,07726.2670,W,0.13,206.63,080923,,,A*71
$GPGGA,143614.250,4308.3055,N,07726.2670,W,1,07,1.13,157.9,M,-34.4,M,,*57
$GPRMC,143614.500,A,4308.3055,N,07726.2670,W,0.14,231.49,080923,,,A*7F
$GPGGA,143614.750,4308.3054,N,07726.2670,W,1,07,1.13,158.0,M,-34.4,M,,*55
$GPRMC,143615.000,A,4308.3054,N,07726.2669,W,0.10,256.88,080923,,,A*7A
$GPGGA,143615.250,4308.3054,N,07726.2669,W,1,07,1.13,158.1,M,-34.4,M,,*58
$GPRMC,143615.500,A,4308.3054,N,07726.2669,W,0.10,277.84,080923,,,A*70
$GPGGA,143615.750,4308.3053,N,07726.2669,W,1,07,1.13,158.2,M,-34.4,M,,*59
$GPRMC,143616.000,A,4308.3053,N,07726.2670,W,0.16,302.02,080923,,,A*72
$GPGGA,143616.250,4308.3054,N,07726.2669,W,1,07,1.13,158.4,M,-34.4,M,,*5E
$GPRMC,143616.500,A,4308.3054,N,07726.2669,W,0.32,351.86,080923,,,A*74
$GPGGA,143616.750,4308.3055,N,07726.2668,W,1,07,1.16,158.5,M,-34.4,M,,*5F
$GPRMC,143617.000,A,4308.3057,N,07726.2668,W,0.71,0.15,080923,,,A*78
$GPGGA,143617.250,4308.3058,N,07726.2667,W,1,07,1.16,158.7,M,-34.4,M,,*5B
$GPRMC,143617.500,A,4308.3059,N,07726.2666,W,1.13,336.68,080923,,,A*74
$GPGGA,143617.750,4308.3061,N,07726.2666,W,1,07,1.16,159.0,M,-34.4,M,,*53
$GPRMC,143618.000,A,4308.3063,N,07726.2666,W,1.55,348.15,080923,,,A*76
$GPGGA,143618.250,4308.3066,N,07726.2666,W,1,07,1.16,159.3,M,-34.4,M,,*5D
$GPRMC,143618.500,A,4308.3068,N,07726.2666,W,3.39,356.64,080923,,,A*79
$GPGGA,143618.750,4308.3072,N,07726.2666,W,1,07,1.16,159.5,M,-34.4,M,,*5B
$GPRMC,143619.000,A,4308.3076,N,07726.2665,W,5.13,355.57,080923,,,A*7C
$GPGGA,143619.250,4308.3080,N,07726.2665,W,1,07,1.16,159.5,M,-34.4,M,,*51
$GPRMC,143619.500,A,4308.3083,N,07726.2665,W,5.68,354.47,080923,,,A*7F
$GPGGA,143619.750,4308.3087,N,07726.2666,W,1,07,1.16,159.6,M,-34.4,M,,*53
$GPRMC,143620.000,A,4308.3091,N,07726.2666,W,5.98,352.56,080923,,,A*79
$GPGGA,143620.250,4308.3094,N,07726.2666,W,1,07,1.16,159.7,M,-34.4,M,,*5F
$GPRMC,143620.500,A,4308.3097,N,07726.2666,W,5.34,358.23,080923,,,A*74
$GPGGA,143620.750,4308.3101,N,07726.2665,W,1,07,1.16,159.7,M,-34.4,M,,*54
$GPRMC,143621.000,A,4308.3105,N,07726.2664,W,5.44,4.12,080923,,,A*77
$GPGGA,143621.250,4308.3109,N,07726.2663,W,1,07,1.16,159.7,M,-34.4,M,,*5E
$GPRMC,143621.500,A,4308.3112,N,07726.2663,W,5.18,3.07,080923,,,A*79
$GPGGA,143621.750,4308.3115,N,07726.2663,W,1,07,1.16,159.7,M,-34.4,M,,*56
$GPRMC,143622.000,A,4308.3117,N,07726.2663,W,4.27,0.92,080923,,,A*78
$GPGGA,143622.250,4308.3120,N,07726.2663,W,1,07,1.16,159.8,M,-34.4,M,,*59
$GPRMC,143622.500,A,4308.3123,N,07726.2663,W,4.17,358.02,080923,,,A*7E
$GPGGA,143622.750,4308.3125,N,07726.2663,W,1,07,1.16,159.8,M,-34.4,M,,*59
$GPRMC,143623.000,A,4308.3128,N,07726.2663,W,3.48,1.43,080923,,,A*76
$GPGGA,143623.250,4308.3130,N,07726.2663,W,1,07,1.16,159.8,M,-34.4,M,,*59
$GPRMC,143623.500,A,4308.3131,N,07726.2663,W,2.72,5.32,080923,,,A*71
$GPGGA,143623.750,4308.3133,N,07726.2662,W,1,07,1.16,159.8,M,-34.4,M,,*5E
$GPRMC,143624.000,A,4308.3135,N,07726.2662,W,2.76,5.38,080923,,,A*78
$GPGGA,143624.250,4308.3138,N,07726.2662,W,1,07,1.16,159.7,M,-34.4,M,,*58
$GPRMC,143624.500,A,4308.3140,N,07726.2661,W,3.23,6.42,080923,,,A*73
$GPGGA,143624.750,4308.3143,N,07726.2661,W,1,07,1.16,159.7,M,-34.4,M,,*52
$GPRMC,143625.000,A,4308.3145,N,07726.2660,W,3.42,9.19,080923,,,A*75
$GPGGA,143625.250,4308.3148,N,07726.2659,W,1,07,1.16,159.7,M,-34.4,M,,*56
$GPRMC,143625.500,A,4308.3150,N,07726.2658,W,3.54,15.57,080923,,,A*4F
$GPGGA,143625.750,4308.3152,N,07726.2657,W,1,07,1.13,159.6,M,-34.4,M,,*52
$GPRMC,143626.000,A,4308.3154,N,07726.2655,W,3.36,25.41,080923,,,A*40
$GPGGA,143626.250,4308.3156,N,07726.2653,W,1,07,1.13,159.5,M,-34.4,M,,*57
$GPRMC,143626.500,A,4308.3158,N,07726.2650,W,3.33,42.62,080923,,,A*49
$GPGGA,143626.750,4308.3159,N,07726.2648,W,1,07,1.13,159.4,M,-34.4,M,,*56
$GPRMC,143627.000,A,4308.3161,N,07726.2645,W,3.25,52.83,080923,,,A*4A
$GPGGA,143627.250,4308.3162,N,07726.2642,W,1,07,1.13,159.4,M,-34.4,M,,*50
$GPRMC,143627.500,A,4308.3163,N,07726.2640,W,2.71,60.75,080923,,,A*40
$GPGGA,143627.750,4308.3163,N,07726.2637,W,1,07,1.13,159.4,M,-34.4,M,,*56
$GPRMC,143628.000,A,4308.3164,N,07726.2634,W,2.66,70.16,080923,,,A*4C
$GPGGA,143628.250,4308.3164,N,07726.2632,W,1,07,1.13,159.4,M,-34.4,M,,*5E
$GPRMC,143628.500,A,4308.3165,N,07726.2629,W,2.07,76.80,080923,,,A*4A
$GPGGA,143628.750,4308.3165,N,07726.2628,W,1,07,1.13,159.4,M,-34.4,M,,*51
$GPRMC,143629.000,A,4308.3165,N,07726.2627,W,0.79,70.66,080923,,,A*45
$GPGGA,143629.250,4308.3165,N,07726.2627,W,1,07,1.13,159.4,M,-34.4,M,,*5A
$GPRMC,143629.500,A,4308.3165,N,07726.2627,W,0.08,340.26,080923,,,A*72
$GPGGA,143629.750,4308.3164,N,07726.2629,W,1,07,1.13,159.3,M,-34.4,M,,*57
$GPRMC,143630.000,A,4308.3164,N,07726.2632,W,1.20,264.20,080923,,,A*70
$GPGGA,143630.250,4308.3165,N,07726.2635,W,1,07,1.13,159.3,M,-34.4,M,,*56
$GPRMC,143630.500,A,4308.3165,N,07726.2639,W,2.29,274.85,080923,,,A*7B
$GPGGA,143630.750,4308.3167,N,07726.2644,W,1,07,1.13,159.3,M,-34.4,M,,*57
$GPRMC,143631.000,A,4308.3166,N,07726.2650,W,6.55,273.80,080923,,,A*7E
$GPGGA,143631.250,4308.3166,N,07726.2657,W,1,07,1.16,159.4,M,-34.4,M,,*52
$GPRMC,143631.500,A,4308.3166,N,07726.2665,W,8.59,270.72,080923,,,A*71
$GPGGA,143631.750,4308.3166,N,07726.2675,W,1,07,1.16,159.4,M,-34.4,M,,*57
$GPRMC,143632.000,A,4308.3166,N,07726.2685,W,10.77,274.54,080923,,,A*4C
$GPGGA,143632.250,4308.3165,N,07726.2694,W,1,07,1.16,159.6,M,-34.4,M,,*5F
$GPRMC,143632.500,A,4308.3165,N,07726.2704,W,12.32,276.87,080923,,,A*4D
$GPGGA,143632.750,4308.3165,N,07726.2716,W,1,07,1.16,159.6,M,-34.4,M,,*51
$GPRMC,143633.000,A,4308.3165,N,07726.2728,W,14.07,280.11,080923,,,A*41
$GPGGA,143633.250,4308.3168,N,07726.2740,W,1,07,1.16,159.8,M,-34.4,M,,*55
$GPRMC,143633.500,A,4308.3169,N,07726.2754,W,15.17,281.65,080923,,,A*41
$GPGGA,143633.750,4308.3172,N,07726.2768,W,1,07,1.16,159.9,M,-34.4,M,,*50
$GPRMC,143634.000,A,4308.3174,N,07726.2782,W,16.14,283.17,080923,,,A*43
$GPGGA,143634.250,4308.3177,N,07726.2796,W,1,07,1.16,160.2,M,-34.4,M,,*57
$GPRMC,143634.500,A,4308.3180,N,07726.2811,W,16.44,284.36,080923,,,A*49
$GPGGA,143634.750,4308.3183,N,07726.2826,W,1,07,1.16,160.4,M,-34.4,M,,*5B
$GPRMC,143635.000,A,4308.3187,N,07726.2841,W,16.49,286.76,080923,,,A*44
$GPGGA,143635.250,4308.3191,N,07726.2856,W,1,07,1.16,160.6,M,-34.4,M,,*59
$GPRMC,143635.500,A,4308.3195,N,07726.2871,W,16.92,289.20,080923,,,A*4B
$GPGGA,143635.750,4308.3200,N,07726.2886,W,1,07,1.16,160.9,M,-34.4,M,,*55
$GPRMC,143636.000,A,4308.3205,N,07726.2902,W,17.84,292.23,080923,,,A*4D
$GPGGA,143636.250,4308.3211,N,07726.2918,W,1,07,1.16,161.1,M,-34.4,M,,*5C
$GPRMC,143636.500,A,4308.3216,N,07726.2934,W,18.65,294.60,080923,,,A*4E
$GPGGA,143636.750,4308.3223,N,07726.2950,W,1,07,1.13,161.3,M,-34.4,M,,*53
$GPRMC,143637.000,A,4308.3229,N,07726.2967,W,19.34,297.24,080923,,,A*46
$GPGGA,143637.250,4308.3236,N,07726.2983,W,1,07,1.16,161.5,M,-34.4,M,,*5E
$GPRMC,143637.500,A,4308.3243,N,07726.3000,W,19.64,298.22,080923,,,A*4A
$GPGGA,143637.750,4308.3250,N,07726.3017,W,1,07,1.16,161.7,M,-34.4,M,,*5C
$GPRMC,143638.000,A,4308.3257,N,07726.3033,W,20.13,299.16,080923,,,A*49
$GPGGA,143638.250,4308.3265,N,07726.3050,W,1,07,1.16,162.0,M,-34.4,M,,*57
$GPRMC,143638.500,A,4308.3273,N,07726.3066,W,20.57,301.00,080923,,,A*4D
$GPGGA,143638.750,4308.3281,N,07726.3083,W,1,07,1.16,162.3,M,-34.4,M,,*55
$GPRMC,143639.000,A,4308.3289,N,07726.3100,W,20.98,302.49,080923,,,A*40
$GPGGA,143639.250,4308.3297,N,07726.3116,W,1,07,1.16,162.5,M,-34.4,M,,*5D
$GPRMC,143639.500,A,4308.3305,N,07726.3133,W,21.22,303.64,080923,,,A*4E
$GPGGA,143639.750,4308.3313,N,07726.3150,W,1,07,1.16,162.6,M,-34.4,M,,*54
$GPRMC,143640.000,A,4308.3321,N,07726.3167,W,21.86,303.52,080923,,,A*49
$GPGGA,143640.250,4308.3329,N,07726.3185,W,1,07,1.16,162.8,M,-34.4,M,,*50
$GPRMC,143640.500,A,4308.3337,N,07726.3203,W,22.17,302.96,080923,,,A*48
$GPGGA,143640.750,4308.3346,N,07726.3220,W,1,07,1.16,162.9,M,-34.4,M,,*51
$GPRMC,143641.000,A,4308.3354,N,07726.3239,W,22.74,302.68,080923,,,A*44
$GPGGA,143641.250,4308.3363,N,07726.3258,W,1,07,1.16,163.2,M,-34.4,M,,*57
$GPRMC,143641.500,A,4308.3372,N,07726.3277,W,23.29,302.54,080923,,,A*49
$GPGGA,143641.750,4308.3381,N,07726.3296,W,1,07,1.16,163.5,M,-34.4,M,,*5B
$GPRMC,143642.000,A,4308.3389,N,07726.3314,W,23.74,302.63,080923,,,A*43
$GPGGA,143642.250,4308.3398,N,07726.3334,W,1,07,1.16,163.7,M,-34.4,M,,*5E
$GPRMC,143642.500,A,4308.3407,N,07726.3353,W,23.93,302.39,080923,,,A*42
$GPGGA,143642.750,4308.3416,N,07726.3372,W,1,07,1.13,163.9,M,-34.4,M,,*53
$GPRMC,143643.000,A,4308.3425,N,07726.3392,W,23.93,302.71,080923,,,A*47
$GPGGA,143643.250,4308.3434,N,07726.3411,W,1,07,1.16,164.0,M,-34.4,M,,*5E
$GPRMC,143643.500,A,4308.3442,N,07726.3430,W,23.89,302.96,080923,,,A*4E
$GPGGA,143643.750,4308.3451,N,07726.3449,W,1,07,1.13,164.1,M,-34.4,M,,*51
$GPRMC,143644.000,A,4308.3460,N,07726.3468,W,23.88,303.52,080923,,,A*49
$GPGGA,143644.250,4308.3469,N,07726.3487,W,1,07,1.16,164.2,M,-34.4,M,,*5C
$GPRMC,143644.500,A,4308.3478,N,07726.3505,W,23.54,304.31,080923,,,A*4C
$GPGGA,143644.750,4308.3488,N,07726.3523,W,1,07,1.16,164.4,M,-34.4,M,,*5F
$GPRMC,143645.000,A,4308.3498,N,07726.3541,W,23.42,305.88,080923,,,A*42
$GPGGA,143645.250,4308.3509,N,07726.3558,W,1,07,1.16,164.7,M,-34.4,M,,*5C
$GPRMC,143645.500,A,4308.3519,N,07726.3576,W,23.38,307.42,080923,,,A*42
$GPGGA,143645.750,4308.3530,N,07726.3593,W,1,07,1.13,164.8,M,-34.4,M,,*5E
$GPRMC,143646.000,A,4308.3540,N,07726.3609,W,23.01,310.21,080923,,,A*4A
$GPGGA,143646.250,4308.3551,N,07726.3625,W,1,07,1.16,164.9,M,-34.4,M,,*55
$GPRMC,143646.500,A,4308.3562,N,07726.3642,W,22.90,313.40,080923,,,A*4D
$GPGGA,143646.750,4308.3576,N,07726.3657,W,1,07,1.13,164.9,M,-34.4,M,,*55
$GPRMC,143647.000,A,4308.3589,N,07726.3671,W,23.11,319.50,080923,,,A*4F
$GPGGA,143647.250,4308.3602,N,07726.3684,W,1,07,1.16,165.0,M,-34.4,M,,*52
$GPRMC,143647.500,A,4308.3615,N,07726.3697,W,22.88,323.14,080923,,,A*4C
$GPGGA,143647.750,4308.3628,N,07726.3710,W,1,07,1.16,165.2,M,-34.4,M,,*51
$GPRMC,143648.000,A,4308.3642,N,07726.3721,W,22.46,327.09,080923,,,A*42
$GPGGA,143648.250,4308.3656,N,07726.3731,W,1,07,1.16,165.4,M,-34.4,M,,*57
$GPRMC,143648.500,A,4308.3670,N,07726.3741,W,22.42,329.91,080923,,,A*4B
$GPGGA,143648.750,4308.3684,N,07726.3749,W,1,07,1.16,165.6,M,-34.4,M,,*50
$GPRMC,143649.000,A,4308.3699,N,07726.3758,W,22.22,334.18,080923,,,A*4B
$GPGGA,143649.250,4308.3715,N,07726.3765,W,1,07,1.16,165.8,M,-34.4,M,,*5D
$GPRMC,143649.500,A,4308.3730,N,07726.3772,W,22.30,337.95,080923,,,A*41
$GPGGA,143649.750,4308.3746,N,07726.3779,W,1,07,1.16,166.0,M,-34.4,M,,*58
$GPRMC,143650.000,A,4308.3762,N,07726.3784,W,23.00,341.70,080923,,,A*4A
$GPGGA,143650.250,4308.3779,N,07726.3789,W,1,07,1.16,166.2,M,-34.4,M,,*54
$GPRMC,143650.500,A,4308.3796,N,07726.3793,W,23.30,346.01,080923,,,A*40
$GPGGA,143650.750,4308.3812,N,07726.3798,W,1,07,1.16,166.4,M,-34.4,M,,*55
$GPRMC,143651.000,A,4308.3829,N,07726.3802,W,23.58,347.98,080923,,,A*47
$GPGGA,143651.250,4308.3846,N,07726.3805,W,1,07,1.16,166.6,M,-34.4,M,,*59
$GPRMC,143651.500,A,4308.3864,N,07726.3808,W,23.69,350.73,080923,,,A*40
$GPGGA,143651.750,4308.3881,N,07726.3808,W,1,07,1.16,166.8,M,-34.4,M,,*54
$GPRMC,143652.000,A,4308.3899,N,07726.3808,W,23.87,356.22,080923,,,A*46
$GPGGA,143652.250,4308.3916,N,07726.3807,W,1,07,1.16,167.0,M,-34.4,M,,*5B
$GPRMC,143652.500,A,4308.3934,N,07726.3805,W,23.91,0.56,080923,,,A*4C
$GPGGA,143652.750,4308.3951,N,07726.3801,W,1,07,1.16,167.3,M,-34.4,M,,*58
$GPRMC,143653.000,A,4308.3969,N,07726.3797,W,24.31,6.69,080923,,,A*43
$GPGGA,143653.250,4308.3987,N,07726.3791,W,1,07,1.16,167.3,M,-34.4,M,,*51
$GPRMC,143653.500,A,4308.4004,N,07726.3786,W,24.60,9.79,080923,,,A*49
$GPGGA,143653.750,4308.4022,N,07726.3780,W,1,07,1.16,167.4,M,-34.4,M,,*52
$GPRMC,143654.000,A,4308.4039,N,07726.3774,W,24.96,12.87,080923,,,A*7A
$GPGGA,143654.250,4308.4057,N,07726.3767,W,1,07,1.16,167.4,M,-34.4,M,,*5B
$GPRMC,143654.500,A,4308.4074,N,07726.3761,W,25.16,13.96,080923,,,A*7A
$GPGGA,143654.750,4308.4091,N,07726.3754,W,1,07,1.16,167.4,M,-34.4,M,,*54
$GPRMC,143655.000,A,4308.4109,N,07726.3747,W,25.21,14.56,080923,,,A*7E
$GPGGA,143655.250,4308.4126,N,07726.3740,W,1,07,1.16,167.4,M,-34.4,M,,*58
$GPRMC,143655.500,A,4308.4144,N,07726.3734,W,25.32,13.85,080923,,,A*7D
$GPGGA,143655.750,4308.4161,N,07726.3728,W,1,07,1.16,167.6,M,-34.4,M,,*52
$GPRMC,143656.000,A,4308.4179,N,07726.3723,W,25.37,12.65,080923,,,A*79
$GPGGA,143656.250,4308.4196,N,07726.3718,W,1,07,1.16,167.9,M,-34.4,M,,*50
$GPRMC,143656.500,A,4308.4213,N,07726.3713,W,25.17,10.93,080923,,,A*79
$GPGGA,143656.750,4308.4231,N,07726.3708,W,1,07,1.16,168.2,M,-34.4,M,,*5E
$GPRMC,143657.000,A,4308.4248,N,07726.3703,W,24.95,10.04,080923,,,A*77
$GPGGA,143657.250,4308.4265,N,07726.3699,W,1,07,1.16,168.5,M,-34.4,M,,*55
$GPRMC,143657.500,A,4308.4282,N,07726.3695,W,24.40,9.74,080923,,,A*4D
$GPGGA,143657.750,4308.4298,N,07726.3691,W,1,07,1.16,168.6,M,-34.4,M,,*59
$GPRMC,143658.000,A,4308.4315,N,07726.3687,W,23.98,9.39,080923,,,A*40
$GPGGA,143658.250,4308.4331,N,07726.3682,W,1,07,1.16,168.8,M,-34.4,M,,*5D
$GPRMC,143658.500,A,4308.4347,N,07726.3678,W,23.34,9.41,080923,,,A*4B
$GPGGA,143658.750,4308.4363,N,07726.3675,W,1,07,1.16,169.0,M,-34.4,M,,*5E
$GPRMC,143659.000,A,4308.4378,N,07726.3671,W,22.54,9.22,080923,,,A*48
$GPGGA,143659.250,4308.4393,N,07726.3667,W,1,07,1.16,169.3,M,-34.4,M,,*55
$GPRMC,143659.500,A,4308.4408,N,07726.3663,W,21.54,9.57,080923,,,A*4F
$GPGGA,143659.750,4308.4422,N,07726.3659,W,1,07,1.16,169.7,M,-34.4,M,,*54
$GPRMC,143700.000,A,4308.4436,N,07726.3656,W,19.60,9.40,080923,,,A*46
$GPGGA,143700.250,4308.4449,N,07726.3652,W,1,07,1.16,169.9,M,-34.4,M,,*54
$GPRMC,143700.500,A,4308.4461,N,07726.3649,W,17.97,9.79,080923,,,A*43
$GPGGA,143700.750,4308.4473,N,07726.3646,W,1,07,1.16,170.1,M,-34.4,M,,*5D
$GPRMC,143701.000,A,4308.4483,N,07726.3643,W,15.75,10.12,080923,,,A*7A
$GPGGA,143701.250,4308.4494,N,07726.3638,W,1,07,1.16,170.1,M,-34.4,M,,*59
$GPRMC,143701.500,A,4308.4503,N,07726.3635,W,13.78,9.89,080923,,,A*46
$GPGGA,143701.750,4308.4511,N,07726.3632,W,1,07,1.16,170.1,M,-34.4,M,,*5A
$GPRMC,143702.000,A,4308.4518,N,07726.3629,W,11.39,10.55,080923,,,A*79
$GPGGA,143702.250,4308.4525,N,07726.3626,W,1,07,1.16,170.1,M,-34.4,M,,*5E
$GPRMC,143702.500,A,4308.4531,N,07726.3624,W,9.49,8.73,080923,,,A*79
$GPGGA,143702.750,4308.4536,N,07726.3622,W,1,07,1.16,170.2,M,-34.4,M,,*5E
$GPRMC,143703.000,A,4308.4541,N,07726.3620,W,7.32,9.21,080923,,,A*7A
$GPGGA,143703.250,4308.4545,N,07726.3618,W,1,07,1.16,170.2,M,-34.4,M,,*57
$GPRMC,143703.500,A,4308.4550,N,07726.3617,W,6.05,6.57,080923,,,A*70
$GPGGA,143703.750,4308.4553,N,07726.3617,W,1,07,1.16,170.4,M,-34.4,M,,*5C
$GPRMC,143704.000,A,4308.4557,N,07726.3616,W,5.75,359.76,080923,,,A*7A
$GPGGA,143704.250,4308.4561,N,07726.3616,W,1,07,1.16,170.4,M,-34.4,M,,*5E
$GPRMC,143704.500,A,4308.4566,N,07726.3617,W,6.22,350.26,080923,,,A*71
$GPGGA,143704.750,4308.4570,N,07726.3618,W,1,07,1.16,170.3,M,-34.4,M,,*52
$GPRMC,143705.000,A,4308.4576,N,07726.3619,W,8.25,343.40,080923,,,A*71
$GPGGA,143705.250,4308.4582,N,07726.3623,W,1,07,1.16,170.4,M,-34.4,M,,*54
$GPRMC,143705.500,A,4308.4588,N,07726.3626,W,9.53,336.69,080923,,,A*70
$GPGGA,143705.750,4308.4594,N,07726.3633,W,1,07,1.13,170.5,M,-34.4,M,,*53
$GPRMC,143706.000,A,4308.4601,N,07726.3642,W,12.19,319.79,080923,,,A*4E
$GPGGA,143706.250,4308.4606,N,07726.3651,W,1,07,1.16,170.8,M,-34.4,M,,*51
$GPRMC,143706.500,A,4308.4611,N,07726.3661,W,12.97,308.87,080923,,,A*4C
$GPGGA,143706.750,4308.4616,N,07726.3673,W,1,07,1.16,171.0,M,-34.4,M,,*5C
$GPRMC,143707.000,A,4308.4621,N,07726.3687,W,15.60,297.66,080923,,,A*44
$GPGGA,143707.250,4308.4625,N,07726.3702,W,1,07,1.16,171.2,M,-34.4,M,,*5D
$GPRMC,143707.500,A,4308.4629,N,07726.3718,W,17.28,290.36,080923,,,A*42
$GPGGA,143707.750,4308.4633,N,07726.3735,W,1,07,1.16,171.3,M,-34.4,M,,*5A
$GPRMC,143708.000,A,4308.4636,N,07726.3754,W,19.34,284.46,080923,,,A*4F
$GPGGA,143708.250,4308.4637,N,07726.3774,W,1,07,1.16,171.5,M,-34.4,M,,*57
$GPRMC,143708.500,A,4308.4639,N,07726.3796,W,21.83,278.52,080923,,,A*4A
$GPGGA,143708.750,4308.4639,N,07726.3819,W,1,07,1.16,171.6,M,-34.4,M,,*5B
$GPRMC,143709.000,A,4308.4640,N,07726.3844,W,24.86,274.08,080923,,,A*43
$GPGGA,143709.250,4308.4641,N,07726.3869,W,1,07,1.16,171.7,M,-34.4,M,,*56
$GPRMC,143709.500,A,4308.4642,N,07726.3896,W,27.52,272.90,080923,,,A*46
$GPGGA,143709.750,4308.4642,N,07726.3924,W,1,07,1.16,171.9,M,-34.4,M,,*56
$GPRMC,143710.000,A,4308.4642,N,07726.3952,W,30.19,271.70,080923,,,A*46
$GPGGA,143710.250,4308.4643,N,07726.3983,W,1,07,1.16,172.3,M,-34.4,M,,*5E
$GPRMC,143710.500,A,4308.4644,N,07726.4014,W,32.83,272.33,080923,,,A*4C
$GPGGA,143710.750,4308.4645,N,07726.4047,W,1,07,1.15,172.4,M,-34.4,M,,*5F
$GPRMC,143711.000,A,4308.4647,N,07726.4081,W,35.06,274.59,080923,,,A*47
$GPGGA,143711.250,4308.4649,N,07726.4114,W,1,07,1.16,172.3,M,-34.4,M,,*54
$GPRMC,143711.500,A,4308.4653,N,07726.4147,W,35.68,277.49,080923,,,A*46
$GPGGA,143711.750,4308.4656,N,07726.4179,W,1,07,1.16,172.2,M,-34.4,M,,*55
$GPRMC,143712.000,A,4308.4659,N,07726.4211,W,32.83,279.28,080923,,,A*41
$GPGGA,143712.250,4308.4662,N,07726.4242,W,1,07,1.16,172.2,M,-34.4,M,,*5F
$GPRMC,143712.500,A,4308.4666,N,07726.4274,W,32.40,279.19,080923,,,A*46
$GPGGA,143712.750,4308.4668,N,07726.4305,W,1,07,1.15,172.3,M,-34.4,M,,*50
$GPRMC,143713.000,A,4308.4671,N,07726.4336,W,32.20,278.41,080923,,,A*49
$GPGGA,143713.250,4308.4675,N,07726.4368,W,1,07,1.16,172.4,M,-34.4,M,,*57
$GPRMC,143713.500,A,4308.4677,N,07726.4398,W,31.95,277.16,080923,,,A*4E
$GPGGA,143713.750,4308.4680,N,07726.4429,W,1,07,1.15,172.3,M,-34.4,M,,*5E
$GPRMC,143714.000,A,4308.4681,N,07726.4459,W,30.77,278.01,080923,,,A*4B
$GPGGA,143714.250,4308.4684,N,07726.4489,W,1,07,1.16,172.5,M,-34.4,M,,*57
$GPRMC,143714.500,A,4308.4687,N,07726.4518,W,30.63,278.83,080923,,,A*43
$GPGGA,143714.750,4308.4689,N,07726.4548,W,1,07,1.13,172.8,M,-34.4,M,,*5B
$GPRMC,143715.000,A,4308.4692,N,07726.4577,W,30.28,277.57,080923,,,A*43
$GPGGA,143715.250,4308.4695,N,07726.4606,W,1,07,1.15,173.1,M,-34.4,M,,*55
$GPRMC,143715.500,A,4308.4698,N,07726.4636,W,30.55,277.63,080923,,,A*47
$GPGGA,143715.750,4308.4700,N,07726.4665,W,1,07,1.15,173.5,M,-34.4,M,,*5C
$GPRMC,143716.000,A,4308.4703,N,07726.4693,W,30.19,277.86,080923,,,A*4E
$GPGGA,143716.250,4308.4706,N,07726.4723,W,1,07,1.15,173.7,M,-34.4,M,,*5D
$GPRMC,143716.500,A,4308.4709,N,07726.4752,W,30.09,278.05,080923,,,A*48
$GPGGA,143716.750,4308.4711,N,07726.4780,W,1,07,1.15,173.9,M,-34.4,M,,*59
$GPRMC,143717.000,A,4308.4714,N,07726.4809,W,29.92,278.20,080923,,,A*4C
$GPGGA,143717.250,4308.4717,N,07726.4838,W,1,07,1.15,174.2,M,-34.4,M,,*5B
$GPRMC,143717.500,A,4308.4720,N,07726.4867,W,29.78,278.15,080923,,,A*44
$GPGGA,143717.750,4308.4723,N,07726.4897,W,1,07,1.15,174.2,M,-34.4,M,,*5C
$GPRMC,143718.000,A,4308.4725,N,07726.4926,W,30.13,277.61,080923,,,A*46
$GPGGA,143718.250,4308.4728,N,07726.4956,W,1,07,1.15,174.3,M,-34.4,M,,*50
$GPRMC,143718.500,A,4308.4730,N,07726.4985,W,30.20,277.10,080923,,,A*48
$GPGGA,143718.750,4308.4732,N,07726.5014,W,1,07,1.15,174.7,M,-34.4,M,,*54
$GPRMC,143719.000,A,4308.4734,N,07726.5043,W,30.85,275.24,080923,,,A*40
$GPGGA,143719.250,4308.4736,N,07726.5073,W,1,07,1.15,175.0,M,-34.4,M,,*53
$GPRMC,143719.500,A,4308.4739,N,07726.5103,W,31.08,274.98,080923,,,A*4F
$GPGGA,143719.750,4308.4740,N,07726.5132,W,1,07,1.15,175.4,M,-34.4,M,,*57
$GPRMC,143720.000,A,4308.4742,N,07726.5162,W,31.20,274.45,080923,,,A*41
$GPGGA,143720.250,4308.4743,N,07726.5192,W,1,07,1.15,175.7,M,-34.4,M,,*52
$GPRMC,143720.500,A,4308.4745,N,07726.5222,W,31.68,274.28,080923,,,A*43
$GPGGA,143720.750,4308.4746,N,07726.5253,W,1,07,1.15,176.0,M,-34.4,M,,*58
$GPRMC,143721.000,A,4308.4748,N,07726.5284,W,32.47,274.14,080923,,,A*47
$GPGGA,143721.250,4308.4749,N,07726.5316,W,1,07,1.15,176.3,M,-34.4,M,,*50
$GPRMC,143721.500,A,4308.4750,N,07726.5347,W,33.39,273.71,080923,,,A*49
$GPGGA,143721.750,4308.4751,N,07726.5379,W,1,07,1.13,176.5,M,-34.4,M,,*55
$GPRMC,143722.000,A,4308.4752,N,07726.5412,W,33.87,272.61,080923,,,A*4F
$GPGGA,143722.250,4308.4753,N,07726.5444,W,1,07,1.15,176.6,M,-34.4,M,,*5D
$GPRMC,143722.500,A,4308.4754,N,07726.5477,W,34.10,272.41,080923,,,A*44
$GPGGA,143722.750,4308.4755,N,07726.5509,W,1,07,1.15,176.7,M,-34.4,M,,*57
$GPRMC,143723.000,A,4308.4756,N,07726.5542,W,34.33,272.61,080923,,,A*46
$GPGGA,143723.250,4308.4757,N,07726.5574,W,1,07,1.15,176.8,M,-34.4,M,,*54
$GPRMC,143723.500,A,4308.4758,N,07726.5607,W,34.58,272.42,080923,,,A*43
$GPGGA,143723.750,4308.4759,N,07726.5639,W,1,07,1.13,176.9,M,-34.4,M,,*52
$GPRMC,143724.000,A,4308.4760,N,07726.5672,W,34.60,272.70,080923,,,A*42
$GPGGA,143724.250,4308.4762,N,07726.5705,W,1,07,1.15,177.0,M,-34.4,M,,*58
$GPRMC,143724.500,A,4308.4763,N,07726.5738,W,34.68,273.17,080923,,,A*43
$GPGGA,143724.750,4308.4765,N,07726.5771,W,1,07,1.13,177.1,M,-34.4,M,,*5E
$GPRMC,143725.000,A,4308.4767,N,07726.5804,W,34.93,273.75,080923,,,A*43
$GPGGA,143725.250,4308.4768,N,07726.5838,W,1,07,1.15,177.2,M,-34.4,M,,*50
$GPRMC,143725.500,A,4308.4770,N,07726.5871,W,35.16,273.87,080923,,,A*43
$GPGGA,143725.750,4308.4772,N,07726.5905,W,1,07,1.15,177.3,M,-34.4,M,,*50
$GPRMC,143726.000,A,4308.4773,N,07726.5939,W,35.30,274.00,080923,,,A*47
$GPGGA,143726.250,4308.4775,N,07726.5973,W,1,07,1.15,177.5,M,-34.4,M,,*56
$GPRMC,143726.500,A,4308.4776,N,07726.6008,W,35.53,273.98,080923,,,A*4C
$GPGGA,143726.750,4308.4778,N,07726.6042,W,1,07,1.15,177.6,M,-34.4,M,,*55
$GPRMC,143727.000,A,4308.4779,N,07726.6077,W,36.08,273.68,080923,,,A*4D
$GPGGA,143727.250,4308.4780,N,07726.6113,W,1,07,1.15,177.7,M,-34.4,M,,*52
$GPRMC,143727.500,A,4308.4781,N,07726.6148,W,36.45,273.02,080923,,,A*47
$GPGGA,143727.750,4308.4783,N,07726.6184,W,1,07,1.15,177.9,M,-34.4,M,,*54
$GPRMC,143728.000,A,4308.4784,N,07726.6220,W,38.00,272.22,080923,,,A*49
$GPGGA,143728.250,4308.4785,N,07726.6258,W,1,07,1.15,178.1,M,-34.4,M,,*5D
$GPRMC,143728.500,A,4308.4786,N,07726.6295,W,38.75,270.99,080923,,,A*40
$GPGGA,143728.750,4308.4787,N,07726.6332,W,1,07,1.15,178.3,M,-34.4,M,,*55
$GPRMC,143729.000,A,4308.4787,N,07726.6370,W,39.03,270.19,080923,,,A*47
$GPGGA,143729.250,4308.4787,N,07726.6408,W,1,07,1.15,178.5,M,-34.4,M,,*59
$GPRMC,143729.500,A,4308.4787,N,07726.6446,W,39.32,269.49,080923,,,A*4F
$GPGGA,143729.750,4308.4787,N,07726.6484,W,1,07,1.15,178.5,M,-34.4,M,,*58
$GPRMC,143730.000,A,4308.4787,N,07726.6523,W,39.84,268.72,080923,,,A*44
$GPGGA,143730.250,4308.4786,N,07726.6562,W,1,07,1.15,178.6,M,-34.4,M,,*5E
$GPRMC,143730.500,A,4308.4785,N,07726.6601,W,40.34,267.77,080923,,,A*4F
$GPGGA,143730.750,4308.4785,N,07726.6641,W,1,07,1.15,178.6,M,-34.4,M,,*5A
$GPRMC,143731.000,A,4308.4784,N,07726.6681,W,40.95,267.45,080923,,,A*48
$GPGGA,143731.250,4308.4782,N,07726.6720,W,1,07,1.15,178.7,M,-34.4,M,,*5E
$GPRMC,143731.500,A,4308.4781,N,07726.6760,W,41.21,266.64,080923,,,A*4A
$GPGGA,143731.750,4308.4779,N,07726.6800,W,1,07,1.15,178.8,M,-34.4,M,,*5D
$GPRMC,143732.000,A,4308.4777,N,07726.6840,W,41.71,266.08,080923,,,A*47
$GPGGA,143732.250,4308.4774,N,07726.6880,W,1,07,1.15,179.0,M,-34.4,M,,*57
$GPRMC,143732.500,A,4308.4772,N,07726.6920,W,41.83,266.09,080923,,,A*4C
$GPGGA,143732.750,4308.4770,N,07726.6961,W,1,07,1.15,179.3,M,-34.4,M,,*5B
$GPRMC,143733.000,A,4308.4767,N,07726.7001,W,42.03,266.38,080923,,,A*4E
$GPGGA,143733.250,4308.4765,N,07726.7041,W,1,07,1.15,179.6,M,-34.4,M,,*54
$GPRMC,143733.500,A,4308.4763,N,07726.7081,W,42.08,266.02,080923,,,A*45
$GPGGA,143733.750,4308.4761,N,07726.7122,W,1,07,1.15,180.0,M,-34.4,M,,*51
$GPRMC,143734.000,A,4308.4758,N,07726.7162,W,42.20,266.07,080923,,,A*4C
$GPGGA,143734.250,4308.4756,N,07726.7203,W,1,07,1.15,180.6,M,-34.4,M,,*51
$GPRMC,143734.500,A,4308.4754,N,07726.7243,W,42.51,266.13,080923,,,A*46
$GPGGA,143734.750,4308.4752,N,07726.7284,W,1,07,1.15,181.1,M,-34.4,M,,*59
$GPRMC,143735.000,A,4308.4750,N,07726.7325,W,42.85,266.27,080923,,,A*49
$GPGGA,143735.250,4308.4747,N,07726.7366,W,1,07,1.15,181.5,M,-34.4,M,,*50
$GPRMC,143735.500,A,4308.4744,N,07726.7406,W,42.94,265.92,080923,,,A*42
$GPGGA,143735.750,4308.4742,N,07726.7447,W,1,07,1.15,182.0,M,-34.4,M,,*52
$GPRMC,143736.000,A,4308.4739,N,07726.7488,W,43.03,265.56,080923,,,A*4F
$GPGGA,143736.250,4308.4736,N,07726.7528,W,1,07,1.15,182.5,M,-34.4,M,,*5A
$GPRMC,143736.500,A,4308.4736,N,07726.7570,W,43.13,266.32,080923,,,A*43
$GPGGA,143736.750,4308.4733,N,07726.7611,W,1,07,1.15,182.3,M,-34.4,M,,*55
$GPRMC,143737.000,A,4308.4731,N,07726.7652,W,42.97,265.77,080923,,,A*4C
$GPGGA,143737.250,4308.4728,N,07726.7692,W,1,07,1.15,182.9,M,-34.4,M,,*5A
$GPRMC,143737.500,A,4308.4726,N,07726.7732,W,42.66,265.38,080923,,,A*4D
$GPGGA,143737.750,4308.4723,N,07726.7772,W,1,07,1.15,183.4,M,-34.4,M,,*57
$GPRMC,143738.000,A,4308.4720,N,07726.7811,W,42.21,264.11,080923,,,A*46
$GPGGA,143738.250,4308.4717,N,07726.7851,W,1,07,1.15,183.8,M,-34.4,M,,*58
$GPRMC,143738.500,A,4308.4714,N,07726.7891,W,41.86,264.01,080923,,,A*43
$GPGGA,143738.750,4308.4712,N,07726.7931,W,1,07,1.15,183.9,M,-34.4,M,,*5E
$GPRMC,143739.000,A,4308.4711,N,07726.7970,W,41.23,264.38,080923,,,A*49
$GPGGA,143739.250,4308.4708,N,07726.8009,W,1,07,1.15,184.0,M,-34.4,M,,*52
$GPRMC,143739.500,A,4308.4705,N,07726.8048,W,40.82,264.06,080923,,,A*43
$GPGGA,143739.750,4308.4703,N,07726.8086,W,1,07,1.13,184.2,M,-34.4,M,,*5F
$GPRMC,143740.000,A,4308.4701,N,07726.8125,W,40.62,264.14,080923,,,A*4B
$GPGGA,143740.250,4308.4698,N,07726.8163,W,1,07,1.15,184.3,M,-34.4,M,,*5A
$GPRMC,143740.500,A,4308.4696,N,07726.8202,W,40.64,264.93,080923,,,A*4E
$GPGGA,143740.750,4308.4695,N,07726.8241,W,1,07,1.15,184.1,M,-34.4,M,,*53
$GPRMC,143741.000,A,4308.4693,N,07726.8280,W,40.59,265.75,080923,,,A*42
$GPGGA,143741.250,4308.4691,N,07726.8319,W,1,07,1.15,183.7,M,-34.4,M,,*5E
$GPRMC,143741.500,A,4308.4689,N,07726.8357,W,40.21,265.73,080923,,,A*4E
$GPGGA,143741.750,4308.4687,N,07726.8395,W,1,07,1.15,183.4,M,-34.4,M,,*5B
$GPRMC,143742.000,A,4308.4685,N,07726.8433,W,39.71,265.80,080923,,,A*46
$GPGGA,143742.250,4308.4684,N,07726.8471,W,1,07,1.15,183.2,M,-34.4,M,,*55
$GPRMC,143742.500,A,4308.4682,N,07726.8509,W,39.51,265.89,080923,,,A*47
$GPGGA,143742.750,4308.4681,N,07726.8547,W,1,07,1.15,183.0,M,-34.4,M,,*53
$GPRMC,143743.000,A,4308.4679,N,07726.8585,W,39.42,266.01,080923,,,A*42
$GPGGA,143743.250,4308.4677,N,07726.8622,W,1,07,1.15,182.8,M,-34.4,M,,*57
$GPRMC,143743.500,A,4308.4675,N,07726.8659,W,38.96,266.29,080923,,,A*4B
$GPGGA,143743.750,4308.4673,N,07726.8696,W,1,07,1.15,182.7,M,-34.4,M,,*56
$GPRMC,143744.000,A,4308.4671,N,07726.8733,W,38.60,265.92,080923,,,A*4A
$GPGGA,143744.250,4308.4668,N,07726.8769,W,1,07,1.15,182.5,M,-34.4,M,,*5D
$GPRMC,143744.500,A,4308.4666,N,07726.8805,W,38.43,265.46,080923,,,A*4B
$GPGGA,143744.750,4308.4664,N,07726.8842,W,1,07,1.15,182.4,M,-34.4,M,,*53
$GPRMC,143745.000,A,4308.4662,N,07726.8879,W,38.87,265.68,080923,,,A*44
$GPGGA,143745.250,4308.4659,N,07726.8916,W,1,07,1.15,182.4,M,-34.4,M,,*59
$GPRMC,143745.500,A,4308.4657,N,07726.8953,W,39.06,265.43,080923,,,A*4F
$GPGGA,143745.750,4308.4655,N,07726.8991,W,1,07,1.15,182.2,M,-34.4,M,,*59
$GPRMC,143746.000,A,4308.4654,N,07726.9028,W,39.28,265.87,080923,,,A*4A
$GPGGA,143746.250,4308.4652,N,07726.9066,W,1,07,1.15,182.0,M,-34.4,M,,*5A
$GPRMC,143746.500,A,4308.4650,N,07726.9104,W,39.35,265.99,080923,,,A*47
$GPGGA,143746.750,4308.4649,N,07726.9142,W,1,07,1.15,181.7,M,-34.4,M,,*56
$GPRMC,143747.000,A,4308.4647,N,07726.9180,W,39.54,266.33,080923,,,A*4D
$GPGGA,143747.250,4308.4645,N,07726.9217,W,1,07,1.15,181.2,M,-34.4,M,,*58
$GPRMC,143747.500,A,4308.4643,N,07726.9255,W,39.41,266.21,080923,,,A*40
$GPGGA,143747.750,4308.4641,N,07726.9293,W,1,07,1.15,181.0,M,-34.4,M,,*57
$GPRMC,143748.000,A,4308.4639,N,07726.9330,W,39.50,266.21,080923,,,A*45
$GPGGA,143748.250,4308.4637,N,07726.9368,W,1,07,1.15,180.7,M,-34.4,M,,*5F
$GPRMC,143748.500,A,4308.4635,N,07726.9406,W,39.58,266.21,080923,,,A*46
$GPGGA,143748.750,4308.4634,N,07726.9443,W,1,07,1.15,180.4,M,-34.4,M,,*54
$GPRMC,143749.000,A,4308.4632,N,07726.9481,W,39.65,265.90,080923,,,A*4D
$GPGGA,143749.250,4308.4629,N,07726.9519,W,1,07,1.15,180.0,M,-34.4,M,,*56
$GPRMC,143749.500,A,4308.4627,N,07726.9556,W,39.68,265.64,080923,,,A*41
$GPGGA,143749.750,4308.4625,N,07726.9593,W,1,07,1.13,179.8,M,-34.4,M,,*55
$GPRMC,143750.000,A,4308.4622,N,07726.9631,W,39.45,265.19,080923,,,A*4E
$GPGGA,143750.250,4308.4621,N,07726.9669,W,1,07,1.15,179.4,M,-34.4,M,,*50
$GPRMC,143750.500,A,4308.4619,N,07726.9706,W,39.42,265.46,080923,,,A*4B
$GPGGA,143750.750,4308.4616,N,07726.9743,W,1,07,1.15,179.1,M,-34.4,M,,*5D
$GPRMC,143751.000,A,4308.4614,N,07726.9780,W,39.00,265.48,080923,,,A*44
$GPGGA,143751.250,4308.4612,N,07726.9817,W,1,07,1.15,178.8,M,-34.4,M,,*5B
$GPRMC,143751.500,A,4308.4610,N,07726.9854,W,38.95,265.64,080923,,,A*40
$GPGGA,143751.750,4308.4609,N,07726.9891,W,1,07,1.15,178.5,M,-34.4,M,,*57
$GPRMC,143752.000,A,4308.4606,N,07726.9928,W,38.87,266.01,080923,,,A*48
$GPGGA,143752.250,4308.4604,N,07726.9964,W,1,07,1.15,178.3,M,-34.4,M,,*51
$GPRMC,143752.500,A,4308.4601,N,07727.0000,W,38.84,265.94,080923,,,A*4D
$GPGGA,143752.750,4308.4599,N,07727.0037,W,1,07,1.13,178.2,M,-34.4,M,,*53
$GPRMC,143753.000,A,4308.4597,N,07727.0074,W,38.87,266.18,080923,,,A*42
$GPGGA,143753.250,4308.4595,N,07727.0111,W,1,07,1.15,178.1,M,-34.4,M,,*5B
$GPRMC,143753.500,A,4308.4593,N,07727.0147,W,38.91,266.66,080923,,,A*4C
$GPGGA,143753.750,4308.4592,N,07727.0184,W,1,07,1.13,178.1,M,-34.4,M,,*53
$GPRMC,143754.000,A,4308.4590,N,07727.0221,W,38.94,266.48,080923,,,A*47
$GPGGA,143754.250,4308.4588,N,07727.0258,W,1,07,1.15,178.1,M,-34.4,M,,*5E
$GPRMC,143754.500,A,4308.4586,N,07727.0295,W,39.18,266.52,080923,,,A*44
$GPGGA,143754.750,4308.4584,N,07727.0331,W,1,07,1.13,178.1,M,-34.4,M,,*5F
$GPRMC,143755.000,A,4308.4582,N,07727.0368,W,39.10,267.11,080923,,,A*49
$GPGGA,143755.250,4308.4580,N,07727.0405,W,1,07,1.15,177.9,M,-34.4,M,,*5E
$GPRMC,143755.500,A,4308.4578,N,07727.0441,W,38.91,267.46,080923,,,A*4F
$GPGGA,143755.750,4308.4577,N,07727.0478,W,1,07,1.13,177.9,M,-34.4,M,,*5F
$GPRMC,143756.000,A,4308.4576,N,07727.0514,W,38.66,268.11,080923,,,A*43
$GPGGA,143756.250,4308.4576,N,07727.0550,W,1,07,1.15,178.0,M,-34.4,M,,*53
$GPRMC,143756.500,A,4308.4575,N,07727.0586,W,38.55,268.82,080923,,,A*44
$GPGGA,143756.750,4308.4575,N,07727.0622,W,1,07,1.15,178.1,M,-34.4,M,,*52
$GPRMC,143757.000,A,4308.4574,N,07727.0657,W,37.71,269.64,080923,,,A*4E
$GPGGA,143757.250,4308.4574,N,07727.0692,W,1,07,1.15,178.1,M,-34.4,M,,*5C
$GPRMC,143757.500,A,4308.4574,N,07727.0727,W,37.30,270.18,080923,,,A*4B
$GPGGA,143757.750,4308.4574,N,07727.0762,W,1,07,1.15,178.1,M,-34.4,M,,*57
$GPRMC,143758.000,A,4308.4576,N,07727.0795,W,36.96,272.44,080923,,,A*4C
$GPGGA,143758.250,4308.4579,N,07727.0827,W,1,07,1.15,178.0,M,-34.4,M,,*5F
$GPRMC,143758.500,A,4308.4581,N,07727.0859,W,33.47,275.31,080923,,,A*42
$GPGGA,143758.750,4308.4584,N,07727.0889,W,1,07,1.15,178.0,M,-34.4,M,,*5C
$GPRMC,143759.000,A,4308.4587,N,07727.0918,W,30.42,278.20,080923,,,A*4F
$GPGGA,143759.250,4308.4590,N,07727.0944,W,1,07,1.15,177.8,M,-34.4,M,,*5A
$GPRMC,143759.500,A,4308.4594,N,07727.0969,W,26.73,280.61,080923,,,A*49
$GPGGA,143759.750,4308.4597,N,07727.0992,W,1,07,1.15,177.7,M,-34.4,M,,*5C
$GPRMC,143800.000,A,4308.4600,N,07727.1012,W,21.92,283.86,080923,,,A*47
$GPGGA,143800.250,4308.4603,N,07727.1029,W,1,07,1.15,177.6,M,-34.4,M,,*5D
$GPRMC,143800.500,A,4308.4605,N,07727.1045,W,17.91,282.46,080923,,,A*4E
$GPGGA,143800.750,4308.4608,N,07727.1058,W,1,07,1.15,177.3,M,-34.4,M,,*50
$GPRMC,143801.000,A,4308.4612,N,07727.1068,W,13.23,288.75,080923,,,A*44
$GPGGA,143801.250,4308.4615,N,07727.1075,W,1,07,1.15,177.0,M,-34.4,M,,*54
$GPRMC,143801.500,A,4308.4618,N,07727.1080,W,10.53,297.70,080923,,,A*42
$GPGGA,143801.750,4308.4622,N,07727.1086,W,1,07,1.15,176.8,M,-34.4,M,,*50
$GPRMC,143802.000,A,4308.4624,N,07727.1092,W,9.49,295.64,080923,,,A*7C
$GPGGA,143802.250,4308.4624,N,07727.1098,W,1,07,1.15,176.7,M,-34.4,M,,*50
$GPRMC,143802.500,A,4308.4624,N,07727.1104,W,8.57,288.33,080923,,,A*77
$GPGGA,143802.750,4308.4624,N,07727.1110,W,1,07,1.15,176.6,M,-34.4,M,,*55
$GPRMC,143803.000,A,4308.4624,N,07727.1117,W,8.46,281.75,080923,,,A*7A
$GPGGA,143803.250,4308.4624,N,07727.1124,W,1,07,1.15,176.6,M,-34.4,M,,*56
$GPRMC,143803.500,A,4308.4624,N,07727.1131,W,9.35,280.63,080923,,,A*78
$GPGGA,143803.750,4308.4625,N,07727.1140,W,1,07,1.15,176.4,M,-34.4,M,,*52
$GPRMC,143804.000,A,4308.4625,N,07727.1150,W,10.95,280.14,080923,,,A*4E
$GPGGA,143804.250,4308.4626,N,07727.1160,W,1,07,1.15,176.3,M,-34.4,M,,*56
$GPRMC,143804.500,A,4308.4625,N,07727.1172,W,12.89,278.65,080923,,,A*45
$GPGGA,143804.750,4308.4626,N,07727.1184,W,1,07,1.15,176.0,M,-34.4,M,,*5A
$GPRMC,143805.000,A,4308.4628,N,07727.1196,W,14.15,278.41,080923,,,A*43
$GPGGA,143805.250,4308.4629,N,07727.1209,W,1,07,1.15,175.8,M,-34.4,M,,*5C
$GPRMC,143805.500,A,4308.4631,N,07727.1222,W,15.44,278.34,080923,,,A*45
$GPGGA,143805.750,4308.4632,N,07727.1236,W,1,07,1.15,175.5,M,-34.4,M,,*52
$GPRMC,143806.000,A,4308.4634,N,07727.1251,W,16.61,278.30,080923,,,A*42
$GPGGA,143806.250,4308.4636,N,07727.1267,W,1,07,1.15,175.2,M,-34.4,M,,*53
$GPRMC,143806.500,A,4308.4637,N,07727.1283,W,18.12,277.59,080923,,,A*41
$GPGGA,143806.750,4308.4639,N,07727.1300,W,1,07,1.15,175.0,M,-34.4,M,,*5B
$GPRMC,143807.000,A,4308.4640,N,07727.1318,W,19.75,278.11,080923,,,A*45
$GPGGA,143807.250,4308.4642,N,07727.1336,W,1,07,1.15,174.9,M,-34.4,M,,*5E
$GPRMC,143807.500,A,4308.4645,N,07727.1356,W,21.24,278.04,080923,,,A*44
$GPGGA,143807.750,4308.4647,N,07727.1375,W,1,07,1.15,174.7,M,-34.4,M,,*57
$GPRMC,143808.000,A,4308.4649,N,07727.1396,W,22.62,278.43,080923,,,A*4C
$GPGGA,143808.250,4308.4651,N,07727.1418,W,1,07,1.15,174.6,M,-34.4,M,,*57
$GPRMC,143808.500,A,4308.4654,N,07727.1439,W,24.04,278.66,080923,,,A*46
$GPGGA,143808.750,4308.4656,N,07727.1462,W,1,07,1.15,174.6,M,-34.4,M,,*58
$GPRMC,143809.000,A,4308.4658,N,07727.1485,W,24.98,279.02,080923,,,A*4F
$GPGGA,143809.250,4308.4661,N,07727.1509,W,1,07,1.15,174.5,M,-34.4,M,,*57
$GPRMC,143809.500,A,4308.4664,N,07727.1533,W,25.91,279.03,080923,,,A*40
$GPGGA,143809.750,4308.4666,N,07727.1557,W,1,07,1.15,174.5,M,-34.4,M,,*5E
$GPRMC,143810.000,A,4308.4669,N,07727.1582,W,26.82,279.55,080923,,,A*48
$GPGGA,143810.250,4308.4672,N,07727.1607,W,1,07,1.15,174.5,M,-34.4,M,,*50
$GPRMC,143810.500,A,4308.4675,N,07727.1633,W,27.40,279.61,080923,,,A*41
$GPGGA,143810.750,4308.4678,N,07727.1659,W,1,07,1.15,174.5,M,-34.4,M,,*54
$GPRMC,143811.000,A,4308.4681,N,07727.1685,W,27.99,280.29,080923,,,A*4D
$GPGGA,143811.250,4308.4685,N,07727.1712,W,1,07,1.15,174.6,M,-34.4,M,,*5F
$GPRMC,143811.500,A,4308.4688,N,07727.1739,W,29.09,280.60,080923,,,A*4D
$GPGGA,143811.750,4308.4692,N,07727.1766,W,1,07,1.13,174.6,M,-34.4,M,,*59
$GPRMC,143812.000,A,4308.4695,N,07727.1793,W,29.42,279.41,080923,,,A*4D
$GPGGA,143812.250,4308.4698,N,07727.1821,W,1,07,1.15,174.5,M,-34.4,M,,*5C
$GPRMC,143812.500,A,4308.4701,N,07727.1849,W,29.99,279.20,080923,,,A*4D
$GPGGA,143812.750,4308.4704,N,07727.1877,W,1,07,1.15,174.5,M,-34.4,M,,*5E
$GPRMC,143813.000,A,4308.4707,N,07727.1906,W,30.10,279.07,080923,,,A*49
$GPGGA,143813.250,4308.4710,N,07727.1935,W,1,07,1.15,174.5,M,-34.4,M,,*58
$GPRMC,143813.500,A,4308.4714,N,07727.1965,W,31.75,278.74,080923,,,A*4C
$GPGGA,143813.750,4308.4717,N,07727.1995,W,1,07,1.15,174.6,M,-34.4,M,,*53
$GPRMC,143814.000,A,4308.4720,N,07727.2026,W,32.73,278.38,080923,,,A*49
$GPGGA,143814.250,4308.4724,N,07727.2057,W,1,07,1.15,174.6,M,-34.4,M,,*55
$GPRMC,143814.500,A,4308.4727,N,07727.2089,W,33.65,278.54,080923,,,A*42
$GPGGA,143814.750,4308.4730,N,07727.2121,W,1,07,1.15,174.6,M,-34.4,M,,*55
$GPRMC,143815.000,A,4308.4734,N,07727.2153,W,34.19,278.88,080923,,,A*4F
$GPGGA,143815.250,4308.4737,N,07727.2186,W,1,07,1.15,174.5,M,-34.4,M,,*58
$GPRMC,143815.500,A,4308.4741,N,07727.2219,W,34.85,278.73,080923,,,A*44
$GPGGA,143815.750,4308.4745,N,07727.2252,W,1,07,1.15,174.4,M,-34.4,M,,*53
$GPRMC,143816.000,A,4308.4749,N,07727.2285,W,35.39,278.94,080923,,,A*40
$GPGGA,143816.250,4308.4753,N,07727.2318,W,1,07,1.15,174.4,M,-34.4,M,,*5D
$GPRMC,143816.500,A,4308.4757,N,07727.2352,W,35.51,279.17,080923,,,A*45
$GPGGA,143816.750,4308.4761,N,07727.2385,W,1,07,1.15,174.4,M,-34.4,M,,*5D
$GPRMC,143817.000,A,4308.4766,N,07727.2419,W,35.86,279.33,080923,,,A*47
$GPGGA,143817.250,4308.4770,N,07727.2453,W,1,07,1.15,174.4,M,-34.4,M,,*55
$GPRMC,143817.500,A,4308.4775,N,07727.2488,W,36.05,279.65,080923,,,A*43
$GPGGA,143817.750,4308.4779,N,07727.2523,W,1,07,1.15,174.1,M,-34.4,M,,*5A
$GPRMC,143818.000,A,4308.4783,N,07727.2558,W,36.90,279.26,080923,,,A*47
$GPGGA,143818.250,4308.4787,N,07727.2594,W,1,07,1.15,173.9,M,-34.4,M,,*52
$GPRMC,143818.500,A,4308.4791,N,07727.2629,W,37.32,278.77,080923,,,A*48
$GPGGA,143818.750,4308.4795,N,07727.2665,W,1,07,1.15,173.7,M,-34.4,M,,*57
$GPRMC,143819.000,A,4308.4799,N,07727.2701,W,37.81,278.90,080923,,,A*4E
$GPGGA,143819.250,4308.4803,N,07727.2737,W,1,07,1.15,173.6,M,-34.4,M,,*54
$GPRMC,143819.500,A,4308.4808,N,07727.2773,W,38.29,279.37,080923,,,A*48
$GPGGA,143819.750,4308.4812,N,07727.2809,W,1,07,1.15,173.5,M,-34.4,M,,*50
$GPRMC,143820.000,A,4308.4817,N,07727.2846,W,38.70,279.86,080923,,,A*46
$GPGGA,143820.250,4308.4821,N,07727.2882,W,1,07,1.15,173.3,M,-34.4,M,,*5A
$GPRMC,143820.500,A,4308.4826,N,07727.2919,W,38.95,280.00,080923,,,A*49
$GPGGA,143820.750,4308.4831,N,07727.2956,W,1,07,1.15,173.1,M,-34.4,M,,*54
$GPRMC,143821.000,A,4308.4835,N,07727.2992,W,39.19,280.22,080923,,,A*49
$GPGGA,143821.250,4308.4840,N,07727.3029,W,1,07,1.15,173.0,M,-34.4,M,,*57
$GPRMC,143821.500,A,4308.4845,N,07727.3066,W,39.20,280.34,080923,,,A*45
$GPGGA,143821.750,4308.4850,N,07727.3103,W,1,07,1.15,172.9,M,-34.4,M,,*52
$GPRMC,143822.000,A,4308.4854,N,07727.3140,W,39.26,279.77,080923,,,A*41
$GPGGA,143822.250,4308.4859,N,07727.3177,W,1,07,1.15,172.9,M,-34.4,M,,*5E
$GPRMC,143822.500,A,4308.4863,N,07727.3214,W,39.72,279.44,080923,,,A*43
$GPGGA,143822.750,4308.4867,N,07727.3251,W,1,07,1.15,172.8,M,-34.4,M,,*50
$GPRMC,143823.000,A,4308.4871,N,07727.3289,W,39.85,278.78,080923,,,A*46
$GPGGA,143823.250,4308.4875,N,07727.3326,W,1,07,1.15,172.5,M,-34.4,M,,*5B
$GPRMC,143823.500,A,4308.4879,N,07727.3363,W,39.89,278.16,080923,,,A*4A
$GPGGA,143823.750,4308.4884,N,07727.3401,W,1,07,1.15,172.3,M,-34.4,M,,*54
$GPRMC,143824.000,A,4308.4888,N,07727.3438,W,39.96,278.26,080923,,,A*42
$GPGGA,143824.250,4308.4892,N,07727.3476,W,1,07,1.15,172.2,M,-34.4,M,,*50
$GPRMC,143824.500,A,4308.4897,N,07727.3513,W,40.01,279.03,080923,,,A*47
$GPGGA,143824.750,4308.4901,N,07727.3551,W,1,07,1.15,172.0,M,-34.4,M,,*58
$GPRMC,143825.000,A,4308.4906,N,07727.3589,W,40.42,278.86,080923,,,A*42
$GPGGA,143825.250,4308.4910,N,07727.3627,W,1,07,1.15,171.9,M,-34.4,M,,*54
$GPRMC,143825.500,A,4308.4915,N,07727.3665,W,40.18,279.88,080923,,,A*44
$GPGGA,143825.750,4308.4920,N,07727.3703,W,1,07,1.15,171.5,M,-34.4,M,,*59
$GPRMC,143826.000,A,4308.4925,N,07727.3741,W,40.47,279.73,080923,,,A*48
$GPGGA,143826.250,4308.4930,N,07727.3779,W,1,07,1.15,171.3,M,-34.4,M,,*55
$GPRMC,143826.500,A,4308.4935,N,07727.3817,W,40.23,279.33,080923,,,A*46
$GPGGA,143826.750,4308.4939,N,07727.3855,W,1,07,1.15,170.9,M,-34.4,M,,*53
$GPRMC,143827.000,A,4308.4944,N,07727.3892,W,40.62,279.51,080923,,,A*48
$GPGGA,143827.250,4308.4949,N,07727.3931,W,1,07,1.15,170.6,M,-34.4,M,,*5C
$GPRMC,143827.500,A,4308.4954,N,07727.3969,W,40.88,279.51,080923,,,A*4D
$GPGGA,143827.750,4308.4959,N,07727.4007,W,1,07,1.15,170.3,M,-34.4,M,,*56
$GPRMC,143828.000,A,4308.4963,N,07727.4046,W,41.09,279.67,080923,,,A*4D
$GPGGA,143828.250,4308.4968,N,07727.4084,W,1,07,1.15,170.2,M,-34.4,M,,*54
$GPRMC,143828.500,A,4308.4973,N,07727.4122,W,41.38,280.09,080923,,,A*46
$GPGGA,143828.750,4308.4978,N,07727.4161,W,1,07,1.15,170.0,M,-34.4,M,,*58
$GPRMC,143829.000,A,4308.4983,N,07727.4200,W,41.64,280.11,080923,,,A*4E
$GPGGA,143829.250,4308.4987,N,07727.4239,W,1,07,1.15,170.2,M,-34.4,M,,*50
$GPRMC,143829.500,A,4308.4992,N,07727.4278,W,41.87,279.24,080923,,,A*49
$GPGGA,143829.750,4308.4996,N,07727.4317,W,1,07,1.15,170.2,M,-34.4,M,,*58
$GPRMC,143830.000,A,4308.5001,N,07727.4356,W,42.09,279.19,080923,,,A*40
$GPGGA,143830.250,4308.5005,N,07727.4396,W,1,07,1.15,170.3,M,-34.4,M,,*5F
$GPRMC,143830.500,A,4308.5010,N,07727.4435,W,42.15,279.21,080923,,,A*41
$GPGGA,143830.750,4308.5014,N,07727.4475,W,1,07,1.13,170.3,M,-34.4,M,,*56
$GPRMC,143831.000,A,4308.5019,N,07727.4515,W,42.31,279.07,080923,,,A*4D
$GPGGA,143831.250,4308.5023,N,07727.4555,W,1,07,1.15,170.3,M,-34.4,M,,*53
$GPRMC,143831.500,A,4308.5028,N,07727.4595,W,42.46,278.66,080923,,,A*44
$GPGGA,143831.750,4308.5032,N,07727.4635,W,1,07,1.15,170.3,M,-34.4,M,,*53
$GPRMC,143832.000,A,4308.5037,N,07727.4675,W,42.81,278.92,080923,,,A*41
$GPGGA,143832.250,4308.5041,N,07727.4716,W,1,07,1.15,170.4,M,-34.4,M,,*56
$GPRMC,143832.500,A,4308.5046,N,07727.4756,W,42.76,278.98,080923,,,A*40
$GPGGA,143832.750,4308.5051,N,07727.4796,W,1,07,1.15,170.4,M,-34.4,M,,*5A
$GPRMC,143833.000,A,4308.5056,N,07727.4836,W,42.74,279.26,080923,,,A*4A
$GPGGA,143833.250,4308.5060,N,07727.4875,W,1,07,1.15,170.3,M,-34.4,M,,*59
$GPRMC,143833.500,A,4308.5065,N,07727.4915,W,42.71,279.17,080923,,,A*48
$GPGGA,143833.750,4308.5070,N,07727.4955,W,1,07,1.15,170.2,M,-34.4,M,,*5F
$GPRMC,143834.000,A,4308.5075,N,07727.4995,W,42.71,279.57,080923,,,A*47
$GPGGA,143834.250,4308.5080,N,07727.5035,W,1,07,1.15,169.9,M,-34.4,M,,*5F
$GPRMC,143834.500,A,4308.5086,N,07727.5075,W,43.12,279.88,080923,,,A*4E
$GPGGA,143834.750,4308.5091,N,07727.5116,W,1,07,1.15,169.9,M,-34.4,M,,*5A
$GPRMC,143835.000,A,4308.5097,N,07727.5157,W,43.58,280.57,080923,,,A*41
$GPGGA,143835.250,4308.5102,N,07727.5198,W,1,07,1.15,169.8,M,-34.4,M,,*52
$GPRMC,143835.500,A,4308.5108,N,07727.5239,W,43.60,280.37,080923,,,A*45
$GPGGA,143835.750,4308.5113,N,07727.5279,W,1,07,1.15,169.7,M,-34.4,M,,*54
$GPRMC,143836.000,A,4308.5118,N,07727.5320,W,43.51,280.21,080923,,,A*4E
$GPGGA,143836.250,4308.5124,N,07727.5360,W,1,07,1.15,169.5,M,-34.4,M,,*5D
$GPRMC,143836.500,A,4308.5129,N,07727.5401,W,43.02,280.09,080923,,,A*41
$GPGGA,143836.750,4308.5134,N,07727.5441,W,1,07,1.15,169.4,M,-34.4,M,,*5C
$GPRMC,143837.000,A,4308.5139,N,07727.5480,W,42.97,280.20,080923,,,A*4B
$GPGGA,143837.250,4308.5144,N,07727.5520,W,1,07,1.15,169.4,M,-34.4,M,,*59
$GPRMC,143837.500,A,4308.5149,N,07727.5559,W,42.73,280.11,080923,,,A*44
$GPGGA,143837.750,4308.5154,N,07727.5598,W,1,07,1.15,169.4,M,-34.4,M,,*5E
$GPRMC,143838.000,A,4308.5158,N,07727.5637,W,42.53,279.98,080923,,,A*40
$GPGGA,143838.250,4308.5163,N,07727.5675,W,1,07,1.15,169.2,M,-34.4,M,,*56
$GPRMC,143838.500,A,4308.5168,N,07727.5714,W,42.26,279.97,080923,,,A*4B
$GPGGA,143838.750,4308.5173,N,07727.5752,W,1,07,1.15,169.1,M,-34.4,M,,*55
$GPRMC,143839.000,A,4308.5178,N,07727.5790,W,42.00,279.66,080923,,,A*48
$GPGGA,143839.250,4308.5183,N,07727.5828,W,1,07,1.15,168.8,M,-34.4,M,,*54
$GPRMC,143839.500,A,4308.5188,N,07727.5865,W,41.73,279.50,080923,,,A*45
$GPGGA,143839.750,4308.5193,N,07727.5903,W,1,07,1.15,168.6,M,-34.4,M,,*56
$GPRMC,143840.000,A,4308.5197,N,07727.5941,W,40.29,279.54,080923,,,A*4D
$GPGGA,143840.250,4308.5203,N,07727.5978,W,1,07,1.15,168.4,M,-34.4,M,,*59
$GPRMC,143840.500,A,4308.5207,N,07727.6016,W,40.14,279.95,080923,,,A*49
$GPGGA,143840.750,4308.5212,N,07727.6053,W,1,07,1.15,168.2,M,-34.4,M,,*59
$GPRMC,143841.000,A,4308.5217,N,07727.6090,W,39.81,279.99,080923,,,A*4C
$GPGGA,143841.250,4308.5222,N,07727.6128,W,1,07,1.15,167.8,M,-34.4,M,,*56
$GPRMC,143841.500,A,4308.5227,N,07727.6165,W,39.58,279.51,080923,,,A*41
$GPGGA,143841.750,4308.5231,N,07727.6202,W,1,07,1.15,167.4,M,-34.4,M,,*56
$GPRMC,143842.000,A,4308.5235,N,07727.6239,W,39.57,278.85,080923,,,A*49
$GPGGA,143842.250,4308.5240,N,07727.6276,W,1,07,1.15,167.2,M,-34.4,M,,*53
$GPRMC,143842.500,A,4308.5243,N,07727.6313,W,39.53,278.31,080923,,,A*4F
$GPGGA,143842.750,4308.5246,N,07727.6350,W,1,07,1.15,167.1,M,-34.4,M,,*56
$GPRMC,143843.000,A,4308.5250,N,07727.6387,W,39.80,277.96,080923,,,A*48
$GPGGA,143843.250,4308.5253,N,07727.6424,W,1,07,1.15,167.0,M,-34.4,M,,*53
$GPRMC,143843.500,A,4308.5256,N,07727.6462,W,39.99,277.43,080923,,,A*47
$GPGGA,143843.750,4308.5259,N,07727.6499,W,1,07,1.15,166.8,M,-34.4,M,,*53
$GPRMC,143844.000,A,4308.5262,N,07727.6537,W,40.30,276.95,080923,,,A*44
$GPGGA,143844.250,4308.5266,N,07727.6575,W,1,07,1.15,166.6,M,-34.4,M,,*50
$GPRMC,143844.500,A,4308.5269,N,07727.6613,W,40.25,277.05,080923,,,A*43
$GPGGA,143844.750,4308.5273,N,07727.6650,W,1,07,1.15,166.5,M,-34.4,M,,*56
$GPRMC,143845.000,A,4308.5277,N,07727.6688,W,40.05,276.42,080923,,,A*4A
$GPGGA,143845.250,4308.5281,N,07727.6725,W,1,07,1.15,166.4,M,-34.4,M,,*5D
$GPRMC,143845.500,A,4308.5284,N,07727.6763,W,40.05,276.07,080923,,,A*46
$GPGGA,143845.750,4308.5286,N,07727.6800,W,1,07,1.15,166.3,M,-34.4,M,,*50
$GPRMC,143846.000,A,4308.5289,N,07727.6838,W,40.00,275.81,080923,,,A*44
$GPGGA,143846.250,4308.5292,N,07727.6875,W,1,07,1.15,166.1,M,-34.4,M,,*53
$GPRMC,143846.500,A,4308.5295,N,07727.6912,W,39.46,275.36,080923,,,A*45
$GPGGA,143846.750,4308.5297,N,07727.6949,W,1,07,1.15,165.9,M,-34.4,M,,*56
$GPRMC,143847.000,A,4308.5300,N,07727.6986,W,39.20,275.00,080923,,,A*44
$GPGGA,143847.250,4308.5302,N,07727.7022,W,1,07,1.15,165.7,M,-34.4,M,,*54
$GPRMC,143847.500,A,4308.5304,N,07727.7059,W,38.97,274.59,080923,,,A*4F
$GPGGA,143847.750,4308.5307,N,07727.7095,W,1,07,1.15,165.6,M,-34.4,M,,*59
$GPRMC,143848.000,A,4308.5309,N,07727.7132,W,38.46,274.39,080923,,,A*4E
$GPGGA,143848.250,4308.5311,N,07727.7167,W,1,07,1.15,165.3,M,-34.4,M,,*5D
$GPRMC,143848.500,A,4308.5313,N,07727.7203,W,37.78,274.17,080923,,,A*4F
$GPGGA,143848.750,4308.5315,N,07727.7239,W,1,07,1.13,165.1,M,-34.4,M,,*50
$GPRMC,143849.000,A,4308.5318,N,07727.7274,W,37.52,275.04,080923,,,A*4B
$GPGGA,143849.250,4308.5320,N,07727.7309,W,1,07,1.15,164.8,M,-34.4,M,,*5E
$GPRMC,143849.500,A,4308.5322,N,07727.7344,W,37.34,274.81,080923,,,A*49
$GPGGA,143849.750,4308.5323,N,07727.7379,W,1,07,1.15,164.7,M,-34.4,M,,*50
$GPRMC,143850.000,A,4308.5325,N,07727.7415,W,37.25,274.39,080923,,,A*43
$GPGGA,143850.250,4308.5327,N,07727.7450,W,1,07,1.15,164.5,M,-34.4,M,,*57
$GPRMC,143850.500,A,4308.5328,N,07727.7485,W,36.75,274.11,080923,,,A*4C
$GPGGA,143850.750,4308.5330,N,07727.7519,W,1,07,1.15,164.3,M,-34.4,M,,*5E
$GPRMC,143851.000,A,4308.5332,N,07727.7554,W,36.30,274.63,080923,,,A*4A
$GPGGA,143851.250,4308.5334,N,07727.7588,W,1,07,1.15,164.0,M,-34.4,M,,*55
$GPRMC,143851.500,A,4308.5335,N,07727.7622,W,35.85,274.52,080923,,,A*45
$GPGGA,143851.750,4308.5337,N,07727.7656,W,1,07,1.15,163.8,M,-34.4,M,,*5C
$GPRMC,143852.000,A,4308.5339,N,07727.7689,W,35.62,274.91,080923,,,A*48
$GPGGA,143852.250,4308.5341,N,07727.7721,W,1,07,1.15,163.6,M,-34.4,M,,*54
$GPRMC,143852.500,A,4308.5343,N,07727.7753,W,35.26,274.70,080923,,,A*49
$GPGGA,143852.750,4308.5345,N,07727.7783,W,1,07,1.15,163.3,M,-34.4,M,,*58
$GPRMC,143853.000,A,4308.5347,N,07727.7813,W,31.26,275.20,080923,,,A*42
$GPGGA,143853.250,4308.5349,N,07727.7841,W,1,07,1.15,163.0,M,-34.4,M,,*52
$GPRMC,143853.500,A,4308.5350,N,07727.7868,W,28.71,275.77,080923,,,A*45
$GPGGA,143853.750,4308.5352,N,07727.7893,W,1,07,1.15,162.8,M,-34.4,M,,*5B
$GPRMC,143854.000,A,4308.5355,N,07727.7917,W,26.08,276.53,080923,,,A*4E
$GPGGA,143854.250,4308.5357,N,07727.7940,W,1,07,1.15,162.5,M,-34.4,M,,*5E
$GPRMC,143854.500,A,4308.5359,N,07727.7963,W,24.05,277.16,080923,,,A*4B
$GPGGA,143854.750,4308.5361,N,07727.7982,W,1,07,1.15,162.4,M,-34.4,M,,*51
$GPRMC,143855.000,A,4308.5363,N,07727.8002,W,21.19,278.08,080923,,,A*4F
$GPGGA,143855.250,4308.5365,N,07727.8019,W,1,07,1.15,162.2,M,-34.4,M,,*53
$GPRMC,143855.500,A,4308.5367,N,07727.8036,W,18.93,279.70,080923,,,A*4F
$GPGGA,143855.750,4308.5370,N,07727.8051,W,1,07,1.15,161.9,M,-34.4,M,,*56
$GPRMC,143856.000,A,4308.5371,N,07727.8064,W,15.55,281.98,080923,,,A*4F
$GPGGA,143856.250,4308.5373,N,07727.8076,W,1,07,1.15,161.5,M,-34.4,M,,*5A
$GPRMC,143856.500,A,4308.5374,N,07727.8087,W,12.93,284.85,080923,,,A*46
$GPGGA,143856.750,4308.5376,N,07727.8097,W,1,07,1.15,161.2,M,-34.4,M,,*52
$GPRMC,143857.000,A,4308.5377,N,07727.8105,W,10.27,289.83,080923,,,A*4C
$GPGGA,143857.250,4308.5378,N,07727.8112,W,1,07,1.15,161.0,M,-34.4,M,,*56
$GPRMC,143857.500,A,4308.5379,N,07727.8117,W,7.72,292.13,080923,,,A*71
$GPGGA,143857.750,4308.5380,N,07727.8121,W,1,07,1.15,160.8,M,-34.4,M,,*5D
$GPRMC,143858.000,A,4308.5380,N,07727.8125,W,5.91,296.87,080923,,,A*7A
$GPGGA,143858.250,4308.5381,N,07727.8128,W,1,07,1.15,160.4,M,-34.4,M,,*53
$GPRMC,143858.500,A,4308.5383,N,07727.8132,W,5.73,291.58,080923,,,A*73
$GPGGA,143858.750,4308.5384,N,07727.8138,W,1,07,1.15,160.2,M,-34.4,M,,*54
$GPRMC,143859.000,A,4308.5385,N,07727.8144,W,7.13,282.18,080923,,,A*72
