Vers 81
USE_SERIAL_FEEDBACK=true
DEVELOPMENT_MODE=false
USE_RMC_ONLY=false

$GPRMC,152805.500,A,4308.3006,N,07726.2640,W,0.28,246.00,280823,,,A*75
$GPGGA,152805.750,4308.3006,N,07726.2641,W,1,03,2.79,184.4,M,-34.4,M,,*50
$GPRMC,152806.000,A,4308.3005,N,07726.2642,W,0.30,225.90,280823,,,A*77
$GPGGA,152806.250,4308.3004,N,07726.2642,W,1,03,2.79,184.4,M,-34.4,M,,*57
$GPRMC,152806.500,A,4308.3003,N,07726.2644,W,0.29,230.59,280823,,,A*7B
$GPGGA,152806.750,4308.3002,N,07726.2645,W,1,03,2.79,184.4,M,-34.4,M,,*53
$GPRMC,152807.000,A,4308.3002,N,07726.2646,W,0.27,235.63,280823,,,A*7E
$GPGGA,152807.250,4308.3002,N,07726.2646,W,1,03,2.79,184.4,M,-34.4,M,,*54
$GPRMC,152807.500,A,4308.3002,N,07726.2647,W,0.23,237.50,280823,,,A*7C
$GPGGA,152807.750,4308.3002,N,07726.2648,W,1,03,2.79,184.4,M,-34.4,M,,*5F
$GPRMC,152808.000,A,4308.3002,N,07726.2649,W,0.25,260.03,280823,,,A*7A
$GPGGA,152808.084,4308.3002,N,07726.2650,W,1,03,2.79,184.4,M,-3.4,M,,*57
$GPRMC,152808.500,A,4308.3001,N,07726.2651,W,0.23,256.52,280823,,,A*72
$GPGGA,152808.750,4308.3001,N,07726.2652,W,1,03,2.79,184.4,M,-34.4,M,,*58
$GPRMC,152809.000,A,4308.3001,N,07726.2653,W,0.27,292.30,280823,,,A*7C
$GPGGA,152809.250,4308.3001,N,07726.2653,W,1,03,2.79,184.4,M,-34.4,M,,*5D
$GPRMC,152809.500,A,4308.3001,N,07726.2654,W,0.22,294.45,280823,,,A*7F
$GPGGA,152809.750,4308.3001,N,07726.2654,W,1,03,2.79,184.4,M,-34.4,M,,*5F
$GPRMC,152810.000,A,4308.3000,N,07726.2655,W,0.12,302.00,280823,,,A*7E
$GPGGA,152810.250,4308.3000,N,07726.2656,W,1,03,2.79,184.4,M,-34.4,M,,*51
$GPRMC,152810.500,A,4308.3000,N,07726.2656,W,0.08,327.99,280823,,,A*74
$GPGGA,152810.750,4308.2999,N,07726.2658,W,1,03,2.79,184.4,M,-34.4,M,,*52
$GPRMC,152811.000,A,4308.2998,N,07726.2658,W,0.10,185.98,280823,,,A*75
$GPGGA,152811.250,4308.2998,N,07726.2658,W,1,03,2.79,184.4,M,-34.4,M,,*57
$GPRMC,152811.500,A,4308.2998,N,07726.2658,W,0.14,178.37,280823,,,A*73
$GPGGA,152811.750,4308.2998,N,07726.2659,W,1,03,2.79,184.4,M,-34.4,M,,*53
$GPRMC,152812.000,A,4308.2997,N,07726.2659,W,0.13,174.59,280823,,,A*78
$GPGGA,152812.250,4308.2997,N,07726.2660,W,1,03,2.79,184.4,M,-34.4,M,,*50
$GPRMC,152812.500,A,4308.2997,N,07726.2661,W,0.09,187.07,280823,,,A*7A
$GPGGA,152812.750,4308.2996,N,07726.2661,W,1,03,2.79,184.4,M,-34.4,M,,*55
$GPRMC,152813.000,A,4308.2997,N,07726.2661,W,0.04,154.36,280823,,,A*7F
$GPGGA,152813.250,4308.2997,N,07726.2661,W,1,03,2.79,184.4,M,-34.4,M,,*50
$GPRMC,152813.500,A,4308.2997,N,07726.2661,W,0.03,131.41,280823,,,A*7E
$GPGGA,152813.750,4308.2997,N,07726.2662,W,1,03,2.79,184.4,M,-34.4,M,,*56
$GPRMC,152814.000,A,4308.2996,N,07726.2662,W,0.08,141.68,280823,,,A*79
$GPGGA,152814.093,4308.2996,N,07726.2662,W,1,03,2.79,184.4,M,-33,A,4308.2996,N,07726.2662,W,0.07,146.96,280823,,,A*7A
$GPGGA,152814.500,4308.2995,N,07726.2663,W,1,03,2.79,184.4,M,-34.4,M,,*55
$GPRMC,152814.500,A,4308.2995,N,07726.2663,W,0.11,185.82,280823,,A*7A
$GPGGA,152814.750,4308.2995,N,07726.2665,W,1,03,2.79,184.4,M,-34.4,M,,*54
$GPRMC,152814.750,A,4308.2995,N,07726.2665,W,0.23,225.80,280823,,,A*71
$GPGGA,152815.000,4308.2994,N,07726.2667,W,1,03,2.79,184.4,M,-34.4,M,,*54
$GPRMC,152815.000,A,4308.2994,N,07726.2667,W,0.39,232.98,280823$GPGGA,152815.250,4308.2993,N,07726.2668,W,1,03,2.79,184.4,M,-34.4,M,,*5B
$GPRMC,152815.500,A,4308.2993,N,07726.2668,W,0.37,229.30,280823,,,A*7E
$GPGGA,152815.750,4308.2992,N,07726.2668,W,1,03,2.79,184.4,M,-34.4,M,,*5F
$GPRMC,152816.000,A,4308.2992,N,07726.2668,W,0.29,219.49,280823,,,A*7B
$GPGGA,152816.250,4308.2991,N,07726.2668,W,1,03,2.79,184.4,M,-34.4,M,,*5A
$GPRMC,152816.500,A,4308.2991,N,07726.2668,W,0.28,216.37,280823,,,A*7A
$GPGGA,152816.750,4308.2992,N,07726.2667,W,1,03,2.79,184.4,M,-34.4,M,,*53
$GPRMC,152817.000,A,4308.2993,N,07726.2666,W,0.08,31.67,280823,,,A*42
$GPGGA,152817.250,4308.2993,N,07726.2666,W,1,03,2.79,184.4,M,-34.4,M,,*57
$GPRMC,152817.500,A,4308.2993,N,07726.2666,W,0.12,38.38,280823,,,A*4F
$GPGGA,152817.750,4308.2993,N,07726.2666,W,1,03,2.78,184.4,M,-34.4,M,,*53
$GPRMC,152818.000,A,4308.2993,N,07726.2666,W,0.17,4.82,280823,,,A*7E
$GPGGA,152818.250,4308.2993,N,07726.2667,W,1,03,28.35,184.4,M,-34.4,M,,*69
$GPRMC,152818.500,A,4308.2993,N,07726.2666,W,0.12,1.93,280823,,,A*7B
$GPGGA,152818.750,4308.2993,N,07726.2666,W,1,03,28.34,184.4,M,-34.4,M,,*6C
$GPRMC,152819.000,A,4308.2993,N,07726.2666,W,0.05,2.01,280823,,,A*71
$GPGGA,152819.250,4308.2992,N,07726.2666,W,1,03,28.33,184.4,M,-34.4,M,,*6E
$GPRMC,152819.500,A,4308.2992,N,07726.2665,W,0.07,73.38,280823,,,A*48
$GPGGA,152819.750,4308.2992,N,07726.2665,W,1,03,2.79,184.4,M,-34.4,M,,*5E
$GPRMC,152820.000,A,4308.2992,N,07726.2664,W,0.10,100.80,280823,,,A*76
$GPGGA,152820.093,4308.2992,N,07726.2664,W,1,03,2.79,184.4,M,-3.4,M,,*5D
$GPRMC,152820.500,A,4308.2992,N,07726.2663,W,0.07,117.12,280823,,,A*7F
$GPGGA,152820.750,4308.2991,N,07726.2663,W,1,03,2.78,184.4,M,-34.4,M,,*50
$GPRMC,152821.000,A,4308.2991,N,07726.2662,W,0.04,145.81,280823,,,A*77
$GPGGA,152821.250,4308.2991,N,07726.2662,W,1,03,2.78,184.4,M,-34.4,M,,*55
$GPRMC,152821.500,A,4308.2991,N,07726.2660,W,0.08,111.97,280823,,,A*7A
$GPGGA,152821.750,4308.2991,N,07726.2659,W,1,03,2.78,184.3,M,-34.4,M,,*5F
$GPRMC,152822.000,A,4308.2991,N,07726.2659,W,0.05,101.39,280823,,,A*7E
$GPGGA,152822.250,4308.2991,N,07726.2658,W,1,03,2.78,184.3,M,-34.4,M,,*58
$GPRMC,152822.500,A,4308.2991,N,07726.2657,W,0.06,204.17,280823,,,A*7C
$GPGGA,152822.750,4308.2990,N,07726.2656,W,1,03,2.78,184.3,M,-34.4,M,,*52
$GPRMC,152823.000,A,4308.2991,N,07726.2655,W,0.05,184.94,280823,,,A*79
$GPGGA,152823.250,4308.2991,N,07726.2654,W,1,03,2.78,184.3,M,-34.4,M,,*55
$GPRMC,152823.500,A,4308.2990,N,07726.2653,W,0.06,181.00,280823,,,A*70
$GPGGA,152823.750,4308.2990,N,07726.2652,W,1,03,2.78,184.3,M,-34.4,M,,*57
$GPRMC,152824.000,A,4308.2990,N,07726.2651,W,0.10,208.52,280823,,,A*72
$GPGGA,152824.250,4308.2990,N,07726.2650,W,1,03,2.78,184.3,M,-34.4,M,,*57
$GPRMC,152824.500,A,4308.2991,N,07726.2650,W,0.13,278.58,280823,,,A*79
$GPGGA,152824.750,4308.2991,N,07726.2649,W,1,03,2.78,184.3,M,-34.4,M,,*5B
$GPRMC,152825.000,A,4308.2991,N,07726.2648,W,0.21,313.71,280823,,,A*72
$GPGGA,152825.250,4308.2991,N,07726.2647,W,1,03,2.78,184.3,M,-34.4,M,,*51
$GPRMC,152825.500,A,4308.2989,N,07726.2646,W,0.16,277.15,280823,,,A*75
$GPGGA,152825.750,4308.2988,N,07726.2644,W,1,03,2.78,184.3,M,-34.4,M,,*5F
$GPRMC,152826.000,A,4308.2987,N,07726.2643,W,0.13,228.08,280823,,,A*7B
$GPGGA,152826.092,4308.2987,N,07726.2642,W,1,03,2.78,184.4,M,-3.4,M,,*5B
$GPRMC,152826.500,A,4308.2986,N,07726.2641,W,0.14,204.50,280823,,,A*79
$GPGGA,152826.750,4308.2987,N,07726.2640,W,1,03,2.78,184.4,M,-34.4,M,,*50
$GPRMC,152827.000,A,4308.2986,N,07726.2640,W,0.05,183.04,280823,,,A*71
$GPGGA,152827.250,4308.2986,N,07726.2639,W,1,03,2.78,184.3,M,-34.4,M,,*5C
$GPRMC,152827.500,A,4308.2985,N,07726.2638,W,0.13,163.69,280823,,,A*7A
$GPGGA,152827.750,4308.2985,N,07726.2637,W,1,03,2.78,184.3,M,-34.4,M,,*54
$GPRMC,152828.000,A,4308.2985,N,07726.2637,W,0.13,153.92,280823,,,A*78
$GPGGA,152828.250,4308.2985,N,07726.2636,W,1,03,2.78,184.3,M,-34.4,M,,*5F
$GPRMC,152828.500,A,4308.2984,N,07726.2636,W,0.17,190.13,280823,,,A*7F
$GPGGA,152828.750,4308.2984,N,07726.2636,W,1,03,2.78,184.3,M,-34.4,M,,*5B
$GPRMC,152829.000,A,4308.2984,N,07726.2636,W,0.13,205.51,280823,,,A*76
$GPGGA,152829.250,4308.2984,N,07726.2635,W,1,03,2.78,184.3,M,-34.4,M,,*5C
$GPRMC,152829.500,A,4308.2984,N,07726.2634,W,0.15,174.53,280823,,,A*70
$GPGGA,152829.750,4308.2984,N,07726.2634,W,1,03,2.78,184.3,M,-34.4,M,,*58
$GPRMC,152830.000,A,4308.2984,N,07726.2633,W,0.10,160.31,280823,,,A*7E
$GPGGA,152830.250,4308.2984,N,07726.2633,W,1,03,2.78,184.3,M,-34.4,M,,*52
$GPRMC,152830.500,A,4308.2984,N,07726.2634,W,0.08,210.34,280823,,,A*74
$GPGGA,152830.750,4308.2984,N,07726.2635,W,1,03,2.78,184.3,M,-34.4,M,,*51
$GPRMC,152831.000,A,4308.2985,N,07726.2635,W,0.15,260.26,280823,,,A*78
$GPGGA,152831.250,4308.2985,N,07726.2635,W,1,03,2.78,184.3,M,-34.4,M,,*54
$GPRMC,152831.500,A,4308.2985,N,07726.2635,W,0.14,260.07,280823,,,A*7F
$GPGGA,152831.750,4308.2985,N,07726.2635,W,1,03,2.78,184.3,M,-34.4,M,,*51
$GPRMC,152832.000,A,4308.2986,N,07726.2634,W,0.09,331.42,280823,,,A*73
$GPGGA,152832.092,4308.2986,N,07726.2633,W,1,03,2.78,184.3,M,-34,M,,*5E
$GPRMC,152832.500,A,4308.2986,N,07726.2634,W,0.12,303.65,280823,,,A*78
$GPGGA,152832.750,4308.2987,N,07726.2633,W,1,03,2.78,184.3,M,-34.4,M,,*56
$GPRMC,152833.000,A,4308.2988,N,07726.2632,W,0.22,4.20,280823,,,A*72
$GPGGA,152833.250,4308.2989,N,07726.2632,W,1,03,28.10,184.3,M,-34.4,M,,*6B
$GPRMC,152833.500,A,4308.2989,N,07726.2632,W,0.27,357.16,280823,,,A*73
$GPGGA,152833.750,4308.2988,N,07726.2631,W,1,03,28.09,184.3,M,-34.4,M,,*64
$GPRMC,152834.000,A,4308.2988,N,07726.2631,W,0.19,2.89,280823,,,A*7B
$GPGGA,152834.250,4308.2988,N,07726.2631,W,1,03,28.08,184.3,M,-34.4,M,,*67
$GPRMC,152834.500,A,4308.2989,N,07726.2631,W,0.22,0.59,280823,,,A*78
$GPGGA,152834.750,4308.2989,N,07726.2631,W,1,03,28.07,184.3,M,-34.4,M,,*6C
$GPRMC,152835.000,A,4308.2989,N,07726.2630,W,0.18,352.23,280823,,,A*7D
$GPGGA,152835.250,4308.2989,N,07726.2630,W,1,03,28.06,184.2,M,-34.4,M,,*69
$GPRMC,152835.500,A,4308.2989,N,07726.2629,W,0.13,6.23,280823,,,A*79
$GPGGA,152835.750,4308.2989,N,07726.2629,W,1,03,28.06,184.2,M,-34.4,M,,*64
$GPRMC,152836.000,A,4308.2989,N,07726.2629,W,0.18,328.59,280823,,,A*76
$GPGGA,152836.250,4308.2989,N,07726.2629,W,1,03,2.78,184.2,M,-34.4,M,,*53
$GPRMC,152836.500,A,4308.2990,N,07726.2629,W,0.22,336.58,280823,,,A*7C
$GPGGA,152836.750,4308.2990,N,07726.2628,W,1,03,2.77,184.2,M,-34.4,M,,*50
$GPRMC,152837.000,A,4308.2990,N,07726.2628,W,0.16,342.22,280823,,,A*70
$GPGGA,152837.250,4308.2990,N,07726.2628,W,1,03,2.77,184.2,M,-34.4,M,,*54
$GPRMC,152837.500,A,4308.2990,N,07726.2628,W,0.16,343.27,280823,,,A*71
$GPGGA,152837.750,4308.2990,N,07726.2628,W,1,03,2.78,184.2,M,-34.4,M,,*5E
$GPRMC,152838.000,A,4308.2990,N,07726.2628,W,0.15,346.68,280823,,,A*76
$GPGGA,152838.086,4308.2990,N,07726.2628,W,1,03,28.02,184.2,M,-.4,M,,*68
$GPGGA,152838.500,4308.2990,N,07726.2628,W,1,03,2.78,184.2,M,-34.4,M,,*56
$GPRMC,152838.500,A,4308.2990,N,07726.2628,W,0.18,347.40,280823,,A*75
$GPGGA,152838.750,4308.2991,N,07726.2628,W,1,03,28.01,184.2,M,-34.4,M,,*66
$GPRMC,152838.750,A,4308.2991,N,07726.2628,W,0.22,350.84,280823,,A*74
$GPGGA,152839.000,4308.2993,N,07726.2628,W,1,03,28.00,184.2,M,-34.4,M,,*66
$GPRMC,152839.000,A,4308.2993,N,07726.2628,W,0.44,344.53,280823$GPGGA,152839.250,4308.2994,N,07726.2629,W,1,03,2.77,184.2,M,-34.4,M,,*5F
$GPRMC,152839.500,A,4308.2996,N,07726.2629,W,0.60,344.51,280823,,,A*7F
$GPGGA,152839.750,4308.2998,N,07726.2630,W,1,03,2.77,184.2,M,-34.4,M,,*5E
$GPRMC,152840.000,A,4308.3001,N,07726.2631,W,1.09,342.37,280823,,,A*73
$GPGGA,152840.250,4308.3004,N,07726.2632,W,1,03,2.77,184.2,M,-34.4,M,,*5A
$GPRMC,152840.500,A,4308.3006,N,07726.2633,W,1.45,341.63,280823,,,A*79
$GPGGA,152840.750,4308.3010,N,07726.2635,W,1,03,2.77,184.2,M,-34.4,M,,*5D
$GPRMC,152841.000,A,4308.3015,N,07726.2637,W,2.11,339.80,280823,,,A*7B
$GPGGA,152841.250,4308.3018,N,07726.2638,W,1,03,2.77,184.2,M,-34.4,M,,*5C
$GPRMC,152841.500,A,4308.3021,N,07726.2640,W,2.64,338.19,280823,,,A*7A
$GPGGA,152841.750,4308.3024,N,07726.2641,W,1,03,2.77,184.2,M,-34.4,M,,*58
$GPRMC,152842.000,A,4308.3027,N,07726.2643,W,3.35,341.24,280823,,,A*7C
$GPGGA,152842.250,4308.3030,N,07726.2644,W,1,03,2.77,184.2,M,-34.4,M,,*5E
$GPRMC,152842.500,A,4308.3033,N,07726.2645,W,3.60,345.79,280823,,,A*76
$GPGGA,152842.750,4308.3036,N,07726.2645,W,1,03,27.94,184.2,M,-34.4,M,,*66
$GPRMC,152843.000,A,4308.3039,N,07726.2646,W,3.84,347.89,280823,,,A*7C
$GPGGA,152843.250,4308.3042,N,07726.2646,W,1,03,27.93,184.2,M,-34.4,M,,*65
$GPRMC,152843.500,A,4308.3045,N,07726.2644,W,3.94,357.47,280823,,,A*72
$GPGGA,152843.750,4308.3049,N,07726.2642,W,1,03,27.93,184.2,M,-34.4,M,,*6F
$GPRMC,152844.000,A,4308.3053,N,07726.2642,W,4.65,358.91,280823,,,A*7C
$GPGGA,152844.085,4308.3054,N,07726.2642,W,1,03,27.92,184.2,M,-.4,M,,*6A
$GPGGA,152844.500,4308.3061,N,07726.2639,W,1,03,27.91,184.2,M,-34.4,M,,*6B
$GPRMC,152844.500,A,4308.3061,N,07726.2639,W,4.94,4.57,280823,,A*7A
$GPGGA,152844.750,4308.3065,N,07726.2638,W,1,03,27.91,184.2,M,-34.4,M,,*69
$GPRMC,152844.750,A,4308.3065,N,07726.2638,W,4.92,4.57,280823,,A*7E
$GPGGA,152845.000,4308.3068,N,07726.2637,W,1,03,27.91,184.2,M,-34.4,M,,*68
$GPRMC,152845.000,A,4308.3068,N,07726.2637,W,4.61,5.46,280823,,A*72
$GPGGA,152845.250,4308.3071,N,07726.2635,W,1,03,27.90,184.2,M,-34.4,M,,*64
$GPRMC,152845.250,A,4308.3071,N,07726.2635,W,4.37,9.74,280823,,$GPGGA,152845.500,4308.3073,N,07726.2634,W,1,03,27.90,184.2,M,-34.4,M,,*65
$GPRMC,152845.750,A,4308.3076,N,07726.2633,W,3.50,13.88,280823,,,A*4B
$GPGGA,152846.000,4308.3078,N,07726.2632,W,1,03,27.89,184.2,M,-34.4,M,,*66
$GPRMC,152846.250,A,4308.3081,N,07726.2631,W,3.34,17.56,280823,,,A*42
$GPGGA,152846.500,4308.3084,N,07726.2629,W,1,03,2.77,184.2,M,-34.4,M,,*5C
$GPRMC,152846.750,A,4308.3087,N,07726.2627,W,3.69,25.22,280823,,,A*4C
$GPGGA,152847.000,4308.3090,N,07726.2625,W,1,03,2.77,184.2,M,-34.4,M,,*51
$GPRMC,152847.250,A,4308.3093,N,07726.2623,W,3.87,32.46,280823,,,A*4D
$GPGGA,152847.500,4308.3095,N,07726.2620,W,1,03,2.77,184.2,M,-34.4,M,,*54
$GPRMC,152847.750,A,4308.3098,N,07726.2618,W,3.59,35.18,280823,,,A*44
$GPGGA,152848.000,4308.3100,N,07726.2616,W,1,03,2.77,184.3,M,-34.4,M,,*57
$GPRMC,152848.250,A,4308.3102,N,07726.2614,W,3.42,41.01,280823,,,A*41
$GPGGA,152848.500,4308.3104,N,07726.2611,W,1,03,2.77,184.3,M,-34.4,M,,*51
$GPRMC,152848.750,A,4308.3107,N,07726.2608,W,3.78,44.77,280823,,,A*41
$GPGGA,152849.000,4308.3108,N,07726.2606,W,1,03,2.77,184.3,M,-34.4,M,,*5F
$GPRMC,152849.250,A,4308.3110,N,07726.2603,W,3.43,54.59,280823,,,A*4D
$GPGGA,152849.500,4308.3110,N,07726.2602,W,1,03,2.77,184.3,M,-34.4,M,,*57
$GPRMC,152849.750,A,4308.3111,N,07726.2600,W,2.50,68.54,280823,,,A*4B
$GPGGA,152850.000,4308.3112,N,07726.2598,W,1,03,2.77,184.3,M,-34.4,M,,*58
$GPGGA,152850.144,4308.3113,N,07726.2597,W,1,03,2.77,184.3,M,-34.4,M,,*57
$GPRMC,152850.144,A,4308.3113,N,07726.2597,W,2.26,62.21,280823,$GPGGA,152850.500,4308.3115,N,07726.2595,W,1,03,2.77,184.3,M,-34.4,M,,*57
$GPRMC,152850.750,A,4308.3115,N,07726.2594,W,1.86,67.60,280823,,,A*49
$GPGGA,152851.000,4308.3116,N,07726.2593,W,1,03,2.77,184.4,M,-34.4,M,,*51
$GPRMC,152851.250,A,4308.3117,N,07726.2593,W,1.38,54.56,280823,,,A*48
$GPGGA,152851.500,4308.3117,N,07726.2592,W,1,03,2.77,184.4,M,-34.4,M,,*54
$GPRMC,152851.750,A,4308.3118,N,07726.2595,W,0.72,25.22,280823,,,A*4E
$GPGGA,152852.000,4308.3116,N,07726.2605,W,1,03,2.77,184.4,M,-34.4,M,,*5E
$GPRMC,152852.250,A,4308.3112,N,07726.2621,W,2.99,262.45,280823,,,A*79
$GPGGA,152852.500,4308.3109,N,07726.2634,W,1,03,2.77,184.4,M,-34.4,M,,*57
$GPRMC,152852.750,A,4308.3109,N,07726.2642,W,5.71,263.75,280823,,,A*70
$GPGGA,152853.000,4308.3110,N,07726.2650,W,1,03,2.77,184.4,M,-34.4,M,,*59
$GPRMC,152853.250,A,4308.3112,N,07726.2658,W,7.63,276.60,280823,,,A*74
$GPGGA,152853.500,4308.3114,N,07726.2668,W,1,03,2.77,184.4,M,-34.4,M,,*53
$GPRMC,152853.750,A,4308.3116,N,07726.2678,W,9.95,282.50,280823,,,A*78
$GPGGA,152854.000,4308.3119,N,07726.2688,W,1,03,2.77,184.4,M,-34.4,M,,*52
$GPRMC,152854.250,A,4308.3121,N,07726.2698,W,11.16,284.20,280823,,,A*43
$GPGGA,152854.500,4308.3124,N,07726.2708,W,1,03,2.77,184.4,M,-34.4,M,,*50
$GPRMC,152854.750,A,4308.3127,N,07726.2719,W,12.52,284.91,280823,,,A*41
$GPGGA,152855.000,4308.3130,N,07726.2730,W,1,03,2.77,184.4,M,-34.4,M,,*5A
$GPRMC,152855.250,A,4308.3133,N,07726.2742,W,13.36,287.02,280823,,,A*44
$GPGGA,152855.500,4308.3136,N,07726.2754,W,1,03,2.77,184.5,M,-34.4,M,,*5A
$GPRMC,152855.750,A,4308.3139,N,07726.2767,W,14.07,286.22,280823,,,A*4A
$GPGGA,152856.000,4308.3143,N,07726.2780,W,1,03,2.76,184.5,M,-34.4,M,,*56
$GPGGA,152856.143,4308.3145,N,07726.2787,W,1,03,2.77,184.5,M,-34.4,M,,*50
$GPRMC,152856.143,A,4308.3145,N,07726.2787,W,14.65,287.73,28082,,,A*49
$GPGGA,152856.500,4308.3150,N,07726.2806,W,1,03,2.77,184.5,M,-34.4,M,,*51
$GPRMC,152856.500,A,4308.3150,N,07726.2806,W,14.94,288.18,28082,,,A*44
$GPGGA,152856.750,4308.3154,N,07726.2819,W,1,03,2.77,184.5,M,-34.4,M,,*5C
$GPRMC,152856.750,A,4308.3154,N,07726.2819,W,15.18,288.93,28082,,,A*4F
$GPGGA,152857.000,4308.3158,N,07726.2833,W,1,03,2.76,184.5,M,-34.4,M,,*5A
$GPRMC,152857.000,A,4308.3158,N,07726.2833,W,15.49,289.68,28082,,,A*49
$GPGGA,152857.250,4308.3162,N,07726.2847,W,1,03,2.77,184.5,M,-34.4,M,,*56
$GPRMC,152857.250,A,4308.3162,N,07726.2847,W,15.52,289.86,28082,,,A*4E
$GPGGA,152857.500,4308.3167,N,07726.2860,W,1,03,2.77,184.5,M,-34.4,M,,*54
$GPRMC,152857.500,A,4308.3167,N,07726.2860,W,15.52,291.42,280823,,,A*4D
$GPGGA,152857.750,4308.3171,N,07726.2873,W,1,03,2.76,184.5,M,-34.4,M,,*57
$GPRMC,152857.750,A,4308.3171,N,07726.2873,W,15.64,292.11,28082,,,A*4F
$GPGGA,152858.000,4308.3176,N,07726.2886,W,1,03,2.76,184.6,M,-34.4,M,,*54
$GPRMC,152858.000,A,4308.3176,N,07726.2886,W,15.58,293.90,28082,,,A*48
$GPGGA,152858.250,4308.3181,N,07726.2898,W,1,03,2.76,184.6,M,-34.4,M,,*54
$GPRMC,152858.250,A,4308.3181,N,07726.2898,W,15.55,294.52,28082,,,A*4C
$GPGGA,152858.500,4308.3187,N,07726.2910,W,1,03,2.77,184.6,M,-34.4,M,,*50
$GPRMC,152858.500,A,4308.3187,N,07726.2910,W,15.37,296.11,28082$GPGGA,152858.750,4308.3192,N,07726.2923,W,1,03,2.76,184.6,M,-34.4,M,,*52
$GPRMC,152859.000,A,4308.3198,N,07726.2935,W,15.20,297.66,280823,,,A*42
$GPGGA,152859.250,4308.3203,N,07726.2946,W,1,03,2.77,184.6,M,-34.4,M,,*5F
$GPRMC,152859.500,A,4308.3207,N,07726.2958,W,14.85,297.59,280823,,,A*4B
$GPGGA,152859.750,4308.3212,N,07726.2970,W,1,03,2.76,184.7,M,-34.4,M,,*5F
$GPRMC,152900.000,A,4308.3217,N,07726.2981,W,14.31,297.61,280823,,,A*42
$GPGGA,152900.250,4308.3222,N,07726.2992,W,1,03,2.76,184.7,M,-34.4,M,,*58
$GPRMC,152900.500,A,4308.3226,N,07726.3001,W,12.92,298.18,280823,,,A*4B
$GPGGA,152900.750,4308.3230,N,07726.3012,W,1,03,2.76,184.7,M,-34.4,M,,*5E
$GPRMC,152901.000,A,4308.3234,N,07726.3023,W,12.84,297.88,280823,,,A*4D
$GPGGA,152901.250,4308.3239,N,07726.3032,W,1,03,2.76,184.8,M,-34.4,M,,*5E
$GPRMC,152901.500,A,4308.3244,N,07726.3042,W,12.31,299.89,280823,,,A*49
$GPGGA,152901.750,4308.3248,N,07726.3052,W,1,03,2.76,184.8,M,-34.4,M,,*5B
$GPRMC,152902.000,A,4308.3253,N,07726.3062,W,12.52,301.45,280823,,,A*4E
$GPGGA,152902.092,4308.3255,N,07726.3066,W,1,03,2.76,184.9,M,-34,M,,*5B
$GPGGA,152902.500,4308.3262,N,07726.3080,W,1,03,2.76,184.9,M,-34.4,M,,*59
$GPRMC,152902.500,A,4308.3262,N,07726.3080,W,11.86,301.53,28082,,,A*48
$GPGGA,152902.750,4308.3265,N,07726.3090,W,1,03,2.76,184.9,M,-34.4,M,,*58
$GPRMC,152902.750,A,4308.3265,N,07726.3090,W,11.49,299.81,28082,,,A*45
$GPGGA,152903.000,4308.3270,N,07726.3098,W,1,03,2.76,184.9,M,-34.4,M,,*57
$GPRMC,152903.000,A,4308.3270,N,07726.3098,W,11.37,300.19,28082$GPGGA,152903.250,4308.3274,N,07726.3107,W,1,03,2.76,184.9,M,-34.4,M,,*53
$GPRMC,152903.500,A,4308.3277,N,07726.3117,W,11.11,298.30,280823,,,A*48
$GPGGA,152903.750,4308.3281,N,07726.3125,W,1,03,2.76,185.0,M,-34.4,M,,*54
$GPRMC,152904.000,A,4308.3286,N,07726.3134,W,11.07,301.68,280823,,,A*4E
$GPGGA,152904.250,4308.3290,N,07726.3143,W,1,03,2.76,185.0,M,-34.4,M,,*56
$GPRMC,152904.500,A,4308.3295,N,07726.3151,W,11.36,304.43,280823,,,A*44
$GPGGA,152904.750,4308.3299,N,07726.3160,W,1,03,2.76,185.1,M,-34.4,M,,*5A
$GPRMC,152905.000,A,4308.3304,N,07726.3169,W,11.30,304.40,280823,,,A*47
$GPGGA,152905.250,4308.3309,N,07726.3178,W,1,03,2.76,185.1,M,-34.4,M,,*5F
$GPRMC,152905.500,A,4308.3313,N,07726.3187,W,11.43,304.19,280823,,,A*4C
$GPGGA,152905.750,4308.3318,N,07726.3197,W,1,03,2.76,185.1,M,-34.4,M,,*5B
$GPRMC,152906.000,A,4308.3322,N,07726.3207,W,11.80,303.92,280823,,,A*48
$GPGGA,152906.250,4308.3327,N,07726.3216,W,1,03,2.76,185.1,M,-34.4,M,,*5B
$GPRMC,152906.500,A,4308.3332,N,07726.3226,W,12.04,304.04,280823,,,A*48
$GPGGA,152906.750,4308.3337,N,07726.3236,W,1,03,2.76,185.2,M,-34.4,M,,*5E
$GPRMC,152907.000,A,4308.3342,N,07726.3246,W,12.50,303.76,280823,,,A*4E
$GPGGA,152907.250,4308.3347,N,07726.3256,W,1,03,2.76,185.2,M,-34.4,M,,*5B
$GPRMC,152907.500,A,4308.3352,N,07726.3266,W,12.64,304.09,280823,,,A*40
$GPGGA,152907.750,4308.3357,N,07726.3275,W,1,03,2.76,185.2,M,-34.4,M,,*5E
$GPRMC,152908.000,A,4308.3362,N,07726.3285,W,12.50,305.28,280823,,,A*41
$GPGGA,152908.090,4308.3364,N,07726.3289,W,1,03,2.76,185.2,M,-3,A,4308.3364,N,07726.3289,W,12.54,303.30,280823,,,A*49
$GPRMC,152908.500,A,4308.3374,N,07726.3304,W,13.52,312.30,280823,,,A*47
$GPGGA,152908.750,4308.3379,N,07726.3314,W,1,03,2.76,185.3,M,-34.4,M,,*5A
$GPRMC,152909.000,A,4308.3385,N,07726.3324,W,12.78,304.94,280823,,,A*4F
$GPGGA,152909.250,4308.3390,N,07726.3334,W,1,03,2.76,185.3,M,-34.4,M,,*5B
$GPRMC,152909.500,A,4308.3395,N,07726.3345,W,13.21,304.16,280823,,,A*4B
$GPGGA,152909.750,4308.3400,N,07726.3355,W,1,03,2.76,185.3,M,-34.4,M,,*57
$GPRMC,152910.000,A,4308.3406,N,07726.3366,W,13.57,304.77,280823,,,A*4C
$GPGGA,152910.250,4308.3411,N,07726.3376,W,1,03,2.76,185.4,M,-34.4,M,,*5C
$GPRMC,152910.500,A,4308.3417,N,07726.3387,W,13.58,303.79,280823,,,A*40
$GPGGA,152910.750,4308.3422,N,07726.3398,W,1,03,2.76,185.4,M,-34.4,M,,*59
$GPRMC,152911.000,A,4308.3428,N,07726.3409,W,14.12,304.37,280823,,,A*4D
$GPGGA,152911.250,4308.3434,N,07726.3420,W,1,03,2.76,185.4,M,-34.4,M,,*5E
$GPRMC,152911.500,A,4308.3439,N,07726.3431,W,14.47,304.09,280823,,,A*4E
$GPGGA,152911.750,4308.3445,N,07726.3442,W,1,03,2.76,185.4,M,-34.4,M,,*59
$GPRMC,152912.000,A,4308.3451,N,07726.3455,W,15.02,304.78,280823,,,A*42
$GPGGA,152912.250,4308.3458,N,07726.3466,W,1,03,2.76,185.5,M,-34.4,M,,*54
$GPRMC,152912.500,A,4308.3464,N,07726.3479,W,15.91,305.54,280823,,,A*4A
$GPGGA,152912.750,4308.3471,N,07726.3491,W,1,03,2.76,185.5,M,-34.4,M,,*52
$GPRMC,152913.000,A,4308.3478,N,07726.3504,W,16.58,306.44,280823,,,A*4C
$GPGGA,152913.250,4308.3485,N,07726.3517,W,1,03,2.76,185.5,M,-34.4,M,,*52
$GPRMC,152913.500,A,4308.3492,N,07726.3529,W,17.27,308.95,280823,,,A*49
$GPGGA,152913.750,4308.3500,N,07726.3542,W,1,03,2.76,185.5,M,-34.4,M,,*5B
$GPRMC,152914.000,V,,,,,17.44,309.49,280823,,,E*7E
$GPGGA,152914.079,4308.3510,N,07726.3559,W,6,02,99.99,185.5,M,-34.4,M,,*6E
$GPRMC,152914.079,V,,,,,17.46,309.52,280823,,,E*78
$GPGGA,15290823,,,E*72
$GPGGA,152914.500,4308.3524,N,07726.3581,W,1,03,2.76,185.5,M,-34.4,M,,*52
$GPRMC,152914.500,A,4308.3524,N,07726.3581,W,17.99,310.60,280823,,,A*46
$GPGGA,152914.750,4308.3532,N,07726.3593,W,1,03,2.76,185.5,M,-34.4,M,,*51
$GPRMC,152914.750,A,4308.3532,N,07726.3593,W,18.22,311.63,28082,,,A*48
$GPGGA,152915.000,4308.3542,N,07726.3606,W,1,03,2.76,185.5,M,-34.4,M,,*5A
$GPRMC,152915.000,A,4308.3542,N,07726.3606,W,18.54,312.79,28082,,,A*4A
$GPGGA,152915.250,4308.3551,N,07726.3618,W,1,03,2.76,185.6,M,-34.4,M,,*53
$GPRMC,152915.250,A,4308.3551,N,07726.3618,W,18.70,313.95,28082,,,A*45
$GPGGA,152915.500,4308.3561,N,07726.3630,W,1,03,2.76,185.6,M,-34.4,M,,*58
$GPRMC,152915.500,A,4308.3561,N,07726.3630,W,18.94,315.28,28082$GPGGA,152915.750,4308.3572,N,07726.3641,W,1,03,2.75,185.6,M,-34.4,M,,*58
$GPRMC,152916.000,A,4308.3584,N,07726.3652,W,19.89,318.70,280823,,,A*40
$GPGGA,152916.250,4308.3595,N,07726.3664,W,1,03,2.76,185.6,M,-34.4,M,,*53
$GPRMC,152916.500,A,4308.3608,N,07726.3673,W,20.54,322.76,280823,,,A*44
$GPGGA,152916.750,4308.3622,N,07726.3677,W,1,03,2.76,185.7,M,-34.4,M,,*5A
$GPRMC,152917.000,A,4308.3635,N,07726.3684,W,20.28,329.22,280823,,,A*47
$GPGGA,152917.250,4308.3648,N,07726.3693,W,1,03,2.76,185.7,M,-34.4,M,,*58
$GPRMC,152917.500,A,4308.3661,N,07726.3700,W,20.20,331.18,280823,,,A*46
$GPGGA,152917.750,4308.3675,N,07726.3703,W,1,03,2.75,185.7,M,-34.4,M,,*58
$GPRMC,152918.000,A,4308.3688,N,07726.3708,W,19.89,337.07,280823,,,A*42
$GPGGA,152918.250,4308.3701,N,07726.3715,W,1,03,2.76,185.8,M,-34.4,M,,*5B
$GPRMC,152918.500,A,4308.3713,N,07726.3721,W,19.53,338.87,280823,,,A*4F
$GPGGA,152918.750,4308.3727,N,07726.3725,W,1,03,2.75,185.8,M,-34.4,M,,*5A
$GPRMC,152919.000,A,4308.3740,N,07726.3730,W,19.42,342.94,280823,,,A*42
$GPGGA,152919.250,4308.3754,N,07726.3735,W,1,03,2.75,185.8,M,-34.4,M,,*5B
$GPRMC,152919.500,A,4308.3768,N,07726.3738,W,19.62,345.21,280823,,,A*4E
$GPGGA,152919.750,4308.3782,N,07726.3742,W,1,03,27.34,185.9,M,-34.4,M,,*66
$GPRMC,152920.000,A,4308.3799,N,07726.3744,W,20.69,349.31,280823,,,A*48
$GPGGA,152920.078,4308.3803,N,07726.3745,W,1,03,27.34,185.9,M,-4.4,M,,*60
$GPRMC,152920.078,A,4308.3803,N,07726.3745,W,20.71,349.54,280823808,N,07726.3744,W,20.78,350.44,280823,,,A*4F
$GPGGA,152920.500,4308.3829,N,07726.3744,W,1,04,2.26,185.8,M,-34.4,M,,*51
$GPRMC,152920.750,A,4308.3845,N,07726.3742,W,20.83,0.25,280823,,,A*4D
$GPGGA,152921.000,4308.3859,N,07726.3739,W,1,04,2.26,185.6,M,-34.4,M,,*56
$GPRMC,152921.250,A,4308.3873,N,07726.3738,W,20.27,4.20,280823,,,A*4E
$GPGGA,152921.500,4308.3888,N,07726.3734,W,1,04,2.27,185.5,M,-34.4,M,,*50
$GPRMC,152921.750,A,4308.3901,N,07726.3731,W,20.15,8.67,280823,,,A*48
$GPGGA,152922.000,4308.3915,N,07726.3727,W,1,04,2.26,185.5,M,-34.4,M,,*50
$GPRMC,152922.250,A,4308.3929,N,07726.3724,W,19.97,10.37,280823,,,A*7C
$GPGGA,152922.500,4308.3943,N,07726.3720,W,1,04,2.26,185.5,M,-34.4,M,,*51
$GPRMC,152922.750,A,4308.3957,N,07726.3716,W,19.85,11.54,280823,,,A*76
$GPGGA,152923.000,4308.3970,N,07726.3712,W,1,04,2.26,185.4,M,-34.4,M,,*55
$GPGGA,152923.500,4308.3998,N,07726.3704,W,1,04,2.26,185.4,M,-34.4,M,,*51
$GPRMC,152923.500,A,4308.3998,N,07726.3704,W,19.74,12.34,280823,,A*7B
$GPRMC,152924.000,A,4308.4025,N,07726.3696,W,19.74,12.65,280823,,,A*7F
$GPGGA,152924.250,4308.4039,N,07726.3692,W,1,04,2.26,185.4,M,-34.4,M,,*5F
$GPGGA,152924.750,4308.4067,N,07726.3684,W,1,04,2.26,185.3,M,-34.4,M,,*51
$GPRMC,152924.750,A,4308.4067,N,07726.3684,W,19.81,12.42,280823,,A*77
$GPGGA,152925.000,4308.4081,N,07726.3681,W,1,04,2.26,185.3,M,-34.4,M,,*5F
$GPRMC,152925.000,A,4308.4081,N,07726.3681,W,19.83,12.09,280823,,A*74
$GPGGA,152925.250,4308.4095,N,07726.3677,W,1,04,2.26,185.3,M,-34.4,M,,*54
$GPRMC,152925.250,A,4308.4095,N,07726.3677,W,19.84,11.81,280823,,A*7B
$GPGGA,152925.500,4308.4109,N,07726.3674,W,1,04,2.26,185.3,M,-34.4,M,,*51
$GPRMC,152925.500,A,4308.4109,N,07726.3674,W,19.85,11.56,280823,,,A*75
$GPGGA,152925.750,4308.4123,N,07726.3671,W,1,04,2.26,185.3,M,-34.4,M,,*5B
$GPRMC,152925.750,A,4308.4123,N,07726.3671,W,19.84,11.31,280823,,A*7F
$GPGGA,152926.000,4308.4137,N,07726.3668,W,1,04,2.27,185.3,M,-34.4,M,,*56
$GPRMC,152926.000,A,4308.4137,N,07726.3668,W,19.85,11.21,280823,,A*73
$GPGGA,152926.250,4308.4150,N,07726.3664,W,1,04,2.26,185.3,M,-34.4,M,,*5D
$GPRMC,152926.250,A,4308.4150,N,07726.3664,W,19.86,11.05,280823$GPGGA,152926.500,4308.4164,N,07726.3661,W,1,04,2.26,185.2,M,-34.4,M,,*5C
$GPRMC,152926.750,A,4308.4178,N,07726.3659,W,19.87,10.42,280823,,,A*7E
$GPGGA,152927.000,4308.4191,N,07726.3656,W,1,04,2.26,185.2,M,-34.4,M,,*56
$GPRMC,152927.250,A,4308.4205,N,07726.3654,W,19.78,9.94,280823,,,A*4D
$GPGGA,152927.500,4308.4218,N,07726.3651,W,1,04,2.26,185.2,M,-34.4,M,,*56
$GPRMC,152927.750,A,4308.4232,N,07726.3649,W,19.38,10.07,280823,,,A*76
$GPGGA,152928.000,4308.4245,N,07726.3647,W,1,04,2.26,185.1,M,-34.4,M,,*50
$GPRMC,152928.250,A,4308.4258,N,07726.3645,W,19.14,9.61,280823,,,A*4A
$GPGGA,152928.500,4308.4271,N,07726.3643,W,1,04,2.26,185.1,M,-34.4,M,,*56
$GPRMC,152928.750,A,4308.4283,N,07726.3641,W,18.85,9.12,280823,,,A*40
$GPGGA,152929.000,4308.4296,N,07726.3639,W,1,04,2.26,185.1,M,-34.4,M,,*56
$GPRMC,152929.250,A,4308.4308,N,07726.3637,W,18.60,8.79,280823,,,A*40
$GPGGA,152929.500,4308.4320,N,07726.3634,W,1,04,2.26,185.0,M,-34.4,M,,*53
$GPRMC,152929.750,A,4308.4332,N,07726.3632,W,18.14,9.88,280823,,,A*45
$GPGGA,152930.000,4308.4344,N,07726.3629,W,1,04,2.26,185.0,M,-34.4,M,,*50
$GPRMC,152930.250,A,4308.4355,N,07726.3627,W,17.80,9.72,280823,,,A*4A
$GPGGA,152930.500,4308.4366,N,07726.3625,W,1,04,2.27,185.0,M,-34.4,M,,*58
$GPRMC,152930.750,A,4308.4375,N,07726.3623,W,16.56,12.08,280823,,,A*74
$GPGGA,152931.000,4308.4385,N,07726.3620,W,1,04,2.26,184.9,M,-34.4,M,,*5D
$GPRMC,152931.250,A,4308.4395,N,07726.3618,W,15.82,12.98,280823,,,A*75
$GPGGA,152931.500,4308.4404,N,07726.3616,W,1,04,2.27,184.8,M,-34.4,M,,*53
$GPRMC,152931.750,A,4308.4413,N,07726.3613,W,14.81,14.02,280823,,,A*75
$GPGGA,152932.000,4308.4422,N,07726.3611,W,1,04,2.26,184.8,M,-34.4,M,,*57
$GPRMC,152932.250,A,4308.4430,N,07726.3610,W,13.78,13.98,280823,,,A*74
$GPGGA,152932.500,4308.4438,N,07726.3609,W,1,04,2.26,184.8,M,-34.4,M,,*50
$GPRMC,152932.750,A,4308.4444,N,07726.3607,W,12.30,16.02,280823,,,A*7F
$GPGGA,152933.000,4308.4450,N,07726.3607,W,1,04,1.96,184.7,M,-34.4,M,,*53
$GPRMC,152933.250,A,4308.4457,N,07726.3605,W,11.07,16.33,280823,,,A*7E
$GPGGA,152933.500,4308.4463,N,07726.3604,W,1,04,1.96,184.6,M,-34.4,M,,*54
$GPRMC,152933.750,A,4308.4468,N,07726.3602,W,9.93,18.00,280823,,,A*4A
$GPGGA,152934.000,4308.4474,N,07726.3601,W,1,04,1.96,184.6,M,-34.4,M,,*55
$GPRMC,152934.250,A,4308.4479,N,07726.3600,W,9.32,17.12,280823,,,A*4D
$GPGGA,152934.500,4308.4485,N,07726.3598,W,1,04,1.96,184.5,M,-34.4,M,,*5E
$GPRMC,152934.750,A,4308.4490,N,07726.3597,W,9.08,15.76,280823,,,A*4B
$GPGGA,152935.000,4308.4495,N,07726.3596,W,1,04,1.96,184.4,M,-34.4,M,,*54
$GPRMC,152935.250,A,4308.4500,N,07726.3595,W,8.70,14.38,280823,,,A*40
$GPGGA,152935.500,4308.4504,N,07726.3595,W,1,04,2.26,184.4,M,-34.4,M,,*53
$GPRMC,152935.750,A,4308.4507,N,07726.3595,W,8.06,12.07,280823,,,A*49
$GPGGA,152936.000,4308.4512,N,07726.3594,W,1,04,2.26,184.3,M,-34.4,M,,*54
$GPRMC,152936.250,A,4308.4516,N,07726.3594,W,7.49,12.37,280823,,,A*49
$GPGGA,152936.500,4308.4520,N,07726.3594,W,1,04,2.26,184.2,M,-34.4,M,,*51
$GPRMC,152936.750,A,4308.4523,N,07726.3595,W,6.70,13.75,280823,,,A*47
$GPGGA,152937.000,4308.4527,N,07726.3597,W,1,04,2.26,184.0,M,-34.4,M,,*53
$GPRMC,152937.250,A,4308.4532,N,07726.3596,W,6.59,7.07,280823,,,A*7B
$GPGGA,152937.500,4308.4540,N,07726.3593,W,1,04,2.27,183.8,M,-34.4,M,,*5D
$GPRMC,152937.750,A,4308.4547,N,07726.3591,W,7.29,7.58,280823,,,A*77
$GPGGA,152938.000,4308.4553,N,07726.3590,W,1,04,2.26,183.6,M,-34.4,M,,*59
$GPRMC,152938.250,A,4308.4560,N,07726.3591,W,8.34,358.93,280823,,,A*75
$GPGGA,152938.500,4308.4566,N,07726.3592,W,1,04,2.27,183.5,M,-34.4,M,,*5A
$GPRMC,152938.750,A,4308.4566,N,07726.3592,W,6.72,352.48,280823,,,A*75
$GPGGA,152939.000,4308.4571,N,07726.3594,W,1,04,2.27,183.1,M,-34.4,M,,*5A
$GPRMC,152939.250,A,4308.4576,N,07726.3599,W,7.12,336.99,280823,,,A*72
$GPGGA,152939.500,4308.4580,N,07726.3612,W,1,04,1.96,183.2,M,-34.4,M,,*56
$GPRMC,152939.750,A,4308.4584,N,07726.3621,W,8.88,303.56,280823,,,A*73
$GPGGA,152940.000,4308.4589,N,07726.3629,W,1,04,1.96,183.2,M,-34.4,M,,*5C
$GPRMC,152940.250,A,4308.4594,N,07726.3638,W,10.25,299.25,280823,,,A*49
$GPGGA,152940.500,4308.4598,N,07726.3648,W,1,04,1.96,183.1,M,-34.4,M,,*5D
$GPRMC,152940.750,A,4308.4601,N,07726.3658,W,11.11,292.86,280823,,,A*41
$GPGGA,152941.000,4308.4602,N,07726.3670,W,1,04,1.96,183.2,M,-34.4,M,,*51
$GPRMC,152941.250,A,4308.4603,N,07726.3683,W,12.30,282.93,280823,,,A*44
$GPGGA,152941.500,4308.4603,N,07726.3696,W,1,04,1.96,183.3,M,-34.4,M,,*5C
$GPRMC,152941.750,A,4308.4603,N,07726.3710,W,13.58,276.36,280823,,,A*41
$GPGGA,152942.000,4308.4601,N,07726.3726,W,1,04,1.96,183.3,M,-34.4,M,,*52
$GPRMC,152942.250,A,4308.4600,N,07726.3743,W,15.48,268.79,280823,,,A*41
$GPGGA,152942.500,4308.4599,N,07726.3761,W,1,04,1.96,183.3,M,-34.4,M,,*56
$GPRMC,152942.750,A,4308.4599,N,07726.3781,W,17.79,266.89,280823,,,A*48
$GPGGA,152943.000,4308.4600,N,07726.3802,W,1,04,1.96,183.4,M,-34.4,M,,*5C
$GPRMC,152943.250,A,4308.4601,N,07726.3822,W,19.50,267.65,280823,,,A*4E
$GPGGA,152943.500,4308.4602,N,07726.3844,W,1,04,1.96,183.4,M,-34.4,M,,*59
$GPRMC,152943.750,A,4308.4603,N,07726.3866,W,20.71,269.04,280823,,,A*49
$GPGGA,152944.000,4308.4605,N,07726.3888,W,1,04,1.96,183.5,M,-34.4,M,,*5D
$GPRMC,152944.250,A,4308.4607,N,07726.3910,W,21.51,271.17,280823,,,A*47
$GPGGA,152944.500,4308.4610,N,07726.3933,W,1,04,1.96,183.6,M,-34.4,M,,*5E
$GPRMC,152944.750,A,4308.4613,N,07726.3956,W,22.12,273.18,280823,,,A*4C
$GPGGA,152945.000,4308.4616,N,07726.3978,W,1,04,1.96,183.6,M,-34.4,M,,*53
$GPRMC,152945.250,A,4308.4619,N,07726.4001,W,22.46,274.64,280823,,,A*43
$GPGGA,152945.500,4308.4622,N,07726.4024,W,1,04,1.96,183.6,M,-34.4,M,,*56
$GPRMC,152945.750,A,4308.4625,N,07726.4046,W,22.58,275.92,280823,,,A*4D
$GPGGA,152946.000,4308.4628,N,07726.4068,W,1,04,1.96,183.6,M,-34.4,M,,*52
$GPRMC,152946.250,A,4308.4631,N,07726.4090,W,22.77,278.14,280823,,,A*4B
$GPGGA,152946.500,4308.4633,N,07726.4111,W,1,04,1.96,183.5,M,-34.4,M,,*51
$GPRMC,152946.750,A,4308.4635,N,07726.4133,W,22.73,277.65,280823,,,A*4F
$GPGGA,152947.000,4308.4637,N,07726.4155,W,1,04,1.96,183.5,M,-34.4,M,,*51
$GPRMC,152947.250,A,4308.4639,N,07726.4177,W,22.67,278.08,280823,,,A*46
$GPGGA,152947.500,4308.4642,N,07726.4199,W,1,04,1.96,183.7,M,-34.4,M,,*54
$GPRMC,152947.750,A,4308.4645,N,07726.4221,W,22.63,278.83,280823,,,A*4F
$GPGGA,152948.000,4308.4649,N,07726.4244,W,1,04,1.96,183.8,M,-34.4,M,,*59
$GPRMC,152948.250,A,4308.4653,N,07726.4267,W,22.84,279.73,280823,,,A*47
$GPGGA,152948.500,4308.4656,N,07726.4290,W,1,04,1.96,183.9,M,-34.4,M,,*5A
$GPRMC,152948.750,A,4308.4660,N,07726.4313,W,23.20,280.67,280823,,,A*4C
$GPGGA,152949.000,4308.4663,N,07726.4335,W,1,04,1.96,184.1,M,-34.4,M,,*59
$GPRMC,152949.250,A,4308.4666,N,07726.4359,W,23.89,280.79,280823,,,A*4C
$GPGGA,152949.500,4308.4670,N,07726.4383,W,1,04,1.96,184.2,M,-34.4,M,,*50
$GPRMC,152949.750,A,4308.4674,N,07726.4407,W,24.45,281.79,280823,,,A*40
$GPGGA,152950.000,4308.4678,N,07726.4430,W,1,04,1.96,184.2,M,-34.4,M,,*5A
$GPRMC,152950.250,A,4308.4682,N,07726.4455,W,24.62,280.28,280823,,,A*43
$GPGGA,152950.500,4308.4684,N,07726.4485,W,1,06,1.42,184.8,M,-34.4,M,,*53
$GPRMC,152950.750,A,4308.4689,N,07726.4513,W,27.18,276.50,280823,,,A*46
$GPGGA,152951.000,4308.4692,N,07726.4541,W,1,06,1.43,185.1,M,-34.4,M,,*50
$GPRMC,152951.250,A,4308.4695,N,07726.4568,W,27.77,275.48,280823,,,A*40
$GPGGA,152951.500,4308.4698,N,07726.4596,W,1,06,1.43,185.2,M,-34.4,M,,*56
$GPRMC,152951.750,A,4308.4700,N,07726.4623,W,28.26,275.22,280823,,,A*43
$GPGGA,152952.000,4308.4702,N,07726.4651,W,1,06,1.43,185.2,M,-34.4,M,,*5A
$GPRMC,152952.250,A,4308.4704,N,07726.4678,W,28.72,274.89,280823,,,A*4E
$GPGGA,152952.500,4308.4705,N,07726.4706,W,1,06,1.42,185.3,M,-34.4,M,,*5B
$GPRMC,152952.750,A,4308.4708,N,07726.4735,W,28.95,275.12,280823,,,A*45
$GPGGA,152953.000,4308.4711,N,07726.4764,W,1,06,1.43,185.2,M,-34.4,M,,*5E
$GPRMC,152953.250,A,4308.4714,N,07726.4793,W,29.16,275.73,280823,,,A*4D
$GPGGA,152953.500,4308.4716,N,07726.4822,W,1,06,1.43,185.3,M,-34.4,M,,*50
$GPRMC,152953.750,A,4308.4719,N,07726.4852,W,30.67,275.87,280823,,,A*42
$GPGGA,152954.000,4308.4722,N,07726.4883,W,1,06,1.43,185.2,M,-34.4,M,,*5F
$GPRMC,152954.250,A,4308.4724,N,07726.4914,W,31.70,275.08,280823,,,A*4D
$GPGGA,152954.500,4308.4726,N,07726.4946,W,1,06,1.43,184.9,M,-34.4,M,,*5C
$GPRMC,152954.750,A,4308.4728,N,07726.4977,W,32.59,275.30,280823,,,A*42
$GPGGA,152955.000,4308.4730,N,07726.5009,W,1,06,1.43,184.9,M,-34.4,M,,*5C
$GPRMC,152955.250,A,4308.4732,N,07726.5041,W,33.31,275.59,280823,,,A*40
$GPGGA,152955.500,4308.4734,N,07726.5074,W,1,06,1.43,184.9,M,-34.4,M,,*57
$GPRMC,152955.750,A,4308.4736,N,07726.5106,W,33.83,275.51,280823,,,A*42
$GPGGA,152956.000,4308.4738,N,07726.5140,W,1,06,1.43,184.9,M,-34.4,M,,*5B
$GPRMC,152956.250,A,4308.4740,N,07726.5173,W,34.20,275.48,280823,,,A*41
$GPGGA,152956.500,4308.4742,N,07726.5207,W,1,06,1.43,185.0,M,-34.4,M,,*5B
$GPRMC,152956.750,A,4308.4743,N,07726.5240,W,34.69,275.29,280823,,,A*4E
$GPGGA,152957.000,4308.4745,N,07726.5275,W,1,06,1.43,185.1,M,-34.4,M,,*5C
$GPRMC,152957.250,A,4308.4747,N,07726.5309,W,35.41,274.72,280823,,,A*46
$GPGGA,152957.500,4308.4748,N,07726.5343,W,1,06,1.43,185.1,M,-34.4,M,,*50
$GPRMC,152957.750,A,4308.4750,N,07726.5377,W,35.65,274.22,280823,,,A*4F
$GPGGA,152958.000,4308.4751,N,07726.5411,W,1,06,1.43,185.2,M,-34.4,M,,*51
$GPRMC,152958.250,A,4308.4753,N,07726.5445,W,35.75,274.24,280823,,,A*47
$GPGGA,152958.500,4308.4755,N,07726.5479,W,1,06,1.43,185.3,M,-34.4,M,,*5F
$GPRMC,152958.750,A,4308.4756,N,07726.5514,W,35.98,274.00,280823,,,A*47
$GPGGA,152959.000,4308.4758,N,07726.5548,W,1,06,1.43,185.2,M,-34.4,M,,*54
$GPRMC,152959.250,A,4308.4759,N,07726.5583,W,36.05,274.24,280823,,,A*43
$GPGGA,152959.500,4308.4761,N,07726.5617,W,1,06,1.43,185.2,M,-34.4,M,,*52
$GPRMC,152959.750,A,4308.4762,N,07726.5651,W,36.09,273.99,280823,,,A*4F
$GPGGA,153000.000,4308.4763,N,07726.5686,W,1,06,1.43,185.2,M,-34.4,M,,*59
$GPRMC,153000.250,A,4308.4764,N,07726.5720,W,36.17,273.39,280823,,,A*4A
$GPGGA,153000.500,4308.4766,N,07726.5754,W,1,06,1.43,185.1,M,-34.4,M,,*54
$GPRMC,153000.750,A,4308.4767,N,07726.5789,W,36.39,272.47,280823,,,A*4B
$GPGGA,153001.000,4308.4768,N,07726.5825,W,1,06,1.43,184.9,M,-34.4,M,,*5E
$GPRMC,153001.250,A,4308.4769,N,07726.5860,W,36.61,272.06,280823,,,A*41
$GPGGA,153001.500,4308.4770,N,07726.5895,W,1,06,1.43,184.8,M,-34.4,M,,*58
$GPRMC,153001.750,A,4308.4771,N,07726.5930,W,36.59,272.24,280823,,,A*42
$GPGGA,153002.000,4308.4773,N,07726.5965,W,1,06,1.43,184.5,M,-34.4,M,,*5E
$GPRMC,153002.250,A,4308.4774,N,07726.6001,W,36.59,271.96,280823,,,A*43
$GPGGA,153002.500,4308.4776,N,07726.6036,W,1,06,1.43,184.2,M,-34.4,M,,*55
$GPRMC,153002.750,A,4308.4778,N,07726.6072,W,36.85,272.22,280823,,,A*43
$GPGGA,153003.000,4308.4779,N,07726.6108,W,1,06,1.43,183.9,M,-34.4,M,,*5E
$GPRMC,153003.250,A,4308.4781,N,07726.6144,W,37.03,272.20,280823,,,A*48
$GPGGA,153003.500,4308.4782,N,07726.6180,W,1,06,1.43,183.6,M,-34.4,M,,*50
$GPRMC,153003.750,A,4308.4783,N,07726.6216,W,37.32,271.99,280823,,,A*48
$GPGGA,153004.000,4308.4785,N,07726.6252,W,1,06,1.43,183.3,M,-34.4,M,,*5C
$GPRMC,153004.250,A,4308.4785,N,07726.6287,W,37.45,271.57,280823,,,A*46
$GPGGA,153004.500,4308.4786,N,07726.6323,W,1,06,1.43,183.1,M,-34.4,M,,*5F
$GPRMC,153004.750,A,4308.4786,N,07726.6359,W,37.64,270.52,280823,,,A*45
$GPGGA,153005.000,4308.4786,N,07726.6396,W,1,06,1.43,182.8,M,-34.4,M,,*5D
$GPRMC,153005.250,A,4308.4786,N,07726.6432,W,37.92,269.57,280823,,,A*4F
$GPGGA,153005.500,4308.4786,N,07726.6469,W,1,06,1.43,182.5,M,-34.4,M,,*52
$GPRMC,153005.750,A,4308.4785,N,07726.6505,W,37.83,268.00,280823,,,A*4F
$GPGGA,153006.000,4308.4785,N,07726.6542,W,1,06,1.43,182.2,M,-34.4,M,,*58
$GPRMC,153006.250,A,4308.4783,N,07726.6579,W,38.04,267.61,280823,,,A*4C
$GPGGA,153006.500,4308.4782,N,07726.6615,W,1,06,1.43,181.9,M,-34.4,M,,*53
$GPRMC,153006.750,A,4308.4781,N,07726.6652,W,38.06,267.31,280823,,,A*46
$GPGGA,153007.000,4308.4780,N,07726.6689,W,1,06,1.95,181.8,M,-34.4,M,,*5A
$GPRMC,153007.250,A,4308.4778,N,07726.6725,W,38.27,266.64,280823,,,A*47
$GPGGA,153007.500,4308.4776,N,07726.6762,W,1,06,1.43,181.8,M,-34.4,M,,*59
$GPRMC,153007.750,A,4308.4774,N,07726.6798,W,38.49,266.30,280823,,,A*41
$GPGGA,153008.000,4308.4772,N,07726.6834,W,1,06,1.43,181.8,M,-34.4,M,,*5B
$GPRMC,153008.250,A,4308.4769,N,07726.6870,W,38.35,265.93,280823,,,A*4F
$GPGGA,153008.500,4308.4766,N,07726.6905,W,1,06,1.43,182.2,M,-34.4,M,,*51
$GPRMC,153008.750,A,4308.4764,N,07726.6941,W,38.30,265.77,280823,,,A*4B
$GPGGA,153009.000,4308.4761,N,07726.6976,W,1,06,1.95,182.4,M,-34.4,M,,*5B
$GPRMC,153009.250,A,4308.4759,N,07726.7012,W,38.27,266.23,280823,,,A*4B
$GPGGA,153009.500,4308.4757,N,07726.7047,W,1,06,1.43,182.7,M,-34.4,M,,*59
$GPRMC,153009.750,A,4308.4755,N,07726.7083,W,38.26,266.69,280823,,,A*45
$GPGGA,153010.000,4308.4753,N,07726.7119,W,1,06,1.95,183.0,M,-34.4,M,,*57
$GPRMC,153010.250,A,4308.4751,N,07726.7154,W,38.34,267.20,280823,,,A*48
$GPGGA,153010.500,4308.4749,N,07726.7190,W,1,06,1.95,183.3,M,-34.4,M,,*5B
$GPRMC,153010.750,A,4308.4747,N,07726.7226,W,38.37,266.49,280823,,,A*41
$GPGGA,153011.000,4308.4745,N,07726.7261,W,1,06,1.95,183.6,M,-34.4,M,,*5B
$GPRMC,153011.250,A,4308.4743,N,07726.7297,W,38.35,266.52,280823,,,A*43
$GPGGA,153011.500,4308.4741,N,07726.7333,W,1,06,1.43,183.9,M,-34.4,M,,*58
$GPRMC,153011.750,A,4308.4739,N,07726.7368,W,38.30,265.99,280823,,,A*4B
$GPGGA,153012.000,4308.4737,N,07726.7404,W,1,06,1.43,184.2,M,-34.4,M,,*50
$GPRMC,153012.250,A,4308.4735,N,07726.7439,W,38.22,265.92,280823,,,A*4A
$GPGGA,153012.500,4308.4733,N,07726.7475,W,1,06,1.43,184.5,M,-34.4,M,,*50
$GPRMC,153012.750,A,4308.4731,N,07726.7510,W,38.12,266.19,280823,,,A*42
$GPGGA,153013.000,4308.4729,N,07726.7545,W,1,06,1.43,184.9,M,-34.4,M,,*51
$GPRMC,153013.250,A,4308.4727,N,07726.7579,W,37.00,266.01,280823,,,A*4B
$GPGGA,153013.500,4308.4724,N,07726.7614,W,1,06,1.43,185.2,M,-34.4,M,,*54
$GPRMC,153013.750,A,4308.4722,N,07726.7648,W,36.71,265.75,280823,,,A*4D
$GPGGA,153014.000,4308.4720,N,07726.7681,W,1,06,1.43,185.5,M,-34.4,M,,*59
$GPRMC,153014.250,A,4308.4717,N,07726.7714,W,36.27,265.19,280823,,,A*48
$GPGGA,153014.500,4308.4715,N,07726.7748,W,1,06,1.43,185.8,M,-34.4,M,,*53
$GPRMC,153014.750,A,4308.4713,N,07726.7781,W,35.67,265.48,280823,,,A*46
$GPGGA,153015.000,4308.4710,N,07726.7814,W,1,06,1.43,186.0,M,-34.4,M,,*5F
$GPRMC,153015.250,A,4308.4707,N,07726.7846,W,35.51,265.57,280823,,,A*48
$GPGGA,153015.500,4308.4705,N,07726.7879,W,1,06,1.43,186.2,M,-34.4,M,,*57
$GPRMC,153015.750,A,4308.4702,N,07726.7911,W,34.66,265.66,280823,,,A*4C
$GPGGA,153016.000,4308.4700,N,07726.7942,W,1,06,1.43,186.3,M,-34.4,M,,*5C
$GPRMC,153016.250,A,4308.4698,N,07726.7974,W,34.41,265.48,280823,,,A*42
$GPGGA,153016.500,4308.4695,N,07726.8006,W,1,06,1.43,186.5,M,-34.4,M,,*54
$GPRMC,153016.750,A,4308.4693,N,07726.8038,W,34.17,265.86,280823,,,A*43
$GPGGA,153017.000,4308.4691,N,07726.8069,W,1,06,1.43,186.6,M,-34.4,M,,*5E
$GPRMC,153017.250,A,4308.4689,N,07726.8101,W,34.02,265.49,280823,,,A*40
$GPGGA,153017.500,4308.4687,N,07726.8133,W,1,06,1.43,186.6,M,-34.4,M,,*52
$GPRMC,153017.750,A,4308.4685,N,07726.8164,W,33.77,265.59,280823,,,A*4E
$GPGGA,153018.000,4308.4682,N,07726.8194,W,1,06,1.43,186.6,M,-34.4,M,,*50
$GPRMC,153018.250,A,4308.4680,N,07726.8225,W,32.80,265.12,280823,,,A*41
$GPGGA,153018.500,4308.4678,N,07726.8256,W,1,06,1.43,186.7,M,-34.4,M,,*5C
$GPRMC,153018.750,A,4308.4676,N,07726.8287,W,32.60,264.91,280823,,,A*41
$GPGGA,153019.000,4308.4674,N,07726.8318,W,1,06,1.43,186.6,M,-34.4,M,,*5E
$GPRMC,153019.250,A,4308.4671,N,07726.8349,W,32.45,264.99,280823,,,A*4E
$GPGGA,153019.500,4308.4669,N,07726.8381,W,1,06,1.95,186.6,M,-34.4,M,,*5C
$GPRMC,153019.750,A,4308.4667,N,07726.8412,W,33.36,265.14,280823,,,A*44
$GPGGA,153020.000,4308.4665,N,07726.8444,W,1,06,1.95,186.5,M,-34.4,M,,*52
$GPRMC,153020.250,A,4308.4663,N,07726.8475,W,33.51,265.14,280823,,,A*4F
$GPGGA,153020.500,4308.4661,N,07726.8507,W,1,06,1.95,186.4,M,-34.4,M,,*54
$GPRMC,153020.750,A,4308.4659,N,07726.8539,W,33.54,265.11,280823,,,A*4A
$GPGGA,153021.000,4308.4657,N,07726.8571,W,1,06,1.95,186.2,M,-34.4,M,,*52
$GPRMC,153021.250,A,4308.4655,N,07726.8602,W,33.30,265.12,280823,,,A*48
$GPGGA,153021.500,4308.4653,N,07726.8634,W,1,06,1.95,186.0,M,-34.4,M,,*53
$GPRMC,153021.750,A,4308.4651,N,07726.8665,W,33.19,264.91,280823,,,A*49
$GPGGA,153022.000,4308.4649,N,07726.8697,W,1,06,1.95,185.9,M,-34.4,M,,*5D
$GPRMC,153022.250,A,4308.4648,N,07726.8728,W,33.08,264.98,280823,,,A*46
$GPGGA,153022.500,4308.4646,N,07726.8759,W,1,06,1.95,185.7,M,-34.4,M,,*5A
$GPRMC,153022.750,A,4308.4644,N,07726.8790,W,32.84,265.07,280823,,,A*4E
$GPGGA,153023.000,4308.4642,N,07726.8822,W,1,06,1.95,185.5,M,-34.4,M,,*5B
$GPRMC,153023.250,A,4308.4640,N,07726.8853,W,32.86,264.97,280823,,,A*44
$GPGGA,153023.500,4308.4638,N,07726.8884,W,1,06,1.95,185.4,M,-34.4,M,,*5E
$GPRMC,153023.750,A,4308.4636,N,07726.8916,W,33.29,264.95,280823,,,A*46
$GPGGA,153024.000,4308.4634,N,07726.8947,W,1,06,1.95,185.3,M,-34.4,M,,*59
$GPRMC,153024.250,A,4308.4632,N,07726.8979,W,33.63,264.88,280823,,,A*4B
$GPGGA,153024.500,4308.4630,N,07726.9011,W,1,06,1.95,185.1,M,-34.4,M,,*51
$GPRMC,153024.750,A,4308.4628,N,07726.9043,W,34.02,265.03,280823,,,A*46
$GPGGA,153025.000,4308.4625,N,07726.9076,W,1,06,1.95,184.9,M,-34.4,M,,*59
$GPRMC,153025.250,A,4308.4623,N,07726.9108,W,34.77,265.06,280823,,,A*40
$GPGGA,153025.500,4308.4621,N,07726.9142,W,1,06,1.95,184.7,M,-34.4,M,,*50
$GPRMC,153025.750,A,4308.4619,N,07726.9175,W,35.17,265.00,280823,,,A*47
$GPGGA,153026.000,4308.4617,N,07726.9209,W,1,06,1.95,184.5,M,-34.4,M,,*5D
$GPRMC,153026.250,A,4308.4615,N,07726.9244,W,36.51,264.86,280823,,,A*42
$GPGGA,153026.500,4308.4613,N,07726.9279,W,1,06,1.95,184.2,M,-34.4,M,,*5C
$GPRMC,153026.750,A,4308.4611,N,07726.9314,W,37.07,264.76,280823,,,A*4A
$GPGGA,153027.000,4308.4609,N,07726.9349,W,1,06,1.95,183.9,M,-34.4,M,,*5D
$GPRMC,153027.250,A,4308.4607,N,07726.9385,W,37.46,264.80,280823,,,A*4D
$GPGGA,153027.500,4308.4605,N,07726.9421,W,1,06,1.95,183.6,M,-34.4,M,,*52
$GPRMC,153027.750,A,4308.4603,N,07726.9457,W,38.13,265.25,280823,,,A*45
$GPGGA,153028.000,4308.4601,N,07726.9494,W,1,06,1.95,183.2,M,-34.4,M,,*56
$GPGGA,153028.500,4308.4597,N,07726.9567,W,1,06,1.95,182.9,M,-34.4,M,,*58
$GPRMC,153028.500,A,4308.4597,N,07726.9567,W,38.81,265.31,28082,,,A*4F
$GPGGA,153029.000,4308.4593,N,07726.9642,W,1,06,1.43,182.6,M,-34.4,M,,*58
$GPRMC,153029.000,A,4308.4593,N,07726.9642,W,39.02,265.70,28082,,,A*44
$GPGGA,153029.500,4308.4589,N,07726.9717,W,1,06,1.43,182.4,M,-34.4,M,,*55
$GPRMC,153029.500,A,4308.4589,N,07726.9717,W,39.75,265.50,28082$GPGGA,153029.750,4308.4587,N,07726.9754,W,1,06,1.43,182.2,M,-34.4,M,,*5D
$GPRMC,153030.000,A,4308.4585,N,07726.9792,W,40.02,265.49,280823,,,A*43
$GPGGA,153030.250,4308.4583,N,07726.9830,W,1,06,1.43,182.0,M,-34.4,M,,*5B
$GPRMC,153030.500,A,4308.4581,N,07726.9868,W,40.05,265.40,280823,,,A*46
$GPGGA,153030.750,4308.4579,N,07726.9906,W,1,06,1.43,181.8,M,-34.4,M,,*54
$GPRMC,153031.000,A,4308.4577,N,07726.9944,W,40.27,265.81,280823,,,A*49
$GPGGA,153031.250,4308.4575,N,07726.9982,W,1,06,1.43,181.5,M,-34.4,M,,*5D
$GPRMC,153031.500,A,4308.4573,N,07727.0020,W,40.30,265.60,280823,,,A*42
$GPGGA,153031.750,4308.4571,N,07727.0058,W,1,06,1.43,181.2,M,-34.4,M,,*5D
$GPRMC,153032.000,A,4308.4569,N,07727.0097,W,40.49,265.88,280823,,,A*4B
$GPGGA,153032.250,4308.4567,N,07727.0136,W,1,06,1.43,181.0,M,-34.4,M,,*57
$GPRMC,153032.500,A,4308.4566,N,07727.0175,W,41.30,266.51,280823,,,A*44
$GPGGA,153032.750,4308.4564,N,07727.0215,W,1,06,1.43,180.8,M,-34.4,M,,*5A
$GPRMC,153033.000,A,4308.4562,N,07727.0254,W,41.77,266.47,280823,,,A*40
$GPGGA,153033.250,4308.4560,N,07727.0294,W,1,06,1.43,180.5,M,-34.4,M,,*5E
$GPRMC,153033.500,A,4308.4559,N,07727.0334,W,41.69,266.66,280823,,,A*46
$GPGGA,153033.750,4308.4557,N,07727.0373,W,1,06,1.43,180.3,M,-34.4,M,,*51
$GPRMC,153034.000,A,4308.4556,N,07727.0413,W,41.61,267.50,280823,,,A*45
$GPGGA,153034.250,4308.4555,N,07727.0452,W,1,06,1.43,180.1,M,-34.4,M,,*57
$GPRMC,153034.500,A,4308.4554,N,07727.0492,W,41.55,268.78,280823,,,A*49
$GPGGA,153034.750,4308.4554,N,07727.0532,W,1,06,1.43,179.9,M,-34.4,M,,*5A
$GPRMC,153035.000,A,4308.4554,N,07727.0572,W,41.58,270.17,280823,,,A*4F
$GPGGA,153035.250,4308.4555,N,07727.0612,W,1,06,1.43,179.7,M,-34.4,M,,*50
$GPRMC,153035.500,A,4308.4555,N,07727.0652,W,42.01,270.85,280823,,,A*4E
$GPGGA,153035.750,4308.4557,N,07727.0693,W,1,06,1.43,179.5,M,-34.4,M,,*5C
$GPRMC,153036.000,A,4308.4559,N,07727.0733,W,42.16,272.54,280823,,,A*4A
$GPGGA,153036.250,4308.4560,N,07727.0774,W,1,06,1.43,179.4,M,-34.4,M,,*57
$GPRMC,153036.500,A,4308.4562,N,07727.0814,W,42.11,273.57,280823,,,A*48
$GPGGA,153036.750,4308.4566,N,07727.0854,W,1,06,1.43,179.2,M,-34.4,M,,*5F
$GPRMC,153037.000,A,4308.4568,N,07727.0895,W,42.15,274.88,280823,,,A*4E
$GPGGA,153037.250,4308.4571,N,07727.0934,W,1,06,1.43,179.0,M,-34.4,M,,*58
$GPRMC,153037.500,A,4308.4575,N,07727.0974,W,41.87,275.79,280823,,,A*4E
$GPGGA,153037.750,4308.4578,N,07727.1014,W,1,06,1.95,178.9,M,-34.4,M,,*5D
$GPRMC,153038.000,A,4308.4582,N,07727.1054,W,41.87,276.35,280823,,,A*4D
$GPGGA,153038.250,4308.4586,N,07727.1094,W,1,06,1.43,178.9,M,-34.4,M,,*55
$GPRMC,153038.500,A,4308.4590,N,07727.1133,W,41.92,277.54,280823,,,A*49
$GPGGA,153038.750,4308.4595,N,07727.1173,W,1,06,1.95,178.8,M,-34.4,M,,*50
$GPRMC,153039.000,A,4308.4600,N,07727.1212,W,41.97,279.18,280823,,,A*44
$GPGGA,153039.250,4308.4605,N,07727.1251,W,1,06,1.43,178.8,M,-34.4,M,,*56
$GPRMC,153039.500,A,4308.4610,N,07727.1291,W,42.01,279.94,280823,,,A*43
$GPGGA,153039.750,4308.4616,N,07727.1330,W,1,06,1.95,178.7,M,-34.4,M,,*53
$GPRMC,153040.000,A,4308.4621,N,07727.1369,W,41.77,280.15,280823,,,A*41
$GPGGA,153040.250,4308.4627,N,07727.1408,W,1,06,1.43,178.7,M,-34.4,M,,*5D
$GPRMC,153040.500,A,4308.4632,N,07727.1447,W,41.51,280.34,280823,,,A*4A
$GPGGA,153040.750,4308.4638,N,07727.1486,W,1,06,1.95,178.7,M,-34.4,M,,*5B
$GPRMC,153041.000,A,4308.4643,N,07727.1524,W,41.49,280.56,280823,,,A*41
$GPGGA,153041.250,4308.4648,N,07727.1563,W,1,06,1.43,178.7,M,-34.4,M,,*59
$GPRMC,153041.500,A,4308.4654,N,07727.1601,W,41.15,280.90,280823,,,A*45
$GPGGA,153041.750,4308.4659,N,07727.1639,W,1,06,1.95,178.7,M,-34.4,M,,*5B
$GPRMC,153042.000,A,4308.4664,N,07727.1677,W,41.07,280.08,280823,,,A*43
$GPGGA,153042.250,4308.4669,N,07727.1716,W,1,06,1.43,178.7,M,-34.4,M,,*59
$GPRMC,153042.500,A,4308.4673,N,07727.1754,W,40.85,279.49,280823,,,A*48
$GPGGA,153042.750,4308.4678,N,07727.1792,W,1,06,1.95,178.6,M,-34.4,M,,*5A
$GPRMC,153043.000,A,4308.4682,N,07727.1830,W,40.78,279.33,280823,,,A*40
$GPGGA,153043.250,4308.4687,N,07727.1868,W,1,06,1.43,178.6,M,-34.4,M,,*5F
$GPRMC,153043.500,A,4308.4692,N,07727.1907,W,40.80,279.26,280823,,,A*42
$GPGGA,153043.750,4308.4696,N,07727.1945,W,1,06,1.95,178.7,M,-34.4,M,,*5E
$GPRMC,153044.000,A,4308.4701,N,07727.1983,W,40.81,279.40,280823,,,A*46
$GPGGA,153044.250,4308.4706,N,07727.2021,W,1,06,1.43,178.6,M,-34.4,M,,*56
$GPRMC,153044.500,A,4308.4711,N,07727.2059,W,40.53,280.14,280823,,,A*47
$GPGGA,153044.750,4308.4716,N,07727.2096,W,1,06,1.95,178.7,M,-34.4,M,,*54
$GPRMC,153045.000,A,4308.4721,N,07727.2133,W,40.08,280.50,280823,,,A*43
$GPGGA,153045.250,4308.4726,N,07727.2170,W,1,06,1.43,178.7,M,-34.4,M,,*51
$GPRMC,153045.500,A,4308.4731,N,07727.2207,W,39.68,279.94,280823,,,A*45
$GPGGA,153045.750,4308.4735,N,07727.2243,W,1,06,1.95,178.6,M,-34.4,M,,*5F
$GPRMC,153046.000,A,4308.4740,N,07727.2280,W,39.42,279.51,280823,,,A*4B
$GPGGA,153046.250,4308.4744,N,07727.2316,W,1,06,1.43,178.6,M,-34.4,M,,*55
$GPRMC,153046.500,A,4308.4749,N,07727.2351,W,38.94,279.18,280823,,,A*4D
$GPGGA,153046.750,4308.4753,N,07727.2387,W,1,06,1.43,178.6,M,-34.4,M,,*5E
$GPRMC,153047.000,A,4308.4756,N,07727.2422,W,38.63,277.72,280823,,,A*4E
$GPGGA,153047.250,4308.4760,N,07727.2458,W,1,06,1.43,178.6,M,-34.4,M,,*5F
$GPRMC,153047.500,A,4308.4763,N,07727.2493,W,38.39,277.83,280823,,,A*46
$GPGGA,153047.750,4308.4767,N,07727.2528,W,1,06,1.95,178.6,M,-34.4,M,,*50
$GPRMC,153048.000,A,4308.4771,N,07727.2563,W,38.23,278.23,280823,,,A*4F
$GPGGA,153048.250,4308.4775,N,07727.2598,W,1,06,1.43,178.6,M,-34.4,M,,*59
$GPRMC,153048.500,A,4308.4779,N,07727.2633,W,37.96,278.90,280823,,,A*4D
$GPGGA,153048.750,4308.4783,N,07727.2669,W,1,06,1.95,178.6,M,-34.4,M,,*53
$GPRMC,153049.000,A,4308.4787,N,07727.2704,W,38.14,279.06,280823,,,A*46
$GPGGA,153049.250,4308.4792,N,07727.2739,W,1,06,1.43,178.6,M,-34.4,M,,*58
$GPRMC,153049.500,A,4308.4796,N,07727.2775,W,37.89,279.17,280823,,,A*4E
$GPGGA,153049.750,4308.4800,N,07727.2810,W,1,06,1.95,178.6,M,-34.4,M,,*56
$GPRMC,153050.000,A,4308.4805,N,07727.2845,W,37.80,279.26,280823,,,A*41
$GPGGA,153050.250,4308.4809,N,07727.2880,W,1,07,1.14,178.5,M,-34.4,M,,*50
$GPRMC,153050.500,A,4308.4814,N,07727.2916,W,37.65,279.29,280823,,,A*47
$GPGGA,153050.750,4308.4819,N,07727.2952,W,1,07,1.15,178.2,M,-34.4,M,,*5C
$GPRMC,153051.000,A,4308.4824,N,07727.2987,W,37.47,279.40,280823,,,A*47
$GPGGA,153051.250,4308.4828,N,07727.3023,W,1,07,1.14,177.9,M,-34.4,M,,*51
$GPRMC,153051.500,A,4308.4833,N,07727.3058,W,37.44,279.17,280823,,,A*4F
$GPGGA,153051.750,4308.4838,N,07727.3093,W,1,07,1.15,177.7,M,-34.4,M,,*51
$GPRMC,153052.000,A,4308.4842,N,07727.3128,W,37.35,279.54,280823,,,A*48
$GPGGA,153052.250,4308.4847,N,07727.3163,W,1,07,1.14,177.5,M,-34.4,M,,*52
$GPRMC,153052.500,A,4308.4852,N,07727.3198,W,37.28,280.14,280823,,,A*49
$GPGGA,153052.750,4308.4857,N,07727.3232,W,1,07,1.15,177.5,M,-34.4,M,,*50
$GPRMC,153053.000,A,4308.4862,N,07727.3267,W,36.99,280.13,280823,,,A*41
$GPGGA,153053.250,4308.4866,N,07727.3301,W,1,07,1.14,177.4,M,-34.4,M,,*57
$GPRMC,153053.500,A,4308.4871,N,07727.3336,W,36.90,279.52,280823,,,A*49
$GPGGA,153053.750,4308.4875,N,07727.3370,W,1,07,1.15,177.3,M,-34.4,M,,*50
$GPRMC,153054.000,A,4308.4879,N,07727.3404,W,36.61,279.01,280823,,,A*4D
$GPGGA,153054.250,4308.4883,N,07727.3438,W,1,07,1.14,177.2,M,-34.4,M,,*50
$GPRMC,153054.500,A,4308.4886,N,07727.3472,W,36.22,278.48,280823,,,A*42
$GPGGA,153054.750,4308.4890,N,07727.3506,W,1,07,1.15,177.1,M,-34.4,M,,*59
$GPRMC,153055.000,A,4308.4894,N,07727.3540,W,36.12,278.34,280823,,,A*4D
$GPGGA,153055.250,4308.4897,N,07727.3573,W,1,07,1.14,176.9,M,-34.4,M,,*50
$GPRMC,153055.500,A,4308.4901,N,07727.3607,W,36.03,278.45,280823,,,A*43
$GPGGA,153055.750,4308.4905,N,07727.3641,W,1,07,1.15,176.7,M,-34.4,M,,*52
$GPRMC,153056.000,A,4308.4909,N,07727.3674,W,35.85,279.28,280823,,,A*4E
$GPGGA,153056.250,4308.4914,N,07727.3708,W,1,07,1.14,176.4,M,-34.4,M,,*5A
$GPRMC,153056.500,A,4308.4918,N,07727.3742,W,35.83,279.52,280823,,,A*44
$GPGGA,153056.750,4308.4923,N,07727.3776,W,1,07,1.15,175.9,M,-34.4,M,,*5D
$GPRMC,153057.000,A,4308.4927,N,07727.3809,W,35.87,279.97,280823,,,A*41
$GPGGA,153057.250,4308.4932,N,07727.3843,W,1,07,1.14,175.4,M,-34.4,M,,*5C
$GPRMC,153057.500,A,4308.4937,N,07727.3877,W,35.80,279.69,280823,,,A*4A
$GPGGA,153057.750,4308.4941,N,07727.3910,W,1,07,1.15,174.9,M,-34.4,M,,*57
$GPRMC,153058.000,A,4308.4946,N,07727.3944,W,35.54,279.48,280823,,,A*4D
$GPGGA,153058.250,4308.4950,N,07727.3977,W,1,07,1.14,174.6,M,-34.4,M,,*52
$GPRMC,153058.500,A,4308.4955,N,07727.4010,W,35.43,279.86,280823,,,A*41
$GPGGA,153058.750,4308.4960,N,07727.4043,W,1,07,1.15,174.4,M,-34.4,M,,*5E
$GPRMC,153059.000,A,4308.4964,N,07727.4076,W,35.13,279.93,280823,,,A*46
$GPGGA,153059.250,4308.4968,N,07727.4108,W,1,07,1.15,174.2,M,-34.4,M,,*5A
$GPRMC,153059.500,A,4308.4972,N,07727.4141,W,35.12,279.69,280823,,,A*45
$GPGGA,153059.750,4308.4976,N,07727.4174,W,1,07,1.15,174.2,M,-34.4,M,,*5B
$GPRMC,153100.000,A,4308.4980,N,07727.4206,W,34.89,279.30,280823,,,A*4F
$GPGGA,153100.250,4308.4984,N,07727.4239,W,1,07,1.14,174.1,M,-34.4,M,,*56
$GPRMC,153100.500,A,4308.4989,N,07727.4271,W,34.97,279.87,280823,,,A*40
$GPGGA,153100.750,4308.4993,N,07727.4304,W,1,07,1.15,174.1,M,-34.4,M,,*5B
$GPRMC,153101.000,A,4308.4997,N,07727.4336,W,34.93,279.45,280823,,,A*43
$GPGGA,153101.250,4308.5001,N,07727.4369,W,1,07,1.14,174.0,M,-34.4,M,,*57
$GPRMC,153101.500,A,4308.5005,N,07727.4401,W,34.87,279.43,280823,,,A*45
$GPGGA,153101.750,4308.5009,N,07727.4434,W,1,07,1.15,174.1,M,-34.4,M,,*55
$GPRMC,153102.000,A,4308.5012,N,07727.4466,W,34.81,279.43,280823,,,A*42
$GPGGA,153102.250,4308.5016,N,07727.4499,W,1,07,1.14,174.1,M,-34.4,M,,*5B
$GPRMC,153102.500,A,4308.5020,N,07727.4532,W,34.83,279.63,280823,,,A*46
$GPGGA,153102.750,4308.5025,N,07727.4564,W,1,07,1.14,174.2,M,-34.4,M,,*5E
$GPRMC,153103.000,A,4308.5029,N,07727.4596,W,34.83,279.56,280823,,,A*43
$GPGGA,153103.250,4308.5033,N,07727.4629,W,1,07,1.14,174.2,M,-34.4,M,,*57
$GPRMC,153103.500,A,4308.5037,N,07727.4662,W,34.87,279.83,280823,,,A*4D
$GPGGA,153103.750,4308.5041,N,07727.4695,W,1,07,1.15,174.3,M,-34.4,M,,*50
$GPRMC,153104.000,A,4308.5046,N,07727.4728,W,35.17,279.84,280823,,,A*49
$GPGGA,153104.250,4308.5050,N,07727.4761,W,1,07,1.14,174.4,M,-34.4,M,,*5E
$GPRMC,153104.500,A,4308.5054,N,07727.4794,W,35.21,279.66,280823,,,A*41
$GPGGA,153104.750,4308.5058,N,07727.4828,W,1,07,1.15,174.4,M,-34.4,M,,*50
$GPRMC,153105.000,A,4308.5062,N,07727.4861,W,35.64,279.87,280823,,,A*4B
$GPGGA,153105.250,4308.5067,N,07727.4895,W,1,07,1.14,174.4,M,-34.4,M,,*5F
$GPRMC,153105.500,A,4308.5071,N,07727.4928,W,35.84,280.03,280823,,,A*44
$GPGGA,153105.750,4308.5075,N,07727.4962,W,1,07,1.15,174.4,M,-34.4,M,,*51
$GPRMC,153106.000,A,4308.5080,N,07727.4996,W,36.17,279.89,280823,,,A*44
$GPGGA,153106.250,4308.5084,N,07727.5030,W,1,07,1.14,174.3,M,-34.4,M,,*50
$GPRMC,153106.500,A,4308.5088,N,07727.5063,W,36.16,279.66,280823,,,A*4B
$GPGGA,153106.750,4308.5092,N,07727.5097,W,1,07,1.15,174.3,M,-34.4,M,,*5E
$GPRMC,153107.000,A,4308.5096,N,07727.5131,W,35.91,279.34,280823,,,A*4D
$GPGGA,153107.250,4308.5100,N,07727.5165,W,1,07,1.14,174.1,M,-34.4,M,,*5F
$GPRMC,153107.500,A,4308.5104,N,07727.5198,W,35.87,279.05,280823,,,A*44
$GPGGA,153107.750,4308.5108,N,07727.5232,W,1,07,1.15,174.1,M,-34.4,M,,*52
$GPRMC,153108.000,A,4308.5112,N,07727.5266,W,35.85,278.88,280823,,,A*4D
$GPGGA,153106.250,4308.5115,N,07727.5299,W,1,07,1.14,174.1,M,-34.4,M,,*5A
$GPRMC,153106.500,A,4308.5119,N,07727.5332,W,35.87,279.22,280823,,,A*4E
$GPGGA,153106.750,4308.5123,N,07727.5366,W,1,07,1.15,174.1,M,-34.4,M,,*5A
$GPRMC,153107.000,A,4308.5127,N,07727.5399,W,35.92,279.41,280823,,,A*47
$GPGGA,153107.250,4308.5132,N,07727.5432,W,1,07,1.15,174.2,M,-34.4,M,,*5B
$GPRMC,153107.500,A,4308.5136,N,07727.5466,W,35.96,279.51,280823,,,A*40
$GPGGA,153107.750,4308.5140,N,07727.5499,W,1,07,1.15,174.2,M,-34.4,M,,*5A
$GPRMC,153108.000,A,4308.5145,N,07727.5533,W,36.02,279.85,280823,,,A*48
$GPGGA,153108.250,4308.5149,N,07727.5566,W,1,07,1.14,174.2,M,-34.4,M,,*59
$GPRMC,153108.500,A,4308.5154,N,07727.5599,W,35.86,280.00,280823,,,A*49
$GPGGA,153108.750,4308.5157,N,07727.5633,W,1,07,1.15,174.1,M,-34.4,M,,*52
$GPRMC,153109.000,A,4308.5160,N,07727.5667,W,35.91,278.36,280823,,,A*4C
$GPGGA,153109.250,4308.5163,N,07727.5700,W,1,07,1.14,174.0,M,-34.4,M,,*50
$GPRMC,153109.500,A,4308.5167,N,07727.5734,W,35.90,279.13,280823,,,A*4E
$GPGGA,153109.750,4308.5170,N,07727.5767,W,1,07,1.15,173.9,M,-34.4,M,,*59
$GPRMC,153110.000,A,4308.5174,N,07727.5801,W,35.90,279.14,280823,,,A*4F
$GPGGA,153110.250,4308.5178,N,07727.5834,W,1,07,1.14,173.8,M,-34.4,M,,*55
$GPRMC,153110.500,A,4308.5182,N,07727.5867,W,35.54,279.08,280823,,,A*46
$GPGGA,153110.750,4308.5186,N,07727.5900,W,1,07,1.15,173.6,M,-34.4,M,,*58
$GPRMC,153111.000,A,4308.5189,N,07727.5933,W,35.26,278.70,280823,,,A*42
$GPGGA,153111.250,4308.5193,N,07727.5965,W,1,07,1.14,173.5,M,-34.4,M,,*59
$GPRMC,153111.500,A,4308.5196,N,07727.5998,W,34.81,278.74,280823,,,A*40
$GPGGA,153111.750,4308.5200,N,07727.6030,W,1,07,1.15,173.2,M,-34.4,M,,*59
$GPRMC,153112.000,A,4308.5203,N,07727.6063,W,34.80,278.96,280823,,,A*4A
$GPGGA,153112.250,4308.5207,N,07727.6095,W,1,07,1.14,173.0,M,-34.4,M,,*54
$GPRMC,153112.500,A,4308.5210,N,07727.6127,W,34.66,278.34,280823,,,A*4C
$GPGGA,153112.750,4308.5213,N,07727.6159,W,1,07,1.15,172.8,M,-34.4,M,,*5D
$GPRMC,153113.000,A,4308.5217,N,07727.6191,W,34.59,278.23,280823,,,A*48
$GPGGA,153113.250,4308.5220,N,07727.6223,W,1,07,1.14,172.5,M,-34.4,M,,*5B
$GPRMC,153113.500,A,4308.5223,N,07727.6254,W,33.67,278.08,280823,,,A*43
$GPGGA,153113.750,4308.5226,N,07727.6285,W,1,07,1.15,172.3,M,-34.4,M,,*53
$GPRMC,153114.000,A,4308.5230,N,07727.6316,W,33.45,277.93,280823,,,A*49
$GPGGA,153114.250,4308.5232,N,07727.6347,W,1,07,1.14,172.2,M,-34.4,M,,*5B
$GPRMC,153114.500,A,4308.5235,N,07727.6378,W,33.41,277.71,280823,,,A*49
$GPGGA,153114.750,4308.5238,N,07727.6409,W,1,07,1.15,172.1,M,-34.4,M,,*5B
$GPRMC,153115.000,A,4308.5241,N,07727.6440,W,33.21,277.70,280823,,,A*45
$GPGGA,153115.250,4308.5244,N,07727.6470,W,1,07,1.14,172.0,M,-34.4,M,,*5A
$GPRMC,153115.500,A,4308.5247,N,07727.6501,W,33.08,277.29,280823,,,A*45
$GPGGA,153115.750,4308.5249,N,07727.6532,W,1,07,1.15,171.9,M,-34.4,M,,*5E
$GPRMC,153116.000,A,4308.5252,N,07727.6563,W,32.85,277.34,280823,,,A*4B
$GPGGA,153116.250,4308.5254,N,07727.6593,W,1,07,1.14,171.7,M,-34.4,M,,*50
$GPRMC,153116.500,A,4308.5257,N,07727.6623,W,32.60,277.05,280823,,,A*45
$GPGGA,153116.750,4308.5259,N,07727.6654,W,1,07,1.15,171.5,M,-34.4,M,,*53
$GPRMC,153117.000,A,4308.5262,N,07727.6683,W,32.10,276.31,280823,,,A*4C
$GPGGA,153117.250,4308.5264,N,07727.6712,W,1,07,1.15,171.3,M,-34.4,M,,*5C
$GPRMC,153117.500,A,4308.5267,N,07727.6741,W,30.36,276.22,280823,,,A*47
$GPGGA,153117.750,4308.5269,N,07727.6769,W,1,07,1.15,171.2,M,-34.4,M,,*59
$GPRMC,153118.000,A,4308.5271,N,07727.6797,W,29.47,275.44,280823,,,A*4C
$GPGGA,153118.250,4308.5273,N,07727.6824,W,1,07,1.14,171.0,M,-34.4,M,,*5D
$GPRMC,153118.500,A,4308.5275,N,07727.6851,W,28.55,275.76,280823,,,A*4B
$GPGGA,153118.750,4308.5277,N,07727.6878,W,1,07,1.15,170.9,M,-34.4,M,,*5C
$GPRMC,153119.000,A,4308.5279,N,07727.6903,W,28.02,275.54,280823,,,A*47
$GPGGA,153119.250,4308.5280,N,07727.6929,W,1,07,1.14,170.9,M,-34.4,M,,*54
$GPRMC,153119.500,A,4308.5282,N,07727.6953,W,26.36,274.62,280823,,,A*4E
$GPGGA,153119.750,4308.5283,N,07727.6977,W,1,07,1.15,171.3,M,-34.4,M,,*53
$GPRMC,153120.000,A,4308.5284,N,07727.7001,W,25.71,274.34,280823,,,A*4B
