Vers 81
USE_SERIAL_FEEDBACK=true
DEVELOPMENT_MODE=false
USE_RMC_ONLY=false

$GPRMC,153351.500,A,4308.3027,N,07726.2628,W,0.14,94.57,121023,,,A*43
$GPGGA,153351.750,4308.3026,N,07726.2627,W,1,04,1.72,156.0,M,-34.4,M,,*5D
$GPRMC,153352.000,A,4308.3026,N,07726.2626,W,0.08,48.31,121023,,,A*46
$GPGGA,153352.250,4308.3025,N,07726.2625,W,1,04,1.72,156.0,M,-34.4,M,,*5A
$GPRMC,153352.500,A,4308.3025,N,07726.2624,W,0.10,92.97,121023,,,A*40
$GPGGA,153352.750,4308.3025,N,07726.2624,W,1,04,1.72,155.7,M,-34.4,M,,*5A
$GPRMC,153353.000,A,4308.3025,N,07726.2625,W,0.06,94.29,121023,,,A*41
$GPGGA,153353.250,4308.3025,N,07726.2625,W,1,04,1.72,155.5,M,-34.4,M,,*5D
$GPRMC,153353.500,A,4308.3024,N,07726.2624,W,0.05,98.30,121023,,,A*43
$GPGGA,153353.750,4308.3024,N,07726.2624,W,1,04,1.72,155.5,M,-34.4,M,,*58
$GPRMC,153354.000,A,4308.3021,N,07726.2623,W,0.02,87.52,121023,,,A*4E
$GPGGA,153354.250,4308.3020,N,07726.2622,W,1,04,1.72,155.6,M,-34.4,M,,*5B
$GPRMC,153354.500,A,4308.3020,N,07726.2622,W,0.28,355.54,121023,,,A*79
$GPGGA,153354.750,4308.3019,N,07726.2622,W,1,04,2.15,155.6,M,-34.4,M,,*56
$GPRMC,153355.000,A,4308.3019,N,07726.2622,W,0.23,336.69,121023,,,A*77
$GPGGA,153355.250,4308.3018,N,07726.2622,W,1,04,1.72,155.7,M,-34.4,M,,*50
$GPRMC,153355.500,A,4308.3018,N,07726.2621,W,0.19,2.72,121023,,,A*77
$GPGGA,153355.750,4308.3018,N,07726.2621,W,1,04,2.15,155.8,M,-34.4,M,,*5B
$GPRMC,153356.000,A,4308.3018,N,07726.2620,W,0.17,4.06,121023,,,A*7B
$GPGGA,153356.250,4308.3018,N,07726.2620,W,1,04,2.15,156.1,M,-34.4,M,,*56
$GPRMC,153356.500,A,4308.3018,N,07726.2619,W,0.14,14.60,121023,,,A*46
$GPGGA,153356.750,4308.3019,N,07726.2619,W,1,04,2.15,156.3,M,-34.4,M,,*5A
$GPRMC,153357.000,A,4308.3019,N,07726.2618,W,0.18,8.21,121023,,,A*76
$GPGGA,153357.250,4308.3019,N,07726.2617,W,1,04,2.15,156.5,M,-34.4,M,,*56
$GPRMC,153357.500,A,4308.3019,N,07726.2616,W,0.45,52.36,121023,,,A*4C
$GPGGA,153357.750,4308.3019,N,07726.2613,W,1,04,1.72,156.6,M,-34.4,M,,*56
$GPRMC,153358.000,A,4308.3019,N,07726.2611,W,0.91,66.92,121023,,,A*41
$GPGGA,153358.250,4308.3019,N,07726.2610,W,1,04,1.72,156.7,M,-34.4,M,,*5E
$GPRMC,153358.500,A,4308.3018,N,07726.2609,W,0.84,81.99,121023,,,A*4A
$GPGGA,153358.750,4308.3017,N,07726.2609,W,1,04,1.72,156.8,M,-34.4,M,,*52
$GPRMC,153359.000,A,4308.3016,N,07726.2608,W,0.72,109.72,121023,,,A*7C
$GPGGA,153359.250,4308.3016,N,07726.2607,W,1,04,1.72,156.8,M,-34.4,M,,*59
$GPRMC,153359.500,A,4308.3016,N,07726.2607,W,0.79,115.38,121023,,,A*7E
$GPGGA,153359.750,4308.3015,N,07726.2606,W,1,04,1.72,157.0,M,-34.4,M,,*57
$GPRMC,153400.000,A,4308.3016,N,07726.2606,W,0.69,119.38,121023,,,A*7C
$GPGGA,153400.250,4308.3017,N,07726.2607,W,1,04,1.72,157.4,M,-34.4,M,,*5E
$GPRMC,153400.500,A,4308.3018,N,07726.2607,W,0.44,99.06,121023,,,A*4D
$GPGGA,153400.750,4308.3018,N,07726.2607,W,1,04,1.72,157.7,M,-34.4,M,,*57
$GPRMC,153401.000,A,4308.3018,N,07726.2606,W,0.42,96.48,121023,,,A*4B
$GPGGA,153401.250,4308.3018,N,07726.2606,W,1,04,1.72,157.8,M,-34.4,M,,*5D
$GPRMC,153401.500,A,4308.3019,N,07726.2606,W,0.42,75.21,121023,,,A*4D
$GPGGA,153401.750,4308.3019,N,07726.2606,W,1,04,1.72,158.0,M,-34.4,M,,*5E
$GPRMC,153402.000,A,4308.3019,N,07726.2606,W,0.37,80.32,121023,,,A*41
$GPGGA,153402.250,4308.3018,N,07726.2605,W,1,04,1.72,158.2,M,-34.4,M,,*58
$GPRMC,153402.500,A,4308.3018,N,07726.2605,W,0.40,97.44,121023,,,A*41
$GPGGA,153402.750,4308.3018,N,07726.2607,W,1,04,1.72,158.3,M,-34.4,M,,*5E
$GPRMC,153403.000,A,4308.3018,N,07726.2607,W,0.18,112.55,121023,,,A*76
$GPGGA,153403.250,4308.3018,N,07726.2607,W,1,04,1.72,158.5,M,-34.4,M,,*5C
$GPRMC,153403.500,A,4308.3018,N,07726.2606,W,0.26,93.75,121023,,,A*45
$GPGGA,153403.750,4308.3018,N,07726.2607,W,1,04,1.72,158.7,M,-34.4,M,,*5B
$GPRMC,153404.000,A,4308.3018,N,07726.2607,W,0.15,127.43,121023,,,A*7D
$GPGGA,153404.250,4308.3017,N,07726.2608,W,1,04,1.72,159.0,M,-34.4,M,,*5F
$GPRMC,153404.500,A,4308.3017,N,07726.2609,W,0.07,184.57,121023,,,A*76
$GPGGA,153404.750,4308.3017,N,07726.2609,W,1,04,1.72,159.2,M,-34.4,M,,*59
$GPRMC,153405.000,A,4308.3017,N,07726.2609,W,0.10,133.92,121023,,,A*71
$GPGGA,153405.250,4308.3015,N,07726.2609,W,1,04,1.72,159.2,M,-34.4,M,,*5F
$GPRMC,153405.500,A,4308.3015,N,07726.2609,W,0.20,167.60,121023,,,A*79
$GPGGA,153405.750,4308.3014,N,07726.2610,W,1,04,1.72,159.2,M,-34.4,M,,*53
$GPRMC,153406.000,A,4308.3014,N,07726.2611,W,0.28,199.45,121023,,,A*79
$GPGGA,153406.250,4308.3013,N,07726.2611,W,1,04,1.72,159.3,M,-34.4,M,,*52
$GPRMC,153406.500,A,4308.3013,N,07726.2611,W,0.29,194.48,121023,,,A*7A
$GPGGA,153406.750,4308.3013,N,07726.2612,W,1,04,1.72,159.4,M,-34.4,M,,*53
$GPRMC,153407.000,A,4308.3012,N,07726.2612,W,0.30,196.83,121023,,,A*71
$GPGGA,153407.250,4308.3012,N,07726.2612,W,1,04,1.72,159.4,M,-34.4,M,,*56
$GPRMC,153407.500,A,4308.3011,N,07726.2611,W,0.28,173.54,121023,,,A*7C
$GPGGA,153407.750,4308.3011,N,07726.2612,W,1,04,1.72,159.5,M,-34.4,M,,*51
$GPRMC,153408.000,A,4308.3011,N,07726.2613,W,0.32,193.31,121023,,,A*72
$GPGGA,153408.250,4308.3010,N,07726.2613,W,1,04,1.72,159.5,M,-34.4,M,,*5B
$GPRMC,153408.500,A,4308.3010,N,07726.2614,W,0.36,195.17,121023,,,A*77
$GPGGA,153408.750,4308.3009,N,07726.2614,W,1,04,1.72,159.4,M,-34.4,M,,*50
$GPRMC,153409.000,A,4308.3009,N,07726.2614,W,0.34,192.68,121023,,,A*76
$GPGGA,153409.250,4308.3008,N,07726.2614,W,1,04,1.72,159.5,M,-34.4,M,,*54
$GPRMC,153409.500,A,4308.3008,N,07726.2614,W,0.32,195.24,121023,,,A*7B
$GPGGA,153409.750,4308.3008,N,07726.2614,W,1,04,1.72,159.5,M,-34.4,M,,*51
$GPRMC,153410.000,A,4308.3007,N,07726.2615,W,0.30,192.80,121023,,,A*73
$GPGGA,153410.250,4308.3007,N,07726.2614,W,1,04,1.72,159.5,M,-34.4,M,,*53
$GPRMC,153410.500,A,4308.3006,N,07726.2614,W,0.28,176.25,121023,,,A*7A
$GPGGA,153410.750,4308.3006,N,07726.2615,W,1,04,1.72,159.5,M,-34.4,M,,*56
$GPRMC,153411.000,A,4308.3005,N,07726.2615,W,0.32,166.95,121023,,,A*7D
$GPGGA,153411.250,4308.3004,N,07726.2615,W,1,04,1.72,159.4,M,-34.4,M,,*51
$GPRMC,153411.500,A,4308.3004,N,07726.2615,W,0.34,175.39,121023,,,A*7B
$GPGGA,153411.750,4308.3004,N,07726.2616,W,1,04,1.72,159.4,M,-34.4,M,,*57
$GPRMC,153412.000,A,4308.3003,N,07726.2616,W,0.35,170.11,121023,,,A*77
$GPGGA,153412.250,4308.3003,N,07726.2616,W,1,04,1.71,159.4,M,-34.4,M,,*55
$GPRMC,153412.500,A,4308.3002,N,07726.2617,W,0.35,176.43,121023,,,A*73
$GPGGA,153412.750,4308.3002,N,07726.2617,W,1,04,1.72,159.4,M,-34.4,M,,*53
$GPRMC,153413.000,A,4308.3002,N,07726.2617,W,0.32,184.66,121023,,,A*7A
$GPGGA,153413.250,4308.3002,N,07726.2618,W,1,04,1.71,159.4,M,-34.4,M,,*5B
$GPRMC,153413.500,A,4308.3002,N,07726.2619,W,0.30,201.75,121023,,,A*7F
$GPGGA,153413.750,4308.3002,N,07726.2620,W,1,04,1.71,159.5,M,-34.4,M,,*54
$GPRMC,153414.000,A,4308.3002,N,07726.2620,W,0.29,214.57,121023,,,A*7B
$GPGGA,153414.250,4308.3001,N,07726.2620,W,1,04,1.71,159.6,M,-34.4,M,,*56
$GPRMC,153414.500,A,4308.3001,N,07726.2620,W,0.28,206.90,121023,,,A*74
$GPGGA,153414.750,4308.3001,N,07726.2621,W,1,04,1.71,159.6,M,-34.4,M,,*52
$GPRMC,153415.000,A,4308.3001,N,07726.2621,W,0.28,208.09,121023,,,A*7F
$GPGGA,153415.250,4308.3001,N,07726.2621,W,1,04,1.72,159.7,M,-34.4,M,,*54
$GPRMC,153415.500,A,4308.3000,N,07726.2621,W,0.23,187.39,121023,,,A*77
$GPGGA,153415.750,4308.3000,N,07726.2621,W,1,04,1.71,159.7,M,-34.4,M,,*53
$GPRMC,153416.000,A,4308.2999,N,07726.2621,W,0.24,184.75,121023,,,A*75
$GPGGA,153416.250,4308.2998,N,07726.2621,W,1,04,1.71,159.7,M,-34.4,M,,*5C
$GPRMC,153416.500,A,4308.2997,N,07726.2621,W,0.29,190.07,121023,,,A*73
$GPGGA,153416.750,4308.2996,N,07726.2621,W,1,04,1.71,159.7,M,-34.4,M,,*57
$GPRMC,153417.000,A,4308.2995,N,07726.2621,W,0.34,188.25,121023,,,A*70
$GPGGA,153417.250,4308.2994,N,07726.2621,W,1,04,1.72,159.6,M,-34.4,M,,*53
$GPRMC,153417.500,A,4308.2993,N,07726.2621,W,0.35,180.16,121023,,,A*7A
$GPGGA,153417.750,4308.2992,N,07726.2621,W,1,04,1.72,159.7,M,-34.4,M,,*51
$GPRMC,153418.000,A,4308.2991,N,07726.2621,W,0.38,179.66,121023,,,A*7E
$GPGGA,153418.250,4308.2990,N,07726.2621,W,1,04,1.72,159.7,M,-34.4,M,,*59
$GPRMC,153418.500,A,4308.2989,N,07726.2621,W,0.41,181.47,121023,,,A*78
$GPGGA,153418.750,4308.2987,N,07726.2621,W,1,04,1.71,159.7,M,-34.4,M,,*59
$GPRMC,153419.000,A,4308.2986,N,07726.2621,W,0.46,177.58,121023,,,A*73
$GPGGA,153419.250,4308.2985,N,07726.2620,W,1,04,1.71,159.7,M,-34.4,M,,*5E
$GPRMC,153419.500,A,4308.2983,N,07726.2620,W,0.53,167.96,121023,,,A*75
$GPGGA,153419.750,4308.2981,N,07726.2620,W,1,04,1.71,159.7,M,-34.4,M,,*5F
$GPRMC,153420.000,A,4308.2981,N,07726.2619,W,0.57,167.75,121023,,,A*7B
$GPGGA,153420.250,4308.2979,N,07726.2619,W,1,04,1.71,159.7,M,-34.4,M,,*5D
$GPRMC,153420.500,A,4308.2978,N,07726.2619,W,0.60,164.99,121023,,,A*7D
$GPGGA,153420.750,4308.2977,N,07726.2619,W,1,04,1.71,159.8,M,-34.4,M,,*59
$GPRMC,153421.000,A,4308.2976,N,07726.2619,W,0.63,171.44,121023,,,A*70
$GPGGA,153421.250,4308.2975,N,07726.2618,W,1,04,1.71,159.8,M,-34.4,M,,*5E
$GPRMC,153421.500,A,4308.2973,N,07726.2618,W,0.71,162.26,121023,,,A*74
$GPGGA,153421.750,4308.2972,N,07726.2618,W,1,04,1.71,159.8,M,-34.4,M,,*5C
$GPRMC,153422.000,A,4308.2973,N,07726.2618,W,0.67,167.96,121023,,,A*7B
$GPGGA,153422.250,4308.2973,N,07726.2619,W,1,04,1.71,159.9,M,-34.4,M,,*5B
$GPRMC,153422.500,A,4308.2975,N,07726.2620,W,0.58,181.72,121023,,,A*7D
$GPGGA,153422.750,4308.2977,N,07726.2621,W,1,04,1.71,159.9,M,-34.4,M,,*51
$GPRMC,153423.000,A,4308.2980,N,07726.2621,W,0.40,179.55,121023,,,A*79
$GPGGA,153423.250,4308.2982,N,07726.2622,W,1,04,1.71,160.0,M,-34.4,M,,*5F
$GPRMC,153423.500,A,4308.2984,N,07726.2623,W,0.28,188.43,121023,,,A*7D
$GPGGA,153423.750,4308.2987,N,07726.2623,W,1,04,1.71,160.1,M,-34.4,M,,*5F
$GPRMC,153424.000,A,4308.2988,N,07726.2624,W,0.18,189.91,121023,,,A*79
$GPGGA,153424.250,4308.2991,N,07726.2624,W,1,04,1.71,160.2,M,-34.4,M,,*5E
$GPRMC,153424.500,A,4308.2992,N,07726.2625,W,0.07,224.81,121023,,,A*7D
$GPGGA,153424.750,4308.2994,N,07726.2626,W,1,04,1.71,160.3,M,-34.4,M,,*5D
$GPRMC,153425.000,A,4308.2996,N,07726.2627,W,0.11,297.06,121023,,,A*7F
$GPGGA,153425.250,4308.2997,N,07726.2627,W,1,04,1.71,160.3,M,-34.4,M,,*5B
$GPRMC,153425.500,A,4308.2998,N,07726.2628,W,0.16,302.37,121023,,,A*73
$GPGGA,153425.750,4308.2999,N,07726.2628,W,1,04,1.71,160.4,M,-34.4,M,,*58
$GPRMC,153426.000,A,4308.2999,N,07726.2628,W,0.17,309.79,121023,,,A*74
$GPGGA,153426.250,4308.2999,N,07726.2629,W,1,06,1.57,160.4,M,-34.4,M,,*59
$GPRMC,153426.500,A,4308.2999,N,07726.2629,W,0.08,351.34,121023,,,A*7A
$GPGGA,153426.750,4308.2999,N,07726.2629,W,1,06,1.92,160.4,M,-34.4,M,,*55
$GPRMC,153427.000,A,4308.2999,N,07726.2629,W,0.04,29.37,121023,,,A*4D
$GPGGA,153427.250,4308.2999,N,07726.2629,W,1,06,1.57,160.4,M,-34.4,M,,*58
$GPRMC,153427.500,A,4308.2999,N,07726.2629,W,0.21,306.87,121023,,,A*7A
$GPGGA,153427.750,4308.2999,N,07726.2629,W,1,06,1.57,160.4,M,-34.4,M,,*5D
$GPRMC,153428.000,A,4308.3000,N,07726.2629,W,0.26,298.34,121023,,,A*71
$GPGGA,153428.250,4308.3000,N,07726.2629,W,1,06,1.57,160.4,M,-34.4,M,,*5F
$GPRMC,153428.500,A,4308.3000,N,07726.2630,W,0.20,313.10,121023,,,A*7E
$GPGGA,153428.750,4308.3000,N,07726.2630,W,1,06,1.57,160.4,M,-34.4,M,,*52
$GPRMC,153429.000,A,4308.3000,N,07726.2630,W,0.12,300.64,121023,,,A*7A
$GPGGA,153429.250,4308.3000,N,07726.2630,W,1,06,1.57,160.4,M,-34.4,M,,*56
$GPRMC,153429.500,A,4308.3000,N,07726.2630,W,0.11,297.23,121023,,,A*70
$GPGGA,153429.750,4308.3000,N,07726.2630,W,1,06,1.57,160.4,M,-34.4,M,,*53
$GPRMC,153430.000,A,4308.3000,N,07726.2630,W,0.11,302.40,121023,,,A*75
$GPGGA,153430.250,4308.3000,N,07726.2630,W,1,06,1.57,160.4,M,-34.4,M,,*5E
$GPRMC,153430.500,A,4308.3000,N,07726.2630,W,0.17,0.08,121023,,,A*7B
$GPGGA,153430.750,4308.3001,N,07726.2630,W,1,06,1.92,160.4,M,-34.4,M,,*53
$GPRMC,153431.000,A,4308.3001,N,07726.2630,W,0.11,323.75,121023,,,A*70
$GPGGA,153431.250,4308.3001,N,07726.2630,W,1,06,1.57,160.5,M,-34.4,M,,*5F
$GPRMC,153431.500,A,4308.3001,N,07726.2631,W,0.10,275.88,121023,,,A*75
$GPGGA,153431.750,4308.3001,N,07726.2631,W,1,06,1.57,160.5,M,-34.4,M,,*5B
$GPRMC,153432.000,A,4308.3001,N,07726.2631,W,0.07,277.69,121023,,,A*78
$GPGGA,153432.250,4308.3001,N,07726.2631,W,1,07,1.30,160.5,M,-34.4,M,,*5D
$GPRMC,153432.500,A,4308.3001,N,07726.2631,W,0.17,316.16,121023,,,A*72
$GPGGA,153432.750,4308.3001,N,07726.2631,W,1,07,1.31,160.5,M,-34.4,M,,*59
$GPRMC,153433.000,A,4308.3001,N,07726.2631,W,0.13,335.76,121023,,,A*75
$GPGGA,153433.250,4308.3001,N,07726.2631,W,1,07,1.31,160.5,M,-34.4,M,,*5D
$GPRMC,153433.500,A,4308.3002,N,07726.2631,W,0.09,319.66,121023,,,A*77
$GPGGA,153433.750,4308.3002,N,07726.2631,W,1,07,1.31,160.5,M,-34.4,M,,*5B
$GPRMC,153434.000,A,4308.3002,N,07726.2631,W,0.25,340.76,121023,,,A*76
$GPGGA,153434.250,4308.3002,N,07726.2632,W,1,07,1.30,160.5,M,-34.4,M,,*5B
$GPRMC,153434.500,A,4308.3002,N,07726.2632,W,0.08,0.36,121023,,,A*7C
$GPGGA,153434.750,4308.3003,N,07726.2632,W,1,07,1.55,160.5,M,-34.4,M,,*5C
$GPRMC,153435.000,A,4308.3003,N,07726.2632,W,0.14,33.30,121023,,,A*42
$GPGGA,153435.250,4308.3003,N,07726.2632,W,1,07,1.31,160.5,M,-34.4,M,,*5A
$GPRMC,153435.500,A,4308.3003,N,07726.2631,W,0.15,6.52,121023,,,A*77
$GPGGA,153435.750,4308.3003,N,07726.2631,W,1,07,1.55,160.5,M,-34.4,M,,*5E
$GPRMC,153436.000,A,4308.3003,N,07726.2631,W,0.10,338.60,121023,,,A*7B
$GPGGA,153436.250,4308.3003,N,07726.2632,W,1,07,1.31,160.5,M,-34.4,M,,*59
$GPRMC,153436.500,A,4308.3003,N,07726.2632,W,0.17,321.63,121023,,,A*71
$GPGGA,153436.750,4308.3004,N,07726.2632,W,1,07,1.31,160.5,M,-34.4,M,,*5B
$GPRMC,153437.000,A,4308.3004,N,07726.2632,W,0.10,302.16,121023,,,A*76
$GPGGA,153437.250,4308.3004,N,07726.2632,W,1,07,1.31,160.5,M,-34.4,M,,*5F
$GPRMC,153437.500,A,4308.3004,N,07726.2632,W,0.06,305.54,121023,,,A*75
$GPGGA,153437.750,4308.3004,N,07726.2632,W,1,07,1.30,160.5,M,-34.4,M,,*5B
$GPRMC,153438.000,A,4308.3004,N,07726.2632,W,0.01,244.47,121023,,,A*7E
$GPGGA,153438.250,4308.3004,N,07726.2632,W,1,07,1.31,160.5,M,-34.4,M,,*50
$GPRMC,153438.500,A,4308.3004,N,07726.2632,W,0.05,32.94,121023,,,A*42
$GPGGA,153438.750,4308.3004,N,07726.2632,W,1,07,1.31,160.5,M,-34.4,M,,*55
$GPRMC,153439.000,A,4308.3004,N,07726.2632,W,0.02,327.93,121023,,,A*71
$GPGGA,153439.250,4308.3004,N,07726.2632,W,1,07,1.31,160.5,M,-34.4,M,,*51
$GPRMC,153439.500,A,4308.3004,N,07726.2632,W,0.02,26.19,121023,,,A*44
$GPGGA,153439.750,4308.3004,N,07726.2632,W,1,07,1.31,160.5,M,-34.4,M,,*54
$GPRMC,153440.000,A,4308.3004,N,07726.2632,W,0.07,170.07,121023,,,A*77
$GPGGA,153440.250,4308.3004,N,07726.2632,W,1,06,1.64,160.5,M,-34.4,M,,*5E
$GPRMC,153440.500,A,4308.3004,N,07726.2632,W,0.09,58.79,121023,,,A*4E
$GPGGA,153440.750,4308.3004,N,07726.2632,W,1,07,1.31,160.5,M,-34.4,M,,*5A
$GPRMC,153441.000,A,4308.3004,N,07726.2632,W,0.11,61.77,121023,,,A*47
$GPGGA,153441.250,4308.3004,N,07726.2632,W,1,07,1.31,160.5,M,-34.4,M,,*5E
$GPRMC,153441.500,A,4308.3004,N,07726.2631,W,0.15,24.57,121023,,,A*46
$GPGGA,153441.750,4308.3004,N,07726.2631,W,1,07,1.31,160.5,M,-34.4,M,,*58
$GPRMC,153442.000,A,4308.3004,N,07726.2631,W,0.18,35.11,121023,,,A*4F
$GPGGA,153442.250,4308.3004,N,07726.2631,W,1,07,1.31,160.5,M,-34.4,M,,*5E
$GPRMC,153442.500,A,4308.3005,N,07726.2631,W,0.19,40.72,121023,,,A*4D
$GPGGA,153442.750,4308.3005,N,07726.2631,W,1,07,1.31,160.5,M,-34.4,M,,*5A
$GPRMC,153443.000,A,4308.3005,N,07726.2631,W,0.17,22.41,121023,,,A*43
$GPGGA,153443.250,4308.3005,N,07726.2631,W,1,07,1.31,160.5,M,-34.4,M,,*5E
$GPRMC,153443.500,A,4308.3005,N,07726.2631,W,0.19,54.49,121023,,,A*41
$GPGGA,153443.750,4308.3005,N,07726.2631,W,1,07,1.31,160.5,M,-34.4,M,,*5B
$GPRMC,153444.000,A,4308.3005,N,07726.2630,W,0.16,43.73,121023,,,A*42
$GPGGA,153444.250,4308.3005,N,07726.2630,W,1,07,1.31,160.5,M,-34.4,M,,*58
$GPRMC,153444.500,A,4308.3005,N,07726.2630,W,0.16,34.95,121023,,,A*4F
$GPGGA,153444.750,4308.3005,N,07726.2630,W,1,07,1.31,160.4,M,-34.4,M,,*5C
$GPRMC,153445.000,A,4308.3006,N,07726.2630,W,0.15,33.40,121023,,,A*44
$GPGGA,153445.250,4308.3006,N,07726.2630,W,1,07,1.30,160.4,M,-34.4,M,,*5A
$GPRMC,153445.500,A,4308.3006,N,07726.2630,W,0.14,27.25,121023,,,A*46
$GPGGA,153445.750,4308.3006,N,07726.2630,W,1,07,1.31,160.4,M,-34.4,M,,*5E
$GPRMC,153446.000,A,4308.3006,N,07726.2630,W,0.02,64.61,121023,,,A*40
$GPGGA,153446.250,4308.3006,N,07726.2630,W,1,07,1.31,160.4,M,-34.4,M,,*58
$GPRMC,153446.500,A,4308.3006,N,07726.2630,W,0.01,62.51,121023,,,A*43
$GPGGA,153446.750,4308.3006,N,07726.2630,W,1,07,1.30,160.4,M,-34.4,M,,*5C
$GPRMC,153447.000,A,4308.3006,N,07726.2630,W,0.03,300.22,121023,,,A*76
$GPGGA,153447.250,4308.3006,N,07726.2630,W,1,07,1.31,160.4,M,-34.4,M,,*59
$GPRMC,153447.500,A,4308.3006,N,07726.2630,W,0.02,9.62,121023,,,A*7C
$GPGGA,153447.750,4308.3006,N,07726.2630,W,1,07,1.55,160.4,M,-34.4,M,,*5E
$GPRMC,153448.000,A,4308.3006,N,07726.2630,W,0.05,355.98,121023,,,A*7E
$GPGGA,153448.250,4308.3006,N,07726.2630,W,1,07,1.55,160.4,M,-34.4,M,,*54
$GPRMC,153448.500,A,4308.3006,N,07726.2630,W,0.03,177.21,121023,,,A*7D
$GPGGA,153448.750,4308.3006,N,07726.2630,W,1,07,1.31,160.4,M,-34.4,M,,*53
$GPRMC,153449.000,A,4308.3006,N,07726.2630,W,0.02,90.98,121023,,,A*42
$GPGGA,153449.250,4308.3006,N,07726.2630,W,1,07,1.55,160.4,M,-34.4,M,,*55
$GPRMC,153449.500,A,4308.3006,N,07726.2630,W,0.01,32.70,121023,,,A*4A
$GPGGA,153449.750,4308.3006,N,07726.2630,W,1,07,1.55,160.4,M,-34.4,M,,*50
$GPRMC,153450.000,A,4308.3006,N,07726.2630,W,0.01,35.92,121023,,,A*4C
$GPGGA,153450.250,4308.3006,N,07726.2630,W,1,07,1.55,160.4,M,-34.4,M,,*5D
$GPRMC,153450.500,A,4308.3006,N,07726.2630,W,0.01,315.49,121023,,,A*7E
$GPGGA,153450.750,4308.3006,N,07726.2630,W,1,07,1.55,160.4,M,-34.4,M,,*58
$GPRMC,153451.000,A,4308.3006,N,07726.2630,W,0.00,269.79,121023,,,A*72
$GPGGA,153451.250,4308.3006,N,07726.2630,W,1,07,1.55,160.4,M,-34.4,M,,*5C
$GPRMC,153451.500,A,4308.3006,N,07726.2630,W,0.01,68.47,121023,,,A*48
$GPGGA,153451.750,4308.3006,N,07726.2630,W,1,07,1.55,160.4,M,-34.4,M,,*59
$GPRMC,153452.000,A,4308.3006,N,07726.2630,W,0.00,236.01,121023,,,A*74
$GPGGA,153452.250,4308.3006,N,07726.2630,W,1,07,1.55,160.4,M,-34.4,M,,*5F
$GPRMC,153452.500,A,4308.3006,N,07726.2630,W,0.01,350.35,121023,,,A*76
$GPGGA,153452.750,4308.3006,N,07726.2630,W,1,07,1.55,160.4,M,-34.4,M,,*5A
$GPRMC,153453.000,A,4308.3006,N,07726.2630,W,0.00,346.74,121023,,,A*71
$GPGGA,153453.250,4308.3006,N,07726.2630,W,1,07,1.55,160.4,M,-34.4,M,,*5E
$GPRMC,153453.500,A,4308.3006,N,07726.2630,W,0.00,0.00,121023,,,A*76
$GPGGA,153453.750,4308.3006,N,07726.2630,W,1,07,1.55,160.4,M,-34.4,M,,*5B
$GPRMC,153454.000,A,4308.3006,N,07726.2630,W,0.00,32.25,121023,,,A*42
$GPGGA,153454.250,4308.3006,N,07726.2630,W,1,07,1.55,160.4,M,-34.4,M,,*59
$GPRMC,153454.500,A,4308.3006,N,07726.2630,W,0.00,26.72,121023,,,A*40
$GPGGA,153454.750,4308.3006,N,07726.2630,W,1,07,1.55,160.4,M,-34.4,M,,*5C
$GPRMC,153455.000,A,4308.3006,N,07726.2630,W,0.03,194.46,121023,,,A*78
$GPGGA,153455.250,4308.3006,N,07726.2630,W,1,07,1.55,160.4,M,-34.4,M,,*58
$GPRMC,153455.500,A,4308.3006,N,07726.2630,W,0.02,222.33,121023,,,A*70
$GPGGA,153455.750,4308.3006,N,07726.2630,W,1,07,1.55,160.4,M,-34.4,M,,*5D
$GPRMC,153456.000,A,4308.3006,N,07726.2629,W,0.02,13.53,121023,,,A*48
$GPGGA,153456.250,4308.3006,N,07726.2629,W,1,07,1.55,160.4,M,-34.4,M,,*53
$GPRMC,153456.500,A,4308.3006,N,07726.2629,W,0.00,342.30,121023,,,A*7D
$GPGGA,153456.750,4308.3006,N,07726.2629,W,1,07,1.55,160.4,M,-34.4,M,,*56
$GPRMC,153457.000,A,4308.3006,N,07726.2629,W,0.01,79.55,121023,,,A*40
$GPGGA,153457.250,4308.3006,N,07726.2629,W,1,07,1.55,160.4,M,-34.4,M,,*52
$GPRMC,153457.500,A,4308.3006,N,07726.2629,W,0.01,350.67,121023,,,A*7C
$GPGGA,153457.750,4308.3007,N,07726.2629,W,1,07,1.55,160.4,M,-34.4,M,,*56
$GPRMC,153458.000,A,4308.3007,N,07726.2629,W,0.00,74.56,121023,,,A*41
$GPGGA,153458.250,4308.3007,N,07726.2629,W,1,07,1.55,160.4,M,-34.4,M,,*5C
$GPRMC,153458.500,A,4308.3007,N,07726.2629,W,0.01,343.47,121023,,,A*72
$GPGGA,153458.750,4308.3007,N,07726.2629,W,1,07,1.55,160.4,M,-34.4,M,,*59
$GPRMC,153459.000,A,4308.3007,N,07726.2629,W,0.01,315.15,121023,,,A*72
$GPGGA,153459.250,4308.3007,N,07726.2629,W,1,07,1.55,160.4,M,-34.4,M,,*5D
$GPRMC,153459.500,A,4308.3007,N,07726.2629,W,0.01,0.06,121023,,,A*72
$GPGGA,153459.750,4308.3007,N,07726.2629,W,1,07,1.55,160.4,M,-34.4,M,,*58
$GPRMC,153500.000,A,4308.3007,N,07726.2629,W,0.01,155.14,121023,,,A*78
$GPGGA,153500.250,4308.3007,N,07726.2629,W,1,07,1.55,160.4,M,-34.4,M,,*50
$GPRMC,153500.500,A,4308.3007,N,07726.2629,W,0.00,310.73,121023,,,A*7E
$GPGGA,153500.750,4308.3007,N,07726.2629,W,1,07,1.55,160.4,M,-34.4,M,,*55
$GPRMC,153501.000,A,4308.3007,N,07726.2629,W,0.01,204.82,121023,,,A*71
$GPGGA,153501.250,4308.3007,N,07726.2629,W,1,07,1.55,160.4,M,-34.4,M,,*51
$GPRMC,153501.500,A,4308.3007,N,07726.2629,W,0.00,82.41,121023,,,A*46
$GPGGA,153501.750,4308.3007,N,07726.2629,W,1,07,1.55,160.4,M,-34.4,M,,*54
$GPRMC,153502.000,A,4308.3007,N,07726.2629,W,0.00,163.17,121023,,,A*7D
$GPGGA,153502.250,4308.3007,N,07726.2629,W,1,07,1.55,160.4,M,-34.4,M,,*52
$GPRMC,153502.500,A,4308.3007,N,07726.2629,W,0.00,131.41,121023,,,A*7C
$GPGGA,153502.750,4308.3007,N,07726.2629,W,1,07,1.55,160.4,M,-34.4,M,,*57
$GPRMC,153503.000,A,4308.3007,N,07726.2629,W,0.00,332.50,121023,,,A*79
$GPGGA,153503.250,4308.3007,N,07726.2629,W,1,07,1.55,160.4,M,-34.4,M,,*53
$GPRMC,153503.500,A,4308.3007,N,07726.2629,W,0.00,313.36,121023,,,A*7F
$GPGGA,153503.750,4308.3007,N,07726.2629,W,1,07,1.55,160.4,M,-34.4,M,,*56
$GPRMC,153504.000,A,4308.3007,N,07726.2629,W,0.00,100.55,121023,,,A*78
$GPGGA,153504.250,4308.3007,N,07726.2629,W,1,07,1.55,160.4,M,-34.4,M,,*54
$GPRMC,153504.500,A,4308.3007,N,07726.2629,W,0.00,295.11,121023,,,A*72
$GPGGA,153504.750,4308.3007,N,07726.2629,W,1,07,1.55,160.4,M,-34.4,M,,*51
$GPRMC,153505.000,A,4308.3007,N,07726.2629,W,0.00,7.04,121023,,,A*7B
$GPGGA,153505.250,4308.3007,N,07726.2629,W,1,07,1.55,160.4,M,-34.4,M,,*55
$GPRMC,153505.500,A,4308.3007,N,07726.2629,W,0.01,95.97,121023,,,A*4E
$GPGGA,153505.750,4308.3007,N,07726.2629,W,1,07,1.55,160.4,M,-34.4,M,,*50
$GPRMC,153506.000,A,4308.3007,N,07726.2629,W,0.01,323.97,121023,,,A*76
$GPGGA,153506.250,4308.3007,N,07726.2629,W,1,07,1.55,160.4,M,-34.4,M,,*56
$GPRMC,153506.500,A,4308.3007,N,07726.2629,W,0.00,282.41,121023,,,A*73
$GPGGA,153506.750,4308.3007,N,07726.2629,W,1,07,1.55,160.4,M,-34.4,M,,*53
$GPRMC,153507.000,A,4308.3007,N,07726.2629,W,0.01,341.60,121023,,,A*7B
$GPGGA,153507.250,4308.3007,N,07726.2629,W,1,07,1.55,160.4,M,-34.4,M,,*57
$GPRMC,153507.500,A,4308.3007,N,07726.2629,W,0.00,0.06,121023,,,A*79
$GPGGA,153507.750,4308.3007,N,07726.2629,W,1,07,1.55,160.4,M,-34.4,M,,*52
$GPRMC,153508.000,A,4308.3007,N,07726.2629,W,0.00,86.49,121023,,,A*46
$GPGGA,153508.250,4308.3007,N,07726.2629,W,1,07,1.55,160.4,M,-34.4,M,,*58
$GPRMC,153508.500,A,4308.3007,N,07726.2629,W,0.00,131.15,121023,,,A*77
$GPGGA,153508.750,4308.3007,N,07726.2629,W,1,07,1.55,160.4,M,-34.4,M,,*5D
$GPRMC,153509.000,A,4308.3007,N,07726.2629,W,0.00,72.28,121023,,,A*4B
$GPGGA,153509.250,4308.3007,N,07726.2629,W,1,07,1.55,160.4,M,-34.4,M,,*59
$GPRMC,153509.500,A,4308.3007,N,07726.2629,W,0.00,105.25,121023,,,A*72
$GPGGA,153509.750,4308.3007,N,07726.2629,W,1,07,1.55,160.4,M,-34.4,M,,*5C
$GPRMC,153510.000,A,4308.3007,N,07726.2629,W,0.01,311.01,121023,,,A*7F
$GPGGA,153510.250,4308.3007,N,07726.2629,W,1,07,1.55,160.4,M,-34.4,M,,*51
$GPRMC,153510.500,A,4308.3007,N,07726.2629,W,0.00,114.69,121023,,,A*72
$GPGGA,153510.750,4308.3007,N,07726.2629,W,1,07,1.55,160.4,M,-34.4,M,,*54
$GPRMC,153511.000,A,4308.3007,N,07726.2629,W,0.00,24.79,121023,,,A*45
$GPGGA,153511.250,4308.3007,N,07726.2629,W,1,07,1.55,160.4,M,-34.4,M,,*50
$GPRMC,153511.500,A,4308.3007,N,07726.2629,W,0.01,40.76,121023,,,A*4C
$GPGGA,153511.750,4308.3007,N,07726.2629,W,1,07,1.55,160.4,M,-34.4,M,,*55
$GPRMC,153512.000,A,4308.3007,N,07726.2629,W,0.00,338.17,121023,,,A*70
$GPGGA,153512.250,4308.3007,N,07726.2629,W,1,07,1.55,160.4,M,-34.4,M,,*53
$GPRMC,153512.500,A,4308.3007,N,07726.2629,W,0.00,0.00,121023,,,A*7B
$GPGGA,153512.750,4308.3007,N,07726.2629,W,1,07,1.55,160.4,M,-34.4,M,,*56
$GPRMC,153513.000,A,4308.3007,N,07726.2629,W,0.00,0.00,121023,,,A*7F
$GPGGA,153513.250,4308.3007,N,07726.2629,W,1,07,1.55,160.4,M,-34.4,M,,*52
$GPRMC,153513.500,A,4308.3007,N,07726.2629,W,0.00,23.86,121023,,,A*45
$GPGGA,153513.750,4308.3007,N,07726.2629,W,1,07,1.55,160.4,M,-34.4,M,,*57
$GPRMC,153514.000,A,4308.3007,N,07726.2629,W,0.00,9.80,121023,,,A*79
$GPGGA,153514.250,4308.3007,N,07726.2629,W,1,07,1.55,160.4,M,-34.4,M,,*55
$GPRMC,153514.500,A,4308.3007,N,07726.2629,W,0.00,124.56,121023,,,A*79
$GPGGA,153514.750,4308.3007,N,07726.2629,W,1,07,1.55,160.4,M,-34.4,M,,*50
$GPRMC,153515.000,A,4308.3007,N,07726.2629,W,0.00,355.11,121023,,,A*7A
$GPGGA,153515.250,4308.3007,N,07726.2629,W,1,07,1.55,160.4,M,-34.4,M,,*54
$GPRMC,153515.500,A,4308.3007,N,07726.2629,W,0.01,299.37,121023,,,A*7B
$GPGGA,153515.750,4308.3007,N,07726.2629,W,1,07,1.55,160.4,M,-34.4,M,,*51
$GPRMC,153516.000,A,4308.3007,N,07726.2629,W,0.00,334.15,121023,,,A*7A
$GPGGA,153516.250,4308.3007,N,07726.2629,W,1,07,1.55,160.4,M,-34.4,M,,*57
$GPRMC,153516.500,A,4308.3007,N,07726.2629,W,0.00,45.91,121023,,,A*46
$GPGGA,153516.750,4308.3007,N,07726.2629,W,1,07,1.55,160.4,M,-34.4,M,,*52
$GPRMC,153517.000,A,4308.3007,N,07726.2629,W,0.00,0.00,121023,,,A*7B
$GPGGA,153517.250,4308.3007,N,07726.2629,W,1,07,1.55,160.4,M,-34.4,M,,*56
$GPRMC,153517.500,A,4308.3007,N,07726.2629,W,0.00,3.87,121023,,,A*72
$GPGGA,153517.750,4308.3007,N,07726.2629,W,1,07,1.55,160.4,M,-34.4,M,,*53
$GPRMC,153518.000,A,4308.3007,N,07726.2629,W,0.01,36.84,121023,,,A*4C
$GPGGA,153518.250,4308.3007,N,07726.2629,W,1,07,1.55,160.4,M,-34.4,M,,*59
$GPRMC,153518.500,A,4308.3007,N,07726.2629,W,0.00,73.04,121023,,,A*41
$GPGGA,153518.750,4308.3007,N,07726.2629,W,1,07,1.55,160.4,M,-34.4,M,,*5C
$GPRMC,153519.000,A,4308.3007,N,07726.2629,W,0.01,47.89,121023,,,A*46
$GPGGA,153519.250,4308.3007,N,07726.2629,W,1,07,1.55,160.4,M,-34.4,M,,*58
$GPRMC,153519.500,A,4308.3007,N,07726.2629,W,0.00,201.53,121023,,,A*75
$GPGGA,153519.750,4308.3007,N,07726.2629,W,1,07,1.55,160.4,M,-34.4,M,,*5D
$GPRMC,153520.000,A,4308.3007,N,07726.2629,W,0.00,335.59,121023,,,A*76
$GPGGA,153520.250,4308.3007,N,07726.2629,W,1,07,1.55,160.4,M,-34.4,M,,*52
$GPRMC,153520.500,A,4308.3007,N,07726.2629,W,0.01,328.58,121023,,,A*7F
$GPGGA,153520.750,4308.3007,N,07726.2629,W,1,07,1.55,160.4,M,-34.4,M,,*57
$GPRMC,153521.000,A,4308.3007,N,07726.2629,W,0.01,353.15,121023,,,A*7E
$GPGGA,153521.250,4308.3007,N,07726.2629,W,1,07,1.55,160.4,M,-34.4,M,,*53
$GPRMC,153521.500,A,4308.3007,N,07726.2629,W,0.01,312.16,121023,,,A*7D
$GPGGA,153521.750,4308.3007,N,07726.2629,W,1,07,1.55,160.4,M,-34.4,M,,*56
$GPRMC,153522.000,A,4308.3007,N,07726.2629,W,0.00,88.59,121023,,,A*41
$GPGGA,153522.250,4308.3007,N,07726.2629,W,1,07,1.55,160.4,M,-34.4,M,,*50
$GPRMC,153522.500,A,4308.3007,N,07726.2629,W,0.00,299.60,121023,,,A*7C
$GPGGA,153522.750,4308.3007,N,07726.2629,W,1,07,1.55,160.4,M,-34.4,M,,*55
$GPRMC,153523.000,A,4308.3007,N,07726.2629,W,0.00,42.39,121023,,,A*40
$GPGGA,153523.250,4308.3007,N,07726.2629,W,1,07,1.55,160.4,M,-34.4,M,,*51
$GPRMC,153523.500,A,4308.3007,N,07726.2629,W,0.00,351.66,121023,,,A*7E
$GPGGA,153523.750,4308.3007,N,07726.2629,W,1,07,1.55,160.4,M,-34.4,M,,*54
$GPRMC,153524.000,A,4308.3007,N,07726.2629,W,0.00,359.42,121023,,,A*72
$GPGGA,153524.250,4308.3008,N,07726.2629,W,1,07,1.55,160.4,M,-34.4,M,,*59
$GPRMC,153524.500,A,4308.3008,N,07726.2629,W,0.00,83.11,121023,,,A*4A
$GPGGA,153524.750,4308.3008,N,07726.2629,W,1,07,1.55,160.4,M,-34.4,M,,*5C
$GPRMC,153525.000,A,4308.3008,N,07726.2629,W,0.01,6.55,121023,,,A*72
$GPGGA,153525.250,4308.3008,N,07726.2629,W,1,07,1.55,160.4,M,-34.4,M,,*58
$GPRMC,153525.500,A,4308.3008,N,07726.2629,W,0.01,113.60,121023,,,A*74
$GPGGA,153525.750,4308.3008,N,07726.2629,W,1,07,1.55,160.4,M,-34.4,M,,*5D
$GPRMC,153526.000,A,4308.3008,N,07726.2629,W,0.00,27.02,121023,,,A*41
$GPGGA,153526.250,4308.3008,N,07726.2629,W,1,07,1.55,160.4,M,-34.4,M,,*5B
$GPRMC,153526.500,A,4308.3008,N,07726.2629,W,0.01,266.43,121023,,,A*77
$GPGGA,153526.750,4308.3008,N,07726.2629,W,1,07,1.55,160.4,M,-34.4,M,,*5E
$GPRMC,153527.000,A,4308.3008,N,07726.2629,W,0.00,194.13,121023,,,A*79
$GPGGA,153527.250,4308.3008,N,07726.2629,W,1,07,1.55,160.4,M,-34.4,M,,*5A
$GPRMC,153527.500,A,4308.3008,N,07726.2629,W,0.01,89.31,121023,,,A*40
$GPGGA,153527.750,4308.3008,N,07726.2629,W,1,07,1.55,160.4,M,-34.4,M,,*5F
$GPRMC,153528.000,A,4308.3008,N,07726.2629,W,0.00,272.13,121023,,,A*7D
$GPGGA,153528.250,4308.3008,N,07726.2629,W,1,07,1.55,160.4,M,-34.4,M,,*55
$GPRMC,153528.500,A,4308.3008,N,07726.2629,W,0.00,11.54,121023,,,A*4C
$GPGGA,153528.750,4308.3008,N,07726.2629,W,1,07,1.55,160.4,M,-34.4,M,,*50
$GPRMC,153529.000,A,4308.3008,N,07726.2629,W,0.00,4.79,121023,,,A*73
$GPGGA,153529.250,4308.3008,N,07726.2629,W,1,07,1.55,160.4,M,-34.4,M,,*54
$GPRMC,153529.500,A,4308.3008,N,07726.2629,W,0.00,138.52,121023,,,A*71
$GPGGA,153529.750,4308.3008,N,07726.2629,W,1,07,1.55,160.4,M,-34.4,M,,*51
$GPRMC,153530.000,A,4308.3008,N,07726.2629,W,0.00,308.39,121023,,,A*70
$GPGGA,153530.250,4308.3008,N,07726.2629,W,1,07,1.55,160.4,M,-34.4,M,,*5C
$GPRMC,153530.500,A,4308.3008,N,07726.2629,W,0.00,186.56,121023,,,A*78
$GPGGA,153530.750,4308.3008,N,07726.2629,W,1,07,1.55,160.4,M,-34.4,M,,*59
$GPRMC,153531.000,A,4308.3008,N,07726.2629,W,0.01,291.15,121023,,,A*7F
$GPGGA,153531.250,4308.3008,N,07726.2629,W,1,07,1.55,160.4,M,-34.4,M,,*5D
$GPRMC,153531.500,A,4308.3008,N,07726.2629,W,0.01,316.48,121023,,,A*7C
$GPGGA,153531.750,4308.3008,N,07726.2629,W,1,07,1.55,160.4,M,-34.4,M,,*58
$GPRMC,153532.000,A,4308.3008,N,07726.2629,W,0.01,282.63,121023,,,A*7F
$GPGGA,153532.250,4308.3008,N,07726.2629,W,1,07,1.55,160.4,M,-34.4,M,,*5E
$GPRMC,153532.500,A,4308.3008,N,07726.2629,W,0.01,316.45,121023,,,A*72
$GPGGA,153532.750,4308.3008,N,07726.2629,W,1,07,1.55,160.4,M,-34.4,M,,*5B
$GPRMC,153533.000,A,4308.3008,N,07726.2629,W,0.01,17.82,121023,,,A*4F
$GPGGA,153533.250,4308.3008,N,07726.2629,W,1,07,1.55,160.4,M,-34.4,M,,*5F
$GPRMC,153533.500,A,4308.3008,N,07726.2629,W,0.00,273.00,121023,,,A*71
$GPGGA,153533.750,4308.3008,N,07726.2629,W,1,07,1.55,160.4,M,-34.4,M,,*5A
$GPRMC,153534.000,A,4308.3008,N,07726.2629,W,0.02,299.87,121023,,,A*7A
$GPGGA,153534.250,4308.3008,N,07726.2629,W,1,07,1.55,160.4,M,-34.4,M,,*58
$GPRMC,153534.500,A,4308.3008,N,07726.2629,W,0.02,292.00,121023,,,A*7B
$GPGGA,153534.750,4308.3008,N,07726.2629,W,1,07,1.55,160.4,M,-34.4,M,,*5D
$GPRMC,153535.000,A,4308.3008,N,07726.2629,W,0.00,286.88,121023,,,A*78
$GPGGA,153535.250,4308.3008,N,07726.2629,W,1,07,1.55,160.4,M,-34.4,M,,*59
$GPRMC,153535.500,A,4308.3008,N,07726.2629,W,0.02,326.05,121023,,,A*71
$GPGGA,153535.750,4308.3008,N,07726.2629,W,1,07,1.55,160.4,M,-34.4,M,,*5C
$GPRMC,153536.000,A,4308.3008,N,07726.2629,W,0.00,36.32,121023,,,A*43
$GPGGA,153536.250,4308.3008,N,07726.2629,W,1,07,1.55,160.4,M,-34.4,M,,*5A
$GPRMC,153536.500,A,4308.3008,N,07726.2629,W,0.01,60.39,121023,,,A*4F
$GPGGA,153536.750,4308.3008,N,07726.2629,W,1,07,1.55,160.4,M,-34.4,M,,*5F
$GPRMC,153537.000,A,4308.3008,N,07726.2629,W,0.01,337.44,121023,,,A*70
$GPGGA,153537.250,4308.3008,N,07726.2629,W,1,07,1.55,160.4,M,-34.4,M,,*5B
$GPRMC,153537.500,A,4308.3008,N,07726.2629,W,0.01,343.41,121023,,,A*73
$GPGGA,153537.750,4308.3008,N,07726.2629,W,1,07,1.55,160.4,M,-34.4,M,,*5E
$GPRMC,153538.000,A,4308.3008,N,07726.2629,W,0.01,341.13,121023,,,A*7C
$GPGGA,153538.250,4308.3008,N,07726.2629,W,1,07,1.55,160.4,M,-34.4,M,,*54
$GPRMC,153538.500,A,4308.3008,N,07726.2629,W,0.01,276.46,121023,,,A*7C
$GPGGA,153538.750,4308.3008,N,07726.2629,W,1,07,1.55,160.4,M,-34.4,M,,*51
$GPRMC,153539.000,A,4308.3008,N,07726.2629,W,0.02,311.09,121023,,,A*70
$GPGGA,153539.250,4308.3008,N,07726.2629,W,1,07,1.55,160.4,M,-34.4,M,,*55
$GPRMC,153539.500,A,4308.3008,N,07726.2629,W,0.01,347.17,121023,,,A*7A
$GPGGA,153539.750,4308.3008,N,07726.2629,W,1,07,1.55,160.4,M,-34.4,M,,*50
$GPRMC,153540.000,A,4308.3008,N,07726.2629,W,0.00,296.86,121023,,,A*75
$GPGGA,153540.250,4308.3008,N,07726.2629,W,1,07,1.55,160.4,M,-34.4,M,,*5B
$GPRMC,153540.500,A,4308.3008,N,07726.2630,W,0.01,310.84,121023,,,A*74
$GPGGA,153540.750,4308.3008,N,07726.2630,W,1,07,1.55,160.4,M,-34.4,M,,*56
$GPRMC,153541.000,A,4308.3008,N,07726.2630,W,0.01,268.16,121023,,,A*75
$GPGGA,153541.250,4308.3008,N,07726.2630,W,1,07,1.55,160.4,M,-34.4,M,,*52
$GPRMC,153541.500,A,4308.3008,N,07726.2630,W,0.01,19.51,121023,,,A*47
$GPGGA,153541.750,4308.3008,N,07726.2630,W,1,07,1.55,160.4,M,-34.4,M,,*57
$GPRMC,153542.000,A,4308.3008,N,07726.2630,W,0.01,45.88,121023,,,A*4C
$GPGGA,153542.250,4308.3008,N,07726.2630,W,1,07,1.55,160.4,M,-34.4,M,,*51
$GPRMC,153542.500,A,4308.3008,N,07726.2630,W,0.02,338.96,121023,,,A*7C
$GPGGA,153542.750,4308.3008,N,07726.2630,W,1,07,1.55,160.4,M,-34.4,M,,*54
$GPRMC,153543.000,A,4308.3008,N,07726.2630,W,0.00,331.51,121023,,,A*78
$GPGGA,153543.250,4308.3008,N,07726.2630,W,1,07,1.55,160.4,M,-34.4,M,,*50
$GPRMC,153543.500,A,4308.3008,N,07726.2630,W,0.01,285.28,121023,,,A*7C
$GPGGA,153543.750,4308.3008,N,07726.2630,W,1,07,1.55,160.4,M,-34.4,M,,*55
$GPRMC,153544.000,A,4308.3008,N,07726.2630,W,0.01,340.52,121023,,,A*7B
$GPGGA,153544.250,4308.3008,N,07726.2630,W,1,07,1.55,160.3,M,-34.4,M,,*50
$GPRMC,153544.500,A,4308.3008,N,07726.2630,W,0.01,245.73,121023,,,A*79
$GPGGA,153544.750,4308.3008,N,07726.2630,W,1,07,1.55,160.3,M,-34.4,M,,*55
$GPRMC,153545.000,A,4308.3008,N,07726.2630,W,0.01,4.41,121023,,,A*7B
$GPGGA,153545.250,4308.3008,N,07726.2630,W,1,07,1.55,160.3,M,-34.4,M,,*51
$GPRMC,153545.500,A,4308.3008,N,07726.2630,W,0.02,292.95,121023,,,A*79
$GPGGA,153545.750,4308.3008,N,07726.2630,W,1,07,1.55,160.3,M,-34.4,M,,*54
$GPRMC,153546.000,A,4308.3008,N,07726.2630,W,0.01,315.39,121023,,,A*74
$GPGGA,153546.250,4308.3008,N,07726.2630,W,1,07,1.55,160.3,M,-34.4,M,,*52
$GPRMC,153546.500,A,4308.3008,N,07726.2630,W,0.00,50.91,121023,,,A*40
$GPGGA,153546.750,4308.3008,N,07726.2630,W,1,07,1.55,160.3,M,-34.4,M,,*57
$GPRMC,153547.000,A,4308.3008,N,07726.2630,W,0.00,44.09,121023,,,A*40
$GPGGA,153547.250,4308.3008,N,07726.2630,W,1,07,1.55,160.3,M,-34.4,M,,*53
$GPRMC,153547.500,A,4308.3008,N,07726.2630,W,0.01,7.34,121023,,,A*7D
$GPGGA,153547.750,4308.3008,N,07726.2630,W,1,07,1.55,160.3,M,-34.4,M,,*56
$GPRMC,153548.000,A,4308.3008,N,07726.2630,W,0.01,19.93,121023,,,A*45
$GPGGA,153548.250,4308.3008,N,07726.2630,W,1,07,1.55,160.3,M,-34.4,M,,*5C
$GPRMC,153548.500,A,4308.3008,N,07726.2630,W,0.01,16.71,121023,,,A*43
$GPGGA,153548.750,4308.3008,N,07726.2630,W,1,07,1.55,160.3,M,-34.4,M,,*59
$GPRMC,153549.000,A,4308.3008,N,07726.2630,W,0.01,30.45,121023,,,A*44
$GPGGA,153549.250,4308.3008,N,07726.2630,W,1,07,1.55,160.3,M,-34.4,M,,*5D
$GPRMC,153549.500,A,4308.3008,N,07726.2630,W,0.02,318.59,121023,,,A*76
$GPGGA,153549.750,4308.3008,N,07726.2630,W,1,07,1.55,160.3,M,-34.4,M,,*58
$GPRMC,153550.000,A,4308.3008,N,07726.2630,W,0.00,330.57,121023,,,A*7D
$GPGGA,153550.250,4308.3008,N,07726.2630,W,1,07,1.55,160.3,M,-34.4,M,,*55
$GPRMC,153550.500,A,4308.3009,N,07726.2630,W,0.01,54.82,121023,,,A*41
$GPGGA,153550.750,4308.3009,N,07726.2630,W,1,07,1.55,160.3,M,-34.4,M,,*51
$GPRMC,153551.000,A,4308.3009,N,07726.2630,W,0.01,81.17,121023,,,A*41
$GPGGA,153551.250,4308.3009,N,07726.2630,W,1,07,1.55,160.3,M,-34.4,M,,*55
$GPRMC,153551.500,A,4308.3009,N,07726.2630,W,0.00,93.65,121023,,,A*43
$GPGGA,153551.750,4308.3009,N,07726.2630,W,1,07,1.55,160.3,M,-34.4,M,,*50
$GPRMC,153552.000,A,4308.3009,N,07726.2630,W,0.00,73.72,121023,,,A*4D
$GPGGA,153552.250,4308.3009,N,07726.2630,W,1,07,1.55,160.3,M,-34.4,M,,*56
$GPRMC,153552.500,A,4308.3009,N,07726.2630,W,0.00,276.56,121023,,,A*79
$GPGGA,153552.750,4308.3009,N,07726.2630,W,1,07,1.55,160.3,M,-34.4,M,,*53
$GPRMC,153553.000,A,4308.3009,N,07726.2630,W,0.01,356.54,121023,,,A*7D
$GPGGA,153553.250,4308.3009,N,07726.2630,W,1,07,1.55,160.3,M,-34.4,M,,*57
$GPRMC,153553.500,A,4308.3009,N,07726.2630,W,0.01,77.95,121023,,,A*45
$GPGGA,153553.750,4308.3009,N,07726.2630,W,1,07,1.55,160.3,M,-34.4,M,,*52
$GPRMC,153554.000,A,4308.3009,N,07726.2630,W,0.01,89.45,121023,,,A*4B
$GPGGA,153554.250,4308.3009,N,07726.2630,W,1,07,1.55,160.3,M,-34.4,M,,*50
$GPRMC,153554.500,A,4308.3009,N,07726.2630,W,0.01,325.84,121023,,,A*76
$GPGGA,153554.750,4308.3009,N,07726.2630,W,1,07,1.55,160.3,M,-34.4,M,,*55
$GPRMC,153555.000,A,4308.3009,N,07726.2630,W,0.01,51.19,121023,,,A*46
$GPGGA,153555.250,4308.3009,N,07726.2630,W,1,07,1.55,160.3,M,-34.4,M,,*51
$GPRMC,153555.500,A,4308.3009,N,07726.2630,W,0.02,328.65,121023,,,A*76
$GPGGA,153555.750,4308.3009,N,07726.2630,W,1,07,1.55,160.3,M,-34.4,M,,*54
$GPRMC,153556.000,A,4308.3009,N,07726.2630,W,0.00,51.39,121023,,,A*46
$GPGGA,153556.250,4308.3009,N,07726.2630,W,1,07,1.55,160.3,M,-34.4,M,,*52
$GPRMC,153556.500,A,4308.3009,N,07726.2630,W,0.00,57.51,121023,,,A*4B
$GPGGA,153556.750,4308.3009,N,07726.2630,W,1,07,1.55,160.3,M,-34.4,M,,*57
$GPRMC,153557.000,A,4308.3009,N,07726.2630,W,0.01,26.33,121023,,,A*4C
$GPGGA,153557.250,4308.3009,N,07726.2630,W,1,07,1.55,160.3,M,-34.4,M,,*53
$GPRMC,153557.500,A,4308.3009,N,07726.2630,W,0.01,355.88,121023,,,A*7E
$GPGGA,153557.750,4308.3009,N,07726.2630,W,1,07,1.55,160.3,M,-34.4,M,,*56
$GPRMC,153558.000,A,4308.3009,N,07726.2630,W,0.01,0.45,121023,,,A*76
$GPGGA,153558.250,4308.3009,N,07726.2630,W,1,07,1.55,160.3,M,-34.4,M,,*5C
$GPRMC,153558.500,A,4308.3009,N,07726.2630,W,0.01,355.96,121023,,,A*7E
$GPGGA,153558.750,4308.3009,N,07726.2630,W,1,07,1.55,160.3,M,-34.4,M,,*59
$GPRMC,153559.000,A,4308.3009,N,07726.2630,W,0.01,320.79,121023,,,A*79
$GPGGA,153559.250,4308.3009,N,07726.2630,W,1,07,1.55,160.3,M,-34.4,M,,*5D
$GPRMC,153559.500,A,4308.3009,N,07726.2630,W,0.00,353.00,121023,,,A*77
$GPGGA,153559.750,4308.3009,N,07726.2630,W,1,07,1.55,160.3,M,-34.4,M,,*58
$GPRMC,153600.000,A,4308.3009,N,07726.2630,W,0.01,345.53,121023,,,A*7D
$GPGGA,153600.250,4308.3009,N,07726.2630,W,1,07,1.55,160.3,M,-34.4,M,,*52
$GPRMC,153600.500,A,4308.3009,N,07726.2630,W,0.02,327.16,121023,,,A*7E
$GPGGA,153600.750,4308.3009,N,07726.2630,W,1,07,1.55,160.3,M,-34.4,M,,*57
$GPRMC,153601.000,A,4308.3009,N,07726.2630,W,0.00,0.00,121023,,,A*79
$GPGGA,153601.250,4308.3009,N,07726.2630,W,1,07,1.55,160.3,M,-34.4,M,,*53
$GPRMC,153601.500,A,4308.3009,N,07726.2630,W,0.01,51.38,121023,,,A*42
$GPGGA,153601.750,4308.3009,N,07726.2630,W,1,07,1.55,160.3,M,-34.4,M,,*56
$GPRMC,153602.000,A,4308.3009,N,07726.2630,W,0.01,49.23,121023,,,A*47
$GPGGA,153602.250,4308.3009,N,07726.2630,W,1,07,1.54,160.3,M,-34.4,M,,*51
$GPRMC,153602.500,A,4308.3009,N,07726.2630,W,0.00,356.13,121023,,,A*7D
$GPGGA,153602.750,4308.3009,N,07726.2630,W,1,07,1.55,160.3,M,-34.4,M,,*55
$GPRMC,153603.000,A,4308.3009,N,07726.2630,W,0.00,13.00,121023,,,A*49
$GPGGA,153603.250,4308.3009,N,07726.2630,W,1,07,1.55,160.3,M,-34.4,M,,*51
$GPRMC,153603.500,A,4308.3009,N,07726.2630,W,0.01,359.53,121023,,,A*76
$GPGGA,153603.750,4308.3009,N,07726.2630,W,1,07,1.55,160.3,M,-34.4,M,,*54
$GPRMC,153604.000,A,4308.3009,N,07726.2630,W,0.01,44.08,121023,,,A*45
$GPGGA,153604.250,4308.3009,N,07726.2630,W,1,07,1.55,160.3,M,-34.4,M,,*56
$GPRMC,153604.500,A,4308.3009,N,07726.2630,W,0.01,87.03,121023,,,A*44
$GPGGA,153604.750,4308.3009,N,07726.2630,W,1,07,1.55,160.3,M,-34.4,M,,*53
$GPRMC,153605.000,A,4308.3009,N,07726.2630,W,0.01,352.14,121023,,,A*7D
$GPGGA,153605.250,4308.3009,N,07726.2630,W,1,07,1.55,160.3,M,-34.4,M,,*57
$GPRMC,153605.500,A,4308.3009,N,07726.2630,W,0.00,351.36,121023,,,A*7A
$GPGGA,153605.750,4308.3009,N,07726.2630,W,1,07,1.55,160.3,M,-34.4,M,,*52
$GPRMC,153606.000,A,4308.3009,N,07726.2630,W,0.00,350.60,121023,,,A*7E
$GPGGA,153606.250,4308.3009,N,07726.2630,W,1,07,1.55,160.3,M,-34.4,M,,*54
$GPRMC,153606.500,A,4308.3010,N,07726.2630,W,0.01,340.55,121023,,,A*75
$GPGGA,153606.750,4308.3011,N,07726.2629,W,1,07,1.55,160.3,M,-34.4,M,,*50
$GPRMC,153607.000,A,4308.3011,N,07726.2629,W,0.01,355.43,121023,,,A*7B
$GPGGA,153607.250,4308.3012,N,07726.2629,W,1,07,1.55,160.3,M,-34.4,M,,*57
$GPRMC,153607.500,A,4308.3013,N,07726.2629,W,0.00,41.08,121023,,,A*44
$GPGGA,153607.750,4308.3013,N,07726.2629,W,1,07,1.55,160.3,M,-34.4,M,,*53
$GPRMC,153608.000,A,4308.3014,N,07726.2629,W,0.01,37.31,121023,,,A*43
$GPGGA,153606.250,4308.3014,N,07726.2629,W,1,07,1.55,160.3,M,-34.4,M,,*50
$GPRMC,153606.500,A,4308.3015,N,07726.2629,W,0.01,61.80,121023,,,A*40
$GPGGA,153606.750,4308.3016,N,07726.2629,W,1,07,1.55,160.3,M,-34.4,M,,*57
$GPRMC,153607.000,A,4308.3016,N,07726.2629,W,0.02,14.33,121023,,,A*4E
$GPGGA,153607.250,4308.3017,N,07726.2629,W,1,07,1.55,160.3,M,-34.4,M,,*52
$GPRMC,153607.500,A,4308.3017,N,07726.2629,W,0.03,37.36,121023,,,A*4F
$GPGGA,153607.750,4308.3018,N,07726.2630,W,1,07,1.55,160.3,M,-34.4,M,,*50
$GPRMC,153608.000,A,4308.3019,N,07726.2630,W,0.05,13.95,121023,,,A*4A
$GPGGA,153608.250,4308.3020,N,07726.2630,W,1,07,1.55,160.3,M,-34.4,M,,*51
$GPRMC,153608.500,A,4308.3021,N,07726.2630,W,0.05,25.92,121023,,,A*46
$GPGGA,153608.750,4308.3021,N,07726.2630,W,1,07,1.55,160.2,M,-34.4,M,,*54
$GPRMC,153609.000,A,4308.3022,N,07726.2630,W,0.07,27.26,121023,,,A*4E
$GPGGA,153609.250,4308.3023,N,07726.2629,W,1,07,1.55,160.0,M,-34.4,M,,*58
$GPRMC,153609.500,A,4308.3024,N,07726.2629,W,0.09,33.82,121023,,,A*40
$GPGGA,153609.750,4308.3025,N,07726.2629,W,1,07,1.55,159.8,M,-34.4,M,,*59
$GPRMC,153610.000,A,4308.3025,N,07726.2629,W,0.09,28.30,121023,,,A*4F
$GPGGA,153610.250,4308.3026,N,07726.2629,W,1,07,1.55,159.7,M,-34.4,M,,*58
$GPRMC,153610.500,A,4308.3027,N,07726.2629,W,0.10,22.95,121023,,,A*45
$GPGGA,153610.750,4308.3027,N,07726.2629,W,1,07,1.55,159.7,M,-34.4,M,,*5C
$GPRMC,153611.000,A,4308.3029,N,07726.2628,W,0.12,23.60,121023,,,A*47
$GPGGA,153611.250,4308.3029,N,07726.2628,W,1,07,1.55,159.5,M,-34.4,M,,*55
$GPRMC,153611.500,A,4308.3030,N,07726.2628,W,0.13,25.72,121023,,,A*4E
$GPGGA,153611.750,4308.3031,N,07726.2627,W,1,07,1.55,159.3,M,-34.4,M,,*50
$GPRMC,153612.000,A,4308.3032,N,07726.2627,W,0.15,28.36,121023,,,A*4E
$GPGGA,153612.250,4308.3033,N,07726.2627,W,1,07,1.55,159.1,M,-34.4,M,,*56
$GPRMC,153612.500,A,4308.3034,N,07726.2627,W,0.18,24.67,121023,,,A*48
$GPGGA,153612.750,4308.3035,N,07726.2626,W,1,07,1.54,158.9,M,-34.4,M,,*5C
$GPRMC,153613.000,A,4308.3036,N,07726.2625,W,0.20,24.97,121023,,,A*48
$GPGGA,153613.250,4308.3037,N,07726.2626,W,1,07,1.55,158.6,M,-34.4,M,,*54
$GPRMC,153613.500,A,4308.3038,N,07726.2625,W,0.22,28.58,121023,,,A*4E
$GPGGA,153613.750,4308.3040,N,07726.2623,W,1,07,1.55,158.0,M,-34.4,M,,*52
$GPRMC,153614.000,A,4308.3041,N,07726.2622,W,0.26,30.54,121023,,,A*44
$GPGGA,153614.250,4308.3041,N,07726.2622,W,1,07,1.55,157.6,M,-34.4,M,,*59
$GPRMC,153614.500,A,4308.3042,N,07726.2621,W,0.26,28.23,121023,,,A*48
$GPGGA,153614.750,4308.3042,N,07726.2621,W,1,07,1.55,157.3,M,-34.4,M,,*59
$GPRMC,153615.000,A,4308.3042,N,07726.2621,W,0.25,28.65,121023,,,A*4D
$GPGGA,153615.250,4308.3042,N,07726.2621,W,1,07,1.55,157.1,M,-34.4,M,,*5F
$GPRMC,153615.500,A,4308.3043,N,07726.2621,W,0.25,29.31,121023,,,A*49
$GPGGA,153615.750,4308.3043,N,07726.2620,W,1,07,1.54,156.7,M,-34.4,M,,*5C
$GPRMC,153616.000,A,4308.3043,N,07726.2621,W,0.25,29.72,121023,,,A*48
$GPGGA,153616.250,4308.3044,N,07726.2620,W,1,07,1.54,156.3,M,-34.4,M,,*59
$GPRMC,153616.500,A,4308.3044,N,07726.2619,W,0.26,29.81,121023,,,A*4E
$GPGGA,153616.750,4308.3045,N,07726.2619,W,1,07,1.55,155.9,M,-34.4,M,,*5F
$GPRMC,153617.000,A,4308.3045,N,07726.2618,W,0.27,29.88,121023,,,A*42
$GPGGA,153617.250,4308.3045,N,07726.2618,W,1,07,1.54,155.5,M,-34.4,M,,*57
$GPRMC,153617.500,A,4308.3046,N,07726.2618,W,0.28,29.98,121023,,,A*4A
$GPGGA,153617.750,4308.3047,N,07726.2617,W,1,07,1.54,155.1,M,-34.4,M,,*5B
$GPRMC,153618.000,A,4308.3047,N,07726.2617,W,0.29,30.04,121023,,,A*42
$GPGGA,153618.250,4308.3048,N,07726.2616,W,1,07,1.55,154.8,M,-34.4,M,,*56
$GPRMC,153618.500,A,4308.3048,N,07726.2614,W,0.30,30.17,121023,,,A*41
$GPGGA,153618.750,4308.3049,N,07726.2613,W,1,07,1.55,154.4,M,-34.4,M,,*5B
$GPRMC,153619.000,A,4308.3049,N,07726.2613,W,0.29,30.62,121023,,,A*49
$GPGGA,153619.250,4308.3050,N,07726.2611,W,1,07,1.54,154.0,M,-34.4,M,,*50
$GPRMC,153619.500,A,4308.3050,N,07726.2611,W,0.31,31.23,121023,,,A*4B
$GPGGA,153619.750,4308.3050,N,07726.2611,W,1,07,1.55,153.9,M,-34.4,M,,*5A
$GPRMC,153620.000,A,4308.3050,N,07726.2611,W,0.32,31.63,121023,,,A*43
$GPGGA,153620.250,4308.3050,N,07726.2611,W,1,07,1.55,153.9,M,-34.4,M,,*55
$GPRMC,153620.500,A,4308.3051,N,07726.2610,W,0.32,31.88,121023,,,A*43
$GPGGA,153620.750,4308.3051,N,07726.2610,W,1,07,1.54,153.9,M,-34.4,M,,*51
$GPRMC,153621.000,A,4308.3051,N,07726.2610,W,0.32,32.37,121023,,,A*40
$GPGGA,153621.250,4308.3051,N,07726.2610,W,1,07,1.54,153.8,M,-34.4,M,,*54
$GPRMC,153621.500,A,4308.3051,N,07726.2610,W,0.33,33.00,121023,,,A*41
$GPGGA,153621.750,4308.3052,N,07726.2610,W,1,07,1.55,153.8,M,-34.4,M,,*53
$GPRMC,153622.000,A,4308.3052,N,07726.2609,W,0.34,33.96,121023,,,A*44
$GPGGA,153622.250,4308.3052,N,07726.2609,W,1,07,1.55,153.7,M,-34.4,M,,*52
$GPRMC,153622.500,A,4308.3052,N,07726.2609,W,0.33,34.90,121023,,,A*47
$GPGGA,153622.750,4308.3052,N,07726.2609,W,1,07,1.55,153.7,M,-34.4,M,,*57
$GPRMC,153623.000,A,4308.3052,N,07726.2608,W,0.32,35.95,121023,,,A*47
$GPGGA,153623.250,4308.3053,N,07726.2608,W,1,07,1.55,153.6,M,-34.4,M,,*52
$GPRMC,153623.500,A,4308.3053,N,07726.2608,W,0.32,37.34,121023,,,A*4A
$GPGGA,153623.750,4308.3053,N,07726.2608,W,1,07,1.54,153.6,M,-34.4,M,,*56
$GPRMC,153624.000,A,4308.3053,N,07726.2608,W,0.33,49.72,121023,,,A*42
$GPGGA,153624.250,4308.3053,N,07726.2607,W,1,07,1.54,153.6,M,-34.4,M,,*5B
$GPRMC,153624.500,A,4308.3053,N,07726.2607,W,0.32,50.79,121023,,,A*4A
$GPGGA,153624.750,4308.3053,N,07726.2607,W,1,07,1.55,153.5,M,-34.4,M,,*5C
$GPRMC,153625.000,A,4308.3054,N,07726.2607,W,0.32,52.13,121023,,,A*47
$GPGGA,153625.250,4308.3054,N,07726.2606,W,1,07,1.54,153.5,M,-34.4,M,,*5F
$GPRMC,153625.500,A,4308.3054,N,07726.2606,W,0.30,51.43,121023,,,A*47
$GPGGA,153625.750,4308.3054,N,07726.2606,W,1,07,1.54,153.4,M,-34.4,M,,*5B
$GPRMC,153626.000,A,4308.3054,N,07726.2606,W,0.29,51.33,121023,,,A*4E
$GPGGA,153626.250,4308.3054,N,07726.2605,W,1,07,1.55,153.4,M,-34.4,M,,*5F
$GPRMC,153626.500,A,4308.3054,N,07726.2605,W,0.29,52.46,121023,,,A*49
$GPGGA,153626.750,4308.3055,N,07726.2605,W,1,07,1.54,153.3,M,-34.4,M,,*5D
$GPRMC,153627.000,A,4308.3055,N,07726.2605,W,0.29,52.39,121023,,,A*44
$GPGGA,153627.250,4308.3055,N,07726.2605,W,1,07,1.54,153.3,M,-34.4,M,,*59
$GPRMC,153627.500,A,4308.3055,N,07726.2604,W,0.28,52.42,121023,,,A*4D
$GPGGA,153627.750,4308.3055,N,07726.2604,W,1,07,1.54,153.2,M,-34.4,M,,*5C
$GPRMC,153628.000,A,4308.3055,N,07726.2604,W,0.28,52.30,121023,,,A*42
$GPGGA,153628.250,4308.3055,N,07726.2604,W,1,07,1.54,153.2,M,-34.4,M,,*56
$GPRMC,153628.500,A,4308.3055,N,07726.2604,W,0.27,52.21,121023,,,A*48
$GPGGA,153628.750,4308.3055,N,07726.2603,W,1,07,1.55,153.2,M,-34.4,M,,*55
$GPRMC,153629.000,A,4308.3056,N,07726.2603,W,0.27,52.34,121023,,,A*4C
$GPGGA,153629.250,4308.3056,N,07726.2603,W,1,07,1.54,153.1,M,-34.4,M,,*50
$GPRMC,153629.500,A,4308.3056,N,07726.2603,W,0.27,52.39,121023,,,A*44
$GPGGA,153629.750,4308.3056,N,07726.2603,W,1,07,1.54,153.1,M,-34.4,M,,*55
$GPRMC,153630.000,A,4308.3056,N,07726.2602,W,0.27,52.17,121023,,,A*44
$GPGGA,153630.250,4308.3056,N,07726.2602,W,1,07,1.54,153.0,M,-34.4,M,,*58
$GPRMC,153630.500,A,4308.3056,N,07726.2602,W,0.26,52.30,121023,,,A*45
$GPGGA,153630.750,4308.3056,N,07726.2602,W,1,07,1.54,153.0,M,-34.4,M,,*5D
$GPRMC,153631.000,A,4308.3057,N,07726.2602,W,0.27,52.16,121023,,,A*45
$GPGGA,153631.250,4308.3057,N,07726.2601,W,1,07,1.54,152.9,M,-34.4,M,,*53
$GPRMC,153631.500,A,4308.3057,N,07726.2601,W,0.27,51.86,121023,,,A*49
$GPGGA,153631.750,4308.3057,N,07726.2601,W,1,07,1.54,152.9,M,-34.4,M,,*56
$GPRMC,153632.000,A,4308.3057,N,07726.2601,W,0.26,51.38,121023,,,A*4B
$GPGGA,153632.250,4308.3057,N,07726.2601,W,1,07,1.54,152.8,M,-34.4,M,,*51
$GPRMC,153632.500,A,4308.3057,N,07726.2600,W,0.25,50.92,121023,,,A*4D
$GPGGA,153632.750,4308.3057,N,07726.2600,W,1,07,1.54,152.8,M,-34.4,M,,*55
$GPRMC,153633.000,A,4308.3057,N,07726.2600,W,0.25,50.39,121023,,,A*48
$GPGGA,153633.250,4308.3058,N,07726.2600,W,1,07,1.54,152.7,M,-34.4,M,,*51
$GPRMC,153633.500,A,4308.3058,N,07726.2600,W,0.25,49.76,121023,,,A*41
$GPGGA,153633.750,4308.3058,N,07726.2600,W,1,07,1.54,152.7,M,-34.4,M,,*54
$GPRMC,153634.000,A,4308.3058,N,07726.2599,W,0.24,48.61,121023,,,A*46
$GPGGA,153634.250,4308.3058,N,07726.2599,W,1,07,1.54,152.6,M,-34.4,M,,*54
$GPRMC,153634.500,A,4308.3058,N,07726.2599,W,0.23,47.61,121023,,,A*4B
$GPGGA,153634.750,4308.3058,N,07726.2599,W,1,07,1.54,152.6,M,-34.4,M,,*51
$GPRMC,153635.000,A,4308.3059,N,07726.2599,W,0.24,47.01,121023,,,A*4F
$GPGGA,153635.250,4308.3059,N,07726.2599,W,1,07,1.54,152.5,M,-34.4,M,,*57
$GPRMC,153635.500,A,4308.3059,N,07726.2598,W,0.25,46.56,121023,,,A*49
$GPGGA,153635.750,4308.3059,N,07726.2598,W,1,07,1.54,152.5,M,-34.4,M,,*53
$GPRMC,153636.000,A,4308.3059,N,07726.2598,W,0.24,45.92,121023,,,A*45
$GPGGA,153636.250,4308.3059,N,07726.2598,W,1,07,1.54,152.4,M,-34.4,M,,*54
$GPRMC,153636.500,A,4308.3059,N,07726.2598,W,0.25,45.10,121023,,,A*4B
$GPGGA,153636.750,4308.3059,N,07726.2598,W,1,07,1.54,152.3,M,-34.4,M,,*56
$GPRMC,153637.000,A,4308.3060,N,07726.2598,W,0.25,44.67,121023,,,A*44
$GPGGA,153637.250,4308.3060,N,07726.2597,W,1,07,1.54,152.3,M,-34.4,M,,*57
$GPRMC,153637.500,A,4308.3060,N,07726.2597,W,0.26,44.39,121023,,,A*46
$GPGGA,153637.750,4308.3060,N,07726.2597,W,1,07,1.54,152.2,M,-34.4,M,,*53
$GPRMC,153638.000,A,4308.3060,N,07726.2597,W,0.25,44.20,121023,,,A*47
$GPGGA,153638.250,4308.3060,N,07726.2597,W,1,07,1.54,152.1,M,-34.4,M,,*5A
$GPRMC,153638.500,A,4308.3060,N,07726.2597,W,0.25,44.23,121023,,,A*41
$GPGGA,153638.750,4308.3060,N,07726.2596,W,1,07,1.54,152.1,M,-34.4,M,,*5E
$GPRMC,153639.000,A,4308.3061,N,07726.2596,W,0.25,44.24,121023,,,A*42
$GPGGA,153639.250,4308.3061,N,07726.2596,W,1,07,1.54,152.0,M,-34.4,M,,*5A
$GPRMC,153639.500,A,4308.3061,N,07726.2596,W,0.23,43.88,121023,,,A*40
$GPGGA,153639.750,4308.3061,N,07726.2596,W,1,07,1.54,152.0,M,-34.4,M,,*5F
$GPRMC,153640.000,A,4308.3061,N,07726.2596,W,0.23,43.44,121023,,,A*4B
$GPGGA,153640.250,4308.3061,N,07726.2595,W,1,07,1.54,151.9,M,-34.4,M,,*5D
$GPRMC,153640.500,A,4308.3061,N,07726.2595,W,0.22,43.03,121023,,,A*4F
$GPGGA,153640.750,4308.3061,N,07726.2595,W,1,07,1.54,151.8,M,-34.4,M,,*59
$GPRMC,153641.000,A,4308.3062,N,07726.2595,W,0.22,42.12,121023,,,A*49
$GPGGA,153641.250,4308.3062,N,07726.2595,W,1,07,1.54,151.8,M,-34.4,M,,*5E
$GPRMC,153641.500,A,4308.3062,N,07726.2595,W,0.21,41.56,121023,,,A*4C
$GPGGA,153641.750,4308.3062,N,07726.2595,W,1,07,1.54,151.7,M,-34.4,M,,*54
$GPRMC,153642.000,A,4308.3062,N,07726.2595,W,0.21,41.32,121023,,,A*48
$GPGGA,153642.250,4308.3062,N,07726.2594,W,1,07,1.54,151.6,M,-34.4,M,,*52
$GPRMC,153642.500,A,4308.3062,N,07726.2594,W,0.20,40.82,121023,,,A*47
$GPGGA,153642.750,4308.3062,N,07726.2594,W,1,07,1.54,151.5,M,-34.4,M,,*54
$GPRMC,153643.000,A,4308.3062,N,07726.2594,W,0.18,40.08,121023,,,A*4A
$GPGGA,153643.250,4308.3063,N,07726.2594,W,1,07,1.54,151.5,M,-34.4,M,,*51
$GPRMC,153643.500,A,4308.3063,N,07726.2594,W,0.17,39.82,121023,,,A*4D
$GPGGA,153643.750,4308.3063,N,07726.2594,W,1,07,1.54,151.4,M,-34.4,M,,*55
$GPRMC,153644.000,A,4308.3063,N,07726.2594,W,0.17,39.89,121023,,,A*44
$GPGGA,153644.250,4308.3063,N,07726.2594,W,1,07,1.54,151.3,M,-34.4,M,,*50
$GPRMC,153644.500,A,4308.3063,N,07726.2593,W,0.17,40.24,121023,,,A*4F
$GPGGA,153644.750,4308.3063,N,07726.2593,W,1,07,1.54,151.3,M,-34.4,M,,*52
$GPRMC,153645.000,A,4308.3063,N,07726.2593,W,0.17,40.89,121023,,,A*4C
$GPGGA,153645.250,4308.3063,N,07726.2593,W,1,07,1.54,151.2,M,-34.4,M,,*57
$GPRMC,153645.500,A,4308.3063,N,07726.2593,W,0.16,42.00,121023,,,A*4B
$GPGGA,153645.750,4308.3063,N,07726.2593,W,1,07,1.54,151.1,M,-34.4,M,,*51
$GPRMC,153646.000,A,4308.3063,N,07726.2593,W,0.14,43.36,121023,,,A*4B
$GPGGA,153646.250,4308.3063,N,07726.2593,W,1,07,1.54,151.0,M,-34.4,M,,*56
$GPRMC,153646.500,A,4308.3063,N,07726.2593,W,0.13,44.34,121023,,,A*4C
$GPGGA,153646.750,4308.3064,N,07726.2592,W,1,07,1.54,151.0,M,-34.4,M,,*55
$GPRMC,153647.000,A,4308.3064,N,07726.2592,W,0.14,45.30,121023,,,A*4C
$GPGGA,153647.250,4308.3064,N,07726.2592,W,1,07,1.54,150.9,M,-34.4,M,,*59
$GPRMC,153647.500,A,4308.3064,N,07726.2592,W,0.14,53.51,121023,,,A*49
$GPGGA,153647.750,4308.3064,N,07726.2592,W,1,07,1.54,150.8,M,-34.4,M,,*5D
$GPRMC,153648.000,A,4308.3064,N,07726.2592,W,0.14,54.30,121023,,,A*43
$GPGGA,153648.250,4308.3064,N,07726.2592,W,1,07,1.54,150.8,M,-34.4,M,,*57
$GPRMC,153648.500,A,4308.3064,N,07726.2592,W,0.13,54.23,121023,,,A*43
$GPGGA,153648.750,4308.3064,N,07726.2592,W,1,07,1.54,150.7,M,-34.4,M,,*5D
$GPRMC,153649.000,A,4308.3064,N,07726.2592,W,0.10,62.62,121023,,,A*44
$GPGGA,153649.250,4308.3064,N,07726.2591,W,1,07,1.54,150.6,M,-34.4,M,,*5B
$GPRMC,153649.500,A,4308.3064,N,07726.2591,W,0.08,71.47,121023,,,A*4E
$GPGGA,153649.750,4308.3064,N,07726.2591,W,1,07,1.54,150.6,M,-34.4,M,,*5E
$GPRMC,153650.000,A,4308.3064,N,07726.2591,W,0.07,86.51,121023,,,A*43
$GPGGA,153650.250,4308.3064,N,07726.2591,W,1,07,1.54,150.5,M,-34.4,M,,*50
$GPRMC,153650.500,A,4308.3064,N,07726.2591,W,0.07,88.04,121023,,,A*48
$GPGGA,153650.750,4308.3064,N,07726.2591,W,1,07,1.54,150.4,M,-34.4,M,,*54
$GPRMC,153651.000,A,4308.3064,N,07726.2591,W,0.08,92.10,121023,,,A*4D
$GPGGA,153651.250,4308.3064,N,07726.2591,W,1,07,1.54,150.3,M,-34.4,M,,*57
$GPRMC,153651.500,A,4308.3064,N,07726.2591,W,0.06,82.63,121023,,,A*43
$GPGGA,153651.750,4308.3064,N,07726.2591,W,1,07,1.54,150.3,M,-34.4,M,,*52
$GPRMC,153652.000,A,4308.3064,N,07726.2591,W,0.06,87.65,121023,,,A*46
$GPGGA,153652.250,4308.3064,N,07726.2591,W,1,07,1.54,150.2,M,-34.4,M,,*55
$GPRMC,153652.500,A,4308.3064,N,07726.2591,W,0.06,95.86,121023,,,A*4D
$GPGGA,153652.750,4308.3064,N,07726.2591,W,1,07,1.54,150.1,M,-34.4,M,,*53
$GPRMC,153653.000,A,4308.3064,N,07726.2591,W,0.06,111.53,121023,,,A*7C
$GPGGA,153653.250,4308.3064,N,07726.2591,W,1,07,1.54,150.1,M,-34.4,M,,*57
$GPRMC,153653.500,A,4308.3064,N,07726.2590,W,0.07,118.04,121023,,,A*72
$GPGGA,153653.750,4308.3064,N,07726.2590,W,1,07,1.54,150.0,M,-34.4,M,,*52
$GPRMC,153654.000,A,4308.3064,N,07726.2590,W,0.08,120.11,121023,,,A*70
$GPGGA,153654.250,4308.3064,N,07726.2590,W,1,07,1.54,149.9,M,-34.4,M,,*51
$GPRMC,153654.500,A,4308.3064,N,07726.2590,W,0.07,123.16,121023,,,A*7E
$GPGGA,153654.750,4308.3064,N,07726.2590,W,1,07,1.54,149.9,M,-34.4,M,,*54
$GPRMC,153655.000,A,4308.3064,N,07726.2590,W,0.07,129.12,121023,,,A*74
$GPGGA,153655.250,4308.3064,N,07726.2590,W,1,07,1.54,149.8,M,-34.4,M,,*51
$GPRMC,153655.500,A,4308.3064,N,07726.2590,W,0.06,136.92,121023,,,A*76
$GPGGA,153655.750,4308.3064,N,07726.2590,W,1,07,1.54,149.7,M,-34.4,M,,*5B
$GPRMC,153656.000,A,4308.3064,N,07726.2590,W,0.05,138.52,121023,,,A*71
$GPGGA,153656.250,4308.3064,N,07726.2590,W,1,07,1.54,149.7,M,-34.4,M,,*5D
$GPRMC,153656.500,A,4308.3064,N,07726.2590,W,0.04,139.82,121023,,,A*79
$GPGGA,153656.750,4308.3064,N,07726.2590,W,1,07,1.54,149.6,M,-34.4,M,,*59
$GPRMC,153657.000,A,4308.3064,N,07726.2590,W,0.05,149.81,121023,,,A*78
$GPGGA,153657.250,4308.3063,N,07726.2590,W,1,07,1.54,149.5,M,-34.4,M,,*59
$GPRMC,153657.500,A,4308.3063,N,07726.2590,W,0.06,143.98,121023,,,A*7B
$GPGGA,153657.750,4308.3063,N,07726.2590,W,1,07,1.54,149.5,M,-34.4,M,,*5C
$GPRMC,153658.000,A,4308.3063,N,07726.2590,W,0.06,132.76,121023,,,A*77
$GPGGA,153658.250,4308.3063,N,07726.2590,W,1,07,1.54,149.4,M,-34.4,M,,*57
$GPRMC,153658.500,A,4308.3063,N,07726.2590,W,0.05,136.30,121023,,,A*77
$GPGGA,153658.750,4308.3063,N,07726.2590,W,1,07,1.54,149.4,M,-34.4,M,,*52
$GPRMC,153659.000,A,4308.3063,N,07726.2590,W,0.04,151.11,121023,,,A*70
$GPGGA,153659.250,4308.3063,N,07726.2590,W,1,07,1.54,149.3,M,-34.4,M,,*51
$GPRMC,153659.500,A,4308.3063,N,07726.2590,W,0.04,160.53,121023,,,A*71
$GPGGA,153659.750,4308.3063,N,07726.2590,W,1,07,1.54,149.2,M,-34.4,M,,*55
$GPRMC,153700.000,A,4308.3063,N,07726.2590,W,0.04,172.36,121023,,,A*79
$GPGGA,153700.250,4308.3063,N,07726.2590,W,1,07,1.54,149.2,M,-34.4,M,,*5D
$GPRMC,153700.500,A,4308.3063,N,07726.2590,W,0.05,164.79,121023,,,A*71
$GPGGA,153700.750,4308.3063,N,07726.2590,W,1,07,1.54,149.1,M,-34.4,M,,*5B
$GPRMC,153701.000,A,4308.3063,N,07726.2590,W,0.04,160.67,121023,,,A*7F
$GPGGA,153701.250,4308.3063,N,07726.2590,W,1,07,1.54,149.0,M,-34.4,M,,*5E
$GPRMC,153701.500,A,4308.3063,N,07726.2590,W,0.06,144.08,121023,,,A*77
$GPGGA,153701.750,4308.3063,N,07726.2590,W,1,07,1.54,149.0,M,-34.4,M,,*5B
$GPRMC,153702.000,A,4308.3063,N,07726.2589,W,0.07,147.67,121023,,,A*72
$GPGGA,153702.250,4308.3063,N,07726.2589,W,1,07,1.54,148.9,M,-34.4,M,,*5D
$GPRMC,153702.500,A,4308.3063,N,07726.2589,W,0.08,150.18,121023,,,A*76
$GPGGA,153702.750,4308.3063,N,07726.2589,W,1,07,1.54,148.9,M,-34.4,M,,*58
$GPRMC,153703.000,A,4308.3063,N,07726.2589,W,0.08,153.87,121023,,,A*77
$GPGGA,153703.250,4308.3063,N,07726.2589,W,1,07,1.54,148.8,M,-34.4,M,,*5D
$GPRMC,153703.500,A,4308.3063,N,07726.2589,W,0.09,150.78,121023,,,A*70
$GPGGA,153703.750,4308.3063,N,07726.2589,W,1,07,1.54,148.7,M,-34.4,M,,*57
$GPRMC,153704.000,A,4308.3063,N,07726.2589,W,0.10,153.70,121023,,,A*71
$GPGGA,153704.250,4308.3062,N,07726.2589,W,1,07,1.54,148.7,M,-34.4,M,,*54
$GPRMC,153704.500,A,4308.3062,N,07726.2589,W,0.09,152.36,121023,,,A*7E
$GPGGA,153704.750,4308.3062,N,07726.2589,W,1,07,1.54,148.6,M,-34.4,M,,*50
$GPRMC,153705.000,A,4308.3062,N,07726.2589,W,0.10,148.53,121023,,,A*7A
$GPGGA,153705.250,4308.3062,N,07726.2589,W,1,07,1.54,148.5,M,-34.4,M,,*57
$GPRMC,153705.500,A,4308.3062,N,07726.2589,W,0.11,146.97,121023,,,A*78
$GPGGA,153705.750,4308.3062,N,07726.2589,W,1,07,1.54,148.5,M,-34.4,M,,*52
$GPRMC,153706.000,A,4308.3062,N,07726.2589,W,0.11,151.08,121023,,,A*7E
$GPGGA,153706.250,4308.3062,N,07726.2589,W,1,07,1.54,148.4,M,-34.4,M,,*55
$GPRMC,153706.500,A,4308.3062,N,07726.2589,W,0.10,162.95,121023,,,A*7E
$GPGGA,153706.750,4308.3062,N,07726.2589,W,1,07,1.54,148.3,M,-34.4,M,,*57
$GPRMC,153707.000,A,4308.3062,N,07726.2589,W,0.10,170.70,121023,,,A*72
$GPGGA,153707.250,4308.3062,N,07726.2589,W,1,07,1.54,148.3,M,-34.4,M,,*53
$GPRMC,153707.500,A,4308.3062,N,07726.2589,W,0.11,166.18,121023,,,A*7F
$GPGGA,153707.750,4308.3062,N,07726.2589,W,1,07,1.54,148.2,M,-34.4,M,,*57
$GPRMC,153708.000,A,4308.3061,N,07726.2589,W,0.10,161.22,121023,,,A*79
$GPGGA,153708.250,4308.3061,N,07726.2589,W,1,07,1.54,148.2,M,-34.4,M,,*5E
$GPRMC,153708.500,A,4308.3061,N,07726.2589,W,0.11,156.33,121023,,,A*79
$GPGGA,153708.750,4308.3061,N,07726.2588,W,1,07,1.54,148.1,M,-34.4,M,,*59
$GPRMC,153709.000,A,4308.3061,N,07726.2588,W,0.10,157.99,121023,,,A*7C
$GPGGA,153709.250,4308.3061,N,07726.2588,W,1,07,1.54,148.0,M,-34.4,M,,*5C
$GPRMC,153709.500,A,4308.3061,N,07726.2588,W,0.10,165.20,121023,,,A*7A
$GPGGA,153709.750,4308.3061,N,07726.2588,W,1,07,1.54,148.0,M,-34.4,M,,*59
$GPRMC,153710.000,A,4308.3061,N,07726.2588,W,0.11,176.03,121023,,,A*75
$GPGGA,153710.250,4308.3061,N,07726.2588,W,1,07,1.54,147.9,M,-34.4,M,,*52
$GPRMC,153710.500,A,4308.3061,N,07726.2588,W,0.10,176.10,121023,,,A*73
$GPGGA,153710.750,4308.3061,N,07726.2588,W,1,07,1.54,147.8,M,-34.4,M,,*56
$GPRMC,153711.000,A,4308.3061,N,07726.2588,W,0.09,172.53,121023,,,A*7C
$GPGGA,153711.250,4308.3061,N,07726.2588,W,1,07,1.54,147.8,M,-34.4,M,,*52
$GPRMC,153711.500,A,4308.3061,N,07726.2588,W,0.09,183.54,121023,,,A*70
$GPGGA,153711.750,4308.3060,N,07726.2588,W,1,07,1.54,147.7,M,-34.4,M,,*59
$GPRMC,153712.000,A,4308.3060,N,07726.2588,W,0.10,182.61,121023,,,A*78
$GPGGA,153712.250,4308.3060,N,07726.2588,W,1,07,1.54,147.7,M,-34.4,M,,*5F
$GPRMC,153712.500,A,4308.3060,N,07726.2588,W,0.10,183.74,121023,,,A*78
$GPGGA,153712.750,4308.3060,N,07726.2588,W,1,07,1.54,147.6,M,-34.4,M,,*5B
$GPRMC,153713.000,A,4308.3060,N,07726.2588,W,0.11,191.06,121023,,,A*7B
$GPGGA,153713.250,4308.3060,N,07726.2588,W,1,07,1.54,147.5,M,-34.4,M,,*5C
$GPRMC,153713.500,A,4308.3060,N,07726.2588,W,0.11,191.58,121023,,,A*75
$GPGGA,153713.750,4308.3060,N,07726.2588,W,1,07,1.54,147.5,M,-34.4,M,,*59
$GPRMC,153714.000,A,4308.3060,N,07726.2589,W,0.11,193.17,121023,,,A*7F
$GPGGA,153714.250,4308.3060,N,07726.2589,W,1,07,1.54,147.4,M,-34.4,M,,*5B
$GPRMC,153714.500,A,4308.3060,N,07726.2589,W,0.12,194.60,121023,,,A*7E
$GPGGA,153714.750,4308.3059,N,07726.2589,W,1,07,1.54,147.3,M,-34.4,M,,*53
$GPRMC,153715.000,A,4308.3059,N,07726.2589,W,0.13,197.06,121023,,,A*72
$GPGGA,153715.250,4308.3059,N,07726.2589,W,1,07,1.54,147.3,M,-34.4,M,,*57
$GPRMC,153715.500,A,4308.3059,N,07726.2589,W,0.14,196.55,121023,,,A*77
$GPGGA,153715.750,4308.3059,N,07726.2589,W,1,07,1.54,147.2,M,-34.4,M,,*53
$GPRMC,153716.000,A,4308.3059,N,07726.2589,W,0.15,200.10,121023,,,A*7D
$GPGGA,153716.250,4308.3059,N,07726.2589,W,1,07,1.54,147.1,M,-34.4,M,,*56
$GPRMC,153716.500,A,4308.3059,N,07726.2589,W,0.16,201.29,121023,,,A*70
