Vers 81
USE_SERIAL_FEEDBACK=true
DEVELOPMENT_MODE=false
USE_RMC_ONLY=false

$GPRMC,223204.000,A,4305.2027,N,07740.9302,W,0.03,198.66,180923,,,A*72
$GPGGA,223204.250,4305.2027,N,07740.9302,W,1,05,1.76,163.1,M,-34.4,M,,*5B
$GPRMC,223204.500,A,4305.2026,N,07740.9303,W,0.03,1.36,180923,,,A*73
$GPGGA,223204.750,4305.2026,N,07740.9304,W,1,05,2.48,163.1,M,-34.4,M,,*57
$GPRMC,223205.000,A,4305.2026,N,07740.9304,W,0.03,129.22,180923,,,A*7E
$GPGGA,223205.250,4305.2026,N,07740.9305,W,1,05,1.76,162.9,M,-34.4,M,,*55
$GPRMC,223205.500,A,4305.2027,N,07740.9305,W,0.05,142.88,180923,,,A*70
$GPGGA,223205.750,4305.2027,N,07740.9306,W,1,05,1.76,162.7,M,-34.4,M,,*5C
$GPRMC,223206.000,A,4305.2027,N,07740.9307,W,0.04,21.50,180923,,,A*44
$GPGGA,223206.250,4305.2027,N,07740.9307,W,1,05,1.76,162.4,M,-34.4,M,,*58
$GPRMC,223206.500,A,4305.2027,N,07740.9308,W,0.01,29.68,180923,,,A*48
$GPGGA,223206.750,4305.2027,N,07740.9308,W,1,05,1.76,162.3,M,-34.4,M,,*55
$GPRMC,223207.000,A,4305.2027,N,07740.9309,W,0.05,48.04,180923,,,A*44
$GPGGA,223207.250,4305.2026,N,07740.9309,W,1,05,1.76,162.1,M,-34.4,M,,*53
$GPRMC,223207.500,A,4305.2027,N,07740.9309,W,0.02,86.39,180923,,,A*4A
$GPGGA,223207.750,4305.2027,N,07740.9309,W,1,05,1.76,161.9,M,-34.4,M,,*5C
$GPRMC,223208.000,A,4305.2027,N,07740.9308,W,0.05,28.09,180923,,,A*41
$GPGGA,223208.250,4305.2027,N,07740.9309,W,1,05,1.76,161.8,M,-34.4,M,,*57
$GPRMC,223208.500,A,4305.2027,N,07740.9308,W,0.02,304.57,180923,,,A*75
$GPGGA,223208.750,4305.2027,N,07740.9308,W,1,05,1.76,161.7,M,-34.4,M,,*5C
$GPRMC,223209.000,A,4305.2027,N,07740.9308,W,0.03,22.78,180923,,,A*4A
$GPGGA,223209.250,4305.2027,N,07740.9308,W,1,05,1.76,161.5,M,-34.4,M,,*5A
$GPRMC,223209.500,A,4305.2027,N,07740.9308,W,0.04,133.68,180923,,,A*78
$GPGGA,223209.750,4305.2027,N,07740.9308,W,1,05,1.76,161.3,M,-34.4,M,,*59
$GPRMC,223210.000,A,4305.2027,N,07740.9308,W,0.01,41.71,180923,,,A*4C
$GPGGA,223210.250,4305.2028,N,07740.9308,W,1,05,1.76,161.2,M,-34.4,M,,*5A
$GPRMC,223210.500,A,4305.2028,N,07740.9307,W,0.01,338.26,180923,,,A*76
$GPGGA,223210.750,4305.2028,N,07740.9307,W,1,05,1.76,161.0,M,-34.4,M,,*52
$GPRMC,223211.000,A,4305.2028,N,07740.9307,W,0.01,139.32,180923,,,A*74
$GPGGA,223211.250,4305.2028,N,07740.9307,W,1,05,1.76,160.9,M,-34.4,M,,*5E
$GPRMC,223211.500,A,4305.2028,N,07740.9306,W,0.03,20.48,180923,,,A*46
$GPGGA,223211.750,4305.2029,N,07740.9306,W,1,05,1.76,160.7,M,-34.4,M,,*55
$GPRMC,223212.000,A,4305.2029,N,07740.9306,W,0.04,33.55,180923,,,A*48
$GPGGA,223212.250,4305.2029,N,07740.9306,W,1,05,1.76,160.7,M,-34.4,M,,*53
$GPRMC,223212.500,A,4305.2029,N,07740.9305,W,0.05,65.45,180923,,,A*4D
$GPGGA,223212.750,4305.2029,N,07740.9305,W,1,05,1.76,160.6,M,-34.4,M,,*54
$GPRMC,223213.000,A,4305.2029,N,07740.9305,W,0.07,162.21,180923,,,A*7F
$GPGGA,223213.250,4305.2029,N,07740.9305,W,1,05,1.76,160.4,M,-34.4,M,,*52
$GPRMC,223213.500,A,4305.2029,N,07740.9305,W,0.06,254.02,180923,,,A*7C
$GPGGA,223213.750,4305.2029,N,07740.9305,W,1,05,1.76,160.4,M,-34.4,M,,*57
$GPRMC,223214.000,A,4305.2029,N,07740.9305,W,0.13,204.54,180923,,,A*7C
$GPGGA,223214.250,4305.2029,N,07740.9305,W,1,05,1.76,160.3,M,-34.4,M,,*52
$GPRMC,223214.500,A,4305.2028,N,07740.9305,W,0.06,216.99,180923,,,A*7E
$GPGGA,223214.750,4305.2028,N,07740.9305,W,1,05,1.76,160.4,M,-34.4,M,,*51
$GPRMC,223215.000,A,4305.2028,N,07740.9305,W,0.05,219.28,180923,,,A*7C
$GPGGA,223215.250,4305.2028,N,07740.9305,W,1,05,1.76,160.4,M,-34.4,M,,*55
$GPRMC,223215.500,A,4305.2027,N,07740.9305,W,0.05,218.46,180923,,,A*7F
$GPGGA,223215.750,4305.2027,N,07740.9305,W,1,05,1.76,160.5,M,-34.4,M,,*5E
$GPRMC,223216.000,A,4305.2027,N,07740.9305,W,0.03,251.55,180923,,,A*70
$GPGGA,223216.250,4305.2027,N,07740.9305,W,1,05,1.76,160.6,M,-34.4,M,,*5B
$GPRMC,223216.500,A,4305.2026,N,07740.9305,W,0.05,322.75,180923,,,A*75
$GPGGA,223216.750,4305.2026,N,07740.9305,W,1,05,1.76,160.8,M,-34.4,M,,*51
$GPRMC,223217.000,A,4305.2026,N,07740.9305,W,0.06,270.59,180923,,,A*7A
$GPGGA,223217.250,4305.2025,N,07740.9305,W,1,05,1.76,161.0,M,-34.4,M,,*5F
$GPRMC,223217.500,A,4305.2025,N,07740.9305,W,0.02,222.33,180923,,,A*73
$GPGGA,223217.750,4305.2025,N,07740.9305,W,1,05,1.76,161.1,M,-34.4,M,,*5B
$GPRMC,223218.000,A,4305.2024,N,07740.9305,W,0.04,70.72,180923,,,A*4E
$GPGGA,223218.250,4305.2024,N,07740.9305,W,1,05,1.76,161.3,M,-34.4,M,,*52
$GPRMC,223218.500,A,4305.2024,N,07740.9305,W,0.02,201.11,180923,,,A*7C
$GPGGA,223218.750,4305.2023,N,07740.9305,W,1,05,1.76,161.5,M,-34.4,M,,*56
$GPRMC,223219.000,A,4305.2023,N,07740.9305,W,0.02,295.23,180923,,,A*73
$GPGGA,223219.250,4305.2022,N,07740.9305,W,1,05,1.76,161.7,M,-34.4,M,,*51
$GPRMC,223219.500,A,4305.2022,N,07740.9305,W,0.03,84.38,180923,,,A*4E
$GPGGA,223219.750,4305.2022,N,07740.9305,W,1,05,1.76,161.9,M,-34.4,M,,*5A
$GPRMC,223220.000,A,4305.2021,N,07740.9305,W,0.05,119.47,180923,,,A*79
$GPGGA,223220.250,4305.2018,N,07740.9304,W,1,06,1.60,163.1,M,-34.4,M,,*53
$GPRMC,223220.500,A,4305.2015,N,07740.9304,W,0.01,201.38,180923,,,A*7C
$GPGGA,223220.750,4305.2012,N,07740.9304,W,1,06,1.60,164.9,M,-34.4,M,,*53
$GPRMC,223221.000,A,4305.2010,N,07740.9304,W,0.04,266.17,180923,,,A*74
$GPGGA,223221.250,4305.2008,N,07740.9304,W,1,06,1.60,166.2,M,-34.4,M,,*55
$GPRMC,223221.500,A,4305.2006,N,07740.9304,W,0.04,10.93,180923,,,A*49
$GPGGA,223221.750,4305.2004,N,07740.9304,W,1,06,1.71,167.5,M,-34.4,M,,*5A
$GPRMC,223222.000,A,4305.2002,N,07740.9304,W,0.02,78.00,180923,,,A*49
$GPGGA,223222.250,4305.2000,N,07740.9304,W,1,06,1.60,168.7,M,-34.4,M,,*55
$GPRMC,223222.500,A,4305.1999,N,07740.9304,W,0.03,164.75,180923,,,A*7B
$GPGGA,223222.750,4305.1997,N,07740.9304,W,1,06,1.60,169.6,M,-34.4,M,,*54
$GPRMC,223223.000,A,4305.1996,N,07740.9304,W,0.06,88.60,180923,,,A*42
$GPGGA,223223.250,4305.1995,N,07740.9304,W,1,06,1.60,170.2,M,-34.4,M,,*5E
$GPRMC,223223.500,A,4305.1995,N,07740.9304,W,0.01,34.60,180923,,,A*44
$GPGGA,223223.750,4305.1994,N,07740.9304,W,1,06,1.60,170.7,M,-34.4,M,,*5F
$GPRMC,223224.000,A,4305.1993,N,07740.9304,W,0.01,275.65,180923,,,A*72
$GPGGA,223224.250,4305.1992,N,07740.9304,W,1,06,1.60,171.1,M,-34.4,M,,*5C
$GPRMC,223224.500,A,4305.1992,N,07740.9304,W,0.04,290.70,180923,,,A*7C
$GPGGA,223224.750,4305.1991,N,07740.9304,W,1,06,1.60,171.4,M,-34.4,M,,*5F
$GPRMC,223225.000,A,4305.1991,N,07740.9305,W,0.04,110.24,180923,,,A*70
$GPGGA,223225.250,4305.1991,N,07740.9305,W,1,06,1.60,171.6,M,-34.4,M,,*58
$GPRMC,223225.500,A,4305.1990,N,07740.9305,W,0.04,55.86,180923,,,A*4C
$GPGGA,223225.750,4305.1990,N,07740.9305,W,1,06,1.60,171.8,M,-34.4,M,,*52
$GPRMC,223226.000,A,4305.1990,N,07740.9305,W,0.00,22.69,180923,,,A*4F
$GPGGA,223226.250,4305.1989,N,07740.9305,W,1,06,1.60,171.9,M,-34.4,M,,*5D
$GPRMC,223226.500,A,4305.1989,N,07740.9305,W,0.02,121.36,180923,,,A*78
$GPGGA,223226.750,4305.1989,N,07740.9305,W,1,06,1.60,172.0,M,-34.4,M,,*52
$GPRMC,223227.000,A,4305.1988,N,07740.9305,W,0.04,74.60,180923,,,A*49
$GPGGA,223227.250,4305.1988,N,07740.9306,W,1,06,1.60,172.2,M,-34.4,M,,*56
$GPRMC,223227.500,A,4305.1987,N,07740.9306,W,0.00,172.64,180923,,,A*77
$GPGGA,223227.750,4305.1987,N,07740.9306,W,1,06,1.60,172.3,M,-34.4,M,,*5D
$GPRMC,223228.000,A,4305.1987,N,07740.9306,W,0.02,280.79,180923,,,A*7D
$GPGGA,223228.250,4305.1986,N,07740.9306,W,1,06,1.60,172.4,M,-34.4,M,,*51
$GPRMC,223228.500,A,4305.1986,N,07740.9306,W,0.02,20.03,180923,,,A*4C
$GPGGA,223228.750,4305.1986,N,07740.9306,W,1,06,1.60,172.5,M,-34.4,M,,*55
$GPRMC,223229.000,A,4305.1986,N,07740.9306,W,0.03,112.20,180923,,,A*78
$GPGGA,223229.250,4305.1985,N,07740.9306,W,1,06,1.60,172.7,M,-34.4,M,,*50
$GPRMC,223229.500,A,4305.1985,N,07740.9306,W,0.02,120.52,180923,,,A*7B
$GPGGA,223229.750,4305.1985,N,07740.9306,W,1,06,1.60,172.8,M,-34.4,M,,*5A
$GPRMC,223230.000,A,4305.1985,N,07740.9306,W,0.03,6.83,180923,,,A*7E
$GPGGA,223230.250,4305.1984,N,07740.9306,W,1,06,1.71,172.9,M,-34.4,M,,*57
$GPRMC,223230.500,A,4305.1984,N,07740.9306,W,0.01,203.55,180923,,,A*74
$GPGGA,223230.750,4305.1984,N,07740.9306,W,1,06,1.60,173.0,M,-34.4,M,,*5A
$GPRMC,223231.000,A,4305.1984,N,07740.9306,W,0.03,46.98,180923,,,A*40
$GPGGA,223231.250,4305.1983,N,07740.9306,W,1,06,1.60,173.1,M,-34.4,M,,*58
$GPRMC,223231.500,A,4305.1983,N,07740.9306,W,0.01,34.32,180923,,,A*45
$GPGGA,223231.750,4305.1983,N,07740.9306,W,1,06,1.60,173.2,M,-34.4,M,,*5E
$GPRMC,223232.000,A,4305.1983,N,07740.9306,W,0.07,27.34,180923,,,A*41
$GPGGA,223232.250,4305.1983,N,07740.9307,W,1,07,1.04,173.2,M,-34.4,M,,*5A
$GPRMC,223232.500,A,4305.1983,N,07740.9307,W,0.03,170.04,180923,,,A*71
$GPGGA,223232.750,4305.1982,N,07740.9307,W,1,07,1.04,173.2,M,-34.4,M,,*5E
$GPRMC,223233.000,A,4305.1982,N,07740.9307,W,0.02,44.69,180923,,,A*48
$GPGGA,223233.250,4305.1982,N,07740.9307,W,1,07,1.04,173.2,M,-34.4,M,,*5A
$GPRMC,223233.500,A,4305.1982,N,07740.9307,W,0.01,92.91,180923,,,A*42
$GPGGA,223233.750,4305.1982,N,07740.9307,W,1,07,1.04,173.2,M,-34.4,M,,*5F
$GPRMC,223234.000,A,4305.1982,N,07740.9307,W,0.02,308.83,180923,,,A*70
$GPGGA,223234.250,4305.1982,N,07740.9307,W,1,07,1.04,173.2,M,-34.4,M,,*5D
$GPRMC,223234.500,A,4305.1981,N,07740.9308,W,0.03,137.45,180923,,,A*7C
$GPGGA,223234.750,4305.1981,N,07740.9308,W,1,07,1.04,173.1,M,-34.4,M,,*57
$GPRMC,223235.000,A,4305.1981,N,07740.9308,W,0.01,284.61,180923,,,A*77
$GPGGA,223235.250,4305.1981,N,07740.9308,W,1,07,1.04,173.0,M,-34.4,M,,*52
$GPRMC,223235.500,A,4305.1981,N,07740.9308,W,0.04,195.05,180923,,,A*76
$GPGGA,223235.750,4305.1981,N,07740.9308,W,1,07,1.04,173.0,M,-34.4,M,,*57
$GPRMC,223236.000,A,4305.1981,N,07740.9309,W,0.75,236.87,180923,,,A*77
$GPGGA,223236.250,4305.1980,N,07740.9310,W,1,07,1.04,173.0,M,-34.4,M,,*59
$GPRMC,223236.500,A,4305.1980,N,07740.9312,W,2.36,243.10,180923,,,A*70
$GPGGA,223236.750,4305.1979,N,07740.9314,W,1,07,1.04,172.9,M,-34.4,M,,*56
$GPRMC,223237.000,A,4305.1978,N,07740.9317,W,3.56,240.17,180923,,,A*75
$GPGGA,223237.250,4305.1976,N,07740.9320,W,1,07,1.04,172.8,M,-34.4,M,,*5B
$GPRMC,223237.500,A,4305.1975,N,07740.9324,W,4.57,237.48,180923,,,A*71
$GPGGA,223237.750,4305.1973,N,07740.9328,W,1,07,1.06,172.8,M,-34.4,M,,*51
$GPRMC,223238.000,A,4305.1971,N,07740.9332,W,4.97,234.72,180923,,,A*7E
$GPGGA,223238.250,4305.1969,N,07740.9337,W,1,07,1.06,172.8,M,-34.4,M,,*5E
$GPRMC,223238.500,A,4305.1966,N,07740.9341,W,5.51,232.63,180923,,,A*74
$GPGGA,223238.750,4305.1964,N,07740.9345,W,1,07,1.06,172.7,M,-34.4,M,,*5C
$GPRMC,223239.000,A,4305.1961,N,07740.9350,W,5.98,227.89,180923,,,A*72
$GPGGA,223239.250,4305.1958,N,07740.9354,W,1,07,1.06,172.7,M,-34.4,M,,*57
$GPRMC,223239.500,A,4305.1954,N,07740.9357,W,6.27,223.79,180923,,,A*7A
$GPGGA,223239.750,4305.1951,N,07740.9361,W,1,07,1.06,172.9,M,-34.4,M,,*53
$GPRMC,223240.000,A,4305.1947,N,07740.9364,W,6.70,223.93,180923,,,A*75
$GPGGA,223240.250,4305.1944,N,07740.9369,W,1,07,1.06,173.1,M,-34.4,M,,*5D
$GPRMC,223240.500,A,4305.1940,N,07740.9373,W,7.48,224.53,180923,,,A*70
$GPGGA,223240.750,4305.1936,N,07740.9378,W,1,07,1.06,173.2,M,-34.4,M,,*5E
$GPRMC,223241.000,A,4305.1932,N,07740.9383,W,8.02,225.38,180923,,,A*73
$GPGGA,223241.250,4305.1928,N,07740.9389,W,1,07,1.06,173.2,M,-34.4,M,,*5B
$GPRMC,223241.500,A,4305.1924,N,07740.9394,W,8.59,227.21,180923,,,A*73
$GPGGA,223241.750,4305.1920,N,07740.9401,W,1,07,1.06,173.2,M,-34.4,M,,*51
$GPRMC,223242.000,A,4305.1916,N,07740.9407,W,9.17,228.45,180923,,,A*7F
$GPGGA,223242.250,4305.1912,N,07740.9414,W,1,07,1.06,173.2,M,-34.4,M,,*52
$GPRMC,223242.500,A,4305.1908,N,07740.9421,W,9.75,230.26,180923,,,A*79
$GPGGA,223242.750,4305.1903,N,07740.9428,W,1,07,1.06,173.3,M,-34.4,M,,*59
$GPRMC,223243.000,A,4305.1899,N,07740.9436,W,10.33,232.53,180923,,,A*48
$GPGGA,223243.250,4305.1895,N,07740.9444,W,1,07,1.06,173.4,M,-34.4,M,,*5E
$GPRMC,223243.500,A,4305.1890,N,07740.9452,W,10.86,234.47,180923,,,A*4B
$GPGGA,223243.750,4305.1886,N,07740.9461,W,1,07,1.06,173.4,M,-34.4,M,,*5E
$GPRMC,223244.000,A,4305.1881,N,07740.9470,W,11.49,236.25,180923,,,A*4D
$GPGGA,223244.250,4305.1877,N,07740.9479,W,1,07,1.06,173.5,M,-34.4,M,,*5A
$GPRMC,223244.500,A,4305.1872,N,07740.9488,W,11.88,236.04,180923,,,A*4D
$GPGGA,223244.750,4305.1867,N,07740.9498,W,1,07,1.06,173.4,M,-34.4,M,,*50
$GPRMC,223245.000,A,4305.1862,N,07740.9508,W,12.48,236.86,180923,,,A*44
$GPGGA,223245.250,4305.1857,N,07740.9518,W,1,07,1.06,173.7,M,-34.4,M,,*5D
$GPRMC,223245.500,A,4305.1851,N,07740.9528,W,12.73,235.74,180923,,,A*45
$GPGGA,223245.750,4305.1846,N,07740.9538,W,1,07,1.04,173.7,M,-34.4,M,,*58
$GPRMC,223246.000,A,4305.1840,N,07740.9548,W,13.03,235.85,180923,,,A*4D
$GPGGA,223246.250,4305.1835,N,07740.9559,W,1,07,1.04,173.8,M,-34.4,M,,*52
$GPRMC,223246.500,A,4305.1829,N,07740.9569,W,13.31,236.40,180923,,,A*4F
$GPGGA,223246.750,4305.1824,N,07740.9579,W,1,07,1.04,173.9,M,-34.4,M,,*54
$GPRMC,223247.000,A,4305.1818,N,07740.9590,W,13.50,235.48,180923,,,A*43
$GPGGA,223247.250,4305.1812,N,07740.9601,W,1,07,1.04,173.9,M,-34.4,M,,*59
$GPRMC,223247.500,A,4305.1806,N,07740.9612,W,13.83,234.41,180923,,,A*46
$GPGGA,223247.750,4305.1800,N,07740.9623,W,1,07,1.04,174.0,M,-34.4,M,,*51
$GPRMC,223248.000,A,4305.1795,N,07740.9633,W,13.95,233.74,180923,,,A*4C
$GPGGA,223248.250,4305.1788,N,07740.9643,W,1,07,1.06,174.1,M,-34.4,M,,*51
$GPRMC,223248.500,A,4305.1782,N,07740.9653,W,13.95,232.96,180923,,,A*44
$GPGGA,223248.750,4305.1775,N,07740.9664,W,1,07,1.06,174.3,M,-34.4,M,,*51
$GPRMC,223249.000,A,4305.1769,N,07740.9674,W,13.96,229.52,180923,,,A*41
$GPGGA,223249.250,4305.1763,N,07740.9684,W,1,07,1.06,174.4,M,-34.4,M,,*5B
$GPRMC,223249.500,A,4305.1756,N,07740.9694,W,13.95,226.76,180923,,,A*4C
$GPGGA,223249.750,4305.1750,N,07740.9703,W,1,07,1.06,174.4,M,-34.4,M,,*50
$GPRMC,223250.000,A,4305.1743,N,07740.9713,W,13.90,225.95,180923,,,A*40
$GPGGA,223250.250,4305.1736,N,07740.9720,W,1,08,0.97,174.6,M,-34.4,M,,*58
$GPRMC,223250.500,A,4305.1728,N,07740.9727,W,13.75,223.27,180923,,,A*4B
$GPGGA,223250.750,4305.1719,N,07740.9729,W,1,08,0.97,174.9,M,-34.4,M,,*56
$GPRMC,223251.000,A,4305.1711,N,07740.9733,W,13.70,221.02,180923,,,A*40
$GPGGA,223251.250,4305.1704,N,07740.9740,W,1,08,0.97,175.0,M,-34.4,M,,*59
$GPRMC,223251.500,A,4305.1696,N,07740.9747,W,13.47,217.55,180923,,,A*4B
$GPGGA,223251.750,4305.1688,N,07740.9754,W,1,08,0.96,175.1,M,-34.4,M,,*5C
$GPRMC,223252.000,A,4305.1681,N,07740.9761,W,13.53,214.67,180923,,,A*48
$GPGGA,223252.250,4305.1673,N,07740.9768,W,1,08,0.97,175.2,M,-34.4,M,,*53
$GPRMC,223252.500,A,4305.1664,N,07740.9775,W,13.72,211.75,180923,,,A*46
$GPGGA,223252.750,4305.1656,N,07740.9783,W,1,07,1.13,175.4,M,-34.4,M,,*50
$GPRMC,223253.000,A,4305.1647,N,07740.9790,W,13.76,209.57,180923,,,A*45
$GPGGA,223253.250,4305.1638,N,07740.9796,W,1,08,0.97,175.6,M,-34.4,M,,*58
$GPRMC,223253.500,A,4305.1628,N,07740.9802,W,14.09,206.21,180923,,,A*4C
$GPGGA,223253.750,4305.1620,N,07740.9808,W,1,07,1.11,175.8,M,-34.4,M,,*52
$GPRMC,223254.000,A,4305.1611,N,07740.9815,W,14.04,205.65,180923,,,A*4C
$GPGGA,223254.250,4305.1601,N,07740.9820,W,1,07,1.11,175.9,M,-34.4,M,,*58
$GPRMC,223254.500,A,4305.1592,N,07740.9825,W,14.14,203.99,180923,,,A*46
$GPGGA,223254.750,4305.1583,N,07740.9830,W,1,07,1.11,176.1,M,-34.4,M,,*5E
$GPRMC,223255.000,A,4305.1574,N,07740.9836,W,14.57,203.06,180923,,,A*49
$GPGGA,223255.250,4305.1564,N,07740.9841,W,1,07,1.11,176.1,M,-34.4,M,,*55
$GPRMC,223255.500,A,4305.1554,N,07740.9846,W,14.97,201.46,180923,,,A*43
$GPGGA,223255.750,4305.1545,N,07740.9851,W,1,08,0.96,176.2,M,-34.4,M,,*50
$GPRMC,223256.000,A,4305.1535,N,07740.9854,W,14.81,199.03,180923,,,A*45
$GPGGA,223256.250,4305.1525,N,07740.9856,W,1,07,1.11,176.3,M,-34.4,M,,*57
$GPRMC,223256.500,A,4305.1515,N,07740.9859,W,14.64,195.45,180923,,,A*4A
$GPGGA,223256.750,4305.1505,N,07740.9862,W,1,07,1.11,176.4,M,-34.4,M,,*50
$GPRMC,223257.000,A,4305.1495,N,07740.9865,W,14.63,193.91,180923,,,A*40
$GPGGA,223257.250,4305.1485,N,07740.9867,W,1,07,1.11,176.5,M,-34.4,M,,*59
$GPRMC,223257.500,A,4305.1475,N,07740.9868,W,14.87,190.96,180923,,,A*48
$GPGGA,223257.750,4305.1464,N,07740.9869,W,1,08,0.96,176.7,M,-34.4,M,,*5E
$GPRMC,223258.000,A,4305.1453,N,07740.9870,W,15.34,187.02,180923,,,A*4D
$GPGGA,223258.250,4305.1442,N,07740.9870,W,1,08,0.97,176.8,M,-34.4,M,,*56
$GPRMC,223258.500,A,4305.1433,N,07740.9868,W,15.40,185.12,180923,,,A*47
$GPGGA,223258.750,4305.1422,N,07740.9866,W,1,08,0.96,176.9,M,-34.4,M,,*52
$GPRMC,223259.000,A,4305.1412,N,07740.9866,W,15.36,185.61,180923,,,A*4B
$GPGGA,223259.250,4305.1400,N,07740.9867,W,1,08,0.96,177.0,M,-34.4,M,,*5F
$GPRMC,223259.500,A,4305.1389,N,07740.9869,W,14.92,188.18,180923,,,A*48
$GPGGA,223259.750,4305.1379,N,07740.9872,W,1,07,1.11,177.1,M,-34.4,M,,*57
$GPRMC,223300.000,A,4305.1369,N,07740.9876,W,15.02,195.57,180923,,,A*4F
$GPGGA,223300.250,4305.1359,N,07740.9881,W,1,07,1.11,177.3,M,-34.4,M,,*53
$GPRMC,223300.500,A,4305.1348,N,07740.9887,W,15.03,204.45,180923,,,A*4E
$GPGGA,223300.750,4305.1338,N,07740.9894,W,1,08,0.96,177.4,M,-34.4,M,,*53
$GPRMC,223301.000,A,4305.1328,N,07740.9900,W,15.16,208.69,180923,,,A*44
$GPGGA,223301.250,4305.1319,N,07740.9908,W,1,08,0.96,177.4,M,-34.4,M,,*50
$GPRMC,223301.500,A,4305.1310,N,07740.9916,W,15.34,215.76,180923,,,A*4F
$GPGGA,223301.750,4305.1302,N,07740.9925,W,1,08,0.96,177.5,M,-34.4,M,,*51
$GPRMC,223302.000,A,4305.1293,N,07740.9936,W,16.07,220.97,180923,,,A*4B
$GPGGA,223302.250,4305.1284,N,07740.9948,W,1,08,0.96,177.6,M,-34.4,M,,*50
$GPRMC,223302.500,A,4305.1276,N,07740.9960,W,16.72,226.35,180923,,,A*4A
$GPGGA,223302.750,4305.1268,N,07740.9972,W,1,08,0.96,177.6,M,-34.4,M,,*5E
$GPRMC,223303.000,A,4305.1260,N,07740.9985,W,17.12,229.54,180923,,,A*4D
$GPGGA,223303.250,4305.1252,N,07740.9999,W,1,08,0.96,177.7,M,-34.4,M,,*57
$GPRMC,223303.500,A,4305.1244,N,07741.0012,W,17.20,231.94,180923,,,A*45
$GPGGA,223303.750,4305.1237,N,07741.0025,W,1,07,1.11,177.8,M,-34.4,M,,*59
$GPRMC,223304.000,A,4305.1229,N,07741.0039,W,17.16,232.19,180923,,,A*46
$GPGGA,223304.250,4305.1221,N,07741.0052,W,1,08,0.96,177.9,M,-34.4,M,,*5C
$GPRMC,223304.500,A,4305.1214,N,07741.0065,W,16.94,232.22,180923,,,A*47
$GPGGA,223304.750,4305.1207,N,07741.0078,W,1,08,0.96,178.0,M,-34.4,M,,*53
$GPRMC,223305.000,A,4305.1199,N,07741.0091,W,16.99,232.26,180923,,,A*47
$GPGGA,223305.250,4305.1192,N,07741.0105,W,1,08,0.96,178.1,M,-34.4,M,,*52
$GPRMC,223305.500,A,4305.1184,N,07741.0118,W,17.06,231.93,180923,,,A*44
$GPGGA,223305.750,4305.1176,N,07741.0132,W,1,08,0.96,178.2,M,-34.4,M,,*5A
$GPRMC,223306.000,A,4305.1169,N,07741.0144,W,16.71,232.20,180923,,,A*42
$GPGGA,223306.250,4305.1160,N,07741.0161,W,1,08,0.96,178.0,M,-34.4,M,,*5F
$GPRMC,223306.500,A,4305.1152,N,07741.0178,W,17.19,233.34,180923,,,A*4B
$GPGGA,223306.750,4305.1144,N,07741.0193,W,1,08,0.96,177.8,M,-34.4,M,,*56
$GPRMC,223307.000,A,4305.1136,N,07741.0209,W,17.24,234.59,180923,,,A*4A
$GPGGA,223307.250,4305.1129,N,07741.0224,W,1,08,0.96,177.6,M,-34.4,M,,*58
$GPRMC,223307.500,A,4305.1123,N,07741.0239,W,17.24,237.97,180923,,,A*49
$GPGGA,223307.750,4305.1117,N,07741.0253,W,1,08,0.97,177.4,M,-34.4,M,,*53
$GPRMC,223308.000,A,4305.1111,N,07741.0268,W,17.05,241.21,180923,,,A*49
$GPGGA,223308.250,4305.1105,N,07741.0283,W,1,08,0.97,177.2,M,-34.4,M,,*51
$GPRMC,223308.500,A,4305.1099,N,07741.0297,W,16.94,243.99,180923,,,A*45
$GPGGA,223308.750,4305.1095,N,07741.0312,W,1,08,0.97,177.0,M,-34.4,M,,*57
$GPRMC,223309.000,A,4305.1090,N,07741.0327,W,16.89,246.90,180923,,,A*42
$GPGGA,223309.250,4305.1087,N,07741.0342,W,1,08,0.96,176.9,M,-34.4,M,,*5C
$GPRMC,223309.500,A,4305.1084,N,07741.0358,W,16.81,251.09,180923,,,A*44
$GPGGA,223309.750,4305.1082,N,07741.0375,W,1,08,0.96,176.8,M,-34.4,M,,*59
$GPRMC,223310.000,A,4305.1083,N,07741.0393,W,17.25,262.71,180923,,,A*49
$GPGGA,223310.250,4305.1082,N,07741.0411,W,1,08,0.97,176.8,M,-34.4,M,,*50
$GPRMC,223310.500,A,4305.1082,N,07741.0429,W,18.03,266.53,180923,,,A*44
$GPGGA,223310.750,4305.1082,N,07741.0447,W,1,08,0.96,176.7,M,-34.4,M,,*58
$GPRMC,223311.000,A,4305.1082,N,07741.0465,W,17.95,268.07,180923,,,A*47
$GPGGA,223311.250,4305.1084,N,07741.0482,W,1,08,0.96,176.6,M,-34.4,M,,*52
$GPRMC,223311.500,A,4305.1085,N,07741.0498,W,17.67,272.83,180923,,,A*4D
$GPGGA,223311.750,4305.1088,N,07741.0515,W,1,08,0.96,176.5,M,-34.4,M,,*57
$GPRMC,223312.000,A,4305.1092,N,07741.0530,W,17.25,280.36,180923,,,A*4B
$GPGGA,223312.250,4305.1096,N,07741.0546,W,1,08,0.97,176.4,M,-34.4,M,,*58
$GPRMC,223312.500,A,4305.1101,N,07741.0561,W,17.43,285.56,180923,,,A*42
$GPGGA,223312.750,4305.1106,N,07741.0576,W,1,08,0.96,176.3,M,-34.4,M,,*50
$GPRMC,223313.000,A,4305.1112,N,07741.0591,W,17.16,291.15,180923,,,A*49
$GPGGA,223313.250,4305.1118,N,07741.0605,W,1,08,0.97,176.3,M,-34.4,M,,*5D
$GPRMC,223313.500,A,4305.1124,N,07741.0619,W,16.47,295.91,180923,,,A*47
$GPGGA,223313.750,4305.1129,N,07741.0632,W,1,08,0.97,176.2,M,-34.4,M,,*5F
$GPRMC,223314.000,A,4305.1137,N,07741.0645,W,15.45,298.55,180923,,,A*4A
$GPGGA,223314.250,4305.1144,N,07741.0657,W,1,08,0.97,176.1,M,-34.4,M,,*56
$GPRMC,223314.500,A,4305.1150,N,07741.0669,W,14.08,299.85,180923,,,A*44
$GPGGA,223314.750,4305.1155,N,07741.0678,W,1,08,0.96,176.0,M,-34.4,M,,*5E
$GPRMC,223315.000,A,4305.1161,N,07741.0688,W,12.55,301.35,180923,,,A*48
$GPGGA,223315.250,4305.1167,N,07741.0697,W,1,08,0.97,175.8,M,-34.4,M,,*50
$GPRMC,223315.500,A,4305.1172,N,07741.0705,W,10.61,303.12,180923,,,A*49
$GPGGA,223315.750,4305.1177,N,07741.0711,W,1,08,0.96,175.7,M,-34.4,M,,*55
$GPRMC,223316.000,A,4305.1181,N,07741.0717,W,8.53,304.92,180923,,,A*77
$GPGGA,223316.250,4305.1185,N,07741.0722,W,1,08,0.97,175.6,M,-34.4,M,,*5E
$GPRMC,223316.500,A,4305.1189,N,07741.0728,W,6.77,305.36,180923,,,A*71
$GPGGA,223316.750,4305.1193,N,07741.0732,W,1,08,0.96,175.5,M,-34.4,M,,*5F
$GPRMC,223317.000,A,4305.1196,N,07741.0735,W,5.06,307.72,180923,,,A*70
$GPGGA,223317.250,4305.1198,N,07741.0739,W,1,08,0.97,175.3,M,-34.4,M,,*5C
$GPRMC,223317.500,A,4305.1201,N,07741.0742,W,4.15,305.50,180923,,,A*79
$GPGGA,223317.750,4305.1203,N,07741.0745,W,1,08,0.96,175.2,M,-34.4,M,,*53
$GPRMC,223318.000,A,4305.1205,N,07741.0747,W,3.89,305.89,180923,,,A*74
$GPGGA,223318.250,4305.1207,N,07741.0751,W,1,08,0.97,175.2,M,-34.4,M,,*59
$GPRMC,223318.500,A,4305.1210,N,07741.0755,W,4.94,304.96,180923,,,A*72
$GPGGA,223318.750,4305.1213,N,07741.0760,W,1,08,0.96,175.3,M,-34.4,M,,*5B
$GPRMC,223319.000,A,4305.1216,N,07741.0767,W,6.78,302.85,180923,,,A*75
$GPGGA,223319.250,4305.1221,N,07741.0775,W,1,08,0.96,175.3,M,-34.4,M,,*5A
$GPRMC,223319.500,A,4305.1225,N,07741.0785,W,10.06,303.08,180923,,,A*46
$GPGGA,223319.750,4305.1229,N,07741.0795,W,1,08,0.96,175.5,M,-34.4,M,,*5F
$GPRMC,223320.000,A,4305.1234,N,07741.0807,W,12.29,298.22,180923,,,A*48
$GPGGA,223320.250,4305.1239,N,07741.0822,W,1,08,0.97,175.6,M,-34.4,M,,*50
$GPRMC,223320.500,A,4305.1245,N,07741.0836,W,15.40,297.54,180923,,,A*4F
$GPGGA,223320.750,4305.1250,N,07741.0850,W,1,08,0.96,175.5,M,-34.4,M,,*5D
$GPRMC,223321.000,A,4305.1255,N,07741.0865,W,16.60,295.99,180923,,,A*4E
$GPGGA,223321.250,4305.1261,N,07741.0880,W,1,08,0.97,175.5,M,-34.4,M,,*57
$GPRMC,223321.500,A,4305.1267,N,07741.0896,W,17.89,295.56,180923,,,A*43
$GPGGA,223321.750,4305.1273,N,07741.0913,W,1,08,0.96,175.6,M,-34.4,M,,*58
$GPRMC,223322.000,A,4305.1280,N,07741.0931,W,19.48,294.44,180923,,,A*41
$GPGGA,223322.250,4305.1286,N,07741.0948,W,1,08,0.97,175.5,M,-34.4,M,,*58
$GPRMC,223322.500,A,4305.1292,N,07741.0966,W,19.48,294.23,180923,,,A*44
$GPGGA,223322.750,4305.1298,N,07741.0984,W,1,08,0.96,175.4,M,-34.4,M,,*52
$GPRMC,223323.000,A,4305.1303,N,07741.1001,W,19.38,293.90,180923,,,A*48
$GPGGA,223323.250,4305.1309,N,07741.1018,W,1,08,0.97,175.4,M,-34.4,M,,*53
$GPRMC,223323.500,A,4305.1314,N,07741.1034,W,19.31,293.57,180923,,,A*4F
$GPGGA,223323.750,4305.1321,N,07741.1052,W,1,08,0.96,175.4,M,-34.4,M,,*53
$GPRMC,223324.000,A,4305.1327,N,07741.1068,W,19.12,293.85,180923,,,A*4A
$GPGGA,223324.250,4305.1332,N,07741.1084,W,1,08,0.97,175.4,M,-34.4,M,,*59
$GPRMC,223324.500,A,4305.1338,N,07741.1100,W,18.84,293.50,180923,,,A*48
$GPGGA,223324.750,4305.1343,N,07741.1116,W,1,08,0.96,175.4,M,-34.4,M,,*51
$GPRMC,223325.000,A,4305.1348,N,07741.1132,W,18.51,293.49,180923,,,A*4A
$GPGGA,223325.250,4305.1353,N,07741.1147,W,1,08,0.97,175.5,M,-34.4,M,,*50
$GPRMC,223325.500,A,4305.1358,N,07741.1162,W,17.99,294.11,180923,,,A*4A
$GPGGA,223325.750,4305.1363,N,07741.1177,W,1,08,0.96,175.4,M,-34.4,M,,*55
$GPRMC,223326.000,A,4305.1368,N,07741.1191,W,17.03,295.38,180923,,,A*4A
$GPGGA,223326.250,4305.1373,N,07741.1204,W,1,08,0.97,175.4,M,-34.4,M,,*54
$GPRMC,223326.500,A,4305.1377,N,07741.1214,W,14.50,297.56,180923,,,A*40
$GPGGA,223326.750,4305.1382,N,07741.1224,W,1,08,0.96,175.4,M,-34.4,M,,*5C
$GPRMC,223327.000,A,4305.1386,N,07741.1233,W,12.79,299.64,180923,,,A*4D
$GPGGA,223327.250,4305.1391,N,07741.1241,W,1,08,0.97,175.5,M,-34.4,M,,*59
$GPRMC,223327.500,A,4305.1395,N,07741.1247,W,10.66,303.04,180923,,,A*41
$GPGGA,223327.750,4305.1399,N,07741.1253,W,1,08,0.96,175.5,M,-34.4,M,,*56
$GPRMC,223328.000,A,4305.1402,N,07741.1258,W,8.72,305.73,180923,,,A*76
$GPGGA,223328.250,4305.1405,N,07741.1260,W,1,08,0.97,175.5,M,-34.4,M,,*5F
$GPRMC,223328.500,A,4305.1408,N,07741.1264,W,6.62,307.71,180923,,,A*79
$GPGGA,223328.750,4305.1411,N,07741.1266,W,1,08,0.96,175.5,M,-34.4,M,,*58
$GPRMC,223329.000,A,4305.1413,N,07741.1268,W,5.47,308.26,180923,,,A*72
$GPGGA,223329.250,4305.1415,N,07741.1269,W,1,08,0.96,175.5,M,-34.4,M,,*57
$GPRMC,223329.500,A,4305.1417,N,07741.1265,W,4.11,301.38,180923,,,A*7A
$GPGGA,223329.750,4305.1419,N,07741.1261,W,1,08,0.96,175.5,M,-34.4,M,,*56
$GPRMC,223330.000,A,4305.1420,N,07741.1258,W,3.19,295.78,180923,,,A*7A
$GPGGA,223330.250,4305.1421,N,07741.1255,W,1,08,0.96,175.4,M,-34.4,M,,*56
$GPRMC,223330.500,A,4305.1421,N,07741.1252,W,2.31,295.78,180923,,,A*7F
$GPGGA,223330.750,4305.1421,N,07741.1248,W,1,08,0.96,175.4,M,-34.4,M,,*5F
$GPRMC,223331.000,A,4305.1422,N,07741.1245,W,1.55,295.78,180923,,,A*7F
$GPGGA,223331.250,4305.1424,N,07741.1245,W,1,08,0.96,175.3,M,-34.4,M,,*54
$GPRMC,223331.500,A,4305.1425,N,07741.1246,W,3.23,319.60,180923,,,A*71
$GPGGA,223331.750,4305.1427,N,07741.1248,W,1,08,0.96,175.3,M,-34.4,M,,*5F
$GPRMC,223332.000,A,4305.1430,N,07741.1250,W,4.86,326.52,180923,,,A*71
$GPGGA,223332.250,4305.1434,N,07741.1253,W,1,08,0.96,175.3,M,-34.4,M,,*51
$GPRMC,223332.500,A,4305.1439,N,07741.1256,W,7.86,336.82,180923,,,A*74
$GPGGA,223332.750,4305.1444,N,07741.1258,W,1,08,0.96,175.3,M,-34.4,M,,*58
$GPRMC,223333.000,A,4305.1451,N,07741.1260,W,9.20,342.23,180923,,,A*71
$GPGGA,223333.250,4305.1458,N,07741.1261,W,1,08,0.97,175.3,M,-34.4,M,,*5A
$GPRMC,223333.500,A,4305.1465,N,07741.1262,W,10.92,352.08,180923,,,A*48
$GPGGA,223333.750,4305.1474,N,07741.1264,W,1,08,0.97,175.3,M,-34.4,M,,*54
$GPRMC,223334.000,A,4305.1482,N,07741.1264,W,12.08,358.51,180923,,,A*42
$GPGGA,223334.250,4305.1491,N,07741.1264,W,1,08,0.97,175.2,M,-34.4,M,,*5C
$GPRMC,223334.500,A,4305.1500,N,07741.1262,W,13.48,7.89,180923,,,A*43
$GPGGA,223334.750,4305.1509,N,07741.1260,W,1,08,0.97,175.2,M,-34.4,M,,*5D
$GPRMC,223335.000,A,4305.1519,N,07741.1255,W,14.99,16.83,180923,,,A*7A
$GPGGA,223335.250,4305.1529,N,07741.1249,W,1,08,0.97,175.3,M,-34.4,M,,*51
$GPRMC,223335.500,A,4305.1540,N,07741.1242,W,17.15,24.81,180923,,,A*71
$GPGGA,223335.750,4305.1551,N,07741.1234,W,1,08,0.97,175.2,M,-34.4,M,,*50
$GPRMC,223336.000,A,4305.1563,N,07741.1225,W,19.10,28.93,180923,,,A*73
$GPGGA,223336.250,4305.1575,N,07741.1215,W,1,08,0.97,175.1,M,-34.4,M,,*50
$GPRMC,223336.500,A,4305.1588,N,07741.1204,W,21.21,31.47,180923,,,A*78
$GPGGA,223336.750,4305.1600,N,07741.1192,W,1,08,0.97,175.0,M,-34.4,M,,*59
$GPRMC,223337.000,A,4305.1614,N,07741.1180,W,22.85,32.39,180923,,,A*72
$GPGGA,223337.250,4305.1627,N,07741.1168,W,1,08,0.97,174.9,M,-34.4,M,,*55
$GPRMC,223337.500,A,4305.1641,N,07741.1155,W,24.33,32.85,180923,,,A*73
$GPGGA,223337.750,4305.1656,N,07741.1143,W,1,08,0.97,174.9,M,-34.4,M,,*5F
$GPRMC,223338.000,A,4305.1670,N,07741.1130,W,24.87,32.49,180923,,,A*77
$GPGGA,223338.250,4305.1684,N,07741.1116,W,1,08,0.97,174.9,M,-34.4,M,,*5A
$GPRMC,223338.500,A,4305.1699,N,07741.1102,W,25.60,32.83,180923,,,A*7A
$GPGGA,223338.750,4305.1714,N,07741.1088,W,1,08,0.96,174.9,M,-34.4,M,,*50
$GPRMC,223339.000,A,4305.1729,N,07741.1074,W,26.52,34.14,180923,,,A*7E
$GPGGA,223339.250,4305.1744,N,07741.1059,W,1,08,0.97,174.8,M,-34.4,M,,*5D
$GPRMC,223339.500,A,4305.1759,N,07741.1045,W,26.92,34.36,180923,,,A*72
$GPGGA,223339.750,4305.1775,N,07741.1029,W,1,08,0.96,175.0,M,-34.4,M,,*55
$GPRMC,223340.000,A,4305.1791,N,07741.1014,W,28.08,34.74,180923,,,A*72
$GPGGA,223340.250,4305.1807,N,07741.0998,W,1,08,0.96,175.1,M,-34.4,M,,*57
$GPRMC,223340.500,A,4305.1823,N,07741.0982,W,28.33,35.00,180923,,,A*7C
$GPGGA,223340.750,4305.1839,N,07741.0966,W,1,08,0.97,175.1,M,-34.4,M,,*5F
$GPRMC,223341.000,A,4305.1856,N,07741.0950,W,28.70,35.39,180923,,,A*78
$GPGGA,223341.250,4305.1872,N,07741.0934,W,1,08,0.97,175.2,M,-34.4,M,,*50
$GPRMC,223341.500,A,4305.1889,N,07741.0917,W,28.86,35.67,180923,,,A*7E
$GPGGA,223341.750,4305.1906,N,07741.0900,W,1,08,0.97,174.8,M,-34.4,M,,*5B
$GPRMC,223342.000,A,4305.1922,N,07741.0883,W,29.73,36.14,180923,,,A*78
$GPGGA,223342.250,4305.1939,N,07741.0866,W,1,08,0.97,174.7,M,-34.4,M,,*5F
$GPRMC,223342.500,A,4305.1956,N,07741.0848,W,30.06,36.86,180923,,,A*78
$GPGGA,223342.750,4305.1973,N,07741.0830,W,1,08,0.97,174.5,M,-34.4,M,,*55
$GPRMC,223343.000,A,4305.1990,N,07741.0813,W,30.50,37.28,180923,,,A*7E
$GPGGA,223343.250,4305.2006,N,07741.0795,W,1,08,0.97,174.4,M,-34.4,M,,*58
$GPRMC,223343.500,A,4305.2023,N,07741.0776,W,30.83,37.62,180923,,,A*75
$GPGGA,223343.750,4305.2040,N,07741.0758,W,1,08,0.97,174.4,M,-34.4,M,,*5E
$GPRMC,223344.000,A,4305.2058,N,07741.0739,W,31.11,37.76,180923,,,A*7F
$GPGGA,223344.250,4305.2075,N,07741.0721,W,1,08,0.97,174.4,M,-34.4,M,,*54
$GPRMC,223344.500,A,4305.2092,N,07741.0702,W,31.63,37.54,180923,,,A*71
$GPGGA,223344.750,4305.2110,N,07741.0683,W,1,08,0.97,174.4,M,-34.4,M,,*5A
$GPRMC,223345.000,A,4305.2127,N,07741.0664,W,32.73,37.69,180923,,,A*77
$GPGGA,223345.250,4305.2145,N,07741.0644,W,1,08,0.97,174.4,M,-34.4,M,,*55
$GPRMC,223345.500,A,4305.2163,N,07741.0625,W,33.17,37.96,180923,,,A*74
$GPGGA,223345.750,4305.2181,N,07741.0605,W,1,08,0.97,174.5,M,-34.4,M,,*5C
$GPRMC,223346.000,A,4305.2200,N,07741.0586,W,33.64,38.58,180923,,,A*77
$GPGGA,223346.250,4305.2218,N,07741.0566,W,1,08,0.97,174.6,M,-34.4,M,,*5C
$GPRMC,223346.500,A,4305.2237,N,07741.0545,W,34.15,38.28,180923,,,A*7F
$GPGGA,223346.750,4305.2255,N,07741.0525,W,1,08,0.97,174.6,M,-34.4,M,,*57
$GPRMC,223347.000,A,4305.2274,N,07741.0505,W,34.39,37.97,180923,,,A*7D
$GPGGA,223347.250,4305.2293,N,07741.0484,W,1,08,0.97,174.5,M,-34.4,M,,*50
$GPRMC,223347.500,A,4305.2312,N,07741.0464,W,34.96,38.14,180923,,,A*7E
$GPGGA,223347.750,4305.2331,N,07741.0443,W,1,08,0.97,174.4,M,-34.4,M,,*56
$GPRMC,223348.000,A,4305.2350,N,07741.0422,W,35.31,38.33,180923,,,A*79
$GPGGA,223348.250,4305.2369,N,07741.0401,W,1,08,0.97,174.3,M,-34.4,M,,*50
$GPRMC,223348.500,A,4305.2388,N,07741.0380,W,35.54,38.49,180923,,,A*78
$GPGGA,223348.750,4305.2408,N,07741.0358,W,1,08,0.97,174.5,M,-34.4,M,,*58
$GPRMC,223349.000,A,4305.2427,N,07741.0337,W,36.16,38.05,180923,,,A*7F
$GPGGA,223349.250,4305.2447,N,07741.0316,W,1,08,0.97,174.6,M,-34.4,M,,*5E
$GPRMC,223349.500,A,4305.2467,N,07741.0295,W,36.45,38.13,180923,,,A*76
$GPGGA,223349.750,4305.2487,N,07741.0273,W,1,08,0.97,174.6,M,-34.4,M,,*55
$GPRMC,223350.000,A,4305.2507,N,07741.0252,W,36.75,37.91,180923,,,A*71
$GPGGA,223350.250,4305.2527,N,07741.0230,W,1,08,0.97,174.6,M,-34.4,M,,*54
$GPRMC,223350.500,A,4305.2547,N,07741.0209,W,37.03,37.91,180923,,,A*7E
$GPGGA,223350.750,4305.2567,N,07741.0188,W,1,08,0.97,174.6,M,-34.4,M,,*55
$GPRMC,223351.000,A,4305.2588,N,07741.0166,W,37.06,37.74,180923,,,A*7D
$GPGGA,223351.250,4305.2608,N,07741.0145,W,1,08,0.97,174.6,M,-34.4,M,,*5A
$GPRMC,223351.500,A,4305.2628,N,07741.0123,W,36.90,38.03,180923,,,A*71
$GPGGA,223351.750,4305.2648,N,07741.0102,W,1,08,0.97,174.6,M,-34.4,M,,*58
$GPRMC,223352.000,A,4305.2668,N,07741.0081,W,36.59,38.31,180923,,,A*7E
$GPGGA,223352.250,4305.2688,N,07741.0059,W,1,08,0.97,174.6,M,-34.4,M,,*5D
$GPRMC,223352.500,A,4305.2708,N,07741.0038,W,36.63,38.31,180923,,,A*77
$GPGGA,223352.750,4305.2728,N,07741.0016,W,1,08,0.97,174.5,M,-34.4,M,,*5B
$GPRMC,223353.000,A,4305.2748,N,07740.9995,W,36.67,38.25,180923,,,A*70
$GPGGA,223353.250,4305.2768,N,07740.9973,W,1,08,0.97,174.5,M,-34.4,M,,*59
$GPRMC,223353.500,A,4305.2788,N,07740.9952,W,36.75,38.61,180923,,,A*71
$GPGGA,223353.750,4305.2808,N,07740.9930,W,1,08,0.97,174.6,M,-34.4,M,,*51
$GPRMC,223354.000,A,4305.2828,N,07740.9908,W,36.83,38.61,180923,,,A*70
$GPGGA,223354.250,4305.2848,N,07740.9886,W,1,08,0.97,174.6,M,-34.4,M,,*5B
$GPRMC,223354.500,A,4305.2868,N,07740.9865,W,36.94,38.58,180923,,,A*77
$GPGGA,223354.750,4305.2888,N,07740.9843,W,1,08,0.97,174.6,M,-34.4,M,,*5B
$GPRMC,223355.000,A,4305.2908,N,07740.9821,W,36.83,38.99,180923,,,A*7F
$GPGGA,223355.250,4305.2928,N,07740.9799,W,1,08,0.97,174.6,M,-34.4,M,,*5C
$GPRMC,223355.500,A,4305.2948,N,07740.9778,W,36.70,39.10,180923,,,A*71
$GPGGA,223355.750,4305.2967,N,07740.9756,W,1,08,0.97,174.8,M,-34.4,M,,*5F
$GPRMC,223356.000,A,4305.2987,N,07740.9734,W,36.35,39.45,180923,,,A*7D
$GPGGA,223356.250,4305.3006,N,07740.9713,W,1,08,0.97,174.9,M,-34.4,M,,*56
$GPRMC,223356.500,A,4305.3025,N,07740.9692,W,36.14,39.11,180923,,,A*77
$GPGGA,223356.750,4305.3045,N,07740.9670,W,1,08,0.97,175.1,M,-34.4,M,,*59
$GPRMC,223357.000,A,4305.3064,N,07740.9649,W,35.75,39.26,180923,,,A*70
$GPGGA,223357.250,4305.3083,N,07740.9627,W,1,08,0.97,175.4,M,-34.4,M,,*50
$GPRMC,223357.500,A,4305.3102,N,07740.9606,W,35.60,39.47,180923,,,A*7C
$GPGGA,223357.750,4305.3122,N,07740.9585,W,1,08,0.97,175.6,M,-34.4,M,,*56
$GPRMC,223358.000,A,4305.3141,N,07740.9563,W,35.82,39.00,180923,,,A*7E
$GPGGA,223358.250,4305.3161,N,07740.9542,W,1,08,0.97,175.8,M,-34.4,M,,*5E
$GPRMC,223358.500,A,4305.3180,N,07740.9520,W,35.89,39.65,180923,,,A*79
$GPGGA,223358.750,4305.3199,N,07740.9499,W,1,08,0.97,176.0,M,-34.4,M,,*50
$GPRMC,223359.000,A,4305.3219,N,07740.9477,W,35.96,39.84,180923,,,A*7C
$GPGGA,223359.250,4305.3238,N,07740.9455,W,1,08,0.97,176.1,M,-34.4,M,,*5D
$GPRMC,223359.500,A,4305.3258,N,07740.9433,W,36.12,39.37,180923,,,A*7B
$GPGGA,223359.750,4305.3278,N,07740.9412,W,1,08,0.97,176.3,M,-34.4,M,,*5D
$GPRMC,223400.000,A,4305.3297,N,07740.9390,W,36.06,39.16,180923,,,A*7E
$GPGGA,223400.250,4305.3316,N,07740.9369,W,1,08,0.97,176.5,M,-34.4,M,,*57
$GPRMC,223400.500,A,4305.3336,N,07740.9347,W,36.08,39.01,180923,,,A*73
$GPGGA,223400.750,4305.3355,N,07740.9325,W,1,08,0.96,176.6,M,-34.4,M,,*5F
$GPRMC,223401.000,A,4305.3375,N,07740.9303,W,36.29,39.27,180923,,,A*77
$GPGGA,223401.250,4305.3395,N,07740.9282,W,1,08,0.97,176.8,M,-34.4,M,,*54
$GPRMC,223401.500,A,4305.3414,N,07740.9260,W,36.38,39.89,180923,,,A*72
$GPGGA,223401.750,4305.3434,N,07740.9238,W,1,08,0.96,177.0,M,-34.4,M,,*54
$GPRMC,223402.000,A,4305.3454,N,07740.9216,W,36.41,39.98,180923,,,A*7F
$GPGGA,223402.250,4305.3473,N,07740.9194,W,1,08,0.96,177.2,M,-34.4,M,,*56
$GPRMC,223402.500,A,4305.3492,N,07740.9171,W,36.38,40.14,180923,,,A*76
$GPGGA,223402.750,4305.3512,N,07740.9149,W,1,08,0.96,177.4,M,-34.4,M,,*53
$GPRMC,223403.000,A,4305.3532,N,07740.9128,W,36.29,39.41,180923,,,A*7B
$GPGGA,223403.250,4305.3552,N,07740.9106,W,1,08,0.97,177.4,M,-34.4,M,,*59
$GPRMC,223403.500,A,4305.3572,N,07740.9084,W,36.18,38.85,180923,,,A*76
$GPGGA,223403.750,4305.3591,N,07740.9063,W,1,08,0.96,177.6,M,-34.4,M,,*52
$GPRMC,223404.000,A,4305.3611,N,07740.9041,W,36.10,38.32,180923,,,A*7F
$GPGGA,223404.250,4305.3631,N,07740.9020,W,1,08,0.97,177.8,M,-34.4,M,,*51
$GPRMC,223404.500,A,4305.3651,N,07740.8999,W,35.76,38.19,180923,,,A*79
$GPGGA,223404.750,4305.3671,N,07740.8978,W,1,08,0.96,177.8,M,-34.4,M,,*54
$GPRMC,223405.000,A,4305.3691,N,07740.8957,W,35.88,37.93,180923,,,A*7F
$GPGGA,223405.250,4305.3710,N,07740.8937,W,1,08,0.97,177.8,M,-34.4,M,,*5C
$GPRMC,223405.500,A,4305.3730,N,07740.8916,W,35.87,37.95,180923,,,A*7C
$GPGGA,223405.750,4305.3749,N,07740.8895,W,1,08,0.96,177.8,M,-34.4,M,,*5D
$GPRMC,223406.000,A,4305.3768,N,07740.8874,W,35.65,38.35,180923,,,A*7B
$GPGGA,223406.250,4305.3788,N,07740.8853,W,1,08,0.97,177.8,M,-34.4,M,,*5D
$GPRMC,223406.500,A,4305.3807,N,07740.8833,W,35.12,38.47,180923,,,A*7E
$GPGGA,223406.750,4305.3825,N,07740.8812,W,1,08,0.97,177.8,M,-34.4,M,,*55
$GPRMC,223407.000,A,4305.3844,N,07740.8791,W,35.03,38.93,180923,,,A*73
$GPGGA,223407.250,4305.3863,N,07740.8770,W,1,08,0.97,177.7,M,-34.4,M,,*57
$GPRMC,223407.500,A,4305.3882,N,07740.8750,W,34.45,38.74,180923,,,A*7B
$GPGGA,223407.750,4305.3900,N,07740.8729,W,1,08,0.97,177.6,M,-34.4,M,,*5B
$GPRMC,223408.000,A,4305.3919,N,07740.8709,W,34.23,38.45,180923,,,A*7C
$GPGGA,223408.250,4305.3937,N,07740.8689,W,1,08,0.97,177.6,M,-34.4,M,,*5E
$GPRMC,223408.500,A,4305.3956,N,07740.8669,W,34.12,38.37,180923,,,A*72
$GPGGA,223408.750,4305.3975,N,07740.8649,W,1,08,0.97,177.3,M,-34.4,M,,*54
$GPRMC,223409.000,A,4305.3993,N,07740.8629,W,33.95,38.42,180923,,,A*71
$GPGGA,223409.250,4305.4011,N,07740.8609,W,1,08,0.97,177.2,M,-34.4,M,,*59
$GPRMC,223409.500,A,4305.4030,N,07740.8590,W,33.62,38.06,180923,,,A*7A
$GPGGA,223409.750,4305.4048,N,07740.8570,W,1,08,0.96,177.1,M,-34.4,M,,*5F
$GPRMC,223410.000,A,4305.4067,N,07740.8550,W,33.59,38.10,180923,,,A*76
$GPGGA,223410.250,4305.4085,N,07740.8531,W,1,08,0.97,177.0,M,-34.4,M,,*56
$GPRMC,223410.500,A,4305.4104,N,07740.8511,W,33.47,38.33,180923,,,A*7C
$GPGGA,223410.750,4305.4122,N,07740.8492,W,1,08,0.97,176.9,M,-34.4,M,,*5F
$GPRMC,223411.000,A,4305.4140,N,07740.8473,W,33.40,37.69,180923,,,A*7A
$GPGGA,223411.250,4305.4158,N,07740.8454,W,1,08,0.97,176.9,M,-34.4,M,,*5C
$GPRMC,223411.500,A,4305.4176,N,07740.8435,W,33.28,37.51,180923,,,A*7D
$GPGGA,223411.750,4305.4194,N,07740.8416,W,1,08,0.96,176.9,M,-34.4,M,,*5E
$GPRMC,223412.000,A,4305.4212,N,07740.8398,W,33.15,37.61,180923,,,A*77
$GPGGA,223412.250,4305.4230,N,07740.8379,W,1,08,0.97,176.9,M,-34.4,M,,*5A
$GPRMC,223412.500,A,4305.4248,N,07740.8361,W,31.91,37.50,180923,,,A*77
$GPGGA,223412.750,4305.4265,N,07740.8343,W,1,08,0.96,176.9,M,-34.4,M,,*57
$GPRMC,223413.000,A,4305.4282,N,07740.8325,W,31.86,37.39,180923,,,A*7C
$GPGGA,223413.250,4305.4300,N,07740.8306,W,1,08,0.97,176.9,M,-34.4,M,,*51
$GPRMC,223413.500,A,4305.4318,N,07740.8288,W,32.04,36.98,180923,,,A*7E
$GPGGA,223413.750,4305.4335,N,07740.8270,W,1,08,0.96,176.9,M,-34.4,M,,*53
$GPRMC,223414.000,A,4305.4353,N,07740.8251,W,32.46,38.19,180923,,,A*76
$GPGGA,223414.250,4305.4371,N,07740.8232,W,1,08,0.97,176.8,M,-34.4,M,,*57
$GPRMC,223414.500,A,4305.4389,N,07740.8212,W,33.01,38.59,180923,,,A*75
$GPGGA,223414.750,4305.4407,N,07740.8193,W,1,08,0.96,176.8,M,-34.4,M,,*5D
$GPRMC,223415.000,A,4305.4424,N,07740.8174,W,33.04,39.14,180923,,,A*7F
$GPGGA,223415.250,4305.4442,N,07740.8154,W,1,08,0.97,176.7,M,-34.4,M,,*5D
$GPRMC,223415.500,A,4305.4459,N,07740.8135,W,32.60,38.50,180923,,,A*77
$GPGGA,223415.750,4305.4477,N,07740.8116,W,1,08,0.96,176.7,M,-34.4,M,,*59
$GPRMC,223416.000,A,4305.4495,N,07740.8097,W,32.56,37.21,180923,,,A*74
$GPGGA,223416.250,4305.4513,N,07740.8079,W,1,08,0.97,176.6,M,-34.4,M,,*54
$GPRMC,223416.500,A,4305.4531,N,07740.8061,W,32.43,36.31,180923,,,A*73
$GPGGA,223416.750,4305.4549,N,07740.8042,W,1,08,0.97,176.6,M,-34.4,M,,*56
$GPRMC,223417.000,A,4305.4567,N,07740.8025,W,32.01,35.68,180923,,,A*7D
$GPGGA,223417.250,4305.4584,N,07740.8007,W,1,08,0.97,176.5,M,-34.4,M,,*51
$GPRMC,223417.500,A,4305.4602,N,07740.7990,W,31.81,35.52,180923,,,A*72
$GPGGA,223417.750,4305.4620,N,07740.7973,W,1,08,0.97,176.6,M,-34.4,M,,*5F
$GPRMC,223418.000,A,4305.4638,N,07740.7955,W,31.57,34.99,180923,,,A*75
$GPGGA,223418.250,4305.4656,N,07740.7939,W,1,08,0.97,176.1,M,-34.4,M,,*5D
$GPRMC,223418.500,A,4305.4674,N,07740.7922,W,30.59,34.60,180923,,,A*71
$GPGGA,223418.750,4305.4691,N,07740.7905,W,1,08,0.97,175.9,M,-34.4,M,,*57
$GPRMC,223419.000,A,4305.4709,N,07740.7889,W,30.34,33.79,180923,,,A*7A
$GPGGA,223419.250,4305.4726,N,07740.7873,W,1,08,0.97,175.8,M,-34.4,M,,*5F
$GPRMC,223419.500,A,4305.4744,N,07740.7858,W,30.01,31.95,180923,,,A*7C
$GPGGA,223419.750,4305.4762,N,07740.7843,W,1,08,0.97,175.9,M,-34.4,M,,*58
$GPRMC,223420.000,A,4305.4779,N,07740.7829,W,29.76,30.92,180923,,,A*75
$GPGGA,223420.250,4305.4796,N,07740.7815,W,1,08,0.97,176.0,M,-34.4,M,,*55
$GPRMC,223420.500,A,4305.4813,N,07740.7801,W,29.48,29.94,180923,,,A*7A
$GPGGA,223420.750,4305.4830,N,07740.7788,W,1,08,0.97,176.0,M,-34.4,M,,*58
$GPRMC,223421.000,A,4305.4846,N,07740.7775,W,26.56,29.03,180923,,,A*7C
$GPGGA,223421.250,4305.4862,N,07740.7763,W,1,08,0.97,176.0,M,-34.4,M,,*5E
$GPRMC,223421.500,A,4305.4877,N,07740.7751,W,25.48,28.57,180923,,,A*71
$GPGGA,223421.750,4305.4893,N,07740.7740,W,1,08,0.97,176.0,M,-34.4,M,,*54
$GPRMC,223422.000,A,4305.4908,N,07740.7729,W,25.24,27.72,180923,,,A*73
$GPGGA,223422.250,4305.4923,N,07740.7718,W,1,08,0.97,176.1,M,-34.4,M,,*54
$GPRMC,223422.500,A,4305.4938,N,07740.7707,W,24.72,27.10,180923,,,A*7F
$GPGGA,223422.750,4305.4953,N,07740.7696,W,1,08,0.96,176.2,M,-34.4,M,,*53
$GPRMC,223423.000,A,4305.4968,N,07740.7687,W,24.24,26.11,180923,,,A*74
$GPGGA,223423.250,4305.4983,N,07740.7677,W,1,08,0.97,176.3,M,-34.4,M,,*55
$GPRMC,223423.500,A,4305.4998,N,07740.7669,W,23.61,24.34,180923,,,A*7D
$GPGGA,223423.750,4305.5012,N,07740.7660,W,1,08,0.97,176.4,M,-34.4,M,,*51
$GPRMC,223424.000,A,4305.5027,N,07740.7652,W,22.90,23.36,180923,,,A*71
$GPGGA,223424.250,4305.5041,N,07740.7644,W,1,08,0.97,176.6,M,-34.4,M,,*51
$GPRMC,223424.500,A,4305.5055,N,07740.7636,W,21.71,22.50,180923,,,A*7E
$GPGGA,223424.750,4305.5069,N,07740.7629,W,1,08,0.97,176.7,M,-34.4,M,,*54
$GPRMC,223425.000,A,4305.5081,N,07740.7622,W,20.00,21.96,180923,,,A*78
$GPGGA,223425.250,4305.5094,N,07740.7615,W,1,07,1.07,176.9,M,-34.4,M,,*54
$GPRMC,223425.500,A,4305.5105,N,07740.7609,W,17.82,21.91,180923,,,A*70
$GPGGA,223425.750,4305.5116,N,07740.7603,W,1,07,1.07,177.1,M,-34.4,M,,*54
$GPRMC,223426.000,A,4305.5127,N,07740.7597,W,16.40,22.22,180923,,,A*76
$GPGGA,223426.250,4305.5137,N,07740.7592,W,1,07,1.07,177.1,M,-34.4,M,,*5A
$GPRMC,223426.500,A,4305.5146,N,07740.7587,W,15.00,22.13,180923,,,A*70
$GPGGA,223426.750,4305.5155,N,07740.7581,W,1,07,1.06,177.1,M,-34.4,M,,*58
$GPRMC,223427.000,A,4305.5163,N,07740.7576,W,13.42,21.63,180923,,,A*79
$GPGGA,223427.250,4305.5171,N,07740.7572,W,1,08,0.97,177.1,M,-34.4,M,,*50
$GPRMC,223427.500,A,4305.5179,N,07740.7567,W,11.99,21.82,180923,,,A*7C
$GPGGA,223427.750,4305.5186,N,07740.7563,W,1,08,0.96,177.1,M,-34.4,M,,*5C
$GPRMC,223428.000,A,4305.5193,N,07740.7558,W,10.51,21.56,180923,,,A*72
$GPGGA,223428.250,4305.5200,N,07740.7554,W,1,08,0.96,176.8,M,-34.4,M,,*57
$GPRMC,223428.500,A,4305.5206,N,07740.7551,W,9.31,22.13,180923,,,A*4D
$GPGGA,223428.750,4305.5212,N,07740.7547,W,1,08,0.97,176.7,M,-34.4,M,,*5D
$GPRMC,223429.000,A,4305.5217,N,07740.7543,W,7.86,24.25,180923,,,A*4B
$GPGGA,223429.250,4305.5222,N,07740.7540,W,1,08,0.97,176.6,M,-34.4,M,,*5C
$GPRMC,223429.500,A,4305.5226,N,07740.7537,W,6.30,23.44,180923,,,A*43
$GPGGA,223429.750,4305.5230,N,07740.7535,W,1,08,0.97,176.7,M,-34.4,M,,*59
$GPRMC,223430.000,A,4305.5233,N,07740.7532,W,4.71,23.61,180923,,,A*4F
$GPGGA,223430.250,4305.5235,N,07740.7530,W,1,08,0.97,176.6,M,-34.4,M,,*55
$GPRMC,223430.500,A,4305.5238,N,07740.7528,W,3.34,23.07,180923,,,A*4C
$GPGGA,223430.750,4305.5240,N,07740.7527,W,1,07,1.06,176.5,M,-34.4,M,,*51
$GPRMC,223431.000,A,4305.5241,N,07740.7525,W,2.19,23.07,180923,,,A*45
$GPGGA,223431.250,4305.5242,N,07740.7524,W,1,08,0.96,176.4,M,-34.4,M,,*52
$GPRMC,223431.500,A,4305.5243,N,07740.7523,W,1.26,23.07,180923,,,A*4B
$GPGGA,223431.750,4305.5244,N,07740.7522,W,1,07,1.06,176.3,M,-34.4,M,,*57
$GPRMC,223432.000,A,4305.5244,N,07740.7521,W,0.33,23.07,180923,,,A*4D
$GPGGA,223432.250,4305.5244,N,07740.7520,W,1,07,1.06,176.1,M,-34.4,M,,*51
$GPRMC,223432.500,A,4305.5244,N,07740.7519,W,0.04,23.07,180923,,,A*47
$GPGGA,223432.750,4305.5244,N,07740.7519,W,1,07,1.06,176.0,M,-34.4,M,,*5F
$GPRMC,223433.000,A,4305.5244,N,07740.7518,W,0.04,23.07,180923,,,A*42
$GPGGA,223433.250,4305.5244,N,07740.7518,W,1,07,1.06,175.9,M,-34.4,M,,*50
$GPRMC,223433.500,A,4305.5244,N,07740.7517,W,0.02,23.07,180923,,,A*4E
$GPGGA,223433.750,4305.5243,N,07740.7517,W,1,07,1.07,175.8,M,-34.4,M,,*5D
$GPRMC,223434.000,A,4305.5243,N,07740.7516,W,0.03,23.07,180923,,,A*4B
$GPGGA,223434.250,4305.5243,N,07740.7516,W,1,07,1.06,175.8,M,-34.4,M,,*5F
$GPRMC,223434.500,A,4305.5243,N,07740.7515,W,0.03,23.07,180923,,,A*4D
$GPGGA,223434.750,4305.5243,N,07740.7515,W,1,07,1.06,175.7,M,-34.4,M,,*56
$GPRMC,223435.000,A,4305.5243,N,07740.7516,W,0.00,23.07,180923,,,A*49
$GPGGA,223435.250,4305.5243,N,07740.7516,W,1,07,1.06,175.7,M,-34.4,M,,*51
$GPRMC,223435.500,A,4305.5243,N,07740.7516,W,0.03,23.07,180923,,,A*4F
$GPGGA,223435.750,4305.5243,N,07740.7515,W,1,07,1.06,175.7,M,-34.4,M,,*57
$GPRMC,223436.000,A,4305.5243,N,07740.7515,W,0.03,23.07,180923,,,A*4A
$GPGGA,223436.250,4305.5243,N,07740.7515,W,1,07,1.06,175.7,M,-34.4,M,,*51
$GPRMC,223436.500,A,4305.5243,N,07740.7516,W,0.02,23.07,180923,,,A*4D
$GPGGA,223436.750,4305.5243,N,07740.7516,W,1,08,0.96,175.7,M,-34.4,M,,*50
$GPRMC,223437.000,A,4305.5243,N,07740.7516,W,0.02,23.07,180923,,,A*49
$GPGGA,223437.250,4305.5243,N,07740.7515,W,1,08,0.96,175.7,M,-34.4,M,,*57
$GPRMC,223437.500,A,4305.5243,N,07740.7515,W,0.05,23.07,180923,,,A*48
$GPGGA,223437.750,4305.5243,N,07740.7515,W,1,08,0.96,175.7,M,-34.4,M,,*52
$GPRMC,223438.000,A,4305.5243,N,07740.7515,W,0.03,23.07,180923,,,A*44
$GPGGA,223438.250,4305.5243,N,07740.7515,W,1,08,0.96,175.7,M,-34.4,M,,*58
$GPRMC,223438.500,A,4305.5243,N,07740.7515,W,0.03,23.07,180923,,,A*41
$GPGGA,223438.750,4305.5243,N,07740.7515,W,1,08,0.96,175.7,M,-34.4,M,,*5D
$GPRMC,223439.000,A,4305.5243,N,07740.7515,W,0.01,23.07,180923,,,A*47
$GPGGA,223439.250,4305.5243,N,07740.7515,W,1,08,0.97,175.7,M,-34.4,M,,*58
$GPRMC,223439.500,A,4305.5243,N,07740.7515,W,0.02,23.07,180923,,,A*41
$GPGGA,223439.750,4305.5243,N,07740.7515,W,1,08,0.96,175.7,M,-34.4,M,,*5C
$GPRMC,223440.000,A,4305.5243,N,07740.7515,W,0.04,23.07,180923,,,A*4C
$GPGGA,223440.250,4305.5243,N,07740.7515,W,1,08,0.96,175.7,M,-34.4,M,,*57
$GPRMC,223440.500,A,4305.5243,N,07740.7515,W,0.01,23.07,180923,,,A*4C
$GPGGA,223440.750,4305.5243,N,07740.7515,W,1,08,0.96,175.7,M,-34.4,M,,*52
$GPRMC,223441.000,A,4305.5243,N,07740.7515,W,0.04,23.07,180923,,,A*4D
$GPGGA,223441.250,4305.5243,N,07740.7515,W,1,08,0.96,175.7,M,-34.4,M,,*56
$GPRMC,223441.500,A,4305.5243,N,07740.7515,W,0.00,23.07,180923,,,A*4C
$GPGGA,223441.750,4305.5243,N,07740.7515,W,1,08,0.96,175.7,M,-34.4,M,,*53
$GPRMC,223442.000,A,4305.5243,N,07740.7515,W,0.10,23.07,180923,,,A*4B
$GPGGA,223442.250,4305.5243,N,07740.7516,W,1,08,0.96,175.8,M,-34.4,M,,*59
$GPRMC,223442.500,A,4305.5243,N,07740.7516,W,0.10,23.07,180923,,,A*4D
$GPGGA,223442.750,4305.5243,N,07740.7516,W,1,08,0.96,175.8,M,-34.4,M,,*5C
$GPRMC,223443.000,A,4305.5243,N,07740.7516,W,0.08,23.07,180923,,,A*40
$GPGGA,223443.250,4305.5243,N,07740.7516,W,1,08,0.96,175.8,M,-34.4,M,,*58
$GPRMC,223443.500,A,4305.5243,N,07740.7516,W,0.05,23.07,180923,,,A*48
$GPGGA,223443.750,4305.5243,N,07740.7516,W,1,08,0.96,175.8,M,-34.4,M,,*5D
$GPRMC,223444.000,A,4305.5243,N,07740.7516,W,0.04,23.07,180923,,,A*4B
$GPGGA,223444.250,4305.5243,N,07740.7516,W,1,08,0.97,175.8,M,-34.4,M,,*5E
$GPRMC,223444.500,A,4305.5243,N,07740.7516,W,0.01,23.07,180923,,,A*4B
$GPGGA,223444.750,4305.5243,N,07740.7516,W,1,08,0.97,175.8,M,-34.4,M,,*5B
$GPRMC,223445.000,A,4305.5243,N,07740.7516,W,0.02,23.07,180923,,,A*4C
$GPGGA,223445.250,4305.5243,N,07740.7516,W,1,08,0.97,175.8,M,-34.4,M,,*5F
$GPRMC,223445.500,A,4305.5243,N,07740.7516,W,0.02,23.07,180923,,,A*49
$GPGGA,223445.750,4305.5243,N,07740.7516,W,1,08,0.97,175.8,M,-34.4,M,,*5A
$GPRMC,223446.000,A,4305.5243,N,07740.7516,W,0.00,23.07,180923,,,A*4D
$GPGGA,223446.250,4305.5243,N,07740.7516,W,1,08,0.97,175.8,M,-34.4,M,,*5C
$GPRMC,223446.500,A,4305.5243,N,07740.7516,W,0.01,23.07,180923,,,A*49
$GPGGA,223446.750,4305.5243,N,07740.7516,W,1,08,0.97,175.8,M,-34.4,M,,*59
$GPRMC,223447.000,A,4305.5243,N,07740.7516,W,0.01,23.07,180923,,,A*4D
$GPGGA,223447.250,4305.5243,N,07740.7516,W,1,08,0.97,175.8,M,-34.4,M,,*5D
$GPRMC,223447.500,A,4305.5243,N,07740.7516,W,0.00,23.07,180923,,,A*49
$GPGGA,223447.750,4305.5243,N,07740.7516,W,1,08,0.97,175.8,M,-34.4,M,,*58
$GPRMC,223448.000,A,4305.5243,N,07740.7516,W,0.01,23.07,180923,,,A*42
$GPGGA,223448.250,4305.5243,N,07740.7516,W,1,08,0.97,175.8,M,-34.4,M,,*52
$GPRMC,223448.500,A,4305.5243,N,07740.7516,W,0.00,23.07,180923,,,A*46
$GPGGA,223448.750,4305.5243,N,07740.7516,W,1,08,0.97,175.8,M,-34.4,M,,*57
$GPRMC,223449.000,A,4305.5243,N,07740.7516,W,0.01,23.07,180923,,,A*43
$GPGGA,223449.250,4305.5243,N,07740.7516,W,1,08,0.97,175.8,M,-34.4,M,,*53
$GPRMC,223449.500,A,4305.5243,N,07740.7516,W,0.01,23.07,180923,,,A*46
$GPGGA,223449.750,4305.5243,N,07740.7516,W,1,08,0.97,175.8,M,-34.4,M,,*56
$GPRMC,223450.000,A,4305.5243,N,07740.7516,W,0.01,23.07,180923,,,A*4B
$GPGGA,223450.250,4305.5243,N,07740.7516,W,1,08,0.97,175.8,M,-34.4,M,,*5B
$GPRMC,223450.500,A,4305.5243,N,07740.7516,W,0.00,23.07,180923,,,A*4F
$GPGGA,223450.750,4305.5243,N,07740.7516,W,1,07,1.07,175.8,M,-34.4,M,,*59
$GPRMC,223451.000,A,4305.5243,N,07740.7516,W,0.01,23.07,180923,,,A*4A
$GPGGA,223451.250,4305.5243,N,07740.7516,W,1,07,1.07,175.8,M,-34.4,M,,*5D
$GPRMC,223451.500,A,4305.5243,N,07740.7516,W,0.01,23.07,180923,,,A*4F
$GPGGA,223451.750,4305.5243,N,07740.7516,W,1,08,0.97,175.8,M,-34.4,M,,*5F
$GPRMC,223452.000,A,4305.5243,N,07740.7516,W,0.00,23.07,180923,,,A*48
$GPGGA,223452.250,4305.5243,N,07740.7516,W,1,07,1.07,175.8,M,-34.4,M,,*5E
$GPRMC,223452.500,A,4305.5243,N,07740.7516,W,0.00,23.07,180923,,,A*4D
$GPGGA,223452.750,4305.5243,N,07740.7516,W,1,07,1.07,175.8,M,-34.4,M,,*5B
$GPRMC,223453.000,A,4305.5243,N,07740.7516,W,0.01,23.07,180923,,,A*48
$GPGGA,223453.250,4305.5243,N,07740.7516,W,1,07,1.07,175.8,M,-34.4,M,,*5F
$GPRMC,223453.500,A,4305.5243,N,07740.7516,W,0.01,23.07,180923,,,A*4D
$GPGGA,223453.750,4305.5243,N,07740.7516,W,1,07,1.07,175.8,M,-34.4,M,,*5A
$GPRMC,223454.000,A,4305.5243,N,07740.7516,W,0.00,23.07,180923,,,A*4E
$GPGGA,223454.250,4305.5243,N,07740.7516,W,1,08,0.97,175.8,M,-34.4,M,,*5F
$GPRMC,223454.500,A,4305.5243,N,07740.7516,W,0.01,23.07,180923,,,A*4A
$GPGGA,223454.750,4305.5243,N,07740.7516,W,1,07,1.07,175.8,M,-34.4,M,,*5D
$GPRMC,223455.000,A,4305.5243,N,07740.7516,W,0.00,23.07,180923,,,A*4F
$GPGGA,223455.250,4305.5243,N,07740.7516,W,1,08,0.97,175.8,M,-34.4,M,,*5E
$GPRMC,223455.500,A,4305.5243,N,07740.7516,W,0.00,23.07,180923,,,A*4A
$GPGGA,223455.750,4305.5243,N,07740.7516,W,1,08,0.97,175.8,M,-34.4,M,,*5B
$GPRMC,223456.000,A,4305.5243,N,07740.7516,W,0.01,23.07,180923,,,A*4D
$GPGGA,223456.250,4305.5243,N,07740.7516,W,1,08,0.97,175.8,M,-34.4,M,,*5D
$GPRMC,223456.500,A,4305.5243,N,07740.7516,W,0.01,23.07,180923,,,A*48
$GPGGA,223456.750,4305.5243,N,07740.7516,W,1,08,0.97,175.8,M,-34.4,M,,*58
$GPRMC,223457.000,A,4305.5243,N,07740.7516,W,0.00,23.07,180923,,,A*4D
$GPGGA,223457.250,4305.5243,N,07740.7516,W,1,07,1.07,175.8,M,-34.4,M,,*5B
$GPRMC,223457.500,A,4305.5243,N,07740.7516,W,0.00,23.07,180923,,,A*48
$GPGGA,223457.750,4305.5243,N,07740.7516,W,1,08,0.97,175.8,M,-34.4,M,,*59
$GPRMC,223458.000,A,4305.5243,N,07740.7516,W,0.00,23.07,180923,,,A*42
$GPGGA,223458.250,4305.5243,N,07740.7516,W,1,08,0.97,175.8,M,-34.4,M,,*53
$GPRMC,223458.500,A,4305.5243,N,07740.7516,W,0.01,23.07,180923,,,A*46
$GPGGA,223458.750,4305.5243,N,07740.7516,W,1,08,0.97,175.8,M,-34.4,M,,*56
$GPRMC,223459.000,A,4305.5243,N,07740.7516,W,0.01,23.07,180923,,,A*42
$GPGGA,223459.250,4305.5243,N,07740.7516,W,1,08,0.97,175.8,M,-34.4,M,,*52
$GPRMC,223459.500,A,4305.5243,N,07740.7516,W,0.00,23.07,180923,,,A*46
$GPGGA,223459.750,4305.5243,N,07740.7516,W,1,08,0.97,175.8,M,-34.4,M,,*57
$GPRMC,223500.000,A,4305.5243,N,07740.7516,W,0.00,23.07,180923,,,A*4E
$GPGGA,223500.250,4305.5243,N,07740.7516,W,1,08,0.97,175.8,M,-34.4,M,,*5F
$GPRMC,223500.500,A,4305.5243,N,07740.7516,W,0.00,23.07,180923,,,A*4B
$GPGGA,223500.750,4305.5243,N,07740.7516,W,1,08,0.97,175.8,M,-34.4,M,,*5A
$GPRMC,223501.000,A,4305.5243,N,07740.7516,W,0.00,23.07,180923,,,A*4F
$GPGGA,223501.250,4305.5243,N,07740.7516,W,1,08,0.97,175.8,M,-34.4,M,,*5E
$GPRMC,223501.500,A,4305.5243,N,07740.7516,W,0.00,23.07,180923,,,A*4A
$GPGGA,223501.750,4305.5243,N,07740.7516,W,1,08,0.97,175.8,M,-34.4,M,,*5B
$GPRMC,223502.000,A,4305.5243,N,07740.7516,W,0.01,23.07,180923,,,A*4D
$GPGGA,223502.250,4305.5243,N,07740.7516,W,1,08,0.97,175.8,M,-34.4,M,,*5D
$GPRMC,223502.500,A,4305.5243,N,07740.7516,W,0.01,23.07,180923,,,A*48
$GPGGA,223502.750,4305.5243,N,07740.7516,W,1,08,0.97,175.8,M,-34.4,M,,*58
$GPRMC,223503.000,A,4305.5243,N,07740.7516,W,0.00,23.07,180923,,,A*4D
$GPGGA,223503.250,4305.5243,N,07740.7516,W,1,08,0.97,175.8,M,-34.4,M,,*5C
$GPRMC,223503.500,A,4305.5243,N,07740.7516,W,0.01,23.07,180923,,,A*49
$GPGGA,223503.750,4305.5243,N,07740.7516,W,1,08,0.97,175.8,M,-34.4,M,,*59
$GPRMC,223504.000,A,4305.5243,N,07740.7516,W,0.01,23.07,180923,,,A*4B
$GPGGA,223504.250,4305.5243,N,07740.7516,W,1,08,0.97,175.8,M,-34.4,M,,*5B
$GPRMC,223504.500,A,4305.5243,N,07740.7516,W,0.01,23.07,180923,,,A*4E
$GPGGA,223504.750,4305.5243,N,07740.7516,W,1,08,0.97,175.8,M,-34.4,M,,*5E
$GPRMC,223505.000,A,4305.5243,N,07740.7516,W,0.01,23.07,180923,,,A*4A
$GPGGA,223505.250,4305.5243,N,07740.7516,W,1,08,0.97,175.8,M,-34.4,M,,*5A
$GPRMC,223505.500,A,4305.5243,N,07740.7516,W,0.01,23.07,180923,,,A*4F
$GPGGA,223505.750,4305.5243,N,07740.7516,W,1,08,0.97,175.8,M,-34.4,M,,*5F
$GPRMC,223506.000,A,4305.5243,N,07740.7516,W,0.01,23.07,180923,,,A*49
$GPGGA,223506.250,4305.5243,N,07740.7516,W,1,08,0.97,175.8,M,-34.4,M,,*59
$GPRMC,223506.500,A,4305.5243,N,07740.7516,W,0.00,23.07,180923,,,A*4D
$GPGGA,223506.750,4305.5243,N,07740.7516,W,1,08,0.97,175.8,M,-34.4,M,,*5C
$GPRMC,223507.000,A,4305.5243,N,07740.7516,W,0.00,23.07,180923,,,A*49
$GPGGA,223507.250,4305.5243,N,07740.7516,W,1,08,0.97,175.8,M,-34.4,M,,*58
$GPRMC,223507.500,A,4305.5243,N,07740.7516,W,0.01,23.07,180923,,,A*4D
$GPGGA,223507.750,4305.5243,N,07740.7516,W,1,08,0.97,175.8,M,-34.4,M,,*5D
$GPRMC,223508.000,A,4305.5243,N,07740.7516,W,0.01,23.07,180923,,,A*47
$GPGGA,223508.250,4305.5243,N,07740.7516,W,1,08,0.97,175.8,M,-34.4,M,,*57
$GPRMC,223508.500,A,4305.5243,N,07740.7516,W,0.00,23.07,180923,,,A*43
$GPGGA,223508.750,4305.5243,N,07740.7516,W,1,08,0.97,175.8,M,-34.4,M,,*52
$GPRMC,223509.000,A,4305.5243,N,07740.7516,W,0.01,23.07,180923,,,A*46
$GPGGA,223509.250,4305.5243,N,07740.7516,W,1,08,0.97,175.8,M,-34.4,M,,*56
$GPRMC,223509.500,A,4305.5243,N,07740.7516,W,0.01,23.07,180923,,,A*43
$GPGGA,223509.750,4305.5243,N,07740.7516,W,1,08,0.97,175.8,M,-34.4,M,,*53
$GPRMC,223510.000,A,4305.5243,N,07740.7516,W,0.00,23.07,180923,,,A*4F
$GPGGA,223510.250,4305.5243,N,07740.7516,W,1,08,0.97,175.8,M,-34.4,M,,*5E
$GPRMC,223510.500,A,4305.5243,N,07740.7516,W,0.00,23.07,180923,,,A*4A
$GPGGA,223510.750,4305.5243,N,07740.7516,W,1,08,0.97,175.8,M,-34.4,M,,*5B
$GPRMC,223511.000,A,4305.5243,N,07740.7516,W,0.00,23.07,180923,,,A*4E
$GPGGA,223511.250,4305.5243,N,07740.7516,W,1,08,0.97,175.8,M,-34.4,M,,*5F
$GPRMC,223511.500,A,4305.5243,N,07740.7516,W,0.01,23.07,180923,,,A*4A
$GPGGA,223511.750,4305.5243,N,07740.7516,W,1,08,0.97,175.8,M,-34.4,M,,*5A
$GPRMC,223512.000,A,4305.5243,N,07740.7516,W,0.00,23.07,180923,,,A*4D
$GPGGA,223512.250,4305.5243,N,07740.7516,W,1,08,0.97,175.8,M,-34.4,M,,*5C
$GPRMC,223512.500,A,4305.5243,N,07740.7516,W,0.00,23.07,180923,,,A*48
$GPGGA,223512.750,4305.5243,N,07740.7516,W,1,08,0.97,175.8,M,-34.4,M,,*59
$GPRMC,223513.000,A,4305.5243,N,07740.7516,W,0.01,23.07,180923,,,A*4D
$GPGGA,223513.250,4305.5243,N,07740.7516,W,1,08,0.97,175.8,M,-34.4,M,,*5D
$GPRMC,223513.500,A,4305.5243,N,07740.7516,W,0.00,23.07,180923,,,A*49
$GPGGA,223513.750,4305.5243,N,07740.7516,W,1,08,0.97,175.8,M,-34.4,M,,*58
$GPRMC,223514.000,A,4305.5243,N,07740.7516,W,0.00,23.07,180923,,,A*4B
$GPGGA,223514.250,4305.5243,N,07740.7516,W,1,08,0.97,175.8,M,-34.4,M,,*5A
$GPRMC,223514.500,A,4305.5243,N,07740.7516,W,0.00,23.07,180923,,,A*4E
$GPGGA,223514.750,4305.5243,N,07740.7516,W,1,08,0.97,175.8,M,-34.4,M,,*5F
$GPRMC,223515.000,A,4305.5243,N,07740.7516,W,0.01,23.07,180923,,,A*4B
$GPGGA,223515.250,4305.5243,N,07740.7516,W,1,08,0.97,175.8,M,-34.4,M,,*5B
$GPRMC,223515.500,A,4305.5243,N,07740.7516,W,0.00,23.07,180923,,,A*4F
$GPGGA,223515.750,4305.5243,N,07740.7516,W,1,08,0.97,175.8,M,-34.4,M,,*5E
$GPRMC,223516.000,A,4305.5243,N,07740.7516,W,0.00,23.07,180923,,,A*49
$GPGGA,223516.250,4305.5243,N,07740.7516,W,1,07,1.07,175.8,M,-34.4,M,,*5F
$GPRMC,223516.500,A,4305.5243,N,07740.7516,W,0.01,23.07,180923,,,A*4D
$GPGGA,223516.750,4305.5243,N,07740.7516,W,1,08,0.97,175.8,M,-34.4,M,,*5D
$GPRMC,223517.000,A,4305.5243,N,07740.7516,W,0.01,23.07,180923,,,A*49
$GPGGA,223517.250,4305.5243,N,07740.7516,W,1,08,0.97,175.8,M,-34.4,M,,*59
$GPRMC,223517.500,A,4305.5243,N,07740.7516,W,0.00,23.07,180923,,,A*4D
$GPGGA,223517.750,4305.5243,N,07740.7516,W,1,08,0.97,175.8,M,-34.4,M,,*5C
$GPRMC,223518.000,A,4305.5243,N,07740.7516,W,0.01,23.07,180923,,,A*46
$GPGGA,223518.250,4305.5243,N,07740.7516,W,1,08,0.97,175.8,M,-34.4,M,,*56
$GPRMC,223518.500,A,4305.5243,N,07740.7516,W,0.01,23.07,180923,,,A*43
$GPGGA,223518.750,4305.5243,N,07740.7516,W,1,08,0.97,175.8,M,-34.4,M,,*53
$GPRMC,223519.000,A,4305.5243,N,07740.7516,W,0.01,23.07,180923,,,A*47
$GPGGA,223519.250,4305.5243,N,07740.7516,W,1,08,0.97,175.8,M,-34.4,M,,*57
$GPRMC,223519.500,A,4305.5243,N,07740.7516,W,0.00,23.07,180923,,,A*43
$GPGGA,223519.750,4305.5243,N,07740.7516,W,1,08,0.97,175.8,M,-34.4,M,,*52
$GPRMC,223520.000,A,4305.5243,N,07740.7516,W,0.00,23.07,180923,,,A*4C
$GPGGA,223520.250,4305.5243,N,07740.7516,W,1,08,0.97,175.8,M,-34.4,M,,*5D
$GPRMC,223520.500,A,4305.5243,N,07740.7516,W,0.01,23.07,180923,,,A*48
$GPGGA,223520.750,4305.5243,N,07740.7516,W,1,07,1.07,175.8,M,-34.4,M,,*5F
$GPRMC,223521.000,A,4305.5243,N,07740.7516,W,0.00,23.07,180923,,,A*4D
$GPGGA,223521.250,4305.5243,N,07740.7516,W,1,07,1.07,175.8,M,-34.4,M,,*5B
$GPRMC,223521.500,A,4305.5243,N,07740.7516,W,0.00,23.07,180923,,,A*48
$GPGGA,223521.750,4305.5243,N,07740.7516,W,1,08,0.97,175.8,M,-34.4,M,,*59
$GPRMC,223522.000,A,4305.5243,N,07740.7516,W,0.01,23.07,180923,,,A*4F
$GPGGA,223522.250,4305.5243,N,07740.7516,W,1,08,0.97,175.8,M,-34.4,M,,*5F
$GPRMC,223522.500,A,4305.5243,N,07740.7516,W,0.01,23.07,180923,,,A*4A
$GPGGA,223522.750,4305.5243,N,07740.7516,W,1,08,0.97,175.8,M,-34.4,M,,*5A
$GPRMC,223523.000,A,4305.5243,N,07740.7516,W,0.00,23.07,180923,,,A*4F
$GPGGA,223523.250,4305.5243,N,07740.7516,W,1,08,0.97,175.8,M,-34.4,M,,*5E
$GPRMC,223523.500,A,4305.5243,N,07740.7516,W,0.08,23.07,180923,,,A*42
$GPGGA,223523.750,4305.5243,N,07740.7516,W,1,08,0.97,175.8,M,-34.4,M,,*5B
$GPRMC,223524.000,A,4305.5243,N,07740.7516,W,2.64,18.56,180923,,,A*44
$GPGGA,223524.250,4305.5245,N,07740.7515,W,1,08,0.96,175.8,M,-34.4,M,,*5D
$GPRMC,223524.500,A,4305.5248,N,07740.7513,W,5.30,22.54,180923,,,A*42
$GPGGA,223524.750,4305.5252,N,07740.7511,W,1,08,0.97,175.8,M,-34.4,M,,*5B
$GPRMC,223525.000,A,4305.5256,N,07740.7508,W,7.54,23.02,180923,,,A*41
$GPGGA,223525.250,4305.5261,N,07740.7505,W,1,08,0.97,175.8,M,-34.4,M,,*5A
$GPRMC,223525.500,A,4305.5267,N,07740.7501,W,9.46,23.14,180923,,,A*45
$GPGGA,223525.750,4305.5273,N,07740.7497,W,1,08,0.97,175.8,M,-34.4,M,,*56
$GPRMC,223526.000,A,4305.5280,N,07740.7493,W,11.34,23.17,180923,,,A*7F
$GPGGA,223526.250,4305.5288,N,07740.7489,W,1,08,0.97,175.8,M,-34.4,M,,*5B
$GPRMC,223526.500,A,4305.5296,N,07740.7484,W,12.74,23.77,180923,,,A*7A
$GPGGA,223526.750,4305.5304,N,07740.7479,W,1,08,0.97,175.9,M,-34.4,M,,*55
$GPRMC,223527.000,A,4305.5312,N,07740.7474,W,13.63,23.38,180923,,,A*70
$GPGGA,223527.250,4305.5321,N,07740.7468,W,1,08,0.97,175.9,M,-34.4,M,,*56
$GPRMC,223527.500,A,4305.5330,N,07740.7463,W,14.37,23.77,180923,,,A*7E
$GPGGA,223527.750,4305.5339,N,07740.7457,W,1,08,0.97,176.0,M,-34.4,M,,*5C
$GPRMC,223528.000,A,4305.5349,N,07740.7452,W,15.23,22.73,180923,,,A*79
$GPGGA,223528.250,4305.5359,N,07740.7446,W,1,08,0.97,176.0,M,-34.4,M,,*50
$GPRMC,223528.500,A,4305.5369,N,07740.7440,W,16.25,22.84,180923,,,A*70
$GPGGA,223528.750,4305.5380,N,07740.7434,W,1,08,0.97,176.0,M,-34.4,M,,*54
$GPRMC,223529.000,A,4305.5391,N,07740.7428,W,17.54,21.67,180923,,,A*74
$GPGGA,223529.250,4305.5402,N,07740.7422,W,1,08,0.97,176.1,M,-34.4,M,,*5B
$GPRMC,223529.500,A,4305.5414,N,07740.7416,W,18.70,21.08,180923,,,A*76
$GPGGA,223529.750,4305.5427,N,07740.7409,W,1,08,0.97,176.1,M,-34.4,M,,*50
$GPRMC,223530.000,A,4305.5439,N,07740.7403,W,19.87,20.00,180923,,,A*70
$GPGGA,223530.250,4305.5453,N,07740.7396,W,1,08,0.97,176.1,M,-34.4,M,,*5F
$GPRMC,223530.500,A,4305.5466,N,07740.7390,W,20.94,18.71,180923,,,A*77
