Vers 81
USE_SERIAL_FEEDBACK=true
DEVELOPMENT_MODE=false
USE_RMC_ONLY=false

$GPRMC,173742.750,A,4308.3518,N,07726.3176,W,0.27,208.94,180823,,,A*7F
$GPGGA,173743.000,4308.3512,N,07726.3168,W,1,04,8.47,121.9,M,-34.4,M,,*53
$GPRMC,173743.250,A,4308.3508,N,07726.3162,W,0.38,166.73,180823,,,A*73
$GPGGA,173743.500,4308.3504,N,07726.3157,W,1,04,8.46,122.5,M,-34.4,M,,*53
$GPRMC,173743.750,A,4308.3501,N,07726.3152,W,0.52,151.53,180823,,,A*76
$GPGGA,173744.000,4308.3500,N,07726.3150,W,1,04,8.47,122.9,M,-34.4,M,,*5F
$GPRMC,173744.250,A,4308.3499,N,07726.3148,W,0.50,143.09,180823,,,A*71
$GPGGA,173744.500,4308.3500,N,07726.3149,W,1,04,8.44,123.0,M,-34.4,M,,*59
$GPRMC,173744.750,A,4308.3502,N,07726.3150,W,0.53,140.78,180823,,,A*78
$GPGGA,173745.000,4308.3503,N,07726.3150,W,1,04,8.45,122.9,M,-34.4,M,,*5F
$GPRMC,173745.250,A,4308.3503,N,07726.3149,W,0.63,138.55,180823,,,A*76
$GPGGA,173745.500,4308.3501,N,07726.3147,W,1,04,8.44,122.8,M,-34.4,M,,*5E
$GPRMC,173745.750,A,4308.3501,N,07726.3147,W,0.78,141.23,180823,,,A*7A
$GPGGA,173746.000,4308.3503,N,07726.3149,W,1,04,8.43,122.7,M,-34.4,M,,*5C
$GPRMC,173746.250,A,4308.3505,N,07726.3152,W,0.62,143.56,180823,,,A*77
$GPGGA,173746.500,4308.3509,N,07726.3155,W,1,04,8.44,122.5,M,-34.4,M,,*5B
$GPRMC,173746.750,A,4308.3510,N,07726.3155,W,0.47,126.90,180823,,,A*7F
$GPGGA,173747.000,4308.3510,N,07726.3154,W,1,04,8.42,122.3,M,-34.4,M,,*56
$GPRMC,173747.250,A,4308.3511,N,07726.3155,W,0.68,127.07,180823,,,A*78
$GPGGA,173747.500,4308.3513,N,07726.3157,W,1,04,8.42,122.1,M,-34.4,M,,*51
$GPRMC,173747.750,A,4308.3513,N,07726.3157,W,0.59,140.73,180823,,,A*7D
$GPGGA,173748.000,4308.3514,N,07726.3158,W,1,04,8.42,122.0,M,-34.4,M,,*52
$GPRMC,173748.250,A,4308.3515,N,07726.3159,W,0.42,135.60,180823,,,A*75
$GPGGA,173748.500,4308.3514,N,07726.3158,W,1,04,8.41,121.9,M,-34.4,M,,*5E
$GPRMC,173748.750,A,4308.3514,N,07726.3158,W,0.54,141.06,180823,,,A*74
$GPGGA,173749.000,4308.3516,N,07726.3160,W,1,04,8.40,121.6,M,-34.4,M,,*5D
$GPRMC,173749.250,A,4308.3515,N,07726.3159,W,0.49,135.62,180823,,,A*7D
$GPGGA,173749.500,4308.3515,N,07726.3159,W,1,04,8.40,121.5,M,-34.4,M,,*52
$GPRMC,173749.750,A,4308.3515,N,07726.3158,W,0.58,125.32,180823,,,A*7D
$GPGGA,173750.000,4308.3514,N,07726.3157,W,1,04,8.40,121.2,M,-34.4,M,,*57
$GPRMC,173750.250,A,4308.3514,N,07726.3158,W,0.62,130.52,180823,,,A*7A
$GPGGA,173750.500,4308.3512,N,07726.3155,W,1,04,8.39,120.9,M,-34.4,M,,*52
$GPRMC,173750.750,A,4308.3511,N,07726.3155,W,0.64,138.05,180823,,,A*7B
$GPGGA,173751.000,4308.3508,N,07726.3152,W,1,04,8.38,120.8,M,-34.4,M,,*5A
$GPRMC,173751.250,A,4308.3506,N,07726.3149,W,0.79,141.47,180823,,,A*70
$GPGGA,173751.500,4308.3505,N,07726.3148,W,1,04,8.38,120.8,M,-34.4,M,,*59
$GPRMC,173751.750,A,4308.3502,N,07726.3146,W,0.75,143.03,180823,,,A*70
$GPGGA,173752.000,4308.3499,N,07726.3143,W,1,04,8.38,121.1,M,-34.4,M,,*58
$GPRMC,173752.250,A,4308.3495,N,07726.3138,W,0.72,142.04,180823,,,A*71
$GPGGA,173752.500,4308.3490,N,07726.3133,W,1,04,8.37,121.6,M,-34.4,M,,*5B
$GPRMC,173752.750,A,4308.3485,N,07726.3128,W,0.61,145.34,180823,,,A*72
$GPGGA,173753.000,4308.3478,N,07726.3120,W,1,04,8.37,122.4,M,-34.4,M,,*5A
$GPRMC,173753.250,A,4308.3471,N,07726.3112,W,0.56,143.44,180823,,,A*71
$GPGGA,173753.500,4308.3463,N,07726.3104,W,1,04,8.36,123.4,M,-34.4,M,,*53
$GPRMC,173753.750,A,4308.3456,N,07726.3096,W,0.61,140.17,180823,,,A*7D
$GPGGA,173754.000,4308.3449,N,07726.3089,W,1,04,8.36,124.3,M,-34.4,M,,*5D
$GPRMC,173754.250,A,4308.3442,N,07726.3082,W,0.62,141.34,180823,,,A*7C
$GPGGA,173754.500,4308.3435,N,07726.3074,W,1,04,8.35,125.2,M,-34.4,M,,*52
$GPRMC,173754.750,A,4308.3427,N,07726.3066,W,0.78,140.96,180823,,,A*72
$GPGGA,173755.000,4308.3424,N,07726.3063,W,1,04,8.34,125.9,M,-34.4,M,,*5A
$GPRMC,173755.250,A,4308.3419,N,07726.3057,W,0.78,145.13,180823,,,A*71
$GPGGA,173755.500,4308.3413,N,07726.3052,W,1,04,8.33,126.6,M,-34.4,M,,*52
$GPRMC,173755.750,A,4308.3412,N,07726.3051,W,0.77,153.03,180823,,,A*70
$GPGGA,173756.000,4308.3410,N,07726.3050,W,1,04,8.33,126.9,M,-34.4,M,,*5A
$GPRMC,173756.250,A,4308.3407,N,07726.3048,W,0.73,163.50,180823,,,A*7B
$GPGGA,173756.500,4308.3405,N,07726.3046,W,1,04,8.33,127.3,M,-34.4,M,,*57
$GPRMC,173756.750,A,4308.3399,N,07726.3039,W,0.73,164.51,180823,,,A*7E
$GPGGA,173757.000,4308.3392,N,07726.3033,W,1,04,8.33,128.1,M,-34.4,M,,*55
$GPRMC,173757.250,A,4308.3385,N,07726.3026,W,0.79,159.34,180823,,,A*7E
$GPGGA,173757.500,4308.3382,N,07726.3022,W,1,04,8.32,128.7,M,-34.4,M,,*56
$GPRMC,173757.750,A,4308.3376,N,07726.3016,W,0.85,154.89,180823,,,A*7C
$GPGGA,173758.000,4308.3371,N,07726.3011,W,1,04,8.30,129.4,M,-34.4,M,,*50
$GPRMC,173758.250,A,4308.3368,N,07726.3008,W,0.87,154.14,180823,,,A*70
$GPGGA,173758.500,4308.3366,N,07726.3006,W,1,04,8.31,129.7,M,-34.4,M,,*57
$GPRMC,173758.750,A,4308.3363,N,07726.3004,W,0.90,154.12,180823,,,A*72
$GPGGA,173759.000,4308.3362,N,07726.3003,W,1,04,8.31,129.9,M,-34.4,M,,*5C
$GPRMC,173759.250,A,4308.3360,N,07726.3002,W,0.87,156.50,180823,,,A*71
$GPGGA,173759.500,4308.3359,N,07726.3001,W,1,04,8.30,130.0,M,-34.4,M,,*53
$GPRMC,173759.750,A,4308.3358,N,07726.2999,W,0.86,151.50,180823,,,A*73
$GPGGA,173800.000,4308.3357,N,07726.2998,W,1,04,8.29,130.1,M,-34.4,M,,*5A
$GPRMC,173800.250,A,4308.3357,N,07726.2998,W,0.84,150.80,180823,,,A*75
$GPGGA,173800.500,4308.3357,N,07726.2998,W,1,04,8.29,130.1,M,-34.4,M,,*5F
$GPRMC,173800.750,A,4308.3355,N,07726.2997,W,0.85,149.56,180823,,,A*7F
$GPGGA,173801.000,4308.3353,N,07726.2994,W,1,04,8.28,130.2,M,-34.4,M,,*51
$GPRMC,173801.250,A,4308.3351,N,07726.2992,W,0.90,145.51,180823,,,A*75
$GPGGA,173801.500,4308.3349,N,07726.2990,W,1,04,8.28,130.3,M,-34.4,M,,*5A
$GPRMC,173801.750,A,4308.3348,N,07726.2988,W,0.93,143.09,180823,,,A*7B
$GPGGA,173802.000,4308.3346,N,07726.2986,W,1,04,8.27,130.4,M,-34.4,M,,*5C
$GPRMC,173802.250,A,4308.3344,N,07726.2984,W,0.94,143.14,180823,,,A*76
$GPGGA,173802.500,4308.3341,N,07726.2981,W,1,04,8.27,130.6,M,-34.4,M,,*5B
$GPRMC,173802.750,A,4308.3339,N,07726.2979,W,0.97,145.87,180823,,,A*74
$GPGGA,173803.000,4308.3337,N,07726.2978,W,1,04,8.25,130.7,M,-34.4,M,,*5B
$GPRMC,173803.250,A,4308.3336,N,07726.2976,W,0.99,146.94,180823,,,A*7F
$GPGGA,173803.500,4308.3334,N,07726.2974,W,1,04,8.26,130.8,M,-34.4,M,,*5D
$GPRMC,173803.750,A,4308.3332,N,07726.2972,W,1.01,147.62,180823,,,A*72
$GPGGA,173804.000,4308.3329,N,07726.2968,W,1,04,8.26,130.9,M,-34.4,M,,*5F
$GPRMC,173804.250,A,4308.3326,N,07726.2966,W,1.04,146.44,180823,,,A*70
$GPGGA,173804.500,4308.3322,N,07726.2961,W,1,04,8.25,131.2,M,-34.4,M,,*51
$GPRMC,173804.750,A,4308.3318,N,07726.2958,W,1.06,149.70,180823,,,A*7F
$GPGGA,173805.000,4308.3315,N,07726.2955,W,1,04,8.24,131.6,M,-34.4,M,,*53
$GPRMC,173805.250,A,4308.3313,N,07726.2951,W,1.08,148.19,180823,,,A*79
$GPGGA,173805.500,4308.3310,N,07726.2949,W,1,04,8.24,131.8,M,-34.4,M,,*50
$GPRMC,173805.750,A,4308.3307,N,07726.2946,W,1.09,149.43,180823,,,A*70
$GPGGA,173806.000,4308.3305,N,07726.2943,W,1,04,8.23,132.1,M,-34.4,M,,*55
$GPRMC,173806.250,A,4308.3303,N,07726.2941,W,1.11,147.79,180823,,,A*7B
$GPGGA,173806.500,4308.3300,N,07726.2939,W,1,04,8.23,132.3,M,-34.4,M,,*5A
$GPRMC,173806.750,A,4308.3298,N,07726.2937,W,1.13,152.54,180823,,,A*75
$GPGGA,173807.000,4308.3296,N,07726.2935,W,1,04,8.22,132.4,M,-34.4,M,,*5A
$GPRMC,173807.250,A,4308.3294,N,07726.2933,W,1.13,154.52,180823,,,A*79
$GPGGA,173807.500,4308.3292,N,07726.2931,W,1,04,8.21,132.6,M,-34.4,M,,*5E
$GPRMC,173807.750,A,4308.3289,N,07726.2927,W,1.17,147.16,180823,,,A*73
$GPGGA,173808.000,4308.3286,N,07726.2924,W,1,04,8.22,132.9,M,-34.4,M,,*59
$GPRMC,173808.250,A,4308.3284,N,07726.2922,W,1.29,144.26,180823,,,A*7C
$GPGGA,173808.500,4308.3282,N,07726.2920,W,1,04,8.21,133.1,M,-34.4,M,,*56
$GPRMC,173808.750,A,4308.3280,N,07726.2917,W,1.30,144.35,180823,,,A*71
$GPGGA,173809.000,4308.3278,N,07726.2915,W,1,04,8.21,133.2,M,-34.4,M,,*52
$GPRMC,173809.250,A,4308.3275,N,07726.2912,W,1.32,144.65,180823,,,A*7D
$GPGGA,173809.500,4308.3272,N,07726.2909,W,1,04,8.19,133.4,M,-34.4,M,,*5D
$GPRMC,173809.750,A,4308.3270,N,07726.2907,W,1.35,151.58,180823,,,A*74
$GPGGA,173810.000,4308.3267,N,07726.2906,W,1,04,8.20,133.6,M,-34.4,M,,*53
$GPRMC,173810.250,A,4308.3264,N,07726.2903,W,1.38,158.01,180823,,,A*70
$GPGGA,173810.500,4308.3262,N,07726.2900,W,1,04,8.19,133.8,M,-34.4,M,,*51
$GPRMC,173810.750,A,4308.3259,N,07726.2898,W,1.39,156.37,180823,,,A*72
$GPGGA,173811.000,4308.3257,N,07726.2895,W,1,04,8.18,134.0,M,-34.4,M,,*50
$GPRMC,173811.250,A,4308.3256,N,07726.2893,W,1.38,148.38,180823,,,A*73
$GPGGA,173811.500,4308.3254,N,07726.2891,W,1,04,8.17,134.1,M,-34.4,M,,*5C
$GPRMC,173811.750,A,4308.3252,N,07726.2890,W,1.38,149.82,180823,,,A*71
$GPGGA,173812.000,4308.3250,N,07726.2888,W,1,04,8.17,134.2,M,-34.4,M,,*55
$GPRMC,173812.250,A,4308.3249,N,07726.2887,W,1.37,152.08,180823,,,A*7C
$GPGGA,173812.500,4308.3247,N,07726.2885,W,1,04,8.17,134.3,M,-34.4,M,,*5A
$GPRMC,173812.750,A,4308.3245,N,07726.2883,W,1.40,148.75,180823,,,A*70
$GPGGA,173813.000,4308.3243,N,07726.2880,W,1,04,8.16,134.4,M,-34.4,M,,*59
$GPRMC,173813.250,A,4308.3241,N,07726.2878,W,1.44,145.55,180823,,,A*7F
$GPGGA,173813.500,4308.3239,N,07726.2876,W,1,04,8.16,134.4,M,-34.4,M,,*58
$GPRMC,173813.750,A,4308.3237,N,07726.2874,W,1.48,146.74,180823,,,A*7B
$GPGGA,173814.000,4308.3234,N,07726.2872,W,1,04,8.15,134.5,M,-34.4,M,,*51
$GPRMC,173814.250,A,4308.3232,N,07726.2870,W,1.52,148.89,180823,,,A*7F
$GPGGA,173814.500,4308.3229,N,07726.2866,W,1,04,8.15,134.7,M,-34.4,M,,*5F
$GPRMC,173814.750,A,4308.3225,N,07726.2863,W,1.55,149.76,180823,,,A*78
$GPGGA,173815.000,4308.3222,N,07726.2861,W,1,04,8.14,134.9,M,-34.4,M,,*58
$GPRMC,173815.250,A,4308.3217,N,07726.2856,W,1.60,151.02,180823,,,A*77
$GPGGA,173815.500,4308.3212,N,07726.2851,W,1,04,8.14,135.1,M,-34.4,M,,*54
$GPRMC,173815.750,A,4308.3206,N,07726.2845,W,1.78,144.27,180823,,,A*7A
$GPGGA,173816.000,4308.3200,N,07726.2840,W,1,04,8.14,135.3,M,-34.4,M,,*53
$GPRMC,173816.250,A,4308.3196,N,07726.2836,W,1.82,141.81,180823,,,A*7E
$GPGGA,173816.500,4308.3192,N,07726.2832,W,1,04,8.13,135.5,M,-34.4,M,,*5A
$GPRMC,173816.750,A,4308.3189,N,07726.2830,W,1.81,147.85,180823,,,A*72
$GPGGA,173817.000,4308.3185,N,07726.2826,W,1,04,8.12,135.7,M,-34.4,M,,*5E
$GPRMC,173817.250,A,4308.3180,N,07726.2822,W,1.78,150.62,180823,,,A*75
$GPGGA,173817.500,4308.3175,N,07726.2818,W,1,04,8.12,135.9,M,-34.4,M,,*57
$GPRMC,173817.750,A,4308.3171,N,07726.2814,W,1.86,149.18,180823,,,A*7F
$GPGGA,173818.000,4308.3168,N,07726.2812,W,1,04,8.11,136.0,M,-34.4,M,,*52
$GPRMC,173818.250,A,4308.3165,N,07726.2810,W,1.84,152.96,180823,,,A*7A
$GPGGA,173818.500,4308.3161,N,07726.2806,W,1,04,8.11,136.2,M,-34.4,M,,*59
$GPRMC,173818.750,A,4308.3157,N,07726.2803,W,1.84,150.85,180823,,,A*7C
$GPGGA,173819.000,4308.3154,N,07726.2800,W,1,04,8.10,136.4,M,-34.4,M,,*5A
$GPRMC,173819.250,A,4308.3152,N,07726.2799,W,1.67,151.50,180823,,,A*75
$GPGGA,173819.500,4308.3148,N,07726.2796,W,1,04,8.10,136.6,M,-34.4,M,,*50
$GPRMC,173819.750,A,4308.3143,N,07726.2791,W,1.91,146.52,180823,,,A*75
$GPGGA,173820.000,4308.3138,N,07726.2786,W,1,04,8.09,137.0,M,-34.4,M,,*56
$GPRMC,173820.250,A,4308.3133,N,07726.2782,W,2.16,144.76,180823,,,A*77
$GPGGA,173820.500,4308.3129,N,07726.2778,W,1,04,8.09,137.3,M,-34.4,M,,*51
$GPRMC,173820.750,A,4308.3127,N,07726.2776,W,2.25,148.58,180823,,,A*7C
$GPGGA,173821.000,4308.3121,N,07726.2771,W,1,04,8.08,137.9,M,-34.4,M,,*5F
$GPRMC,173821.250,A,4308.3119,N,07726.2769,W,1.93,160.32,180823,,,A*73
$GPGGA,173821.500,4308.3116,N,07726.2765,W,1,04,8.08,138.2,M,-34.4,M,,*5F
$GPRMC,173821.750,A,4308.3111,N,07726.2760,W,1.88,142.41,180823,,,A*79
$GPGGA,173822.000,4308.3107,N,07726.2757,W,1,04,8.08,138.6,M,-34.4,M,,*5C
$GPRMC,173822.250,A,4308.3104,N,07726.2753,W,1.74,141.74,180823,,,A*7D
$GPGGA,173822.500,4308.3102,N,07726.2751,W,1,04,8.07,139.1,M,-34.4,M,,*53
$GPRMC,173822.750,A,4308.3098,N,07726.2748,W,1.59,150.76,180823,,,A*7B
$GPGGA,173823.000,4308.3087,N,07726.2737,W,1,04,8.07,139.7,M,-34.4,M,,*5D
$GPRMC,173823.250,A,4308.3082,N,07726.2732,W,1.83,150.51,180823,,,A*7B
$GPGGA,173823.500,4308.3076,N,07726.2726,W,1,04,8.06,140.2,M,-34.4,M,,*5C
$GPRMC,173823.750,A,4308.3070,N,07726.2721,W,1.89,148.15,180823,,,A*72
$GPGGA,173824.000,4308.3065,N,07726.2717,W,1,04,8.06,140.6,M,-34.4,M,,*5A
$GPRMC,173824.250,A,4308.3061,N,07726.2713,W,1.75,148.81,180823,,,A*7F
$GPGGA,173824.500,4308.3050,N,07726.2703,W,1,04,8.06,141.3,M,-34.4,M,,*58
$GPRMC,173824.750,A,4308.3045,N,07726.2698,W,1.97,150.59,180823,,,A*7E
$GPGGA,173825.000,4308.3040,N,07726.2694,W,1,04,8.06,141.7,M,-34.4,M,,*56
$GPRMC,173825.250,A,4308.3037,N,07726.2691,W,1.87,149.99,180823,,,A*73
$GPGGA,173825.500,4308.3034,N,07726.2688,W,1,04,8.05,142.2,M,-34.4,M,,*58
$GPRMC,173825.750,A,4308.3031,N,07726.2686,W,1.55,154.85,180823,,,A*78
$GPGGA,173826.000,4308.3028,N,07726.2682,W,1,04,8.04,142.5,M,-34.4,M,,*5F
$GPRMC,173826.250,A,4308.3022,N,07726.2677,W,1.50,143.06,180823,,,A*7A
$GPGGA,173826.500,4308.3018,N,07726.2673,W,1,04,8.04,143.0,M,-34.4,M,,*53
$GPRMC,173826.750,A,4308.3012,N,07726.2668,W,1.53,149.22,180823,,,A*7D
$GPGGA,173827.000,4308.3006,N,07726.2662,W,1,04,8.03,143.4,M,-34.4,M,,*5B
$GPRMC,173827.250,A,4308.3002,N,07726.2658,W,1.86,143.26,180823,,,A*7D
$GPGGA,173827.500,4308.2998,N,07726.2655,W,1,04,8.03,143.6,M,-34.4,M,,*57
$GPRMC,173827.750,A,4308.2995,N,07726.2652,W,2.09,148.36,180823,,,A*7A
$GPGGA,173828.000,4308.2992,N,07726.2649,W,1,04,8.02,143.9,M,-34.4,M,,*54
$GPRMC,173828.250,A,4308.2989,N,07726.2646,W,1.85,150.74,180823,,,A*70
$GPGGA,173828.500,4308.2985,N,07726.2642,W,1,04,8.01,144.1,M,-34.4,M,,*50
$GPRMC,173828.750,A,4308.2982,N,07726.2640,W,1.66,149.16,180823,,,A*79
$GPGGA,173829.000,4308.2980,N,07726.2637,W,1,04,8.02,144.3,M,-34.4,M,,*52
$GPRMC,173829.250,A,4308.2977,N,07726.2635,W,1.70,151.76,180823,,,A*7D
$GPGGA,173829.500,4308.2973,N,07726.2631,W,1,04,8.01,144.5,M,-34.4,M,,*58
$GPRMC,173829.750,A,4308.2969,N,07726.2628,W,2.02,149.64,180823,,,A*77
$GPGGA,173830.000,4308.2966,N,07726.2626,W,1,04,8.01,144.6,M,-34.4,M,,*54
$GPRMC,173830.250,A,4308.2963,N,07726.2623,W,2.11,149.82,180823,,,A*71
$GPGGA,173830.500,4308.2961,N,07726.2621,W,1,04,8.00,144.7,M,-34.4,M,,*51
$GPRMC,173830.750,A,4308.2958,N,07726.2618,W,1.97,148.94,180823,,,A*7F
$GPGGA,173831.000,4308.2953,N,07726.2613,W,1,04,7.99,144.9,M,-34.4,M,,*54
$GPRMC,173831.250,A,4308.2949,N,07726.2609,W,2.21,144.75,180823,,,A*76
$GPGGA,173831.500,4308.2946,N,07726.2607,W,1,04,7.99,145.1,M,-34.4,M,,*59
$GPRMC,173831.750,A,4308.2944,N,07726.2605,W,2.32,156.42,180823,,,A*77
$GPGGA,173832.000,4308.2941,N,07726.2602,W,1,04,7.98,145.3,M,-34.4,M,,*5E
$GPRMC,173832.250,A,4308.2992,N,07726.2651,W,0.62,145.79,180823,,,A*76
$GPGGA,173832.500,4308.3003,N,07726.2662,W,1,06,1.55,143.0,M,-34.4,M,,*53
$GPRMC,173832.750,A,4308.3008,N,07726.2667,W,0.12,95.19,180823,,,A*40
$GPGGA,173833.000,4308.3010,N,07726.2669,W,1,06,1.55,142.8,M,-34.4,M,,*57
$GPRMC,173833.250,A,4308.3010,N,07726.2670,W,0.45,143.09,180823,,,A*72
$GPGGA,173833.500,4308.3010,N,07726.2670,W,1,06,1.55,142.8,M,-34.4,M,,*5A
$GPRMC,173833.750,A,4308.3011,N,07726.2670,W,0.38,130.39,180823,,,A*7B
$GPGGA,173834.000,4308.3012,N,07726.2670,W,1,06,1.55,143.0,M,-34.4,M,,*53
$GPRMC,173834.250,A,4308.3013,N,07726.2670,W,0.24,100.88,180823,,,A*7F
$GPGGA,173834.500,4308.3013,N,07726.2671,W,1,06,1.55,143.2,M,-34.4,M,,*54
$GPRMC,173834.750,A,4308.3013,N,07726.2671,W,0.19,109.65,180823,,,A*7F
$GPGGA,173835.000,4308.3012,N,07726.2671,W,1,06,1.55,143.3,M,-34.4,M,,*50
$GPRMC,173835.250,A,4308.3012,N,07726.2671,W,0.28,141.41,180823,,,A*72
$GPGGA,173835.500,4308.3012,N,07726.2671,W,1,06,1.55,143.4,M,-34.4,M,,*52
$GPRMC,173835.750,A,4308.3013,N,07726.2671,W,0.30,130.40,180823,,,A*78
$GPGGA,173836.000,4308.3013,N,07726.2671,W,1,06,1.55,143.5,M,-34.4,M,,*54
$GPRMC,173836.250,A,4308.3013,N,07726.2672,W,0.29,140.01,180823,,,A*77
$GPGGA,173836.500,4308.3013,N,07726.2672,W,1,06,1.55,143.5,M,-34.4,M,,*52
$GPRMC,173836.750,A,4308.3013,N,07726.2673,W,0.29,146.23,180823,,,A*75
$GPGGA,173837.000,4308.3014,N,07726.2673,W,1,06,1.55,143.6,M,-34.4,M,,*53
$GPRMC,173837.250,A,4308.3015,N,07726.2674,W,0.24,145.01,180823,,,A*7E
$GPGGA,173837.500,4308.3015,N,07726.2675,W,1,06,1.55,143.7,M,-34.4,M,,*50
$GPRMC,173837.750,A,4308.3016,N,07726.2675,W,0.28,155.26,180823,,,A*71
$GPGGA,173838.000,4308.3017,N,07726.2676,W,1,06,1.55,143.8,M,-34.4,M,,*54
$GPRMC,173836.250,A,4308.3018,N,07726.2677,W,0.20,157.84,180823,,,A*7B
$GPGGA,173836.500,4308.3019,N,07726.2677,W,1,06,1.55,143.4,M,-34.4,M,,*5C
$GPRMC,173836.750,A,4308.3018,N,07726.2678,W,0.27,161.45,180823,,,A*7E
$GPGGA,173837.000,4308.3019,N,07726.2679,W,1,06,1.55,143.1,M,-34.4,M,,*53
$GPRMC,173837.250,A,4308.3021,N,07726.2680,W,0.21,154.28,180823,,,A*7C
$GPGGA,173837.500,4308.3022,N,07726.2680,W,1,06,1.55,142.9,M,-34.4,M,,*51
$GPRMC,173837.750,A,4308.3022,N,07726.2681,W,0.16,142.54,180823,,,A*73
$GPGGA,173838.000,4308.3023,N,07726.2682,W,1,06,1.55,142.8,M,-34.4,M,,*59
$GPRMC,173838.250,A,4308.3024,N,07726.2682,W,0.15,170.51,180823,,,A*7B
$GPGGA,173838.500,4308.3024,N,07726.2682,W,1,06,1.55,142.7,M,-34.4,M,,*54
$GPRMC,173838.750,A,4308.3024,N,07726.2682,W,0.20,182.61,180823,,,A*76
$GPGGA,173839.000,4308.3024,N,07726.2682,W,1,06,1.55,142.8,M,-34.4,M,,*5F
$GPRMC,173839.250,A,4308.3024,N,07726.2682,W,0.19,175.35,180823,,,A*71
$GPGGA,173839.500,4308.3025,N,07726.2682,W,1,06,1.55,142.9,M,-34.4,M,,*5A
$GPRMC,173839.750,A,4308.3025,N,07726.2683,W,0.13,202.16,180823,,,A*7C
$GPGGA,173840.000,4308.3026,N,07726.2682,W,1,06,1.55,143.0,M,-34.4,M,,*5A
$GPRMC,173840.250,A,4308.3025,N,07726.2682,W,0.11,181.65,180823,,,A*78
$GPGGA,173840.500,4308.3026,N,07726.2681,W,1,06,1.55,143.1,M,-34.4,M,,*5D
$GPRMC,173840.750,A,4308.3027,N,07726.2681,W,0.13,67.10,180823,,,A*45
$GPGGA,173841.000,4308.3028,N,07726.2680,W,1,06,1.55,143.2,M,-34.4,M,,*55
$GPRMC,173841.250,A,4308.3028,N,07726.2679,W,0.36,44.16,180823,,,A*49
$GPGGA,173841.500,4308.3029,N,07726.2678,W,1,06,1.55,143.3,M,-34.4,M,,*57
$GPRMC,173841.750,A,4308.3030,N,07726.2677,W,0.68,37.76,180823,,,A*42
$GPGGA,173842.000,4308.3032,N,07726.2676,W,1,06,1.55,143.4,M,-34.4,M,,*52
$GPRMC,173842.250,A,4308.3033,N,07726.2675,W,1.01,33.90,180823,,,A*47
$GPGGA,173842.500,4308.3035,N,07726.2674,W,1,06,1.55,143.6,M,-34.4,M,,*50
$GPRMC,173842.750,A,4308.3038,N,07726.2674,W,1.55,23.33,180823,,,A*41
$GPGGA,173843.000,4308.3042,N,07726.2673,W,1,06,1.55,143.7,M,-34.4,M,,*52
$GPRMC,173843.250,A,4308.3045,N,07726.2672,W,2.87,16.68,180823,,,A*4D
$GPGGA,173843.500,4308.3048,N,07726.2671,W,1,06,1.55,144.0,M,-34.4,M,,*5F
$GPRMC,173843.750,A,4308.3052,N,07726.2670,W,4.09,8.55,180823,,,A*7D
$GPGGA,173844.000,4308.3056,N,07726.2669,W,1,06,1.77,144.4,M,-34.4,M,,*5F
$GPRMC,173844.250,A,4308.3060,N,07726.2668,W,4.52,7.79,180823,,,A*78
$GPGGA,173844.500,4308.3064,N,07726.2666,W,1,06,1.77,144.8,M,-34.4,M,,*58
$GPRMC,173844.750,A,4308.3068,N,07726.2666,W,4.47,2.25,180823,,,A*73
$GPGGA,173845.000,4308.3071,N,07726.2665,W,1,06,1.77,145.2,M,-34.4,M,,*50
$GPRMC,173845.250,A,4308.3074,N,07726.2664,W,3.68,3.26,180823,,,A*70
$GPGGA,173845.500,4308.3077,N,07726.2663,W,1,06,1.77,145.5,M,-34.4,M,,*52
$GPRMC,173845.750,A,4308.3080,N,07726.2662,W,2.85,355.70,180823,,,A*79
$GPGGA,173846.000,4308.3082,N,07726.2662,W,1,06,1.77,145.9,M,-34.4,M,,*53
$GPRMC,173846.250,A,4308.3083,N,07726.2662,W,2.04,356.86,180823,,,A*7F
$GPGGA,173846.500,4308.3084,N,07726.2661,W,1,06,1.77,146.2,M,-34.4,M,,*5B
$GPRMC,173846.750,A,4308.3086,N,07726.2661,W,1.12,351.47,180823,,,A*72
$GPGGA,173847.000,4308.3086,N,07726.2660,W,1,06,1.77,146.5,M,-34.4,M,,*5B
$GPRMC,173847.250,A,4308.3087,N,07726.2660,W,0.92,347.67,180823,,,A*7A
$GPGGA,173847.500,4308.3088,N,07726.2659,W,1,06,1.77,146.9,M,-34.4,M,,*56
$GPRMC,173847.750,A,4308.3088,N,07726.2658,W,0.52,345.19,180823,,,A*7C
$GPGGA,173848.000,4308.3089,N,07726.2658,W,1,06,1.77,147.3,M,-34.4,M,,*57
$GPRMC,173848.250,A,4308.3090,N,07726.2658,W,0.41,339.15,180823,,,A*7A
$GPGGA,173848.500,4308.3091,N,07726.2657,W,1,06,1.55,147.5,M,-34.4,M,,*52
$GPRMC,173848.750,A,4308.3092,N,07726.2657,W,0.43,353.69,180823,,,A*77
$GPGGA,173849.000,4308.3093,N,07726.2656,W,1,06,1.77,147.6,M,-34.4,M,,*56
$GPRMC,173849.250,A,4308.3093,N,07726.2656,W,0.49,1.98,180823,,,A*73
$GPGGA,173849.500,4308.3096,N,07726.2655,W,1,06,1.77,147.9,M,-34.4,M,,*5A
$GPRMC,173849.750,A,4308.3098,N,07726.2655,W,0.90,5.11,180823,,,A*7F
$GPGGA,173850.000,4308.3099,N,07726.2655,W,1,06,1.77,148.0,M,-34.4,M,,*5E
$GPRMC,173850.250,A,4308.3100,N,07726.2655,W,1.14,4.78,180823,,,A*71
$GPGGA,173850.500,4308.3100,N,07726.2655,W,1,06,1.77,148.0,M,-34.4,M,,*5A
$GPRMC,173850.750,A,4308.3101,N,07726.2654,W,1.39,0.07,180823,,,A*77
$GPGGA,173851.000,4308.3102,N,07726.2654,W,1,06,1.77,148.0,M,-34.4,M,,*5D
$GPRMC,173851.250,A,4308.3103,N,07726.2655,W,1.93,1.49,180823,,,A*7B
$GPGGA,173851.500,4308.3105,N,07726.2654,W,1,06,1.77,148.0,M,-34.4,M,,*5F
$GPRMC,173851.750,A,4308.3108,N,07726.2654,W,2.96,3.85,180823,,,A*70
$GPGGA,173852.000,4308.3111,N,07726.2653,W,1,06,1.77,148.3,M,-34.4,M,,*58
$GPRMC,173852.250,A,4308.3114,N,07726.2651,W,3.62,14.63,180823,,,A*4A
$GPGGA,173852.500,4308.3117,N,07726.2649,W,1,06,1.77,148.5,M,-34.4,M,,*56
$GPRMC,173852.750,A,4308.3121,N,07726.2648,W,3.76,19.29,180823,,,A*47
$GPGGA,173853.000,4308.3125,N,07726.2645,W,1,06,1.55,148.9,M,-34.4,M,,*53
$GPRMC,173853.250,A,4308.3129,N,07726.2643,W,4.61,23.63,180823,,,A*46
$GPGGA,173853.500,4308.3132,N,07726.2641,W,1,06,1.77,149.1,M,-34.4,M,,*5D
$GPRMC,173853.750,A,4308.3134,N,07726.2638,W,4.24,28.17,180823,,,A*4A
$GPGGA,173854.000,4308.3138,N,07726.2635,W,1,06,1.77,149.4,M,-34.4,M,,*53
$GPRMC,173854.250,A,4308.3140,N,07726.2632,W,3.66,35.72,180823,,,A*4F
$GPGGA,173854.500,4308.3143,N,07726.2629,W,1,07,1.34,149.8,M,-34.4,M,,*5D
$GPRMC,173854.750,A,4308.3145,N,07726.2626,W,3.00,47.09,180823,,,A*43
$GPGGA,173855.000,4308.3147,N,07726.2624,W,1,07,1.34,150.0,M,-34.4,M,,*50
$GPRMC,173855.250,A,4308.3149,N,07726.2621,W,3.09,49.86,180823,,,A*4C
$GPGGA,173855.500,4308.3150,N,07726.2619,W,1,07,1.34,150.1,M,-34.4,M,,*5C
$GPRMC,173855.750,A,4308.3151,N,07726.2616,W,2.37,65.41,180823,,,A*4D
$GPGGA,173856.000,4308.3152,N,07726.2614,W,1,07,1.34,150.4,M,-34.4,M,,*50
$GPRMC,173856.250,A,4308.3153,N,07726.2612,W,2.06,70.64,180823,,,A*4C
$GPGGA,173856.500,4308.3154,N,07726.2611,W,1,07,1.34,150.6,M,-34.4,M,,*54
$GPRMC,173856.750,A,4308.3154,N,07726.2611,W,0.78,99.02,180823,,,A*41
$GPGGA,173857.000,4308.3153,N,07726.2611,W,1,07,1.34,150.8,M,-34.4,M,,*59
$GPRMC,173857.250,A,4308.3153,N,07726.2611,W,0.61,157.23,180823,,,A*7A
$GPGGA,173857.500,4308.3152,N,07726.2612,W,1,07,1.34,150.9,M,-34.4,M,,*5F
$GPRMC,173857.750,A,4308.3152,N,07726.2614,W,0.78,212.25,180823,,,A*77
$GPGGA,173858.000,4308.3151,N,07726.2618,W,1,07,1.34,151.1,M,-34.4,M,,*55
$GPRMC,173858.250,A,4308.3151,N,07726.2622,W,1.63,240.44,180823,,,A*70
$GPGGA,173858.500,4308.3150,N,07726.2629,W,1,07,1.34,151.3,M,-34.4,M,,*51
$GPRMC,173858.750,A,4308.3148,N,07726.2637,W,5.02,246.22,180823,,,A*7C
$GPGGA,173859.000,4308.3146,N,07726.2644,W,1,07,1.37,151.5,M,-34.4,M,,*5C
$GPRMC,173859.250,A,4308.3144,N,07726.2650,W,6.78,247.42,180823,,,A*7C
$GPGGA,173859.500,4308.3144,N,07726.2659,W,1,07,1.37,151.7,M,-34.4,M,,*55
$GPRMC,173859.750,A,4308.3145,N,07726.2669,W,8.47,262.53,180823,,,A*77
$GPGGA,173900.000,4308.3146,N,07726.2678,W,1,07,1.37,151.9,M,-34.4,M,,*52
$GPRMC,173900.250,A,4308.3146,N,07726.2687,W,9.38,265.47,180823,,,A*77
$GPGGA,173900.500,4308.3146,N,07726.2697,W,1,07,1.37,152.0,M,-34.4,M,,*5C
$GPRMC,173900.750,A,4308.3147,N,07726.2707,W,9.88,270.69,180823,,,A*79
$GPGGA,173901.000,4308.3149,N,07726.2718,W,1,07,1.37,152.2,M,-34.4,M,,*53
$GPRMC,173901.250,A,4308.3150,N,07726.2727,W,10.33,277.58,180823,,,A*44
$GPGGA,173901.500,4308.3152,N,07726.2738,W,1,07,1.37,152.3,M,-34.4,M,,*5F
$GPRMC,173901.750,A,4308.3155,N,07726.2752,W,11.10,284.43,180823,,,A*40
$GPGGA,173902.000,4308.3164,N,07726.2774,W,1,07,1.37,152.3,M,-34.4,M,,*54
$GPRMC,173902.250,A,4308.3169,N,07726.2790,W,14.79,291.65,180823,,,A*4D
$GPGGA,173902.500,4308.3174,N,07726.2805,W,1,07,1.37,152.4,M,-34.4,M,,*5E
$GPRMC,173902.750,A,4308.3179,N,07726.2820,W,15.96,293.98,180823,,,A*4D
$GPGGA,173903.000,4308.3185,N,07726.2835,W,1,07,1.37,152.4,M,-34.4,M,,*57
$GPRMC,173903.250,A,4308.3190,N,07726.2850,W,16.78,294.70,180823,,,A*4B
$GPGGA,173903.500,4308.3196,N,07726.2865,W,1,07,1.37,152.5,M,-34.4,M,,*54
$GPRMC,173903.750,A,4308.3202,N,07726.2881,W,17.76,295.63,180823,,,A*46
$GPGGA,173904.000,4308.3208,N,07726.2897,W,1,07,1.37,152.5,M,-34.4,M,,*5F
$GPRMC,173904.250,A,4308.3214,N,07726.2913,W,18.47,296.50,180823,,,A*47
$GPGGA,173904.500,4308.3221,N,07726.2928,W,1,07,1.37,152.6,M,-34.4,M,,*57
$GPRMC,173904.750,A,4308.3228,N,07726.2944,W,19.00,298.02,180823,,,A*44
$GPGGA,173905.000,4308.3235,N,07726.2960,W,1,07,1.37,152.6,M,-34.4,M,,*5A
$GPRMC,173905.250,A,4308.3242,N,07726.2976,W,19.60,298.50,180823,,,A*4C
$GPGGA,173905.500,4308.3249,N,07726.2993,W,1,07,1.37,152.7,M,-34.4,M,,*59
$GPRMC,173905.750,A,4308.3256,N,07726.3010,W,20.24,299.87,180823,,,A*45
$GPGGA,173906.000,4308.3264,N,07726.3027,W,1,07,1.37,152.8,M,-34.4,M,,*58
$GPRMC,173906.250,A,4308.3271,N,07726.3044,W,20.70,300.88,180823,,,A*48
$GPGGA,173906.500,4308.3279,N,07726.3062,W,1,07,1.37,152.8,M,-34.4,M,,*50
$GPRMC,173906.750,A,4308.3286,N,07726.3079,W,21.21,301.43,180823,,,A*48
$GPGGA,173907.000,4308.3294,N,07726.3098,W,1,07,1.37,152.8,M,-34.4,M,,*52
$GPRMC,173907.250,A,4308.3302,N,07726.3116,W,22.00,301.82,180823,,,A*44
$GPGGA,173907.500,4308.3311,N,07726.3135,W,1,07,1.37,152.9,M,-34.4,M,,*5C
$GPRMC,173907.750,A,4308.3319,N,07726.3154,W,22.69,302.21,180823,,,A*48
$GPGGA,173908.000,4308.3327,N,07726.3172,W,1,07,1.37,152.9,M,-34.4,M,,*50
$GPRMC,173908.250,A,4308.3336,N,07726.3191,W,22.83,302.07,180823,,,A*46
$GPGGA,173908.500,4308.3344,N,07726.3211,W,1,07,1.37,152.9,M,-34.4,M,,*56
$GPRMC,173908.750,A,4308.3353,N,07726.3230,W,23.14,302.08,180823,,,A*48
$GPGGA,173909.000,4308.3362,N,07726.3249,W,1,07,1.37,152.9,M,-34.4,M,,*5B
$GPRMC,173909.250,A,4308.3370,N,07726.3268,W,23.10,302.35,180823,,,A*4A
$GPGGA,173909.500,4308.3379,N,07726.3286,W,1,07,1.37,152.9,M,-34.4,M,,*57
$GPRMC,173909.750,A,4308.3387,N,07726.3305,W,22.88,302.69,180823,,,A*44
$GPGGA,173910.000,4308.3395,N,07726.3324,W,1,07,1.37,153.0,M,-34.4,M,,*59
$GPRMC,173910.250,A,4308.3404,N,07726.3342,W,22.68,302.49,180823,,,A*4A
$GPGGA,173910.500,4308.3412,N,07726.3361,W,1,07,1.37,153.1,M,-34.4,M,,*54
$GPRMC,173910.750,A,4308.3421,N,07726.3379,W,22.58,303.21,180823,,,A*4C
$GPGGA,173911.000,4308.3429,N,07726.3397,W,1,07,1.37,153.3,M,-34.4,M,,*53
$GPRMC,173911.250,A,4308.3438,N,07726.3415,W,22.52,303.51,180823,,,A*40
$GPGGA,173911.500,4308.3446,N,07726.3432,W,1,06,1.41,153.4,M,-34.4,M,,*50
$GPRMC,173911.750,A,4308.3454,N,07726.3450,W,22.16,303.49,180823,,,A*47
$GPGGA,173912.000,4308.3462,N,07726.3468,W,1,07,1.37,153.5,M,-34.4,M,,*5E
$GPRMC,173912.250,A,4308.3470,N,07726.3485,W,21.88,303.77,180823,,,A*46
$GPGGA,173912.500,4308.3478,N,07726.3502,W,1,07,1.37,153.7,M,-34.4,M,,*5F
$GPRMC,173912.750,A,4308.3486,N,07726.3517,W,21.24,305.12,180823,,,A*43
$GPGGA,173913.000,4308.3495,N,07726.3534,W,1,07,1.37,153.9,M,-34.4,M,,*53
$GPRMC,173913.250,A,4308.3504,N,07726.3551,W,21.35,306.92,180823,,,A*45
$GPGGA,173913.500,4308.3513,N,07726.3567,W,1,07,1.37,154.0,M,-34.4,M,,*51
$GPRMC,173913.750,A,4308.3524,N,07726.3582,W,20.73,310.27,180823,,,A*46
$GPGGA,173914.000,4308.3534,N,07726.3598,W,1,07,1.37,154.2,M,-34.4,M,,*54
$GPRMC,173914.250,A,4308.3545,N,07726.3613,W,20.76,313.24,180823,,,A*4D
$GPGGA,173914.500,4308.3558,N,07726.3626,W,1,07,1.37,154.3,M,-34.4,M,,*5C
$GPRMC,173914.750,A,4308.3569,N,07726.3639,W,20.92,318.83,180823,,,A*42
$GPGGA,173915.000,4308.3581,N,07726.3652,W,1,07,1.37,154.4,M,-34.4,M,,*58
$GPRMC,173915.250,A,4308.3593,N,07726.3665,W,20.89,321.43,180823,,,A*46
$GPGGA,173915.500,4308.3605,N,07726.3676,W,1,07,1.37,154.5,M,-34.4,M,,*55
$GPRMC,173915.750,A,4308.3618,N,07726.3687,W,20.85,325.72,180823,,,A*45
$GPGGA,173916.000,4308.3631,N,07726.3698,W,1,07,1.37,154.6,M,-34.4,M,,*57
$GPRMC,173916.250,A,4308.3644,N,07726.3708,W,21.06,328.98,180823,,,A*4F
$GPGGA,173916.500,4308.3657,N,07726.3718,W,1,07,1.37,154.7,M,-34.4,M,,*5A
$GPRMC,173916.750,A,4308.3670,N,07726.3727,W,20.82,331.43,180823,,,A*43
$GPGGA,173917.000,4308.3682,N,07726.3735,W,1,07,1.37,154.7,M,-34.4,M,,*59
$GPRMC,173917.250,A,4308.3696,N,07726.3743,W,20.77,334.28,180823,,,A*4F
$GPGGA,173917.500,4308.3710,N,07726.3749,W,1,07,1.37,154.8,M,-34.4,M,,*52
$GPRMC,173917.750,A,4308.3724,N,07726.3755,W,20.98,339.30,180823,,,A*40
$GPGGA,173918.000,4308.3739,N,07726.3761,W,1,07,1.37,154.8,M,-34.4,M,,*59
$GPRMC,173918.250,A,4308.3753,N,07726.3766,W,21.13,342.59,180823,,,A*4B
$GPGGA,173918.500,4308.3767,N,07726.3770,W,1,07,1.37,154.9,M,-34.4,M,,*56
$GPRMC,173918.750,A,4308.3781,N,07726.3774,W,20.88,346.17,180823,,,A*4F
$GPGGA,173919.000,4308.3794,N,07726.3777,W,1,07,1.37,154.9,M,-34.4,M,,*59
$GPRMC,173919.250,A,4308.3808,N,07726.3780,W,20.23,349.06,180823,,,A*40
$GPGGA,173919.500,4308.3823,N,07726.3781,W,1,07,1.37,154.9,M,-34.4,M,,*56
$GPRMC,173919.750,A,4308.3837,N,07726.3782,W,20.24,353.93,180823,,,A*4B
$GPGGA,173920.000,4308.3852,N,07726.3783,W,1,07,1.37,154.9,M,-34.4,M,,*5D
$GPRMC,173920.250,A,4308.3868,N,07726.3784,W,20.78,355.66,180823,,,A*4D
$GPGGA,173920.500,4308.3884,N,07726.3784,W,1,07,1.37,154.9,M,-34.4,M,,*54
$GPRMC,173920.750,A,4308.3899,N,07726.3783,W,21.32,358.92,180823,,,A*48
$GPGGA,173921.000,4308.3915,N,07726.3783,W,1,07,1.37,154.8,M,-34.4,M,,*5F
$GPRMC,173921.250,A,4308.3931,N,07726.3782,W,21.42,1.09,180823,,,A*44
$GPGGA,173921.500,4308.3947,N,07726.3781,W,1,07,1.37,154.8,M,-34.4,M,,*5F
$GPRMC,173921.750,A,4308.3962,N,07726.3779,W,21.66,3.40,180823,,,A*4A
$GPGGA,173922.000,4308.3978,N,07726.3778,W,1,07,1.37,154.8,M,-34.4,M,,*53
$GPRMC,173922.250,A,4308.3993,N,07726.3777,W,21.63,5.00,180823,,,A*4B
$GPGGA,173922.500,4308.4008,N,07726.3775,W,1,07,1.37,154.7,M,-34.4,M,,*5D
$GPRMC,173922.750,A,4308.4023,N,07726.3772,W,21.38,6.42,180823,,,A*45
$GPGGA,173923.000,4308.4038,N,07726.3770,W,1,07,1.37,154.7,M,-34.4,M,,*5F
$GPRMC,173923.250,A,4308.4053,N,07726.3766,W,21.14,8.50,180823,,,A*40
$GPGGA,173923.500,4308.4068,N,07726.3762,W,1,07,1.37,154.6,M,-34.4,M,,*5D
$GPRMC,173923.750,A,4308.4083,N,07726.3758,W,21.17,10.68,180823,,,A*74
$GPGGA,173924.000,4308.4098,N,07726.3753,W,1,07,1.37,154.6,M,-34.4,M,,*52
$GPRMC,173924.250,A,4308.4113,N,07726.3748,W,21.42,12.00,180823,,,A*73
$GPGGA,173924.500,4308.4129,N,07726.3743,W,1,07,1.37,154.7,M,-34.4,M,,*5C
$GPRMC,173924.750,A,4308.4145,N,07726.3738,W,21.60,13.47,180823,,,A*70
$GPGGA,173925.000,4308.4160,N,07726.3733,W,1,07,1.37,154.7,M,-34.4,M,,*52
$GPRMC,173925.250,A,4308.4176,N,07726.3727,W,21.57,14.11,180823,,,A*7A
$GPGGA,173925.500,4308.4191,N,07726.3721,W,1,07,1.37,154.6,M,-34.4,M,,*5B
$GPRMC,173925.750,A,4308.4206,N,07726.3716,W,21.53,14.41,180823,,,A*78
$GPGGA,173926.000,4308.4222,N,07726.3710,W,1,07,1.37,154.6,M,-34.4,M,,*54
$GPRMC,173926.250,A,4308.4237,N,07726.3705,W,21.14,14.17,180823,,,A*7E
$GPGGA,173926.500,4308.4251,N,07726.3700,W,1,07,1.37,154.6,M,-34.4,M,,*54
$GPRMC,173926.750,A,4308.4265,N,07726.3696,W,20.74,13.72,180823,,,A*74
$GPGGA,173927.000,4308.4279,N,07726.3691,W,1,07,1.37,154.5,M,-34.4,M,,*50
$GPRMC,173927.250,A,4308.4293,N,07726.3687,W,20.37,12.57,180823,,,A*78
$GPGGA,173927.500,4308.4307,N,07726.3683,W,1,07,1.37,154.5,M,-34.4,M,,*5E
$GPRMC,173927.750,A,4308.4320,N,07726.3680,W,19.99,11.67,180823,,,A*7D
$GPGGA,173928.000,4308.4334,N,07726.3676,W,1,07,1.37,154.6,M,-34.4,M,,*5D
$GPRMC,173928.250,A,4308.4347,N,07726.3673,W,19.79,10.86,180823,,,A*7A
$GPGGA,173928.500,4308.4360,N,07726.3670,W,1,07,1.37,154.7,M,-34.4,M,,*5E
$GPRMC,173928.750,A,4308.4373,N,07726.3667,W,19.07,10.65,180823,,,A*79
$GPGGA,173929.000,4308.4385,N,07726.3664,W,1,07,1.37,154.8,M,-34.4,M,,*5B
$GPRMC,173929.250,A,4308.4397,N,07726.3661,W,18.47,10.21,180823,,,A*74
$GPGGA,173929.500,4308.4409,N,07726.3659,W,1,07,1.37,154.9,M,-34.4,M,,*52
$GPRMC,173929.750,A,4308.4421,N,07726.3656,W,17.85,9.88,180823,,,A*45
$GPGGA,173930.000,4308.4433,N,07726.3654,W,1,07,1.37,155.0,M,-34.4,M,,*53
$GPRMC,173930.250,A,4308.4444,N,07726.3652,W,17.29,9.65,180823,,,A*4A
$GPGGA,173930.500,4308.4456,N,07726.3650,W,1,07,1.37,155.0,M,-34.4,M,,*51
$GPRMC,173930.750,A,4308.4466,N,07726.3649,W,16.24,10.23,180823,,,A*73
$GPGGA,173931.000,4308.4476,N,07726.3648,W,1,07,1.37,155.0,M,-34.4,M,,*5E
$GPRMC,173931.250,A,4308.4486,N,07726.3646,W,15.08,10.89,180823,,,A*7B
$GPGGA,173931.500,4308.4494,N,07726.3644,W,1,07,1.37,155.1,M,-34.4,M,,*5A
$GPRMC,173931.750,A,4308.4503,N,07726.3642,W,13.42,12.95,180823,,,A*71
$GPGGA,173932.000,4308.4510,N,07726.3640,W,1,07,1.37,155.2,M,-34.4,M,,*56
$GPRMC,173932.250,A,4308.4517,N,07726.3637,W,12.08,14.72,180823,,,A*70
$GPGGA,173932.500,4308.4523,N,07726.3636,W,1,07,1.37,155.2,M,-34.4,M,,*52
$GPRMC,173932.750,A,4308.4529,N,07726.3635,W,9.83,15.54,180823,,,A*46
$GPGGA,173933.000,4308.4534,N,07726.3633,W,1,07,1.37,155.2,M,-34.4,M,,*55
$GPRMC,173933.250,A,4308.4539,N,07726.3632,W,8.29,14.71,180823,,,A*43
$GPGGA,173933.500,4308.4544,N,07726.3631,W,1,07,1.37,155.0,M,-34.4,M,,*57
$GPRMC,173933.750,A,4308.4548,N,07726.3631,W,6.83,11.57,180823,,,A*4C
$GPGGA,173934.000,4308.4553,N,07726.3630,W,1,07,1.37,154.9,M,-34.4,M,,*5A
$GPRMC,173934.250,A,4308.4558,N,07726.3629,W,6.65,3.64,180823,,,A*7D
$GPGGA,173934.500,4308.4564,N,07726.3629,W,1,07,1.37,154.7,M,-34.4,M,,*5D
$GPRMC,173934.750,A,4308.4571,N,07726.3630,W,7.89,354.05,180823,,,A*7E
$GPGGA,173935.000,4308.4578,N,07726.3631,W,1,07,1.37,154.7,M,-34.4,M,,*5D
$GPRMC,173935.250,A,4308.4586,N,07726.3634,W,9.41,342.47,180823,,,A*7D
$GPGGA,173935.500,4308.4593,N,07726.3639,W,1,07,1.37,154.9,M,-34.4,M,,*5B
$GPRMC,173935.750,A,4308.4600,N,07726.3644,W,10.70,329.57,180823,,,A*44
$GPGGA,173936.000,4308.4607,N,07726.3653,W,1,07,1.37,154.8,M,-34.4,M,,*5E
$GPRMC,173936.250,A,4308.4613,N,07726.3661,W,12.19,316.43,180823,,,A*43
$GPGGA,173936.500,4308.4619,N,07726.3672,W,1,07,1.37,154.5,M,-34.4,M,,*5A
$GPRMC,173936.750,A,4308.4624,N,07726.3683,W,13.36,304.31,180823,,,A*44
$GPGGA,173937.000,4308.4628,N,07726.3696,W,1,07,1.37,154.0,M,-34.4,M,,*53
$GPRMC,173937.250,A,4308.4632,N,07726.3709,W,14.49,294.39,180823,,,A*4B
$GPGGA,173937.500,4308.4635,N,07726.3725,W,1,07,1.37,154.0,M,-34.4,M,,*53
$GPRMC,173937.750,A,4308.4638,N,07726.3743,W,16.94,286.39,180823,,,A*4B
$GPGGA,173938.000,4308.4640,N,07726.3760,W,1,07,1.37,153.5,M,-34.4,M,,*58
$GPRMC,173938.250,A,4308.4643,N,07726.3781,W,19.05,279.10,180823,,,A*4F
$GPGGA,173938.500,4308.4645,N,07726.3802,W,1,07,1.37,153.0,M,-34.4,M,,*56
$GPRMC,173938.750,A,4308.4648,N,07726.3824,W,21.22,274.12,180823,,,A*40
$GPGGA,173939.000,4308.4649,N,07726.3847,W,1,07,1.37,152.7,M,-34.4,M,,*59
$GPRMC,173939.250,A,4308.4650,N,07726.3871,W,23.53,272.59,180823,,,A*40
$GPGGA,173939.500,4308.4651,N,07726.3896,W,1,07,1.37,152.6,M,-34.4,M,,*58
$GPRMC,173939.750,A,4308.4652,N,07726.3922,W,25.80,271.99,180823,,,A*47
$GPGGA,173940.000,4308.4653,N,07726.3948,W,1,07,1.37,152.5,M,-34.4,M,,*50
$GPRMC,173940.250,A,4308.4653,N,07726.3976,W,27.88,272.38,180823,,,A*4E
$GPGGA,173940.500,4308.4654,N,07726.4005,W,1,07,1.37,152.3,M,-34.4,M,,*53
$GPRMC,173940.750,A,4308.4656,N,07726.4033,W,29.74,274.47,180823,,,A*42
$GPGGA,173941.000,4308.4658,N,07726.4063,W,1,07,1.37,152.1,M,-34.4,M,,*59
$GPRMC,173941.250,A,4308.4660,N,07726.4092,W,30.36,275.97,180823,,,A*4A
$GPGGA,173941.500,4308.4663,N,07726.4121,W,1,07,1.37,151.6,M,-34.4,M,,*57
$GPRMC,173941.750,A,4308.4666,N,07726.4149,W,30.62,278.41,180823,,,A*49
$GPGGA,173942.000,4308.4669,N,07726.4179,W,1,07,1.37,151.2,M,-34.4,M,,*52
$GPRMC,173942.250,A,4308.4672,N,07726.4208,W,30.86,278.10,180823,,,A*42
$GPGGA,173942.500,4308.4675,N,07726.4238,W,1,07,1.37,151.0,M,-34.4,M,,*5E
$GPRMC,173942.750,A,4308.4679,N,07726.4268,W,31.17,278.41,180823,,,A*47
$GPGGA,173943.000,4308.4682,N,07726.4297,W,1,07,1.37,150.9,M,-34.4,M,,*5F
$GPRMC,173943.250,A,4308.4685,N,07726.4327,W,31.10,278.49,180823,,,A*45
$GPGGA,173943.500,4308.4688,N,07726.4357,W,1,07,1.37,150.9,M,-34.4,M,,*5D
$GPRMC,173943.750,A,4308.4692,N,07726.4386,W,31.04,278.37,180823,,,A*41
$GPGGA,173944.000,4308.4696,N,07726.4415,W,1,07,1.37,150.4,M,-34.4,M,,*5C
$GPRMC,173944.250,A,4308.4699,N,07726.4444,W,30.64,278.74,180823,,,A*41
$GPGGA,173944.500,4308.4702,N,07726.4472,W,1,07,1.37,151.1,M,-34.4,M,,*50
$GPRMC,173944.750,A,4308.4705,N,07726.4500,W,30.03,277.69,180823,,,A*43
$GPGGA,173945.000,4308.4708,N,07726.4528,W,1,07,1.37,151.4,M,-34.4,M,,*55
$GPRMC,173945.250,A,4308.4712,N,07726.4556,W,29.61,278.82,180823,,,A*44
$GPGGA,173945.500,4308.4715,N,07726.4584,W,1,07,1.37,151.5,M,-34.4,M,,*5B
$GPRMC,173945.750,A,4308.4717,N,07726.4611,W,29.45,275.25,180823,,,A*42
$GPGGA,173946.000,4308.4719,N,07726.4639,W,1,07,1.37,151.6,M,-34.4,M,,*57
$GPRMC,173946.250,A,4308.4721,N,07726.4667,W,29.34,275.90,180823,,,A*48
$GPGGA,173946.500,4308.4724,N,07726.4694,W,1,07,1.37,151.8,M,-34.4,M,,*55
$GPRMC,173946.750,A,4308.4726,N,07726.4722,W,29.32,277.17,180823,,,A*41
$GPGGA,173947.000,4308.4729,N,07726.4750,W,1,07,1.37,152.0,M,-34.4,M,,*5E
$GPRMC,173947.250,A,4308.4732,N,07726.4777,W,29.31,277.39,180823,,,A*4F
$GPGGA,173947.500,4308.4735,N,07726.4805,W,1,07,1.37,152.3,M,-34.4,M,,*5A
$GPRMC,173947.750,A,4308.4738,N,07726.4834,W,29.55,277.92,180823,,,A*4B
$GPGGA,173948.000,4308.4741,N,07726.4862,W,1,07,1.37,152.7,M,-34.4,M,,*56
$GPRMC,173948.250,A,4308.4743,N,07726.4890,W,30.11,278.11,180823,,,A*4F
$GPGGA,173948.500,4308.4746,N,07726.4919,W,1,07,1.37,153.0,M,-34.4,M,,*5F
$GPRMC,173948.750,A,4308.4748,N,07726.4947,W,30.12,276.50,180823,,,A*42
$GPGGA,173949.000,4308.4750,N,07726.4975,W,1,07,1.37,153.4,M,-34.4,M,,*52
$GPRMC,173949.250,A,4308.4752,N,07726.5003,W,30.04,275.84,180823,,,A*48
$GPGGA,173949.500,4308.4754,N,07726.5031,W,1,07,1.37,153.8,M,-34.4,M,,*57
$GPRMC,173949.750,A,4308.4756,N,07726.5059,W,29.52,275.56,180823,,,A*42
$GPGGA,173950.000,4308.4758,N,07726.5087,W,1,07,1.37,154.1,M,-34.4,M,,*55
$GPRMC,173950.250,A,4308.4759,N,07726.5115,W,29.53,274.61,180823,,,A*4D
$GPGGA,173950.500,4308.4761,N,07726.5143,W,1,07,1.37,154.4,M,-34.4,M,,*56
$GPRMC,173950.750,A,4308.4762,N,07726.5171,W,29.53,273.84,180823,,,A*4E
$GPGGA,173951.000,4308.4764,N,07726.5199,W,1,07,1.37,154.6,M,-34.4,M,,*52
$GPRMC,173951.250,A,4308.4765,N,07726.5228,W,29.47,273.64,180823,,,A*49
$GPGGA,173951.500,4308.4766,N,07726.5256,W,1,07,1.37,154.8,M,-34.4,M,,*5B
$GPRMC,173951.750,A,4308.4767,N,07726.5284,W,29.44,273.50,180823,,,A*4C
$GPGGA,173952.000,4308.4768,N,07726.5312,W,1,07,1.37,155.0,M,-34.4,M,,*5B
$GPRMC,173952.250,A,4308.4770,N,07726.5340,W,29.45,273.73,180823,,,A*45
$GPGGA,173952.500,4308.4771,N,07726.5368,W,1,07,1.37,155.1,M,-34.4,M,,*5A
$GPRMC,173952.750,A,4308.4772,N,07726.5395,W,29.20,273.74,180823,,,A*4E
$GPGGA,173953.000,4308.4773,N,07726.5423,W,1,07,1.37,155.3,M,-34.4,M,,*56
$GPRMC,173953.250,A,4308.4774,N,07726.5451,W,29.23,273.85,180823,,,A*4E
$GPGGA,173953.500,4308.4776,N,07726.5479,W,1,07,1.37,155.5,M,-34.4,M,,*5F
$GPRMC,173953.750,A,4308.4778,N,07726.5506,W,29.23,274.65,180823,,,A*4D
$GPGGA,173954.000,4308.4779,N,07726.5534,W,1,07,1.37,155.7,M,-34.4,M,,*58
$GPRMC,173954.250,A,4308.4780,N,07726.5562,W,29.28,273.90,180823,,,A*4C
$GPGGA,173954.500,4308.4782,N,07726.5590,W,1,07,1.37,155.9,M,-34.4,M,,*59
$GPRMC,173954.750,A,4308.4783,N,07726.5617,W,29.24,273.49,180823,,,A*43
$GPGGA,173955.000,4308.4784,N,07726.5645,W,1,07,1.37,156.0,M,-34.4,M,,*5A
$GPRMC,173955.250,A,4308.4785,N,07726.5672,W,28.97,273.09,180823,,,A*4F
$GPGGA,173955.500,4308.4786,N,07726.5700,W,1,07,1.37,156.2,M,-34.4,M,,*5F
$GPRMC,173955.750,A,4308.4787,N,07726.5727,W,28.46,272.82,180823,,,A*47
$GPGGA,173956.000,4308.4787,N,07726.5754,W,1,07,1.37,156.4,M,-34.4,M,,*5F
$GPRMC,173956.250,A,4308.4788,N,07726.5780,W,28.09,272.56,180823,,,A*41
$GPGGA,173956.500,4308.4789,N,07726.5806,W,1,07,1.37,156.5,M,-34.4,M,,*5D
$GPRMC,173956.750,A,4308.4790,N,07726.5832,W,27.69,273.13,180823,,,A*42
$GPGGA,173957.000,4308.4791,N,07726.5858,W,1,07,1.37,156.7,M,-34.4,M,,*59
$GPRMC,173957.250,A,4308.4792,N,07726.5884,W,27.42,273.17,180823,,,A*44
$GPGGA,173957.500,4308.4793,N,07726.5910,W,1,07,1.37,156.8,M,-34.4,M,,*5C
$GPRMC,173957.750,A,4308.4794,N,07726.5936,W,26.98,272.12,180823,,,A*4D
$GPGGA,173958.000,4308.4794,N,07726.5961,W,1,07,1.37,157.0,M,-34.4,M,,*5E
$GPRMC,173958.250,A,4308.4795,N,07726.5987,W,26.75,272.21,180823,,,A*4F
$GPGGA,173958.500,4308.4796,N,07726.6012,W,1,07,1.37,157.2,M,-34.4,M,,*55
$GPRMC,173958.750,A,4308.4796,N,07726.6038,W,26.82,272.38,180823,,,A*47
$GPGGA,173959.000,4308.4797,N,07726.6063,W,1,07,1.37,157.4,M,-34.4,M,,*50
$GPRMC,173959.250,A,4308.4798,N,07726.6089,W,27.19,272.27,180823,,,A*4A
$GPGGA,173959.500,4308.4799,N,07726.6115,W,1,07,1.37,157.5,M,-34.4,M,,*5A
$GPRMC,173959.750,A,4308.4799,N,07726.6141,W,27.22,271.69,180823,,,A*4A
$GPGGA,174000.000,4308.4800,N,07726.6168,W,1,07,1.37,157.6,M,-34.4,M,,*5B
$GPRMC,174000.250,A,4308.4800,N,07726.6194,W,27.37,270.93,180823,,,A*4A
$GPGGA,174000.500,4308.4800,N,07726.6220,W,1,07,1.37,157.8,M,-34.4,M,,*5F
$GPRMC,174000.750,A,4308.4800,N,07726.6247,W,27.92,270.98,180823,,,A*46
$GPGGA,174001.000,4308.4801,N,07726.6274,W,1,07,1.37,157.8,M,-34.4,M,,*5B
$GPRMC,174001.250,A,4308.4801,N,07726.6301,W,28.31,270.37,180823,,,A*43
$GPGGA,174001.500,4308.4801,N,07726.6328,W,1,07,1.37,157.8,M,-34.4,M,,*56
$GPRMC,174001.750,A,4308.4801,N,07726.6356,W,28.93,269.76,180823,,,A*41
$GPGGA,174002.000,4308.4801,N,07726.6384,W,1,07,1.37,157.9,M,-34.4,M,,*57
$GPRMC,174002.250,A,4308.4800,N,07726.6412,W,29.28,269.62,180823,,,A*45
$GPGGA,174002.500,4308.4800,N,07726.6440,W,1,07,1.37,157.9,M,-34.4,M,,*5C
$GPRMC,174002.750,A,4308.4800,N,07726.6469,W,29.78,268.98,180823,,,A*4D
$GPGGA,174003.000,4308.4799,N,07726.6497,W,1,07,1.37,157.9,M,-34.4,M,,*5D
$GPRMC,174003.250,A,4308.4799,N,07726.6526,W,30.01,268.22,180823,,,A*4B
$GPGGA,174003.500,4308.4798,N,07726.6555,W,1,07,1.37,158.0,M,-34.4,M,,*50
$GPRMC,174003.750,A,4308.4796,N,07726.6584,W,30.53,266.93,180823,,,A*4A
$GPGGA,174004.000,4308.4795,N,07726.6613,W,1,07,1.37,158.0,M,-34.4,M,,*5E
$GPRMC,174004.250,A,4308.4794,N,07726.6642,W,30.79,266.40,180823,,,A*45
$GPGGA,174004.500,4308.4792,N,07726.6671,W,1,07,1.37,158.0,M,-34.4,M,,*58
$GPRMC,174004.750,A,4308.4791,N,07726.6700,W,30.97,265.79,180823,,,A*4B
$GPGGA,174005.000,4308.4789,N,07726.6730,W,1,07,1.37,158.0,M,-34.4,M,,*52
$GPRMC,174005.250,A,4308.4788,N,07726.6760,W,31.19,265.78,180823,,,A*47
$GPGGA,174005.500,4308.4786,N,07726.6789,W,1,07,1.37,158.1,M,-34.4,M,,*5B
$GPRMC,174005.750,A,4308.4784,N,07726.6819,W,31.44,265.15,180823,,,A*4C
$GPGGA,174006.000,4308.4782,N,07726.6849,W,1,07,1.37,158.4,M,-34.4,M,,*5F
$GPRMC,174006.250,A,4308.4780,N,07726.6879,W,31.53,264.75,180823,,,A*49
$GPGGA,174006.500,4308.4778,N,07726.6909,W,1,07,1.37,158.6,M,-34.4,M,,*58
$GPRMC,174006.750,A,4308.4776,N,07726.6939,W,31.47,264.57,180823,,,A*45
$GPGGA,174007.000,4308.4774,N,07726.6969,W,1,07,1.37,158.9,M,-34.4,M,,*59
$GPRMC,174007.250,A,4308.4772,N,07726.6999,W,31.47,264.54,180823,,,A*4C
$GPGGA,174007.500,4308.4770,N,07726.7029,W,1,07,1.37,159.1,M,-34.4,M,,*5D
$GPRMC,174007.750,A,4308.4768,N,07726.7059,W,31.44,265.22,180823,,,A*45
$GPGGA,174008.000,4308.4766,N,07726.7089,W,1,07,1.37,159.3,M,-34.4,M,,*58
$GPRMC,174008.250,A,4308.4764,N,07726.7119,W,31.41,265.27,180823,,,A*46
$GPGGA,174008.500,4308.4762,N,07726.7148,W,1,07,1.37,159.6,M,-34.4,M,,*50
$GPRMC,174008.750,A,4308.4761,N,07726.7178,W,31.21,265.22,180823,,,A*42
$GPGGA,174009.000,4308.4759,N,07726.7207,W,1,07,1.37,159.9,M,-34.4,M,,*5B
$GPRMC,174009.250,A,4308.4757,N,07726.7237,W,31.19,265.35,180823,,,A*46
$GPGGA,174009.500,4308.4755,N,07726.7267,W,1,07,1.37,160.3,M,-34.4,M,,*54
$GPRMC,174009.750,A,4308.4754,N,07726.7296,W,31.23,265.62,180823,,,A*40
$GPGGA,174010.000,4308.4752,N,07726.7326,W,1,07,1.37,160.6,M,-34.4,M,,*5F
$GPRMC,174010.250,A,4308.4751,N,07726.7356,W,31.29,265.81,180823,,,A*42
$GPGGA,174010.500,4308.4750,N,07726.7387,W,1,07,1.37,160.9,M,-34.4,M,,*5C
$GPRMC,174010.750,A,4308.4748,N,07726.7417,W,31.56,266.10,180823,,,A*4E
$GPGGA,174011.000,4308.4747,N,07726.7447,W,1,07,1.37,161.3,M,-34.4,M,,*5E
$GPRMC,174011.250,A,4308.4746,N,07726.7478,W,31.80,266.23,180823,,,A*46
$GPGGA,174011.500,4308.4744,N,07726.7508,W,1,07,1.37,161.8,M,-34.4,M,,*59
$GPRMC,174011.750,A,4308.4743,N,07726.7539,W,31.96,266.77,180823,,,A*44
$GPGGA,174012.000,4308.4742,N,07726.7569,W,1,07,1.37,162.3,M,-34.4,M,,*56
$GPRMC,174012.250,A,4308.4740,N,07726.7599,W,31.68,266.13,180823,,,A*48
$GPGGA,174012.500,4308.4738,N,07726.7629,W,1,07,1.37,162.6,M,-34.4,M,,*5C
$GPRMC,174012.750,A,4308.4737,N,07726.7658,W,31.50,266.33,180823,,,A*4A
$GPGGA,174013.000,4308.4735,N,07726.7687,W,1,07,1.37,162.9,M,-34.4,M,,*5E
$GPRMC,174013.250,A,4308.4734,N,07726.7716,W,31.24,266.60,180823,,,A*43
$GPGGA,174013.500,4308.4733,N,07726.7745,W,1,07,1.37,163.0,M,-34.4,M,,*5A
$GPRMC,174013.750,A,4308.4731,N,07726.7773,W,30.15,266.95,180823,,,A*49
$GPGGA,174014.000,4308.4729,N,07726.7801,W,1,07,1.37,163.0,M,-34.4,M,,*5C
$GPRMC,174014.250,A,4308.4728,N,07726.7829,W,29.81,267.68,180823,,,A*45
$GPGGA,174014.500,4308.4727,N,07726.7857,W,1,07,1.37,163.0,M,-34.4,M,,*54
$GPRMC,174014.750,A,4308.4725,N,07726.7884,W,29.58,267.65,180823,,,A*43
$GPGGA,174015.000,4308.4724,N,07726.7912,W,1,07,1.37,162.9,M,-34.4,M,,*5B
$GPRMC,174015.250,A,4308.4722,N,07726.7940,W,29.56,267.30,180823,,,A*47
$GPGGA,174015.500,4308.4720,N,07726.7967,W,1,07,1.37,162.8,M,-34.4,M,,*59
$GPRMC,174015.750,A,4308.4718,N,07726.7995,W,29.77,266.47,180823,,,A*41
$GPGGA,174016.000,4308.4716,N,07726.8023,W,1,07,1.37,162.6,M,-34.4,M,,*52
$GPRMC,174016.250,A,4308.4714,N,07726.8052,W,29.86,266.13,180823,,,A*49
$GPGGA,174016.500,4308.4712,N,07726.8080,W,1,07,1.37,162.4,M,-34.4,M,,*58
$GPRMC,174016.750,A,4308.4710,N,07726.8109,W,30.24,265.23,180823,,,A*47
$GPGGA,174017.000,4308.4708,N,07726.8138,W,1,07,1.37,162.2,M,-34.4,M,,*53
$GPRMC,174017.250,A,4308.4706,N,07726.8167,W,30.49,265.23,180823,,,A*47
$GPGGA,174017.500,4308.4704,N,07726.8196,W,1,07,1.37,162.0,M,-34.4,M,,*5C
$GPRMC,174017.750,A,4308.4702,N,07726.8226,W,30.66,264.68,180823,,,A*43
$GPGGA,174018.000,4308.4700,N,07726.8255,W,1,07,1.37,161.8,M,-34.4,M,,*55
$GPRMC,174018.250,A,4308.4698,N,07726.8285,W,31.31,264.40,180823,,,A*4B
$GPGGA,174018.500,4308.4696,N,07726.8315,W,1,07,1.37,161.7,M,-34.4,M,,*54
$GPRMC,174018.750,A,4308.4694,N,07726.8344,W,31.51,264.96,180823,,,A*43
$GPGGA,174019.000,4308.4692,N,07726.8374,W,1,07,1.37,161.5,M,-34.4,M,,*51
$GPRMC,174019.250,A,4308.4690,N,07726.8404,W,31.50,265.00,180823,,,A*4F
$GPGGA,174019.500,4308.4688,N,07726.8433,W,1,07,1.37,161.4,M,-34.4,M,,*5A
$GPRMC,174019.750,A,4308.4687,N,07726.8463,W,31.79,265.47,180823,,,A*45
$GPGGA,174020.000,4308.4685,N,07726.8493,W,1,07,1.37,161.2,M,-34.4,M,,*54
$GPRMC,174020.250,A,4308.4683,N,07726.8523,W,31.79,265.52,180823,,,A*4F
$GPGGA,174020.500,4308.4681,N,07726.8553,W,1,07,1.37,161.1,M,-34.4,M,,*5B
$GPRMC,174020.750,A,4308.4679,N,07726.8582,W,31.76,265.02,180823,,,A*4E
$GPGGA,174021.000,4308.4677,N,07726.8612,W,1,07,1.37,161.0,M,-34.4,M,,*51
$GPRMC,174021.250,A,4308.4675,N,07726.8642,W,31.78,264.63,180823,,,A*41
$GPGGA,174021.500,4308.4673,N,07726.8672,W,1,07,1.37,160.9,M,-34.4,M,,*5E
$GPRMC,174021.750,A,4308.4671,N,07726.8702,W,32.06,264.51,180823,,,A*4E
$GPGGA,174022.000,4308.4668,N,07726.8732,W,1,07,1.37,160.8,M,-34.4,M,,*56
$GPRMC,174022.250,A,4308.4666,N,07726.8762,W,32.14,264.48,180823,,,A*43
$GPGGA,174022.500,4308.4664,N,07726.8793,W,1,07,1.37,160.8,M,-34.4,M,,*54
$GPRMC,174022.750,A,4308.4662,N,07726.8823,W,32.22,264.61,180823,,,A*46
$GPGGA,174023.000,4308.4660,N,07726.8854,W,1,07,1.37,160.8,M,-34.4,M,,*50
$GPRMC,174023.250,A,4308.4657,N,07726.8884,W,32.27,264.75,180823,,,A*49
$GPGGA,174023.500,4308.4655,N,07726.8914,W,1,07,1.37,160.7,M,-34.4,M,,*59
$GPRMC,174023.750,A,4308.4653,N,07726.8945,W,32.47,264.75,180823,,,A*42
$GPGGA,174024.000,4308.4651,N,07726.8976,W,1,07,1.37,160.6,M,-34.4,M,,*5A
$GPRMC,174024.250,A,4308.4649,N,07726.9007,W,32.69,264.85,180823,,,A*46
$GPGGA,174024.500,4308.4647,N,07726.9038,W,1,07,1.37,160.5,M,-34.4,M,,*59
$GPRMC,174024.750,A,4308.4645,N,07726.9069,W,32.81,265.40,180823,,,A*49
$GPGGA,174025.000,4308.4644,N,07726.9101,W,1,07,1.37,160.4,M,-34.4,M,,*54
$GPRMC,174025.250,A,4308.4642,N,07726.9132,W,32.80,265.46,180823,,,A*42
$GPGGA,174025.500,4308.4639,N,07726.9162,W,1,07,1.37,160.3,M,-34.4,M,,*59
$GPRMC,174025.750,A,4308.4637,N,07726.9193,W,32.40,264.92,180823,,,A*4A
$GPGGA,174026.000,4308.4635,N,07726.9223,W,1,07,1.37,160.2,M,-34.4,M,,*54
$GPRMC,174026.250,A,4308.4633,N,07726.9254,W,32.21,265.31,180823,,,A*4F
$GPGGA,174026.500,4308.4630,N,07726.9284,W,1,07,1.37,160.1,M,-34.4,M,,*5A
$GPRMC,174026.750,A,4308.4628,N,07726.9314,W,31.92,265.68,180823,,,A*42
$GPGGA,174027.000,4308.4626,N,07726.9344,W,1,07,1.37,160.0,M,-34.4,M,,*55
$GPRMC,174027.250,A,4308.4623,N,07726.9375,W,31.87,265.69,180823,,,A*4F
$GPGGA,174027.500,4308.4621,N,07726.9405,W,1,07,1.37,159.9,M,-34.4,M,,*56
$GPRMC,174027.750,A,4308.4619,N,07726.9435,W,32.23,265.40,180823,,,A*46
$GPGGA,174028.000,4308.4617,N,07726.9466,W,1,07,1.37,159.7,M,-34.4,M,,*52
$GPRMC,174028.250,A,4308.4614,N,07726.9497,W,32.55,265.08,180823,,,A*44
$GPGGA,174028.500,4308.4612,N,07726.9528,W,1,07,1.37,159.6,M,-34.4,M,,*58
$GPRMC,174028.750,A,4308.4610,N,07726.9559,W,32.85,265.04,180823,,,A*47
$GPGGA,174029.000,4308.4607,N,07726.9590,W,1,07,1.37,159.5,M,-34.4,M,,*58
$GPRMC,174029.250,A,4308.4605,N,07726.9621,W,32.95,264.67,180823,,,A*4E
$GPGGA,174029.500,4308.4602,N,07726.9652,W,1,07,1.37,159.4,M,-34.4,M,,*54
$GPRMC,174029.750,A,4308.4600,N,07726.9683,W,32.99,264.85,180823,,,A*46
$GPGGA,174030.000,4308.4597,N,07726.9713,W,1,07,1.37,159.3,M,-34.4,M,,*55
$GPRMC,174030.250,A,4308.4595,N,07726.9744,W,33.03,264.59,180823,,,A*4D
$GPGGA,174030.500,4308.4593,N,07726.9775,W,1,07,1.37,159.2,M,-34.4,M,,*55
$GPRMC,174030.750,A,4308.4590,N,07726.9806,W,32.80,264.57,180823,,,A*40
$GPGGA,174031.000,4308.4588,N,07726.9836,W,1,07,1.37,159.1,M,-34.4,M,,*50
$GPRMC,174031.250,A,4308.4586,N,07726.9867,W,32.68,264.70,180823,,,A*47
$GPGGA,174031.500,4308.4584,N,07726.9897,W,1,07,1.37,159.1,M,-34.4,M,,*52
$GPRMC,174031.750,A,4308.4582,N,07726.9928,W,32.52,264.83,180823,,,A*49
$GPGGA,174032.000,4308.4580,N,07726.9959,W,1,07,1.37,159.0,M,-34.4,M,,*52
$GPRMC,174032.250,A,4308.4578,N,07726.9989,W,32.39,264.92,180823,,,A*4C
$GPGGA,174032.500,4308.4576,N,07727.0020,W,1,07,1.37,159.0,M,-34.4,M,,*51
$GPRMC,174032.750,A,4308.4574,N,07727.0050,W,32.38,265.61,180823,,,A*4C
$GPGGA,174033.000,4308.4573,N,07727.0081,W,1,07,1.37,158.9,M,-34.4,M,,*53
$GPRMC,174033.250,A,4308.4571,N,07727.0112,W,32.80,266.06,180823,,,A*4B
$GPGGA,174033.500,4308.4570,N,07727.0144,W,1,07,1.37,158.9,M,-34.4,M,,*5D
$GPRMC,174033.750,A,4308.4568,N,07727.0175,W,32.80,266.14,180823,,,A*44
$GPGGA,174034.000,4308.4567,N,07727.0206,W,1,07,1.37,158.9,M,-34.4,M,,*5C
$GPRMC,174034.250,A,4308.4565,N,07727.0238,W,32.99,266.63,180823,,,A*49
$GPGGA,174034.500,4308.4564,N,07727.0269,W,1,07,1.37,159.0,M,-34.4,M,,*5B
$GPRMC,174034.750,A,4308.4563,N,07727.0301,W,33.57,267.24,180823,,,A*40
$GPGGA,174035.000,4308.4563,N,07727.0333,W,1,07,1.37,158.9,M,-34.4,M,,*5E
$GPRMC,174035.250,A,4308.4562,N,07727.0366,W,33.99,267.82,180823,,,A*4A
$GPGGA,174035.500,4308.4562,N,07727.0399,W,1,07,1.37,158.8,M,-34.4,M,,*5B
$GPRMC,174035.750,A,4308.4562,N,07727.0432,W,34.53,268.46,180823,,,A*4F
$GPGGA,174036.000,4308.4562,N,07727.0465,W,1,07,1.37,158.6,M,-34.4,M,,*57
$GPRMC,174036.250,A,4308.4562,N,07727.0499,W,34.81,269.47,180823,,,A*47
$GPGGA,174036.500,4308.4562,N,07727.0532,W,1,07,1.37,158.5,M,-34.4,M,,*52
$GPRMC,174036.750,A,4308.4563,N,07727.0567,W,35.52,270.46,180823,,,A*45
$GPGGA,174037.000,4308.4563,N,07727.0602,W,1,07,1.37,158.1,M,-34.4,M,,*53
$GPRMC,174037.250,A,4308.4564,N,07727.0636,W,35.78,270.79,180823,,,A*45
$GPGGA,174037.500,4308.4565,N,07727.0671,W,1,07,1.37,157.8,M,-34.4,M,,*52
$GPRMC,174037.750,A,4308.4566,N,07727.0706,W,35.82,271.39,180823,,,A*40
$GPGGA,174038.000,4308.4568,N,07727.0740,W,1,07,1.37,157.2,M,-34.4,M,,*5C
$GPRMC,174038.250,A,4308.4570,N,07727.0775,W,35.83,273.30,180823,,,A*43
$GPGGA,174038.500,4308.4573,N,07727.0809,W,1,07,1.37,156.9,M,-34.4,M,,*5B
$GPRMC,174038.750,A,4308.4576,N,07727.0843,W,35.53,274.26,180823,,,A*47
$GPGGA,174039.000,4308.4579,N,07727.0877,W,1,07,1.37,156.6,M,-34.4,M,,*53
$GPRMC,174039.250,A,4308.4581,N,07727.0911,W,35.32,275.50,180823,,,A*4A
$GPGGA,174039.500,4308.4585,N,07727.0945,W,1,07,1.37,156.5,M,-34.4,M,,*56
$GPRMC,174039.750,A,4308.4589,N,07727.0979,W,35.31,277.24,180823,,,A*4B
$GPGGA,174040.000,4308.4593,N,07727.1013,W,1,07,1.37,156.5,M,-34.4,M,,*51
$GPRMC,174040.250,A,4308.4597,N,07727.1046,W,35.26,277.82,180823,,,A*41
$GPGGA,174040.500,4308.4601,N,07727.1080,W,1,07,1.37,156.4,M,-34.4,M,,*57
$GPRMC,174040.750,A,4308.4605,N,07727.1113,W,35.06,278.31,180823,,,A*48
$GPGGA,174041.000,4308.4609,N,07727.1146,W,1,07,1.37,156.3,M,-34.4,M,,*57
$GPRMC,174041.250,A,4308.4613,N,07727.1179,W,34.67,278.80,180823,,,A*4B
$GPGGA,174041.500,4308.4618,N,07727.1212,W,1,07,1.37,156.3,M,-34.4,M,,*50
$GPRMC,174041.750,A,4308.4622,N,07727.1245,W,34.28,279.18,180823,,,A*4B
$GPGGA,174042.000,4308.4626,N,07727.1277,W,1,07,1.37,156.2,M,-34.4,M,,*59
$GPRMC,174042.250,A,4308.4631,N,07727.1309,W,34.01,279.68,180823,,,A*4A
$GPGGA,174042.500,4308.4635,N,07727.1341,W,1,07,1.37,156.1,M,-34.4,M,,*59
$GPRMC,174042.750,A,4308.4640,N,07727.1373,W,33.78,279.81,180823,,,A*4A
$GPGGA,174043.000,4308.4644,N,07727.1404,W,1,07,1.37,156.1,M,-34.4,M,,*5D
$GPRMC,174043.250,A,4308.4648,N,07727.1436,W,33.50,279.82,180823,,,A*49
$GPGGA,174043.500,4308.4652,N,07727.1467,W,1,07,1.37,156.1,M,-34.4,M,,*5A
$GPRMC,174043.750,A,4308.4656,N,07727.1498,W,33.19,280.06,180823,,,A*40
$GPGGA,174044.000,4308.4661,N,07727.1529,W,1,07,1.37,156.2,M,-34.4,M,,*50
$GPRMC,174044.250,A,4308.4665,N,07727.1560,W,33.04,280.18,180823,,,A*47
$GPGGA,174044.500,4308.4670,N,07727.1591,W,1,07,1.37,156.2,M,-34.4,M,,*56
$GPRMC,174044.750,A,4308.4674,N,07727.1622,W,33.29,280.10,180823,,,A*40
$GPGGA,174045.000,4308.4678,N,07727.1653,W,1,07,1.37,156.1,M,-34.4,M,,*54
$GPRMC,174045.250,A,4308.4681,N,07727.1684,W,33.30,279.12,180823,,,A*4E
$GPGGA,174045.500,4308.4686,N,07727.1715,W,1,07,1.37,156.0,M,-34.4,M,,*52
$GPRMC,174045.750,A,4308.4690,N,07727.1746,W,33.04,278.95,180823,,,A*4D
$GPGGA,174046.000,4308.4694,N,07727.1777,W,1,07,1.37,156.0,M,-34.4,M,,*53
$GPRMC,174046.250,A,4308.4698,N,07727.1808,W,33.10,279.37,180823,,,A*4A
$GPGGA,174046.500,4308.4702,N,07727.1839,W,1,07,1.37,155.9,M,-34.4,M,,*57
$GPRMC,174046.750,A,4308.4706,N,07727.1870,W,33.15,279.41,180823,,,A*42
$GPGGA,174047.000,4308.4710,N,07727.1901,W,1,07,1.38,155.8,M,-34.4,M,,*54
$GPRMC,174047.250,A,4308.4714,N,07727.1932,W,33.16,279.52,180823,,,A*43
$GPGGA,174047.500,4308.4717,N,07727.1963,W,1,07,1.37,155.9,M,-34.4,M,,*5C
$GPRMC,174047.750,A,4308.4721,N,07727.1994,W,32.88,279.41,180823,,,A*48
$GPGGA,174048.000,4308.4725,N,07727.2024,W,1,07,1.37,156.0,M,-34.4,M,,*54
$GPRMC,174048.250,A,4308.4729,N,07727.2055,W,32.72,279.68,180823,,,A*43
$GPGGA,174048.500,4308.4733,N,07727.2085,W,1,07,1.38,156.0,M,-34.4,M,,*52
$GPRMC,174048.750,A,4308.4736,N,07727.2116,W,32.52,279.06,180823,,,A*44
$GPGGA,174049.000,4308.4740,N,07727.2146,W,1,07,1.37,156.0,M,-34.4,M,,*53
$GPRMC,174049.250,A,4308.4743,N,07727.2176,W,32.29,278.99,180823,,,A*4F
$GPGGA,174049.500,4308.4747,N,07727.2206,W,1,07,1.38,156.1,M,-34.4,M,,*58
$GPRMC,174049.750,A,4308.4751,N,07727.2236,W,32.08,279.27,180823,,,A*49
$GPGGA,174050.000,4308.4754,N,07727.2267,W,1,07,1.37,156.2,M,-34.4,M,,*5C
$GPRMC,174050.250,A,4308.4758,N,07727.2296,W,31.87,279.25,180823,,,A*41
$GPGGA,174050.500,4308.4762,N,07727.2326,W,1,07,1.37,156.4,M,-34.4,M,,*5E
$GPRMC,174050.750,A,4308.4766,N,07727.2356,W,31.80,279.78,180823,,,A*4B
$GPGGA,174051.000,4308.4770,N,07727.2386,W,1,07,1.37,156.5,M,-34.4,M,,*52
$GPRMC,174051.250,A,4308.4774,N,07727.2416,W,31.85,280.07,180823,,,A*44
$GPGGA,174051.500,4308.4778,N,07727.2445,W,1,07,1.37,156.7,M,-34.4,M,,*55
$GPRMC,174051.750,A,4308.4782,N,07727.2475,W,31.55,279.11,180823,,,A*41
$GPGGA,174052.000,4308.4785,N,07727.2504,W,1,07,1.38,156.8,M,-34.4,M,,*55
$GPRMC,174052.250,A,4308.4789,N,07727.2534,W,31.45,278.82,180823,,,A*42
$GPGGA,174052.500,4308.4792,N,07727.2563,W,1,07,1.38,156.9,M,-34.4,M,,*56
$GPRMC,174052.750,A,4308.4796,N,07727.2593,W,31.67,279.09,180823,,,A*46
$GPGGA,174053.000,4308.4800,N,07727.2623,W,1,07,1.37,156.9,M,-34.4,M,,*5E
$GPRMC,174053.250,A,4308.4804,N,07727.2653,W,32.07,279.70,180823,,,A*42
$GPGGA,174053.500,4308.4808,N,07727.2683,W,1,07,1.38,156.9,M,-34.4,M,,*56
$GPRMC,174053.750,A,4308.4812,N,07727.2713,W,32.25,279.33,180823,,,A*42
$GPGGA,174054.000,4308.4815,N,07727.2744,W,1,07,1.38,156.8,M,-34.4,M,,*53
$GPRMC,174054.250,A,4308.4819,N,07727.2774,W,32.26,279.18,180823,,,A*40
$GPGGA,174054.500,4308.4823,N,07727.2804,W,1,07,1.38,156.7,M,-34.4,M,,*57
$GPRMC,174054.750,A,4308.4826,N,07727.2835,W,32.48,279.13,180823,,,A*40
$GPGGA,174055.000,4308.4830,N,07727.2865,W,1,07,1.38,156.6,M,-34.4,M,,*57
$GPRMC,174055.250,A,4308.4834,N,07727.2895,W,32.58,278.98,180823,,,A*4E
$GPGGA,174055.500,4308.4838,N,07727.2926,W,1,07,1.38,156.6,M,-34.4,M,,*5C
$GPRMC,174055.750,A,4308.4841,N,07727.2957,W,32.62,278.97,180823,,,A*40
$GPGGA,174056.000,4308.4844,N,07727.2988,W,1,07,1.38,156.8,M,-34.4,M,,*5B
$GPRMC,174056.250,A,4308.4848,N,07727.3019,W,32.62,277.62,180823,,,A*48
$GPGGA,174056.500,4308.4851,N,07727.3050,W,1,07,1.38,157.0,M,-34.4,M,,*5E
$GPRMC,174056.750,A,4308.4854,N,07727.3081,W,32.54,277.72,180823,,,A*45
$GPGGA,174057.000,4308.4858,N,07727.3112,W,1,07,1.38,157.0,M,-34.4,M,,*54
$GPRMC,174057.250,A,4308.4861,N,07727.3142,W,32.50,277.77,180823,,,A*48
$GPGGA,174057.500,4308.4864,N,07727.3173,W,1,07,1.38,157.0,M,-34.4,M,,*59
$GPRMC,174057.750,A,4308.4867,N,07727.3204,W,32.42,277.21,180823,,,A*4A
$GPGGA,174058.000,4308.4871,N,07727.3235,W,1,07,1.38,157.2,M,-34.4,M,,*54
$GPRMC,174058.250,A,4308.4874,N,07727.3266,W,32.62,277.64,180823,,,A*45
$GPGGA,174058.500,4308.4878,N,07727.3297,W,1,07,1.38,157.4,M,-34.4,M,,*56
$GPRMC,174058.750,A,4308.4882,N,07727.3328,W,32.63,278.62,180823,,,A*4A
$GPGGA,174059.000,4308.4886,N,07727.3360,W,1,07,1.38,157.7,M,-34.4,M,,*59
$GPRMC,174059.250,A,4308.4889,N,07727.3391,W,32.69,278.61,180823,,,A*4E
$GPGGA,174059.500,4308.4893,N,07727.3421,W,1,07,1.38,157.8,M,-34.4,M,,*55
$GPRMC,174059.750,A,4308.4896,N,07727.3452,W,32.65,278.11,180823,,,A*46
$GPGGA,174100.000,4308.4900,N,07727.3483,W,1,07,1.38,157.9,M,-34.4,M,,*5F
$GPRMC,174100.250,A,4308.4903,N,07727.3514,W,32.48,278.24,180823,,,A*49
$GPGGA,174100.500,4308.4907,N,07727.3544,W,1,07,1.38,158.0,M,-34.4,M,,*51
$GPRMC,174100.750,A,4308.4910,N,07727.3575,W,32.59,279.16,180823,,,A*49
$GPGGA,174101.000,4308.4914,N,07727.3605,W,1,07,1.38,158.0,M,-34.4,M,,*51
$GPRMC,174101.250,A,4308.4918,N,07727.3636,W,32.57,279.28,180823,,,A*42
$GPGGA,174101.500,4308.4921,N,07727.3666,W,1,07,1.38,157.9,M,-34.4,M,,*51
$GPRMC,174101.750,A,4308.4925,N,07727.3697,W,32.63,279.35,180823,,,A*49
$GPGGA,174102.000,4308.4929,N,07727.3728,W,1,07,1.38,157.8,M,-34.4,M,,*55
$GPRMC,174102.250,A,4308.4933,N,07727.3758,W,32.75,279.73,180823,,,A*4F
$GPGGA,174102.500,4308.4937,N,07727.3789,W,1,07,1.38,157.8,M,-34.4,M,,*54
$GPRMC,174102.750,A,4308.4941,N,07727.3819,W,32.57,280.22,180823,,,A*47
$GPGGA,174103.000,4308.4945,N,07727.3849,W,1,07,1.38,157.7,M,-34.4,M,,*59
$GPRMC,174103.250,A,4308.4949,N,07727.3879,W,32.25,279.99,180823,,,A*4E
$GPGGA,174103.500,4308.4952,N,07727.3909,W,1,07,1.38,157.7,M,-34.4,M,,*5F
$GPRMC,174103.750,A,4308.4955,N,07727.3939,W,31.94,279.30,180823,,,A*49
$GPGGA,174104.000,4308.4959,N,07727.3969,W,1,07,1.38,157.7,M,-34.4,M,,*50
$GPRMC,174104.250,A,4308.4962,N,07727.3998,W,31.63,279.18,180823,,,A*46
$GPGGA,174104.500,4308.4966,N,07727.4028,W,1,07,1.38,157.7,M,-34.4,M,,*52
$GPRMC,174104.750,A,4308.4969,N,07727.4057,W,31.57,279.28,180823,,,A*41
$GPGGA,174105.000,4308.4973,N,07727.4087,W,1,07,1.38,157.6,M,-34.4,M,,*56
$GPRMC,174105.250,A,4308.4976,N,07727.4116,W,31.57,279.09,180823,,,A*4C
$GPGGA,174105.500,4308.4980,N,07727.4146,W,1,07,1.38,157.7,M,-34.4,M,,*52
$GPRMC,174105.750,A,4308.4983,N,07727.4175,W,31.59,279.63,180823,,,A*44
$GPGGA,174106.000,4308.4987,N,07727.4205,W,1,07,1.38,157.6,M,-34.4,M,,*56
$GPRMC,174106.250,A,4308.4990,N,07727.4234,W,31.62,279.28,180823,,,A*41
$GPGGA,174106.500,4308.4993,N,07727.4264,W,1,07,1.38,157.4,M,-34.4,M,,*53
