Vers 81
USE_SERIAL_FEEDBACK=true
DEVELOPMENT_MODE=false
USE_RMC_ONLY=false

$GPRMC,145404.000,A,4308.3094,N,07726.2633,W,0.03,247.40,180923,,,A*7A
$GPGGA,145404.250,4308.3094,N,07726.2633,W,1,05,1.59,162.4,M,-34.4,M,,*5F
$GPRMC,145404.500,A,4308.3093,N,07726.2634,W,0.03,347.19,180923,,,A*72
$GPGGA,145404.750,4308.3093,N,07726.2634,W,1,05,1.83,162.4,M,-34.4,M,,*5D
$GPRMC,145405.000,A,4308.3093,N,07726.2635,W,0.04,85.95,180923,,,A*49
$GPGGA,145405.250,4308.3092,N,07726.2635,W,1,05,1.59,162.0,M,-34.4,M,,*5A
$GPRMC,145405.500,A,4308.3092,N,07726.2636,W,0.04,213.71,180923,,,A*79
$GPGGA,145405.750,4308.3091,N,07726.2636,W,1,05,1.59,161.6,M,-34.4,M,,*5A
$GPRMC,145406.000,A,4308.3091,N,07726.2637,W,0.02,150.64,180923,,,A*7B
$GPGGA,145406.250,4308.3090,N,07726.2637,W,1,05,1.59,161.3,M,-34.4,M,,*59
$GPRMC,145406.500,A,4308.3090,N,07726.2638,W,0.04,215.86,180923,,,A*78
$GPGGA,145406.750,4308.3089,N,07726.2638,W,1,05,1.59,160.9,M,-34.4,M,,*50
$GPRMC,145407.000,A,4308.3089,N,07726.2638,W,0.01,152.43,180923,,,A*78
$GPGGA,145407.250,4308.3088,N,07726.2639,W,1,05,1.59,159.8,M,-34.4,M,,*5F
$GPRMC,145407.500,A,4308.3087,N,07726.2639,W,0.02,277.74,180923,,,A*71
$GPGGA,145407.750,4308.3087,N,07726.2639,W,1,05,1.59,159.0,M,-34.4,M,,*5D
$GPRMC,145408.000,A,4308.3086,N,07726.2639,W,0.03,268.61,180923,,,A*71
$GPGGA,145408.250,4308.3086,N,07726.2639,W,1,05,1.59,158.2,M,-34.4,M,,*55
$GPRMC,145408.500,A,4308.3085,N,07726.2640,W,0.00,310.52,180923,,,A*74
$GPGGA,145408.750,4308.3084,N,07726.2641,W,1,05,1.60,157.3,M,-34.4,M,,*59
$GPRMC,145409.000,A,4308.3083,N,07726.2641,W,0.01,147.52,180923,,,A*76
$GPGGA,145409.250,4308.3083,N,07726.2641,W,1,05,1.59,156.7,M,-34.4,M,,*55
$GPRMC,145409.500,A,4308.3082,N,07726.2642,W,0.01,278.57,180923,,,A*7B
$GPGGA,145409.750,4308.3082,N,07726.2642,W,1,05,1.60,156.2,M,-34.4,M,,*5D
$GPRMC,145410.000,A,4308.3082,N,07726.2643,W,0.08,298.74,180923,,,A*71
$GPGGA,145410.250,4308.3081,N,07726.2643,W,1,05,1.60,156.0,M,-34.4,M,,*50
$GPRMC,145410.500,A,4308.3081,N,07726.2644,W,0.04,154.33,180923,,,A*7C
$GPGGA,145410.750,4308.3080,N,07726.2644,W,1,05,1.60,155.5,M,-34.4,M,,*55
$GPRMC,145411.000,A,4308.3079,N,07726.2645,W,0.05,141.12,180923,,,A*78
$GPGGA,145411.250,4308.3079,N,07726.2645,W,1,05,1.60,155.4,M,-34.4,M,,*57
$GPRMC,145411.500,A,4308.3079,N,07726.2645,W,0.05,320.14,180923,,,A*7E
$GPGGA,145411.750,4308.3079,N,07726.2645,W,1,05,1.60,155.4,M,-34.4,M,,*52
$GPRMC,145412.000,A,4308.3078,N,07726.2645,W,0.03,196.90,180923,,,A*7C
$GPGGA,145412.250,4308.3078,N,07726.2646,W,1,05,1.60,155.2,M,-34.4,M,,*50
$GPRMC,145412.500,A,4308.3078,N,07726.2646,W,0.03,120.04,180923,,,A*7A
$GPGGA,145412.750,4308.3077,N,07726.2646,W,1,05,1.60,154.8,M,-34.4,M,,*51
$GPRMC,145413.000,A,4308.3077,N,07726.2647,W,0.03,344.02,180923,,,A*76
$GPGGA,145413.250,4308.3077,N,07726.2647,W,1,05,1.60,154.7,M,-34.4,M,,*5B
$GPRMC,145413.500,A,4308.3076,N,07726.2647,W,0.03,20.01,180923,,,A*40
$GPGGA,145413.750,4308.3076,N,07726.2647,W,1,05,1.60,154.5,M,-34.4,M,,*5D
$GPRMC,145414.000,A,4308.3075,N,07726.2647,W,0.03,272.69,180923,,,A*7A
$GPGGA,145414.250,4308.3075,N,07726.2647,W,1,05,1.60,154.2,M,-34.4,M,,*5B
$GPRMC,145414.500,A,4308.3075,N,07726.2647,W,0.02,215.78,180923,,,A*7F
$GPGGA,145414.750,4308.3074,N,07726.2647,W,1,05,1.60,153.8,M,-34.4,M,,*52
$GPRMC,145415.000,A,4308.3074,N,07726.2648,W,0.03,22.16,180923,,,A*4A
$GPGGA,145415.250,4308.3073,N,07726.2648,W,1,05,1.60,153.5,M,-34.4,M,,*53
$GPRMC,145415.500,A,4308.3073,N,07726.2648,W,0.04,30.88,180923,,,A*4B
$GPGGA,145415.750,4308.3073,N,07726.2648,W,1,05,1.60,153.4,M,-34.4,M,,*57
$GPRMC,145416.000,A,4308.3072,N,07726.2648,W,0.03,358.39,180923,,,A*7C
$GPGGA,145416.250,4308.3072,N,07726.2648,W,1,05,1.83,153.2,M,-34.4,M,,*5B
$GPRMC,145416.500,A,4308.3071,N,07726.2648,W,0.03,49.69,180923,,,A*4C
$GPGGA,145416.750,4308.3071,N,07726.2648,W,1,05,1.60,153.0,M,-34.4,M,,*52
$GPRMC,145417.000,A,4308.3070,N,07726.2648,W,0.01,329.38,180923,,,A*7A
$GPGGA,145417.250,4308.3070,N,07726.2648,W,1,05,1.60,152.9,M,-34.4,M,,*5F
$GPRMC,145417.500,A,4308.3069,N,07726.2648,W,0.01,25.72,180923,,,A*46
$GPGGA,145417.750,4308.3069,N,07726.2648,W,1,05,1.60,152.8,M,-34.4,M,,*53
$GPRMC,145418.000,A,4308.3068,N,07726.2647,W,0.03,55.46,180923,,,A*40
$GPGGA,145418.250,4308.3068,N,07726.2647,W,1,05,1.60,152.8,M,-34.4,M,,*57
$GPRMC,145418.500,A,4308.3068,N,07726.2647,W,0.03,187.78,180923,,,A*76
$GPGGA,145418.750,4308.3067,N,07726.2647,W,1,05,1.60,152.8,M,-34.4,M,,*5D
$GPRMC,145419.000,A,4308.3067,N,07726.2647,W,0.00,72.62,180923,,,A*4E
$GPGGA,145419.250,4308.3067,N,07726.2647,W,1,05,1.60,152.8,M,-34.4,M,,*59
$GPRMC,145419.500,A,4308.3066,N,07726.2647,W,0.02,114.93,180923,,,A*77
$GPGGA,145419.750,4308.3066,N,07726.2647,W,1,05,1.60,152.9,M,-34.4,M,,*5C
$GPRMC,145420.000,A,4308.3066,N,07726.2647,W,0.02,267.39,180923,,,A*7F
$GPGGA,145420.250,4308.3066,N,07726.2647,W,1,06,1.40,153.0,M,-34.4,M,,*5A
$GPRMC,145420.500,A,4308.3065,N,07726.2647,W,0.03,160.63,180923,,,A*73
$GPGGA,145420.750,4308.3065,N,07726.2647,W,1,06,1.40,153.0,M,-34.4,M,,*5C
$GPRMC,145421.000,A,4308.3065,N,07726.2646,W,0.04,337.18,180923,,,A*7D
$GPGGA,145421.250,4308.3064,N,07726.2646,W,1,06,1.40,153.0,M,-34.4,M,,*58
$GPRMC,145421.500,A,4308.3064,N,07726.2646,W,0.03,197.01,180923,,,A*7E
$GPGGA,145421.750,4308.3064,N,07726.2646,W,1,06,1.40,153.0,M,-34.4,M,,*5D
$GPRMC,145422.000,A,4308.3064,N,07726.2646,W,0.06,6.41,180923,,,A*70
$GPGGA,145422.250,4308.3063,N,07726.2646,W,1,06,1.53,153.1,M,-34.4,M,,*5F
$GPRMC,145422.500,A,4308.3063,N,07726.2646,W,0.06,170.08,180923,,,A*7F
$GPGGA,145422.750,4308.3063,N,07726.2646,W,1,06,1.40,153.2,M,-34.4,M,,*5B
$GPRMC,145423.000,A,4308.3063,N,07726.2646,W,0.02,20.32,180923,,,A*42
$GPGGA,145423.250,4308.3063,N,07726.2645,W,1,06,1.40,153.3,M,-34.4,M,,*5D
$GPRMC,145423.500,A,4308.3063,N,07726.2645,W,0.03,314.88,180923,,,A*70
$GPGGA,145423.750,4308.3062,N,07726.2645,W,1,06,1.40,153.4,M,-34.4,M,,*5E
$GPRMC,145424.000,A,4308.3062,N,07726.2645,W,0.05,338.67,180923,,,A*7A
$GPGGA,145424.250,4308.3062,N,07726.2645,W,1,06,1.40,153.5,M,-34.4,M,,*5D
$GPRMC,145424.500,A,4308.3062,N,07726.2644,W,0.03,216.05,180923,,,A*71
$GPGGA,145424.750,4308.3062,N,07726.2644,W,1,06,1.40,153.6,M,-34.4,M,,*5A
$GPRMC,145425.000,A,4308.3062,N,07726.2644,W,0.01,66.60,180923,,,A*41
$GPGGA,145425.250,4308.3062,N,07726.2644,W,1,06,1.40,153.8,M,-34.4,M,,*50
$GPRMC,145425.500,A,4308.3062,N,07726.2644,W,0.02,144.28,180923,,,A*7A
$GPGGA,145425.750,4308.3062,N,07726.2644,W,1,06,1.40,153.9,M,-34.4,M,,*54
$GPRMC,145426.000,A,4308.3062,N,07726.2643,W,0.05,150.20,180923,,,A*71
$GPGGA,145426.250,4308.3062,N,07726.2643,W,1,06,1.40,154.1,M,-34.4,M,,*5A
$GPRMC,145426.500,A,4308.3062,N,07726.2643,W,0.02,272.53,180923,,,A*74
$GPGGA,145426.750,4308.3062,N,07726.2643,W,1,06,1.40,154.3,M,-34.4,M,,*5D
$GPRMC,145427.000,A,4308.3062,N,07726.2643,W,0.04,188.57,180923,,,A*74
$GPGGA,145427.250,4308.3062,N,07726.2643,W,1,06,1.40,154.5,M,-34.4,M,,*5F
$GPRMC,145427.500,A,4308.3062,N,07726.2643,W,0.04,88.89,180923,,,A*43
$GPGGA,145427.750,4308.3062,N,07726.2642,W,1,06,1.40,154.7,M,-34.4,M,,*59
$GPRMC,145428.000,A,4308.3062,N,07726.2642,W,0.08,316.25,180923,,,A*76
$GPGGA,145428.250,4308.3062,N,07726.2642,W,1,06,1.40,154.9,M,-34.4,M,,*5D
$GPRMC,145428.500,A,4308.3062,N,07726.2642,W,0.03,232.65,180923,,,A*7B
$GPGGA,145428.750,4308.3062,N,07726.2642,W,1,06,1.40,155.0,M,-34.4,M,,*50
$GPRMC,145429.000,A,4308.3062,N,07726.2641,W,0.01,278.26,180923,,,A*77
$GPGGA,145429.250,4308.3062,N,07726.2641,W,1,06,1.40,155.1,M,-34.4,M,,*56
$GPRMC,145429.500,A,4308.3062,N,07726.2641,W,0.04,55.43,180923,,,A*49
$GPGGA,145429.750,4308.3062,N,07726.2641,W,1,06,1.40,155.1,M,-34.4,M,,*53
$GPRMC,145430.000,A,4308.3062,N,07726.2640,W,0.03,158.67,180923,,,A*78
$GPGGA,145430.250,4308.3062,N,07726.2640,W,1,06,1.40,155.2,M,-34.4,M,,*5C
$GPRMC,145430.500,A,4308.3062,N,07726.2640,W,0.05,347.95,180923,,,A*7A
$GPGGA,145430.750,4308.3062,N,07726.2640,W,1,06,1.53,155.4,M,-34.4,M,,*5D
$GPRMC,145431.000,A,4308.3062,N,07726.2639,W,0.03,2.52,180923,,,A*7F
$GPGGA,145431.250,4308.3062,N,07726.2639,W,1,06,1.53,155.5,M,-34.4,M,,*56
$GPRMC,145431.500,A,4308.3062,N,07726.2639,W,0.02,278.78,180923,,,A*7C
$GPGGA,145431.750,4308.3062,N,07726.2639,W,1,06,1.40,155.6,M,-34.4,M,,*52
$GPRMC,145432.000,A,4308.3062,N,07726.2638,W,0.04,73.02,180923,,,A*49
$GPGGA,145432.250,4308.3062,N,07726.2638,W,1,07,1.33,155.8,M,-34.4,M,,*5E
$GPRMC,145432.500,A,4308.3062,N,07726.2638,W,0.02,158.65,180923,,,A*73
$GPGGA,145432.750,4308.3062,N,07726.2638,W,1,07,1.33,155.9,M,-34.4,M,,*5A
$GPRMC,145433.000,A,4308.3062,N,07726.2637,W,0.02,36.81,180923,,,A*4B
$GPGGA,145433.250,4308.3062,N,07726.2637,W,1,07,1.33,156.1,M,-34.4,M,,*5A
$GPRMC,145433.500,A,4308.3062,N,07726.2637,W,0.03,243.22,180923,,,A*76
$GPGGA,145433.750,4308.3062,N,07726.2636,W,1,07,1.33,156.3,M,-34.4,M,,*5C
$GPRMC,145434.000,A,4308.3062,N,07726.2636,W,0.01,5.56,180923,,,A*74
$GPGGA,145434.250,4308.3062,N,07726.2636,W,1,07,1.42,156.4,M,-34.4,M,,*5F
$GPRMC,145434.500,A,4308.3062,N,07726.2636,W,0.05,91.42,180923,,,A*4D
$GPGGA,145434.750,4308.3062,N,07726.2635,W,1,07,1.33,156.5,M,-34.4,M,,*5E
$GPRMC,145435.000,A,4308.3062,N,07726.2635,W,0.03,30.52,180923,,,A*46
$GPGGA,145435.250,4308.3062,N,07726.2635,W,1,07,1.33,156.6,M,-34.4,M,,*59
$GPRMC,145435.500,A,4308.3062,N,07726.2635,W,0.03,246.76,180923,,,A*76
$GPGGA,145435.750,4308.3062,N,07726.2635,W,1,07,1.33,156.6,M,-34.4,M,,*5C
$GPRMC,145436.000,A,4308.3062,N,07726.2635,W,0.04,309.82,180923,,,A*76
$GPGGA,145436.250,4308.3062,N,07726.2635,W,1,07,1.33,156.6,M,-34.4,M,,*5A
$GPRMC,145436.500,A,4308.3062,N,07726.2635,W,0.02,162.93,180923,,,A*7A
$GPGGA,145436.750,4308.3062,N,07726.2635,W,1,07,1.33,156.6,M,-34.4,M,,*5F
$GPRMC,145437.000,A,4308.3062,N,07726.2635,W,0.02,313.88,180923,,,A*70
$GPGGA,145437.250,4308.3062,N,07726.2635,W,1,07,1.33,156.6,M,-34.4,M,,*5B
$GPRMC,145437.500,A,4308.3062,N,07726.2635,W,0.01,159.64,180923,,,A*78
$GPGGA,145437.750,4308.3062,N,07726.2635,W,1,07,1.33,156.6,M,-34.4,M,,*5E
$GPRMC,145438.000,A,4308.3062,N,07726.2635,W,0.03,192.33,180923,,,A*75
$GPGGA,145438.250,4308.3062,N,07726.2635,W,1,07,1.33,156.6,M,-34.4,M,,*54
$GPRMC,145438.500,A,4308.3062,N,07726.2635,W,0.01,294.09,180923,,,A*7E
$GPGGA,145438.750,4308.3062,N,07726.2635,W,1,07,1.33,156.6,M,-34.4,M,,*51
$GPRMC,145439.000,A,4308.3062,N,07726.2635,W,0.03,11.20,180923,,,A*4C
$GPGGA,145439.250,4308.3062,N,07726.2635,W,1,07,1.42,156.6,M,-34.4,M,,*53
$GPRMC,145439.500,A,4308.3062,N,07726.2635,W,0.04,5.24,180923,,,A*7F
$GPGGA,145439.750,4308.3062,N,07726.2635,W,1,07,1.42,156.7,M,-34.4,M,,*57
$GPRMC,145440.000,A,4308.3062,N,07726.2635,W,0.04,350.83,180923,,,A*7A
$GPGGA,145440.250,4308.3062,N,07726.2635,W,1,07,1.42,156.7,M,-34.4,M,,*5C
$GPRMC,145440.500,A,4308.3062,N,07726.2635,W,0.03,253.28,180923,,,A*7B
$GPGGA,145440.750,4308.3062,N,07726.2635,W,1,07,1.33,156.7,M,-34.4,M,,*5F
$GPRMC,145441.000,A,4308.3062,N,07726.2635,W,0.05,148.74,180923,,,A*79
$GPGGA,145441.250,4308.3062,N,07726.2635,W,1,07,1.33,156.7,M,-34.4,M,,*5B
$GPRMC,145441.500,A,4308.3062,N,07726.2635,W,0.02,139.17,180923,,,A*78
$GPGGA,145441.750,4308.3062,N,07726.2635,W,1,07,1.33,156.7,M,-34.4,M,,*5E
$GPRMC,145442.000,A,4308.3062,N,07726.2635,W,0.03,206.15,180923,,,A*72
$GPGGA,145442.250,4308.3062,N,07726.2635,W,1,07,1.33,156.7,M,-34.4,M,,*58
$GPRMC,145442.500,A,4308.3062,N,07726.2635,W,0.02,202.77,180923,,,A*76
$GPGGA,145442.750,4308.3062,N,07726.2635,W,1,07,1.33,156.7,M,-34.4,M,,*5D
$GPRMC,145443.000,A,4308.3062,N,07726.2635,W,0.03,117.64,180923,,,A*76
$GPGGA,145443.250,4308.3062,N,07726.2635,W,1,07,1.33,156.7,M,-34.4,M,,*59
$GPRMC,145443.500,A,4308.3062,N,07726.2635,W,0.02,69.40,180923,,,A*4C
$GPGGA,145443.750,4308.3062,N,07726.2635,W,1,07,1.33,156.7,M,-34.4,M,,*5C
$GPRMC,145444.000,A,4308.3062,N,07726.2635,W,0.02,92.58,180923,,,A*43
$GPGGA,145444.250,4308.3062,N,07726.2635,W,1,07,1.33,156.7,M,-34.4,M,,*5E
$GPRMC,145444.500,A,4308.3062,N,07726.2635,W,0.02,151.65,180923,,,A*76
$GPGGA,145444.750,4308.3062,N,07726.2635,W,1,07,1.42,156.7,M,-34.4,M,,*5D
$GPRMC,145445.000,A,4308.3062,N,07726.2635,W,0.06,151.82,180923,,,A*7F
$GPGGA,145445.250,4308.3062,N,07726.2635,W,1,07,1.42,156.7,M,-34.4,M,,*59
$GPRMC,145445.500,A,4308.3062,N,07726.2635,W,0.01,261.50,180923,,,A*72
$GPGGA,145445.750,4308.3062,N,07726.2635,W,1,07,1.42,156.7,M,-34.4,M,,*5C
$GPRMC,145446.000,A,4308.3062,N,07726.2635,W,0.01,164.50,180923,,,A*72
$GPGGA,145446.250,4308.3062,N,07726.2635,W,1,07,1.42,156.7,M,-34.4,M,,*5A
$GPRMC,145446.500,A,4308.3062,N,07726.2635,W,0.01,242.88,180923,,,A*75
$GPGGA,145446.750,4308.3062,N,07726.2635,W,1,07,1.42,156.7,M,-34.4,M,,*5F
$GPRMC,145447.000,A,4308.3062,N,07726.2635,W,0.01,324.21,180923,,,A*73
$GPGGA,145447.250,4308.3062,N,07726.2635,W,1,07,1.42,156.7,M,-34.4,M,,*5B
$GPRMC,145447.500,A,4308.3062,N,07726.2635,W,0.01,191.44,180923,,,A*79
$GPGGA,145447.750,4308.3062,N,07726.2635,W,1,07,1.42,156.7,M,-34.4,M,,*5E
$GPRMC,145448.000,A,4308.3062,N,07726.2635,W,0.01,350.63,180923,,,A*79
$GPGGA,145448.250,4308.3062,N,07726.2635,W,1,07,1.42,156.7,M,-34.4,M,,*54
$GPRMC,145448.500,A,4308.3062,N,07726.2635,W,0.01,192.20,180923,,,A*77
$GPGGA,145448.750,4308.3062,N,07726.2635,W,1,07,1.42,156.7,M,-34.4,M,,*51
$GPRMC,145449.000,A,4308.3062,N,07726.2635,W,0.00,0.00,180923,,,A*7A
$GPGGA,145449.250,4308.3062,N,07726.2635,W,1,07,1.42,156.7,M,-34.4,M,,*55
$GPRMC,145449.500,A,4308.3062,N,07726.2635,W,0.00,159.45,180923,,,A*73
$GPGGA,145449.750,4308.3062,N,07726.2635,W,1,07,1.42,156.7,M,-34.4,M,,*50
$GPRMC,145450.000,A,4308.3062,N,07726.2635,W,0.01,53.27,180923,,,A*40
$GPGGA,145450.250,4308.3062,N,07726.2635,W,1,07,1.42,156.7,M,-34.4,M,,*5D
$GPRMC,145450.500,A,4308.3062,N,07726.2635,W,0.01,226.38,180923,,,A*7B
$GPGGA,145450.750,4308.3062,N,07726.2635,W,1,07,1.42,156.7,M,-34.4,M,,*58
$GPRMC,145451.000,A,4308.3062,N,07726.2635,W,0.01,96.44,180923,,,A*4D
$GPGGA,145451.250,4308.3062,N,07726.2635,W,1,07,1.42,156.7,M,-34.4,M,,*5C
$GPRMC,145451.500,A,4308.3062,N,07726.2635,W,0.00,68.98,180923,,,A*49
$GPGGA,145451.750,4308.3062,N,07726.2635,W,1,07,1.42,156.7,M,-34.4,M,,*59
$GPRMC,145452.000,A,4308.3062,N,07726.2635,W,0.00,227.43,180923,,,A*70
$GPGGA,145452.250,4308.3062,N,07726.2635,W,1,07,1.42,156.7,M,-34.4,M,,*5F
$GPRMC,145452.500,A,4308.3062,N,07726.2635,W,0.00,159.09,180923,,,A*71
$GPGGA,145452.750,4308.3062,N,07726.2635,W,1,07,1.42,156.7,M,-34.4,M,,*5A
$GPRMC,145453.000,A,4308.3062,N,07726.2635,W,0.00,267.75,180923,,,A*70
$GPGGA,145453.250,4308.3062,N,07726.2635,W,1,07,1.42,156.7,M,-34.4,M,,*5E
$GPRMC,145453.500,A,4308.3062,N,07726.2635,W,0.00,160.15,180923,,,A*77
$GPGGA,145453.750,4308.3062,N,07726.2635,W,1,07,1.42,156.7,M,-34.4,M,,*5B
$GPRMC,145454.000,A,4308.3062,N,07726.2635,W,0.01,251.19,180923,,,A*79
$GPGGA,145454.250,4308.3062,N,07726.2635,W,1,07,1.42,156.7,M,-34.4,M,,*59
$GPRMC,145454.500,A,4308.3062,N,07726.2635,W,0.01,35.33,180923,,,A*44
$GPGGA,145454.750,4308.3062,N,07726.2635,W,1,07,1.42,156.7,M,-34.4,M,,*5C
$GPRMC,145455.000,A,4308.3062,N,07726.2635,W,0.00,203.73,180923,,,A*72
$GPGGA,145455.250,4308.3062,N,07726.2635,W,1,07,1.42,156.7,M,-34.4,M,,*58
$GPRMC,145455.500,A,4308.3062,N,07726.2635,W,0.01,14.27,180923,,,A*43
$GPGGA,145455.750,4308.3062,N,07726.2635,W,1,07,1.42,156.7,M,-34.4,M,,*5D
$GPRMC,145456.000,A,4308.3062,N,07726.2635,W,0.01,252.02,180923,,,A*72
$GPGGA,145456.250,4308.3062,N,07726.2635,W,1,07,1.42,156.7,M,-34.4,M,,*5B
$GPRMC,145456.500,A,4308.3062,N,07726.2635,W,0.01,158.10,180923,,,A*7D
$GPGGA,145456.750,4308.3062,N,07726.2635,W,1,07,1.42,156.7,M,-34.4,M,,*5E
$GPRMC,145457.000,A,4308.3062,N,07726.2635,W,0.00,113.45,180923,,,A*77
$GPGGA,145457.250,4308.3062,N,07726.2635,W,1,07,1.42,156.7,M,-34.4,M,,*5A
$GPRMC,145457.500,A,4308.3062,N,07726.2635,W,0.00,183.73,180923,,,A*7E
$GPGGA,145457.750,4308.3062,N,07726.2635,W,1,07,1.42,156.7,M,-34.4,M,,*5F
$GPRMC,145458.000,A,4308.3062,N,07726.2635,W,0.01,103.36,180923,,,A*7C
$GPGGA,145458.250,4308.3062,N,07726.2635,W,1,07,1.42,156.7,M,-34.4,M,,*55
$GPRMC,145458.500,A,4308.3062,N,07726.2635,W,0.01,298.38,180923,,,A*76
$GPGGA,145458.750,4308.3062,N,07726.2635,W,1,07,1.42,156.7,M,-34.4,M,,*50
$GPRMC,145459.000,A,4308.3062,N,07726.2635,W,0.01,107.90,180923,,,A*75
$GPGGA,145459.250,4308.3062,N,07726.2635,W,1,07,1.42,156.7,M,-34.4,M,,*54
$GPRMC,145459.500,A,4308.3062,N,07726.2635,W,0.01,183.00,180923,,,A*75
$GPGGA,145459.750,4308.3062,N,07726.2635,W,1,07,1.42,156.7,M,-34.4,M,,*51
$GPRMC,145500.000,A,4308.3062,N,07726.2635,W,0.01,325.12,180923,,,A*70
$GPGGA,145500.250,4308.3062,N,07726.2635,W,1,07,1.42,156.7,M,-34.4,M,,*59
$GPRMC,145500.500,A,4308.3062,N,07726.2635,W,0.00,191.77,180923,,,A*7A
$GPGGA,145500.750,4308.3062,N,07726.2635,W,1,07,1.42,156.7,M,-34.4,M,,*5C
$GPRMC,145501.000,A,4308.3062,N,07726.2635,W,0.01,228.98,180923,,,A*7F
$GPGGA,145501.250,4308.3062,N,07726.2635,W,1,07,1.42,156.7,M,-34.4,M,,*58
$GPRMC,145501.500,A,4308.3062,N,07726.2635,W,0.01,3.59,180923,,,A*7C
$GPGGA,145501.750,4308.3062,N,07726.2635,W,1,07,1.42,156.7,M,-34.4,M,,*5D
$GPRMC,145502.000,A,4308.3062,N,07726.2635,W,0.00,358.65,180923,,,A*79
$GPGGA,145502.250,4308.3062,N,07726.2635,W,1,07,1.42,156.7,M,-34.4,M,,*5B
$GPRMC,145502.500,A,4308.3062,N,07726.2635,W,0.00,130.63,180923,,,A*76
$GPGGA,145502.750,4308.3062,N,07726.2635,W,1,07,1.42,156.7,M,-34.4,M,,*5E
$GPRMC,145503.000,A,4308.3062,N,07726.2635,W,0.01,121.56,180923,,,A*75
$GPGGA,145503.250,4308.3062,N,07726.2635,W,1,07,1.42,156.7,M,-34.4,M,,*5A
$GPRMC,145503.500,A,4308.3062,N,07726.2635,W,0.01,255.24,180923,,,A*75
$GPGGA,145503.750,4308.3062,N,07726.2635,W,1,07,1.42,156.7,M,-34.4,M,,*5F
$GPRMC,145504.000,A,4308.3062,N,07726.2635,W,0.00,143.70,180923,,,A*73
$GPGGA,145504.250,4308.3062,N,07726.2635,W,1,07,1.42,156.7,M,-34.4,M,,*5D
$GPRMC,145504.500,A,4308.3062,N,07726.2635,W,0.00,101.26,180923,,,A*73
$GPGGA,145504.750,4308.3062,N,07726.2635,W,1,07,1.42,156.7,M,-34.4,M,,*58
$GPRMC,145505.000,A,4308.3062,N,07726.2635,W,0.01,3.28,180923,,,A*7B
$GPGGA,145505.250,4308.3062,N,07726.2635,W,1,07,1.42,156.7,M,-34.4,M,,*5C
$GPRMC,145505.500,A,4308.3062,N,07726.2635,W,0.00,135.17,180923,,,A*77
$GPGGA,145505.750,4308.3062,N,07726.2635,W,1,07,1.42,156.7,M,-34.4,M,,*59
$GPRMC,145506.000,A,4308.3062,N,07726.2635,W,0.00,334.56,180923,,,A*77
$GPGGA,145506.250,4308.3062,N,07726.2635,W,1,07,1.42,156.7,M,-34.4,M,,*5F
$GPRMC,145506.500,A,4308.3062,N,07726.2635,W,0.00,195.69,180923,,,A*77
$GPGGA,145506.750,4308.3062,N,07726.2635,W,1,07,1.42,156.7,M,-34.4,M,,*5A
$GPRMC,145507.000,A,4308.3062,N,07726.2635,W,0.00,40.70,180923,,,A*42
$GPGGA,145507.250,4308.3062,N,07726.2635,W,1,07,1.42,156.7,M,-34.4,M,,*5E
$GPRMC,145507.500,A,4308.3062,N,07726.2635,W,0.00,277.53,180923,,,A*70
$GPGGA,145507.750,4308.3062,N,07726.2635,W,1,07,1.42,156.7,M,-34.4,M,,*5B
$GPRMC,145508.000,A,4308.3062,N,07726.2635,W,0.00,198.94,180923,,,A*73
$GPGGA,145508.250,4308.3062,N,07726.2635,W,1,07,1.42,156.7,M,-34.4,M,,*51
$GPRMC,145508.500,A,4308.3062,N,07726.2635,W,0.00,28.67,180923,,,A*40
$GPGGA,145508.750,4308.3062,N,07726.2635,W,1,07,1.42,156.7,M,-34.4,M,,*54
$GPRMC,145509.000,A,4308.3062,N,07726.2635,W,0.01,350.78,180923,,,A*77
$GPGGA,145509.250,4308.3062,N,07726.2635,W,1,07,1.42,156.7,M,-34.4,M,,*50
$GPRMC,145509.500,A,4308.3062,N,07726.2635,W,0.00,0.00,180923,,,A*7A
$GPGGA,145509.750,4308.3062,N,07726.2635,W,1,07,1.42,156.7,M,-34.4,M,,*55
$GPRMC,145510.000,A,4308.3062,N,07726.2635,W,0.01,52.56,180923,,,A*42
$GPGGA,145510.250,4308.3062,N,07726.2635,W,1,07,1.42,156.7,M,-34.4,M,,*58
$GPRMC,145510.500,A,4308.3062,N,07726.2635,W,0.01,343.45,180923,,,A*76
$GPGGA,145510.750,4308.3062,N,07726.2635,W,1,07,1.42,156.7,M,-34.4,M,,*5D
$GPRMC,145511.000,A,4308.3062,N,07726.2635,W,0.00,259.22,180923,,,A*78
$GPGGA,145511.250,4308.3062,N,07726.2635,W,1,07,1.42,156.7,M,-34.4,M,,*59
$GPRMC,145511.500,A,4308.3062,N,07726.2635,W,0.01,143.10,180923,,,A*75
$GPGGA,145511.750,4308.3062,N,07726.2635,W,1,07,1.42,156.7,M,-34.4,M,,*5C
$GPRMC,145512.000,A,4308.3062,N,07726.2635,W,0.01,115.72,180923,,,A*74
$GPGGA,145512.250,4308.3062,N,07726.2635,W,1,07,1.42,156.7,M,-34.4,M,,*5A
$GPRMC,145512.500,A,4308.3062,N,07726.2635,W,0.00,216.34,180923,,,A*72
$GPGGA,145512.750,4308.3062,N,07726.2635,W,1,07,1.42,156.7,M,-34.4,M,,*5F
$GPRMC,145513.000,A,4308.3062,N,07726.2635,W,0.00,235.97,180923,,,A*7E
$GPGGA,145513.250,4308.3062,N,07726.2635,W,1,07,1.42,156.7,M,-34.4,M,,*5B
$GPRMC,145513.500,A,4308.3062,N,07726.2635,W,0.00,76.16,180923,,,A*47
$GPGGA,145513.750,4308.3062,N,07726.2635,W,1,07,1.42,156.7,M,-34.4,M,,*5E
$GPRMC,145514.000,A,4308.3062,N,07726.2635,W,0.00,207.37,180923,,,A*72
$GPGGA,145514.250,4308.3062,N,07726.2635,W,1,07,1.42,156.7,M,-34.4,M,,*5C
$GPRMC,145514.500,A,4308.3062,N,07726.2635,W,0.01,341.79,180923,,,A*7F
$GPGGA,145514.750,4308.3062,N,07726.2635,W,1,07,1.42,156.7,M,-34.4,M,,*59
$GPRMC,145515.000,A,4308.3062,N,07726.2635,W,0.01,43.24,180923,,,A*42
$GPGGA,145515.250,4308.3062,N,07726.2635,W,1,07,1.42,156.7,M,-34.4,M,,*5D
$GPRMC,145515.500,A,4308.3062,N,07726.2635,W,0.00,189.78,180923,,,A*78
$GPGGA,145515.750,4308.3062,N,07726.2635,W,1,07,1.42,156.7,M,-34.4,M,,*58
$GPRMC,145516.000,A,4308.3062,N,07726.2635,W,0.01,332.91,180923,,,A*7A
$GPGGA,145516.250,4308.3062,N,07726.2635,W,1,07,1.42,156.7,M,-34.4,M,,*5E
$GPRMC,145516.500,A,4308.3062,N,07726.2635,W,0.01,28.85,180923,,,A*42
$GPGGA,145516.750,4308.3062,N,07726.2635,W,1,07,1.42,156.7,M,-34.4,M,,*5B
$GPRMC,145517.000,A,4308.3062,N,07726.2635,W,0.01,173.64,180923,,,A*76
$GPGGA,145517.250,4308.3062,N,07726.2635,W,1,07,1.42,156.7,M,-34.4,M,,*5F
$GPRMC,145517.500,A,4308.3062,N,07726.2635,W,0.01,127.91,180923,,,A*78
$GPGGA,145517.750,4308.3062,N,07726.2635,W,1,07,1.42,156.7,M,-34.4,M,,*5A
$GPRMC,145518.000,A,4308.3062,N,07726.2635,W,0.01,48.91,180923,,,A*4A
$GPGGA,145518.250,4308.3062,N,07726.2635,W,1,07,1.42,156.7,M,-34.4,M,,*50
$GPRMC,145518.500,A,4308.3062,N,07726.2635,W,0.01,249.86,180923,,,A*7A
$GPGGA,145518.750,4308.3062,N,07726.2635,W,1,07,1.42,156.7,M,-34.4,M,,*55
$GPRMC,145519.000,A,4308.3062,N,07726.2635,W,0.01,94.09,180923,,,A*4B
$GPGGA,145519.250,4308.3062,N,07726.2635,W,1,07,1.42,156.7,M,-34.4,M,,*51
$GPRMC,145519.500,A,4308.3062,N,07726.2635,W,0.01,27.24,180923,,,A*49
$GPGGA,145519.750,4308.3062,N,07726.2635,W,1,07,1.42,156.7,M,-34.4,M,,*54
$GPRMC,145520.000,A,4308.3062,N,07726.2635,W,0.00,311.51,180923,,,A*73
$GPGGA,145520.250,4308.3062,N,07726.2635,W,1,07,1.42,156.7,M,-34.4,M,,*5B
$GPRMC,145520.500,A,4308.3062,N,07726.2635,W,0.01,3.30,180923,,,A*70
$GPGGA,145520.750,4308.3062,N,07726.2635,W,1,07,1.42,156.7,M,-34.4,M,,*5E
$GPRMC,145521.000,A,4308.3062,N,07726.2635,W,0.00,243.17,180923,,,A*76
$GPGGA,145521.250,4308.3062,N,07726.2635,W,1,07,1.42,156.7,M,-34.4,M,,*5A
$GPRMC,145521.500,A,4308.3062,N,07726.2635,W,0.00,160.73,180923,,,A*73
$GPGGA,145521.750,4308.3062,N,07726.2635,W,1,07,1.42,156.7,M,-34.4,M,,*5F
$GPRMC,145522.000,A,4308.3062,N,07726.2635,W,0.00,338.00,180923,,,A*7E
$GPGGA,145522.250,4308.3062,N,07726.2635,W,1,07,1.42,156.7,M,-34.4,M,,*59
$GPRMC,145522.500,A,4308.3062,N,07726.2635,W,0.01,169.03,180923,,,A*7F
$GPGGA,145522.750,4308.3062,N,07726.2635,W,1,07,1.42,156.7,M,-34.4,M,,*5C
$GPRMC,145523.000,A,4308.3062,N,07726.2635,W,0.01,321.59,180923,,,A*7A
$GPGGA,145523.250,4308.3062,N,07726.2635,W,1,07,1.42,156.7,M,-34.4,M,,*58
$GPRMC,145523.500,A,4308.3062,N,07726.2635,W,0.00,351.77,180923,,,A*75
$GPGGA,145523.750,4308.3062,N,07726.2635,W,1,07,1.42,156.7,M,-34.4,M,,*5D
$GPRMC,145524.000,A,4308.3062,N,07726.2635,W,0.01,12.03,180923,,,A*41
$GPGGA,145524.250,4308.3062,N,07726.2635,W,1,07,1.42,156.7,M,-34.4,M,,*5F
$GPRMC,145524.500,A,4308.3062,N,07726.2635,W,0.01,324.25,180923,,,A*76
$GPGGA,145524.750,4308.3062,N,07726.2635,W,1,07,1.42,156.7,M,-34.4,M,,*5A
$GPRMC,145525.000,A,4308.3062,N,07726.2635,W,0.01,97.20,180923,,,A*4C
$GPGGA,145525.250,4308.3062,N,07726.2635,W,1,07,1.42,156.7,M,-34.4,M,,*5E
$GPRMC,145525.500,A,4308.3062,N,07726.2635,W,0.01,83.44,180923,,,A*4E
$GPGGA,145525.750,4308.3062,N,07726.2635,W,1,07,1.42,156.7,M,-34.4,M,,*5B
$GPRMC,145526.000,A,4308.3062,N,07726.2635,W,0.00,317.43,180923,,,A*70
$GPGGA,145526.250,4308.3062,N,07726.2635,W,1,07,1.42,156.7,M,-34.4,M,,*5D
$GPRMC,145526.500,A,4308.3062,N,07726.2635,W,0.00,162.83,180923,,,A*79
$GPGGA,145526.750,4308.3062,N,07726.2635,W,1,07,1.42,156.7,M,-34.4,M,,*58
$GPRMC,145527.000,A,4308.3062,N,07726.2635,W,0.01,26.84,180923,,,A*4A
$GPGGA,145527.250,4308.3062,N,07726.2635,W,1,07,1.42,156.7,M,-34.4,M,,*5C
$GPRMC,145527.500,A,4308.3062,N,07726.2635,W,0.00,341.75,180923,,,A*72
$GPGGA,145527.750,4308.3062,N,07726.2635,W,1,07,1.42,156.7,M,-34.4,M,,*59
$GPRMC,145528.000,A,4308.3062,N,07726.2635,W,0.01,188.98,180923,,,A*7D
$GPGGA,145528.250,4308.3062,N,07726.2635,W,1,07,1.42,156.7,M,-34.4,M,,*53
$GPRMC,145528.500,A,4308.3062,N,07726.2635,W,0.01,16.71,180923,,,A*49
$GPGGA,145528.750,4308.3062,N,07726.2635,W,1,07,1.42,156.7,M,-34.4,M,,*56
$GPRMC,145529.000,A,4308.3062,N,07726.2635,W,0.02,214.37,180923,,,A*7C
$GPGGA,145529.250,4308.3062,N,07726.2635,W,1,07,1.42,156.7,M,-34.4,M,,*52
$GPRMC,145529.500,A,4308.3062,N,07726.2635,W,0.01,306.05,180923,,,A*79
$GPGGA,145529.750,4308.3062,N,07726.2635,W,1,07,1.42,156.7,M,-34.4,M,,*57
$GPRMC,145530.000,A,4308.3062,N,07726.2635,W,0.01,212.59,180923,,,A*79
$GPGGA,145530.250,4308.3062,N,07726.2635,W,1,07,1.42,156.7,M,-34.4,M,,*5A
$GPRMC,145530.500,A,4308.3062,N,07726.2635,W,0.01,210.33,180923,,,A*72
$GPGGA,145530.750,4308.3062,N,07726.2635,W,1,07,1.42,156.7,M,-34.4,M,,*5F
$GPRMC,145531.000,A,4308.3062,N,07726.2635,W,0.00,163.42,180923,,,A*76
$GPGGA,145531.250,4308.3062,N,07726.2635,W,1,07,1.42,156.7,M,-34.4,M,,*5B
$GPRMC,145531.500,A,4308.3062,N,07726.2635,W,0.00,244.67,180923,,,A*72
$GPGGA,145531.750,4308.3062,N,07726.2635,W,1,07,1.42,156.7,M,-34.4,M,,*5E
$GPRMC,145532.000,A,4308.3062,N,07726.2635,W,0.01,332.22,180923,,,A*74
$GPGGA,145532.250,4308.3062,N,07726.2635,W,1,07,1.42,156.7,M,-34.4,M,,*58
$GPRMC,145532.500,A,4308.3062,N,07726.2635,W,0.01,57.40,180923,,,A*45
$GPGGA,145532.750,4308.3062,N,07726.2635,W,1,07,1.42,156.7,M,-34.4,M,,*5D
$GPRMC,145533.000,A,4308.3062,N,07726.2635,W,0.01,258.20,180923,,,A*7A
$GPGGA,145533.250,4308.3062,N,07726.2635,W,1,07,1.42,156.7,M,-34.4,M,,*59
$GPRMC,145533.500,A,4308.3062,N,07726.2635,W,0.01,318.01,180923,,,A*79
$GPGGA,145533.750,4308.3062,N,07726.2635,W,1,07,1.42,156.7,M,-34.4,M,,*5C
$GPRMC,145534.000,A,4308.3062,N,07726.2635,W,0.01,300.13,180923,,,A*71
$GPGGA,145534.250,4308.3062,N,07726.2635,W,1,07,1.42,156.7,M,-34.4,M,,*5E
$GPRMC,145534.500,A,4308.3062,N,07726.2635,W,0.01,282.23,180923,,,A*7C
$GPGGA,145534.750,4308.3062,N,07726.2635,W,1,07,1.42,156.7,M,-34.4,M,,*5B
$GPRMC,145535.000,A,4308.3062,N,07726.2635,W,0.00,358.67,180923,,,A*7F
$GPGGA,145535.250,4308.3062,N,07726.2635,W,1,07,1.42,156.7,M,-34.4,M,,*5F
$GPRMC,145535.500,A,4308.3062,N,07726.2635,W,0.01,292.88,180923,,,A*7D
$GPGGA,145535.750,4308.3062,N,07726.2635,W,1,07,1.42,156.7,M,-34.4,M,,*5A
$GPRMC,145536.000,A,4308.3062,N,07726.2635,W,0.01,4.83,180923,,,A*7D
$GPGGA,145536.250,4308.3062,N,07726.2635,W,1,07,1.42,156.7,M,-34.4,M,,*5C
$GPRMC,145536.500,A,4308.3062,N,07726.2635,W,0.00,164.41,180923,,,A*70
$GPGGA,145536.750,4308.3062,N,07726.2635,W,1,07,1.42,156.7,M,-34.4,M,,*59
$GPRMC,145537.000,A,4308.3062,N,07726.2635,W,0.01,4.03,180923,,,A*74
$GPGGA,145537.250,4308.3062,N,07726.2635,W,1,07,1.42,156.7,M,-34.4,M,,*5D
$GPRMC,145537.500,A,4308.3062,N,07726.2635,W,0.00,36.08,180923,,,A*4A
$GPGGA,145537.750,4308.3062,N,07726.2635,W,1,07,1.42,156.7,M,-34.4,M,,*58
$GPRMC,145538.000,A,4308.3062,N,07726.2635,W,0.00,327.53,180923,,,A*7D
$GPGGA,145538.250,4308.3062,N,07726.2635,W,1,07,1.42,156.7,M,-34.4,M,,*52
$GPRMC,145538.500,A,4308.3062,N,07726.2635,W,0.01,0.43,180923,,,A*7E
$GPGGA,145538.750,4308.3062,N,07726.2635,W,1,07,1.42,156.7,M,-34.4,M,,*57
$GPRMC,145539.000,A,4308.3062,N,07726.2635,W,0.00,274.61,180923,,,A*7A
$GPGGA,145539.250,4308.3062,N,07726.2635,W,1,07,1.42,156.7,M,-34.4,M,,*53
$GPRMC,145539.500,A,4308.3062,N,07726.2635,W,0.01,36.51,180923,,,A*49
$GPGGA,145539.750,4308.3062,N,07726.2635,W,1,07,1.42,156.7,M,-34.4,M,,*56
$GPRMC,145540.000,A,4308.3062,N,07726.2635,W,0.00,219.10,180923,,,A*79
$GPGGA,145540.250,4308.3062,N,07726.2635,W,1,07,1.42,156.7,M,-34.4,M,,*5D
$GPRMC,145540.500,A,4308.3062,N,07726.2635,W,0.00,41.29,180923,,,A*49
$GPGGA,145540.750,4308.3062,N,07726.2635,W,1,07,1.42,156.7,M,-34.4,M,,*58
$GPRMC,145541.000,A,4308.3062,N,07726.2635,W,0.01,291.37,180923,,,A*7C
$GPGGA,145541.250,4308.3062,N,07726.2635,W,1,07,1.42,156.7,M,-34.4,M,,*5C
$GPRMC,145541.500,A,4308.3062,N,07726.2635,W,0.00,261.63,180923,,,A*76
$GPGGA,145541.750,4308.3062,N,07726.2635,W,1,07,1.42,156.8,M,-34.4,M,,*56
$GPRMC,145542.000,A,4308.3062,N,07726.2635,W,0.00,43.30,180923,,,A*44
$GPGGA,145542.250,4308.3062,N,07726.2635,W,1,07,1.42,156.8,M,-34.4,M,,*50
$GPRMC,145542.500,A,4308.3062,N,07726.2635,W,0.01,338.86,180923,,,A*72
$GPGGA,145542.750,4308.3062,N,07726.2635,W,1,07,1.42,156.8,M,-34.4,M,,*55
$GPRMC,145543.000,A,4308.3062,N,07726.2635,W,0.01,98.36,180923,,,A*44
$GPGGA,145543.250,4308.3062,N,07726.2635,W,1,07,1.42,156.8,M,-34.4,M,,*51
$GPRMC,145543.500,A,4308.3062,N,07726.2635,W,0.01,2.37,180923,,,A*73
$GPGGA,145543.750,4308.3062,N,07726.2635,W,1,07,1.42,156.8,M,-34.4,M,,*54
$GPRMC,145544.000,A,4308.3062,N,07726.2635,W,0.01,5.99,180923,,,A*72
$GPGGA,145544.250,4308.3062,N,07726.2635,W,1,07,1.42,156.8,M,-34.4,M,,*56
$GPRMC,145544.500,A,4308.3062,N,07726.2635,W,0.00,150.00,180923,,,A*77
$GPGGA,145544.750,4308.3062,N,07726.2635,W,1,07,1.42,156.8,M,-34.4,M,,*53
$GPRMC,145545.000,A,4308.3062,N,07726.2635,W,0.01,110.14,180923,,,A*73
$GPGGA,145545.250,4308.3062,N,07726.2635,W,1,07,1.42,156.8,M,-34.4,M,,*57
$GPRMC,145545.500,A,4308.3062,N,07726.2635,W,0.01,55.68,180923,,,A*4D
$GPGGA,145545.750,4308.3062,N,07726.2635,W,1,07,1.42,156.8,M,-34.4,M,,*52
$GPRMC,145546.000,A,4308.3062,N,07726.2635,W,0.00,247.15,180923,,,A*71
$GPGGA,145546.250,4308.3062,N,07726.2635,W,1,07,1.42,156.8,M,-34.4,M,,*54
$GPRMC,145546.500,A,4308.3062,N,07726.2635,W,0.00,7.25,180923,,,A*71
$GPGGA,145546.750,4308.3062,N,07726.2635,W,1,07,1.42,156.8,M,-34.4,M,,*51
$GPRMC,145547.000,A,4308.3062,N,07726.2635,W,0.01,340.26,180923,,,A*77
$GPGGA,145547.250,4308.3062,N,07726.2635,W,1,07,1.42,156.8,M,-34.4,M,,*55
$GPRMC,145547.500,A,4308.3062,N,07726.2635,W,0.00,335.34,180923,,,A*72
$GPGGA,145547.750,4308.3062,N,07726.2635,W,1,07,1.42,156.8,M,-34.4,M,,*50
$GPRMC,145548.000,A,4308.3062,N,07726.2635,W,0.01,278.72,180923,,,A*73
$GPGGA,145548.250,4308.3062,N,07726.2635,W,1,07,1.42,156.8,M,-34.4,M,,*5A
$GPRMC,145548.500,A,4308.3062,N,07726.2635,W,0.00,345.46,180923,,,A*7F
$GPGGA,145548.750,4308.3062,N,07726.2635,W,1,07,1.42,156.8,M,-34.4,M,,*5F
$GPRMC,145549.000,A,4308.3062,N,07726.2635,W,0.01,41.74,180923,,,A*4C
$GPGGA,145549.250,4308.3062,N,07726.2635,W,1,07,1.42,156.8,M,-34.4,M,,*5B
$GPRMC,145549.500,A,4308.3062,N,07726.2635,W,0.00,128.75,180923,,,A*77
$GPGGA,145549.750,4308.3062,N,07726.2635,W,1,07,1.42,156.8,M,-34.4,M,,*5E
$GPRMC,145550.000,A,4308.3062,N,07726.2635,W,0.01,42.38,180923,,,A*4F
$GPGGA,145550.250,4308.3062,N,07726.2635,W,1,07,1.42,156.8,M,-34.4,M,,*53
$GPRMC,145550.500,A,4308.3062,N,07726.2635,W,0.01,163.90,180923,,,A*7A
$GPGGA,145550.750,4308.3062,N,07726.2635,W,1,07,1.42,156.8,M,-34.4,M,,*56
$GPRMC,145551.000,A,4308.3062,N,07726.2635,W,0.01,348.31,180923,,,A*7E
$GPGGA,145551.250,4308.3062,N,07726.2635,W,1,07,1.42,156.8,M,-34.4,M,,*52
$GPRMC,145551.500,A,4308.3062,N,07726.2635,W,0.01,255.97,180923,,,A*7A
$GPGGA,145551.750,4308.3062,N,07726.2635,W,1,07,1.42,156.8,M,-34.4,M,,*57
$GPRMC,145552.000,A,4308.3062,N,07726.2635,W,0.01,311.86,180923,,,A*7D
$GPGGA,145552.250,4308.3062,N,07726.2635,W,1,07,1.42,156.8,M,-34.4,M,,*51
$GPRMC,145552.500,A,4308.3062,N,07726.2635,W,0.00,0.00,180923,,,A*74
$GPGGA,145552.750,4308.3062,N,07726.2635,W,1,07,1.42,156.8,M,-34.4,M,,*54
$GPRMC,145553.000,A,4308.3062,N,07726.2635,W,0.00,61.91,180923,,,A*4F
$GPGGA,145553.250,4308.3062,N,07726.2635,W,1,07,1.42,156.8,M,-34.4,M,,*50
$GPRMC,145553.500,A,4308.3062,N,07726.2635,W,0.00,44.32,180923,,,A*44
$GPGGA,145553.750,4308.3062,N,07726.2635,W,1,07,1.42,156.8,M,-34.4,M,,*55
$GPRMC,145554.000,A,4308.3062,N,07726.2635,W,0.01,233.98,180923,,,A*75
$GPGGA,145554.250,4308.3062,N,07726.2635,W,1,07,1.42,156.8,M,-34.4,M,,*57
$GPRMC,145554.500,A,4308.3062,N,07726.2635,W,0.00,258.10,180923,,,A*7C
$GPGGA,145554.750,4308.3062,N,07726.2635,W,1,07,1.42,156.8,M,-34.4,M,,*52
$GPRMC,145555.000,A,4308.3062,N,07726.2635,W,0.01,290.36,180923,,,A*79
$GPGGA,145555.250,4308.3062,N,07726.2635,W,1,07,1.42,156.8,M,-34.4,M,,*56
$GPRMC,145555.500,A,4308.3062,N,07726.2635,W,0.01,84.98,180923,,,A*4F
$GPGGA,145555.750,4308.3062,N,07726.2635,W,1,07,1.42,156.8,M,-34.4,M,,*53
$GPRMC,145556.000,A,4308.3062,N,07726.2635,W,0.00,338.31,180923,,,A*7F
$GPGGA,145556.250,4308.3062,N,07726.2635,W,1,07,1.42,156.8,M,-34.4,M,,*55
$GPRMC,145556.500,A,4308.3062,N,07726.2635,W,0.00,92.23,180923,,,A*4A
$GPGGA,145556.750,4308.3062,N,07726.2635,W,1,07,1.42,156.8,M,-34.4,M,,*50
$GPRMC,145557.000,A,4308.3062,N,07726.2635,W,0.00,286.62,180923,,,A*7C
$GPGGA,145557.250,4308.3062,N,07726.2635,W,1,07,1.42,156.8,M,-34.4,M,,*54
$GPRMC,145557.500,A,4308.3062,N,07726.2635,W,0.01,7.54,180923,,,A*76
$GPGGA,145557.750,4308.3062,N,07726.2635,W,1,07,1.42,156.8,M,-34.4,M,,*51
$GPRMC,145558.000,A,4308.3062,N,07726.2635,W,0.00,62.02,180923,,,A*4D
$GPGGA,145558.250,4308.3062,N,07726.2636,W,1,07,1.42,156.7,M,-34.4,M,,*57
$GPRMC,145558.500,A,4308.3061,N,07726.2636,W,0.01,83.95,180923,,,A*48
$GPGGA,145558.750,4308.3062,N,07726.2636,W,1,07,1.42,156.7,M,-34.4,M,,*52
$GPRMC,145559.000,A,4308.3061,N,07726.2636,W,0.01,262.25,180923,,,A*7A
$GPGGA,145559.250,4308.3061,N,07726.2636,W,1,07,1.42,156.7,M,-34.4,M,,*55
$GPRMC,145559.500,A,4308.3061,N,07726.2636,W,0.01,92.75,180923,,,A*47
$GPGGA,145559.750,4308.3061,N,07726.2636,W,1,07,1.42,156.7,M,-34.4,M,,*50
$GPRMC,145600.000,A,4308.3061,N,07726.2636,W,0.01,172.11,180923,,,A*70
$GPGGA,145600.250,4308.3061,N,07726.2636,W,1,07,1.42,156.7,M,-34.4,M,,*5A
$GPRMC,145600.500,A,4308.3061,N,07726.2636,W,0.01,11.43,180923,,,A*46
$GPGGA,145600.750,4308.3061,N,07726.2637,W,1,07,1.42,156.7,M,-34.4,M,,*5E
$GPRMC,145601.000,A,4308.3061,N,07726.2637,W,0.01,159.75,180923,,,A*7B
$GPGGA,145601.250,4308.3061,N,07726.2637,W,1,07,1.42,156.7,M,-34.4,M,,*5A
$GPRMC,145601.500,A,4308.3061,N,07726.2637,W,0.00,226.09,180923,,,A*7F
$GPGGA,145601.750,4308.3061,N,07726.2637,W,1,07,1.42,156.7,M,-34.4,M,,*5F
$GPRMC,145602.000,A,4308.3061,N,07726.2637,W,0.01,330.32,180923,,,A*76
$GPGGA,145602.250,4308.3061,N,07726.2637,W,1,07,1.42,156.7,M,-34.4,M,,*59
$GPRMC,145602.500,A,4308.3061,N,07726.2637,W,0.01,355.37,180923,,,A*75
$GPGGA,145602.750,4308.3061,N,07726.2637,W,1,07,1.42,156.6,M,-34.4,M,,*5D
$GPRMC,145603.000,A,4308.3061,N,07726.2637,W,0.00,296.61,180923,,,A*7D
$GPGGA,145603.250,4308.3061,N,07726.2638,W,1,07,1.42,156.6,M,-34.4,M,,*56
$GPRMC,145603.500,A,4308.3061,N,07726.2638,W,0.01,54.99,180923,,,A*4D
$GPGGA,145603.750,4308.3061,N,07726.2638,W,1,07,1.42,156.6,M,-34.4,M,,*53
$GPRMC,145604.000,A,4308.3061,N,07726.2638,W,0.01,266.74,180923,,,A*7F
$GPGGA,145604.250,4308.3061,N,07726.2638,W,1,07,1.42,156.6,M,-34.4,M,,*51
$GPRMC,145604.500,A,4308.3061,N,07726.2638,W,0.00,122.51,180923,,,A*7F
$GPGGA,145604.750,4308.3061,N,07726.2638,W,1,07,1.42,156.6,M,-34.4,M,,*54
$GPRMC,145605.000,A,4308.3061,N,07726.2638,W,0.00,147.13,180923,,,A*7E
$GPGGA,145605.250,4308.3061,N,07726.2639,W,1,07,1.42,156.6,M,-34.4,M,,*51
$GPRMC,145605.500,A,4308.3061,N,07726.2639,W,0.00,317.53,180923,,,A*79
$GPGGA,145605.750,4308.3060,N,07726.2639,W,1,07,1.42,156.6,M,-34.4,M,,*55
$GPRMC,145606.000,A,4308.3060,N,07726.2639,W,0.00,239.33,180923,,,A*75
$GPGGA,145606.250,4308.3060,N,07726.2639,W,1,07,1.42,156.6,M,-34.4,M,,*53
$GPRMC,145606.500,A,4308.3060,N,07726.2639,W,0.01,307.54,180923,,,A*7C
$GPGGA,145606.750,4308.3060,N,07726.2640,W,1,07,1.42,156.6,M,-34.4,M,,*58
$GPRMC,145607.000,A,4308.3060,N,07726.2640,W,0.01,23.41,180923,,,A*47
$GPGGA,145607.250,4308.3060,N,07726.2640,W,1,07,1.42,156.6,M,-34.4,M,,*5C
$GPRMC,145607.500,A,4308.3060,N,07726.2640,W,0.01,124.12,180923,,,A*72
$GPGGA,145607.750,4308.3060,N,07726.2641,W,1,07,1.42,156.7,M,-34.4,M,,*59
$GPRMC,145608.000,A,4308.3060,N,07726.2641,W,0.01,121.12,180923,,,A*7C
$GPGGA,145608.250,4308.3060,N,07726.2641,W,1,07,1.42,156.7,M,-34.4,M,,*53
$GPRMC,145608.500,A,4308.3060,N,07726.2641,W,0.00,232.05,180923,,,A*7F
$GPGGA,145608.750,4308.3060,N,07726.2641,W,1,07,1.42,156.7,M,-34.4,M,,*56
$GPRMC,145609.000,A,4308.3060,N,07726.2641,W,0.00,0.00,180923,,,A*7D
$GPGGA,145609.250,4308.3060,N,07726.2641,W,1,07,1.42,156.7,M,-34.4,M,,*52
$GPRMC,145609.500,A,4308.3060,N,07726.2641,W,0.00,208.88,180923,,,A*72
$GPGGA,145609.750,4308.3060,N,07726.2641,W,1,07,1.42,156.7,M,-34.4,M,,*57
$GPRMC,145610.000,A,4308.3060,N,07726.2641,W,0.01,219.92,180923,,,A*75
$GPGGA,145610.250,4308.3060,N,07726.2641,W,1,07,1.42,156.7,M,-34.4,M,,*5A
$GPRMC,145610.500,A,4308.3060,N,07726.2641,W,0.01,321.44,180923,,,A*71
$GPGGA,145610.750,4308.3060,N,07726.2641,W,1,07,1.42,156.7,M,-34.4,M,,*5F
$GPRMC,145611.000,A,4308.3060,N,07726.2641,W,0.01,154.50,180923,,,A*70
$GPGGA,145611.250,4308.3060,N,07726.2641,W,1,07,1.42,156.7,M,-34.4,M,,*5B
$GPRMC,145611.500,A,4308.3060,N,07726.2641,W,0.00,356.96,180923,,,A*7E
$GPGGA,145611.750,4308.3060,N,07726.2641,W,1,07,1.42,156.7,M,-34.4,M,,*5E
$GPRMC,145612.000,A,4308.3060,N,07726.2641,W,0.01,267.02,180923,,,A*77
$GPGGA,145612.250,4308.3060,N,07726.2641,W,1,07,1.42,156.7,M,-34.4,M,,*58
$GPRMC,145612.500,A,4308.3060,N,07726.2641,W,0.01,119.43,180923,,,A*7D
$GPGGA,145612.750,4308.3060,N,07726.2641,W,1,07,1.42,156.7,M,-34.4,M,,*5D
$GPRMC,145613.000,A,4308.3060,N,07726.2641,W,0.01,239.58,180923,,,A*72
$GPGGA,145613.250,4308.3060,N,07726.2641,W,1,07,1.42,156.7,M,-34.4,M,,*59
$GPRMC,145613.500,A,4308.3060,N,07726.2641,W,0.00,329.50,180923,,,A*7E
$GPGGA,145613.750,4308.3060,N,07726.2641,W,1,07,1.42,156.7,M,-34.4,M,,*5C
$GPRMC,145614.000,A,4308.3060,N,07726.2641,W,0.00,354.24,180923,,,A*75
$GPGGA,145614.250,4308.3060,N,07726.2641,W,1,07,1.42,156.7,M,-34.4,M,,*5E
$GPRMC,145614.500,A,4308.3060,N,07726.2641,W,0.01,225.84,180923,,,A*7C
$GPGGA,145614.750,4308.3060,N,07726.2641,W,1,07,1.42,156.7,M,-34.4,M,,*5B
$GPRMC,145615.000,A,4308.3060,N,07726.2641,W,0.01,127.62,180923,,,A*71
$GPGGA,145615.250,4308.3060,N,07726.2641,W,1,07,1.42,156.7,M,-34.4,M,,*5F
$GPRMC,145615.500,A,4308.3060,N,07726.2641,W,0.00,327.05,180923,,,A*76
$GPGGA,145615.750,4308.3060,N,07726.2641,W,1,07,1.42,156.7,M,-34.4,M,,*5A
$GPRMC,145616.000,A,4308.3060,N,07726.2641,W,0.00,72.83,180923,,,A*4D
$GPGGA,145616.250,4308.3060,N,07726.2641,W,1,07,1.42,156.7,M,-34.4,M,,*5C
$GPRMC,145616.500,A,4308.3060,N,07726.2641,W,0.01,151.79,180923,,,A*7C
$GPGGA,145616.750,4308.3060,N,07726.2641,W,1,07,1.42,156.7,M,-34.4,M,,*59
$GPRMC,145617.000,A,4308.3060,N,07726.2641,W,0.00,97.98,180923,,,A*4D
$GPGGA,145617.250,4308.3060,N,07726.2641,W,1,07,1.42,156.7,M,-34.4,M,,*5D
$GPRMC,145617.500,A,4308.3060,N,07726.2641,W,0.00,115.53,180923,,,A*74
$GPGGA,145617.750,4308.3060,N,07726.2641,W,1,07,1.42,156.7,M,-34.4,M,,*58
$GPRMC,145618.000,A,4308.3060,N,07726.2641,W,0.00,252.78,180923,,,A*77
$GPGGA,145618.250,4308.3060,N,07726.2641,W,1,07,1.42,156.7,M,-34.4,M,,*52
$GPRMC,145618.500,A,4308.3060,N,07726.2641,W,0.01,173.15,180923,,,A*78
$GPGGA,145618.750,4308.3060,N,07726.2641,W,1,07,1.42,156.7,M,-34.4,M,,*57
$GPRMC,145619.000,A,4308.3060,N,07726.2641,W,0.01,6.22,180923,,,A*7B
$GPGGA,145619.250,4308.3060,N,07726.2641,W,1,07,1.42,156.7,M,-34.4,M,,*53
$GPRMC,145619.500,A,4308.3060,N,07726.2641,W,0.00,159.84,180923,,,A*78
$GPGGA,145619.750,4308.3060,N,07726.2641,W,1,07,1.42,156.7,M,-34.4,M,,*56
$GPRMC,145620.000,A,4308.3060,N,07726.2641,W,0.00,234.24,180923,,,A*75
$GPGGA,145620.250,4308.3060,N,07726.2641,W,1,07,1.42,156.7,M,-34.4,M,,*59
$GPRMC,145620.500,A,4308.3060,N,07726.2641,W,0.01,254.73,180923,,,A*75
$GPGGA,145620.750,4308.3060,N,07726.2641,W,1,07,1.42,156.7,M,-34.4,M,,*5C
$GPRMC,145621.000,A,4308.3060,N,07726.2641,W,0.00,147.83,180923,,,A*7E
$GPGGA,145621.250,4308.3060,N,07726.2641,W,1,07,1.42,156.7,M,-34.4,M,,*58
$GPRMC,145621.500,A,4308.3060,N,07726.2641,W,0.00,233.01,180923,,,A*71
$GPGGA,145621.750,4308.3060,N,07726.2641,W,1,07,1.42,156.7,M,-34.4,M,,*5D
$GPRMC,145622.000,A,4308.3060,N,07726.2641,W,0.01,306.57,180923,,,A*72
$GPGGA,145622.250,4308.3060,N,07726.2641,W,1,07,1.42,156.7,M,-34.4,M,,*5B
$GPRMC,145622.500,A,4308.3060,N,07726.2641,W,0.00,0.00,180923,,,A*71
$GPGGA,145622.750,4308.3060,N,07726.2641,W,1,07,1.42,156.7,M,-34.4,M,,*5E
$GPRMC,145623.000,A,4308.3060,N,07726.2641,W,0.01,347.23,180923,,,A*75
$GPGGA,145623.250,4308.3060,N,07726.2641,W,1,07,1.42,156.7,M,-34.4,M,,*5A
$GPRMC,145623.500,A,4308.3060,N,07726.2641,W,0.00,206.23,180923,,,A*75
$GPGGA,145623.750,4308.3060,N,07726.2641,W,1,07,1.42,156.7,M,-34.4,M,,*5F
$GPRMC,145624.000,A,4308.3060,N,07726.2641,W,0.01,244.43,180923,,,A*76
$GPGGA,145624.250,4308.3060,N,07726.2641,W,1,07,1.42,156.7,M,-34.4,M,,*5D
$GPRMC,145624.500,A,4308.3060,N,07726.2641,W,0.01,74.66,180923,,,A*45
$GPGGA,145624.750,4308.3060,N,07726.2641,W,1,07,1.42,156.7,M,-34.4,M,,*58
$GPRMC,145625.000,A,4308.3060,N,07726.2641,W,0.00,213.62,180923,,,A*77
$GPGGA,145625.250,4308.3060,N,07726.2641,W,1,07,1.42,156.7,M,-34.4,M,,*5C
$GPRMC,145625.500,A,4308.3060,N,07726.2641,W,0.01,82.18,180923,,,A*44
$GPGGA,145625.750,4308.3060,N,07726.2641,W,1,07,1.42,156.7,M,-34.4,M,,*59
$GPRMC,145626.000,A,4308.3060,N,07726.2641,W,0.00,56.99,180923,,,A*43
$GPGGA,145626.250,4308.3060,N,07726.2641,W,1,07,1.42,156.7,M,-34.4,M,,*5F
$GPRMC,145626.500,A,4308.3060,N,07726.2641,W,0.00,0.00,180923,,,A*75
$GPGGA,145626.750,4308.3060,N,07726.2641,W,1,07,1.42,156.7,M,-34.4,M,,*5A
$GPRMC,145627.000,A,4308.3060,N,07726.2641,W,0.01,354.23,180923,,,A*73
$GPGGA,145627.250,4308.3060,N,07726.2641,W,1,07,1.42,156.7,M,-34.4,M,,*5E
$GPRMC,145627.500,A,4308.3060,N,07726.2641,W,0.00,305.19,180923,,,A*7A
$GPGGA,145627.750,4308.3060,N,07726.2641,W,1,07,1.42,156.7,M,-34.4,M,,*5B
$GPRMC,145628.000,A,4308.3060,N,07726.2641,W,0.01,292.49,180923,,,A*7B
$GPGGA,145628.250,4308.3060,N,07726.2641,W,1,07,1.42,156.7,M,-34.4,M,,*51
$GPRMC,145628.500,A,4308.3060,N,07726.2641,W,0.01,352.13,180923,,,A*7C
$GPGGA,145628.750,4308.3060,N,07726.2641,W,1,07,1.42,156.7,M,-34.4,M,,*54
$GPRMC,145629.000,A,4308.3060,N,07726.2641,W,0.00,0.00,180923,,,A*7F
$GPGGA,145629.250,4308.3060,N,07726.2641,W,1,07,1.42,156.7,M,-34.4,M,,*50
$GPRMC,145629.500,A,4308.3060,N,07726.2641,W,0.01,150.83,180923,,,A*74
$GPGGA,145629.750,4308.3060,N,07726.2641,W,1,07,1.42,156.7,M,-34.4,M,,*55
$GPRMC,145630.000,A,4308.3060,N,07726.2641,W,0.01,233.24,180923,,,A*72
$GPGGA,145630.250,4308.3060,N,07726.2641,W,1,07,1.42,156.7,M,-34.4,M,,*58
$GPRMC,145630.500,A,4308.3060,N,07726.2641,W,0.01,51.55,180923,,,A*47
$GPGGA,145630.750,4308.3060,N,07726.2641,W,1,07,1.42,156.7,M,-34.4,M,,*5D
$GPRMC,145631.000,A,4308.3060,N,07726.2641,W,0.01,213.04,180923,,,A*73
$GPGGA,145631.250,4308.3060,N,07726.2641,W,1,07,1.42,156.7,M,-34.4,M,,*59
$GPRMC,145631.500,A,4308.3060,N,07726.2641,W,0.01,359.42,180923,,,A*7B
$GPGGA,145631.750,4308.3060,N,07726.2641,W,1,07,1.42,156.7,M,-34.4,M,,*5C
$GPRMC,145632.000,A,4308.3060,N,07726.2641,W,0.01,98.99,180923,,,A*45
$GPGGA,145632.250,4308.3060,N,07726.2641,W,1,07,1.42,156.7,M,-34.4,M,,*5A
$GPRMC,145632.500,A,4308.3060,N,07726.2641,W,0.01,180.24,180923,,,A*7E
$GPGGA,145632.750,4308.3060,N,07726.2641,W,1,07,1.42,156.7,M,-34.4,M,,*5F
$GPRMC,145633.000,A,4308.3060,N,07726.2641,W,0.00,21.28,180923,,,A*4D
$GPGGA,145633.250,4308.3060,N,07726.2641,W,1,07,1.42,156.7,M,-34.4,M,,*5B
$GPRMC,145633.500,A,4308.3060,N,07726.2641,W,0.00,196.67,180923,,,A*7E
$GPGGA,145633.750,4308.3060,N,07726.2641,W,1,07,1.42,156.7,M,-34.4,M,,*5E
$GPRMC,145634.000,A,4308.3060,N,07726.2641,W,0.01,242.78,180923,,,A*79
$GPGGA,145634.250,4308.3060,N,07726.2641,W,1,07,1.42,156.7,M,-34.4,M,,*5C
$GPRMC,145634.500,A,4308.3060,N,07726.2641,W,0.00,128.80,180923,,,A*75
$GPGGA,145634.750,4308.3060,N,07726.2641,W,1,07,1.42,156.7,M,-34.4,M,,*59
$GPRMC,145635.000,A,4308.3060,N,07726.2641,W,0.00,189.25,180923,,,A*75
$GPGGA,145635.250,4308.3060,N,07726.2641,W,1,07,1.42,156.7,M,-34.4,M,,*5D
$GPRMC,145635.500,A,4308.3060,N,07726.2641,W,0.01,106.64,180923,,,A*73
$GPGGA,145635.750,4308.3060,N,07726.2641,W,1,07,1.42,156.7,M,-34.4,M,,*58
$GPRMC,145636.000,A,4308.3060,N,07726.2641,W,0.00,210.41,180923,,,A*77
$GPGGA,145636.250,4308.3060,N,07726.2641,W,1,07,1.42,156.7,M,-34.4,M,,*5E
$GPRMC,145636.500,A,4308.3060,N,07726.2641,W,0.01,44.78,180923,,,A*4A
$GPGGA,145636.750,4308.3060,N,07726.2641,W,1,07,1.42,156.7,M,-34.4,M,,*5B
$GPRMC,145637.000,A,4308.3060,N,07726.2641,W,0.01,33.13,180923,,,A*43
$GPGGA,145637.250,4308.3060,N,07726.2641,W,1,07,1.42,156.7,M,-34.4,M,,*5F
$GPRMC,145637.500,A,4308.3060,N,07726.2641,W,0.01,181.23,180923,,,A*7D
$GPGGA,145637.750,4308.3060,N,07726.2641,W,1,07,1.42,156.7,M,-34.4,M,,*5A
$GPRMC,145638.000,A,4308.3060,N,07726.2641,W,0.00,165.93,180923,,,A*77
$GPGGA,145638.250,4308.3060,N,07726.2641,W,1,07,1.42,156.7,M,-34.4,M,,*50
$GPRMC,145638.500,A,4308.3060,N,07726.2641,W,0.00,168.68,180923,,,A*7B
$GPGGA,145638.750,4308.3060,N,07726.2641,W,1,07,1.42,156.7,M,-34.4,M,,*55
$GPRMC,145639.000,A,4308.3060,N,07726.2641,W,0.01,46.55,180923,,,A*4D
$GPGGA,145639.250,4308.3060,N,07726.2641,W,1,07,1.42,156.7,M,-34.4,M,,*51
$GPRMC,145639.500,A,4308.3060,N,07726.2641,W,0.00,123.67,180923,,,A*7A
$GPGGA,145639.750,4308.3060,N,07726.2641,W,1,07,1.42,156.7,M,-34.4,M,,*54
$GPRMC,145640.000,A,4308.3060,N,07726.2641,W,0.00,332.02,180923,,,A*70
$GPGGA,145640.250,4308.3060,N,07726.2641,W,1,07,1.42,156.7,M,-34.4,M,,*5F
$GPRMC,145640.500,A,4308.3060,N,07726.2641,W,0.00,202.28,180923,,,A*7F
$GPGGA,145640.750,4308.3060,N,07726.2641,W,1,07,1.42,156.7,M,-34.4,M,,*5A
$GPRMC,145641.000,A,4308.3060,N,07726.2641,W,0.00,18.84,180923,,,A*44
$GPGGA,145641.250,4308.3060,N,07726.2641,W,1,07,1.42,156.7,M,-34.4,M,,*5E
$GPRMC,145641.500,A,4308.3060,N,07726.2641,W,0.01,35.73,180923,,,A*47
$GPGGA,145641.750,4308.3060,N,07726.2641,W,1,07,1.42,156.7,M,-34.4,M,,*5B
$GPRMC,145642.000,A,4308.3060,N,07726.2641,W,0.00,10.30,180923,,,A*40
$GPGGA,145642.250,4308.3060,N,07726.2641,W,1,07,1.42,156.7,M,-34.4,M,,*5D
$GPRMC,145642.500,A,4308.3060,N,07726.2641,W,0.00,250.21,180923,,,A*73
$GPGGA,145642.750,4308.3060,N,07726.2641,W,1,07,1.42,156.7,M,-34.4,M,,*58
$GPRMC,145643.000,A,4308.3060,N,07726.2641,W,0.01,302.26,180923,,,A*77
$GPGGA,145643.250,4308.3060,N,07726.2641,W,1,07,1.42,156.7,M,-34.4,M,,*5C
$GPRMC,145643.500,A,4308.3060,N,07726.2641,W,0.00,149.04,180923,,,A*7E
$GPGGA,145643.750,4308.3060,N,07726.2641,W,1,07,1.42,156.7,M,-34.4,M,,*59
$GPRMC,145644.000,A,4308.3060,N,07726.2641,W,0.01,256.25,180923,,,A*73
$GPGGA,145644.250,4308.3060,N,07726.2641,W,1,07,1.42,156.7,M,-34.4,M,,*5B
$GPRMC,145644.500,A,4308.3060,N,07726.2641,W,0.00,279.55,180923,,,A*7D
$GPGGA,145644.750,4308.3060,N,07726.2641,W,1,07,1.42,156.7,M,-34.4,M,,*5E
$GPRMC,145645.000,A,4308.3060,N,07726.2641,W,0.01,111.81,180923,,,A*7C
$GPGGA,145645.250,4308.3060,N,07726.2641,W,1,07,1.42,156.7,M,-34.4,M,,*5A
$GPRMC,145645.500,A,4308.3060,N,07726.2641,W,0.00,312.90,180923,,,A*79
$GPGGA,145645.750,4308.3060,N,07726.2641,W,1,07,1.42,156.7,M,-34.4,M,,*5F
$GPRMC,145646.000,A,4308.3060,N,07726.2641,W,0.00,20.86,180923,,,A*4A
$GPGGA,145646.250,4308.3060,N,07726.2641,W,1,07,1.42,156.7,M,-34.4,M,,*59
$GPRMC,145646.500,A,4308.3060,N,07726.2641,W,0.00,170.27,180923,,,A*70
$GPGGA,145646.750,4308.3060,N,07726.2641,W,1,07,1.42,156.7,M,-34.4,M,,*5C
$GPRMC,145647.000,A,4308.3060,N,07726.2641,W,0.01,127.35,180923,,,A*74
$GPGGA,145647.250,4308.3060,N,07726.2641,W,1,07,1.42,156.7,M,-34.4,M,,*58
$GPRMC,145647.500,A,4308.3060,N,07726.2641,W,0.01,350.78,180923,,,A*7A
$GPGGA,145647.750,4308.3060,N,07726.2641,W,1,07,1.42,156.7,M,-34.4,M,,*5D
$GPRMC,145648.000,A,4308.3060,N,07726.2642,W,0.00,285.32,180923,,,A*75
$GPGGA,145648.250,4308.3060,N,07726.2642,W,1,07,1.42,156.7,M,-34.4,M,,*54
$GPRMC,145648.500,A,4308.3060,N,07726.2642,W,0.01,163.27,180923,,,A*7E
$GPGGA,145648.750,4308.3060,N,07726.2642,W,1,07,1.42,156.7,M,-34.4,M,,*51
$GPRMC,145649.000,A,4308.3060,N,07726.2642,W,0.00,336.98,180923,,,A*7D
$GPGGA,145649.250,4308.3060,N,07726.2642,W,1,07,1.42,156.7,M,-34.4,M,,*55
$GPRMC,145649.500,A,4308.3060,N,07726.2642,W,0.01,140.88,180923,,,A*7B
$GPGGA,145649.750,4308.3060,N,07726.2642,W,1,07,1.42,156.7,M,-34.4,M,,*50
$GPRMC,145650.000,A,4308.3060,N,07726.2642,W,0.01,98.33,180923,,,A*42
$GPGGA,145650.250,4308.3060,N,07726.2642,W,1,07,1.42,156.7,M,-34.4,M,,*5D
$GPRMC,145650.500,A,4308.3060,N,07726.2642,W,0.01,96.90,180923,,,A*40
$GPGGA,145650.750,4308.3060,N,07726.2642,W,1,07,1.42,156.7,M,-34.4,M,,*58
$GPRMC,145651.000,A,4308.3060,N,07726.2642,W,0.00,235.92,180923,,,A*7C
$GPGGA,145651.250,4308.3060,N,07726.2642,W,1,07,1.42,156.7,M,-34.4,M,,*5C
$GPRMC,145651.500,A,4308.3060,N,07726.2642,W,0.00,46.82,180923,,,A*4E
$GPGGA,145651.750,4308.3060,N,07726.2642,W,1,07,1.42,156.7,M,-34.4,M,,*59
$GPRMC,145652.000,A,4308.3060,N,07726.2642,W,0.01,97.01,180923,,,A*4E
$GPGGA,145652.250,4308.3060,N,07726.2642,W,1,07,1.42,156.7,M,-34.4,M,,*5F
$GPRMC,145652.500,A,4308.3060,N,07726.2642,W,0.00,207.12,180923,,,A*73
$GPGGA,145652.750,4308.3060,N,07726.2642,W,1,07,1.42,156.7,M,-34.4,M,,*5A
$GPRMC,145653.000,A,4308.3060,N,07726.2642,W,0.00,277.96,180923,,,A*7C
$GPGGA,145653.250,4308.3060,N,07726.2642,W,1,07,1.42,156.7,M,-34.4,M,,*5E
$GPRMC,145653.500,A,4308.3060,N,07726.2642,W,0.00,0.00,180923,,,A*74
$GPGGA,145653.750,4308.3060,N,07726.2642,W,1,07,1.42,156.7,M,-34.4,M,,*5B
$GPRMC,145654.000,A,4308.3060,N,07726.2642,W,0.00,0.00,180923,,,A*76
$GPGGA,145654.250,4308.3060,N,07726.2642,W,1,07,1.42,156.7,M,-34.4,M,,*59
$GPRMC,145654.500,A,4308.3060,N,07726.2642,W,0.00,287.09,180923,,,A*77
$GPGGA,145654.750,4308.3060,N,07726.2642,W,1,07,1.42,156.7,M,-34.4,M,,*5C
$GPRMC,145655.000,A,4308.3060,N,07726.2642,W,0.00,256.96,180923,,,A*79
$GPGGA,145655.250,4308.3060,N,07726.2642,W,1,07,1.42,156.7,M,-34.4,M,,*58
$GPRMC,145655.500,A,4308.3060,N,07726.2642,W,0.00,259.19,180923,,,A*74
$GPGGA,145655.750,4308.3060,N,07726.2642,W,1,07,1.42,156.7,M,-34.4,M,,*5D
$GPRMC,145656.000,A,4308.3060,N,07726.2642,W,0.00,260.39,180923,,,A*7A
$GPGGA,145656.250,4308.3060,N,07726.2642,W,1,07,1.42,156.7,M,-34.4,M,,*5B
$GPRMC,145656.500,A,4308.3060,N,07726.2642,W,0.00,17.89,180923,,,A*46
$GPGGA,145656.750,4308.3060,N,07726.2642,W,1,07,1.42,156.7,M,-34.4,M,,*5E
$GPRMC,145657.000,A,4308.3060,N,07726.2642,W,0.00,218.51,180923,,,A*7A
$GPGGA,145657.250,4308.3060,N,07726.2642,W,1,07,1.42,156.7,M,-34.4,M,,*5A
$GPRMC,145657.500,A,4308.3060,N,07726.2642,W,0.00,0.00,180923,,,A*70
$GPGGA,145657.750,4308.3060,N,07726.2642,W,1,07,1.42,156.7,M,-34.4,M,,*5F
$GPRMC,145658.000,A,4308.3060,N,07726.2642,W,0.01,227.89,180923,,,A*7D
$GPGGA,145658.250,4308.3060,N,07726.2642,W,1,07,1.42,156.7,M,-34.4,M,,*55
$GPRMC,145658.500,A,4308.3060,N,07726.2642,W,0.01,282.85,180923,,,A*7B
$GPGGA,145658.750,4308.3060,N,07726.2642,W,1,07,1.42,156.7,M,-34.4,M,,*50
$GPRMC,145659.000,A,4308.3060,N,07726.2642,W,0.00,204.51,180923,,,A*79
$GPGGA,145659.250,4308.3060,N,07726.2642,W,1,07,1.42,156.7,M,-34.4,M,,*54
$GPRMC,145659.500,A,4308.3060,N,07726.2642,W,0.00,230.72,180923,,,A*7A
$GPGGA,145659.750,4308.3060,N,07726.2642,W,1,07,1.42,156.7,M,-34.4,M,,*51
$GPRMC,145700.000,A,4308.3060,N,07726.2642,W,0.00,252.52,180923,,,A*74
$GPGGA,145700.250,4308.3060,N,07726.2642,W,1,07,1.42,156.7,M,-34.4,M,,*59
$GPRMC,145700.500,A,4308.3060,N,07726.2642,W,0.00,0.00,180923,,,A*73
$GPGGA,145700.750,4308.3060,N,07726.2642,W,1,07,1.42,156.7,M,-34.4,M,,*5C
$GPRMC,145701.000,A,4308.3060,N,07726.2642,W,0.01,314.39,180923,,,A*7A
$GPGGA,145701.250,4308.3060,N,07726.2642,W,1,07,1.42,156.7,M,-34.4,M,,*58
$GPRMC,145701.500,A,4308.3060,N,07726.2642,W,0.00,0.00,180923,,,A*72
$GPGGA,145701.750,4308.3060,N,07726.2642,W,1,07,1.42,156.7,M,-34.4,M,,*5D
$GPRMC,145702.000,A,4308.3060,N,07726.2642,W,0.00,237.66,180923,,,A*72
$GPGGA,145702.250,4308.3060,N,07726.2642,W,1,07,1.42,156.7,M,-34.4,M,,*5B
$GPRMC,145702.500,A,4308.3060,N,07726.2642,W,0.00,303.52,180923,,,A*76
$GPGGA,145702.750,4308.3060,N,07726.2642,W,1,07,1.42,156.7,M,-34.4,M,,*5E
$GPRMC,145703.000,A,4308.3060,N,07726.2642,W,0.01,294.34,180923,,,A*7C
$GPGGA,145703.250,4308.3060,N,07726.2642,W,1,07,1.42,156.7,M,-34.4,M,,*5A
$GPRMC,145703.500,A,4308.3060,N,07726.2642,W,0.00,333.64,180923,,,A*71
$GPGGA,145703.750,4308.3060,N,07726.2642,W,1,07,1.42,156.7,M,-34.4,M,,*5F
$GPRMC,145704.000,A,4308.3060,N,07726.2642,W,0.00,324.48,180923,,,A*7B
$GPGGA,145704.250,4308.3060,N,07726.2642,W,1,07,1.42,156.7,M,-34.4,M,,*5D
$GPRMC,145704.500,A,4308.3060,N,07726.2642,W,0.00,289.77,180923,,,A*74
$GPGGA,145704.750,4308.3060,N,07726.2642,W,1,07,1.42,156.7,M,-34.4,M,,*58
$GPRMC,145705.000,A,4308.3060,N,07726.2642,W,0.00,0.00,180923,,,A*73
$GPGGA,145705.250,4308.3060,N,07726.2642,W,1,07,1.42,156.7,M,-34.4,M,,*5C
$GPRMC,145705.500,A,4308.3060,N,07726.2642,W,0.00,0.00,180923,,,A*76
$GPGGA,145705.750,4308.3060,N,07726.2642,W,1,07,1.42,156.7,M,-34.4,M,,*59
$GPRMC,145706.000,A,4308.3060,N,07726.2642,W,0.01,330.14,180923,,,A*74
$GPGGA,145706.250,4308.3060,N,07726.2642,W,1,07,1.42,156.7,M,-34.4,M,,*5F
$GPRMC,145706.500,A,4308.3060,N,07726.2642,W,0.01,314.14,180923,,,A*77
$GPGGA,145706.750,4308.3060,N,07726.2642,W,1,07,1.42,156.7,M,-34.4,M,,*5A
$GPRMC,145707.000,A,4308.3060,N,07726.2642,W,0.01,302.91,180923,,,A*79
$GPGGA,145707.250,4308.3060,N,07726.2642,W,1,07,1.42,156.7,M,-34.4,M,,*5E
$GPRMC,145707.500,A,4308.3060,N,07726.2642,W,0.00,337.20,180923,,,A*71
$GPGGA,145707.750,4308.3060,N,07726.2642,W,1,07,1.42,156.7,M,-34.4,M,,*5B
$GPRMC,145708.000,A,4308.3060,N,07726.2642,W,0.00,321.40,180923,,,A*7A
$GPGGA,145708.250,4308.3060,N,07726.2642,W,1,07,1.42,156.7,M,-34.4,M,,*51
$GPRMC,145708.500,A,4308.3060,N,07726.2642,W,0.00,327.74,180923,,,A*7E
$GPGGA,145708.750,4308.3060,N,07726.2642,W,1,07,1.42,156.7,M,-34.4,M,,*54
$GPRMC,145709.000,A,4308.3060,N,07726.2642,W,0.00,224.09,180923,,,A*72
$GPGGA,145709.250,4308.3060,N,07726.2642,W,1,07,1.42,156.7,M,-34.4,M,,*50
$GPRMC,145709.500,A,4308.3060,N,07726.2642,W,0.01,97.14,180923,,,A*40
$GPGGA,145709.750,4308.3060,N,07726.2642,W,1,07,1.42,156.7,M,-34.4,M,,*55
$GPRMC,145710.000,A,4308.3060,N,07726.2642,W,0.00,305.26,180923,,,A*75
$GPGGA,145710.250,4308.3060,N,07726.2642,W,1,07,1.42,156.7,M,-34.4,M,,*58
$GPRMC,145710.500,A,4308.3060,N,07726.2642,W,0.00,0.00,180923,,,A*72
$GPGGA,145710.750,4308.3060,N,07726.2642,W,1,07,1.42,156.7,M,-34.4,M,,*5D
$GPRMC,145711.000,A,4308.3060,N,07726.2642,W,0.00,338.54,180923,,,A*7F
$GPGGA,145711.250,4308.3060,N,07726.2642,W,1,07,1.42,156.7,M,-34.4,M,,*59
$GPRMC,145711.500,A,4308.3060,N,07726.2642,W,0.00,7.71,180923,,,A*72
$GPGGA,145711.750,4308.3060,N,07726.2642,W,1,07,1.42,156.7,M,-34.4,M,,*5C
$GPRMC,145712.000,A,4308.3060,N,07726.2642,W,0.00,288.00,180923,,,A*77
$GPGGA,145712.250,4308.3060,N,07726.2642,W,1,07,1.42,156.7,M,-34.4,M,,*5A
$GPRMC,145712.500,A,4308.3060,N,07726.2642,W,0.00,240.85,180923,,,A*7B
$GPGGA,145712.750,4308.3060,N,07726.2642,W,1,07,1.42,156.7,M,-34.4,M,,*5F
$GPRMC,145713.000,A,4308.3060,N,07726.2642,W,0.00,346.32,180923,,,A*74
$GPGGA,145713.250,4308.3060,N,07726.2642,W,1,07,1.42,156.7,M,-34.4,M,,*5B
$GPRMC,145713.500,A,4308.3060,N,07726.2642,W,0.00,339.76,180923,,,A*79
$GPGGA,145713.750,4308.3060,N,07726.2642,W,1,07,1.42,156.7,M,-34.4,M,,*5E
$GPRMC,145714.000,A,4308.3060,N,07726.2642,W,0.00,333.69,180923,,,A*7F
$GPGGA,145714.250,4308.3060,N,07726.2642,W,1,07,1.42,156.7,M,-34.4,M,,*5C
$GPRMC,145714.500,A,4308.3060,N,07726.2642,W,0.00,205.98,180923,,,A*70
$GPGGA,145714.750,4308.3060,N,07726.2642,W,1,07,1.42,156.7,M,-34.4,M,,*59
$GPRMC,145715.000,A,4308.3060,N,07726.2642,W,0.01,303.75,180923,,,A*71
$GPGGA,145715.250,4308.3060,N,07726.2642,W,1,07,1.42,156.7,M,-34.4,M,,*5D
$GPRMC,145715.500,A,4308.3060,N,07726.2642,W,0.00,174.09,180923,,,A*7C
$GPGGA,145715.750,4308.3060,N,07726.2642,W,1,07,1.42,156.7,M,-34.4,M,,*58
$GPRMC,145716.000,A,4308.3060,N,07726.2642,W,0.00,78.51,180923,,,A*4A
$GPGGA,145716.250,4308.3060,N,07726.2642,W,1,07,1.42,156.7,M,-34.4,M,,*5E
$GPRMC,145716.500,A,4308.3060,N,07726.2642,W,0.00,202.06,180923,,,A*72
$GPGGA,145716.750,4308.3060,N,07726.2642,W,1,07,1.42,156.7,M,-34.4,M,,*5B
$GPRMC,145717.000,A,4308.3060,N,07726.2642,W,0.00,0.00,180923,,,A*70
$GPGGA,145717.250,4308.3060,N,07726.2642,W,1,07,1.42,156.7,M,-34.4,M,,*5F
$GPRMC,145717.500,A,4308.3060,N,07726.2642,W,0.00,246.14,180923,,,A*70
$GPGGA,145717.750,4308.3060,N,07726.2642,W,1,07,1.42,156.7,M,-34.4,M,,*5A
$GPRMC,145718.000,A,4308.3060,N,07726.2642,W,0.00,140.61,180923,,,A*7D
$GPGGA,145718.250,4308.3060,N,07726.2642,W,1,07,1.42,156.7,M,-34.4,M,,*50
$GPRMC,145718.500,A,4308.3060,N,07726.2642,W,0.00,275.75,180923,,,A*78
$GPGGA,145718.750,4308.3060,N,07726.2642,W,1,07,1.42,156.7,M,-34.4,M,,*55
$GPRMC,145719.000,A,4308.3060,N,07726.2642,W,0.01,297.25,180923,,,A*74
$GPGGA,145719.250,4308.3060,N,07726.2642,W,1,07,1.42,156.7,M,-34.4,M,,*51
$GPRMC,145719.500,A,4308.3060,N,07726.2642,W,0.01,264.56,180923,,,A*79
$GPGGA,145719.750,4308.3060,N,07726.2642,W,1,07,1.42,156.7,M,-34.4,M,,*54
$GPRMC,145720.000,A,4308.3060,N,07726.2642,W,0.00,82.51,180923,,,A*4A
$GPGGA,145720.250,4308.3060,N,07726.2642,W,1,07,1.42,156.7,M,-34.4,M,,*5B
$GPRMC,145720.500,A,4308.3060,N,07726.2642,W,0.01,250.11,180923,,,A*77
$GPGGA,145720.750,4308.3060,N,07726.2642,W,1,07,1.42,156.7,M,-34.4,M,,*5E
$GPRMC,145721.000,A,4308.3060,N,07726.2642,W,0.00,248.60,180923,,,A*7D
$GPGGA,145721.250,4308.3060,N,07726.2642,W,1,07,1.42,156.7,M,-34.4,M,,*5A
$GPRMC,145721.500,A,4308.3060,N,07726.2642,W,0.00,219.85,180923,,,A*77
$GPGGA,145721.750,4308.3060,N,07726.2642,W,1,07,1.42,156.7,M,-34.4,M,,*5F
$GPRMC,145722.000,A,4308.3060,N,07726.2642,W,0.01,303.33,180923,,,A*77
$GPGGA,145722.250,4308.3060,N,07726.2642,W,1,07,1.42,156.7,M,-34.4,M,,*59
$GPRMC,145722.500,A,4308.3060,N,07726.2642,W,0.00,269.48,180923,,,A*72
$GPGGA,145722.750,4308.3060,N,07726.2642,W,1,07,1.42,156.7,M,-34.4,M,,*5C
$GPRMC,145723.000,A,4308.3060,N,07726.2642,W,0.00,15.46,180923,,,A*41
$GPGGA,145723.250,4308.3060,N,07726.2642,W,1,07,1.42,156.7,M,-34.4,M,,*58
$GPRMC,145723.500,A,4308.3060,N,07726.2642,W,0.00,0.00,180923,,,A*72
$GPGGA,145723.750,4308.3060,N,07726.2642,W,1,07,1.42,156.7,M,-34.4,M,,*5D
$GPRMC,145724.000,A,4308.3060,N,07726.2642,W,0.01,233.50,180923,,,A*76
$GPGGA,145724.250,4308.3060,N,07726.2642,W,1,07,1.42,156.7,M,-34.4,M,,*5F
$GPRMC,145724.500,A,4308.3060,N,07726.2642,W,0.00,224.24,180923,,,A*77
$GPGGA,145724.750,4308.3060,N,07726.2642,W,1,07,1.42,156.7,M,-34.4,M,,*5A
$GPRMC,145725.000,A,4308.3060,N,07726.2642,W,0.00,217.41,180923,,,A*70
$GPGGA,145725.250,4308.3060,N,07726.2642,W,1,07,1.42,156.7,M,-34.4,M,,*5E
$GPRMC,145725.500,A,4308.3060,N,07726.2642,W,0.01,194.08,180923,,,A*71
$GPGGA,145725.750,4308.3060,N,07726.2642,W,1,07,1.42,156.6,M,-34.4,M,,*5A
$GPRMC,145726.000,A,4308.3060,N,07726.2642,W,0.00,123.26,180923,,,A*76
$GPGGA,145726.250,4308.3060,N,07726.2642,W,1,07,1.42,156.6,M,-34.4,M,,*5C
$GPRMC,145726.500,A,4308.3060,N,07726.2642,W,0.01,3.41,180923,,,A*70
$GPGGA,145726.750,4308.3060,N,07726.2642,W,1,07,1.42,156.6,M,-34.4,M,,*59
$GPRMC,145727.000,A,4308.3060,N,07726.2642,W,0.01,247.80,180923,,,A*7B
$GPGGA,145727.250,4308.3060,N,07726.2642,W,1,07,1.42,156.6,M,-34.4,M,,*5D
$GPRMC,145727.500,A,4308.3060,N,07726.2642,W,0.00,236.05,180923,,,A*74
$GPGGA,145727.750,4308.3060,N,07726.2642,W,1,07,1.42,156.6,M,-34.4,M,,*58
$GPRMC,145728.000,A,4308.3060,N,07726.2642,W,0.00,200.48,180923,,,A*72
$GPGGA,145728.250,4308.3060,N,07726.2642,W,1,07,1.42,156.6,M,-34.4,M,,*52
$GPRMC,145728.500,A,4308.3060,N,07726.2642,W,0.00,292.44,180923,,,A*70
$GPGGA,145728.750,4308.3060,N,07726.2642,W,1,07,1.42,156.6,M,-34.4,M,,*57
$GPRMC,145729.000,A,4308.3060,N,07726.2642,W,0.00,299.27,180923,,,A*7A
$GPGGA,145729.250,4308.3060,N,07726.2642,W,1,07,1.42,156.6,M,-34.4,M,,*53
$GPRMC,145729.500,A,4308.3060,N,07726.2642,W,0.01,190.52,180923,,,A*76
$GPGGA,145729.750,4308.3060,N,07726.2642,W,1,07,1.42,156.6,M,-34.4,M,,*56
$GPRMC,145730.000,A,4308.3060,N,07726.2642,W,0.01,337.67,180923,,,A*72
$GPGGA,145730.250,4308.3060,N,07726.2642,W,1,07,1.42,156.6,M,-34.4,M,,*5B
$GPRMC,145730.500,A,4308.3060,N,07726.2642,W,0.01,300.41,180923,,,A*77
$GPGGA,145730.750,4308.3060,N,07726.2642,W,1,07,1.42,156.6,M,-34.4,M,,*5E
