Vers 81
USE_SERIAL_FEEDBACK=true
DEVELOPMENT_MODE=false
USE_RMC_ONLY=false

$GPRMC,154406.500,A,4308.3058,N,07726.2591,W,0.04,354.21,190923,,,A*74
$GPGGA,154406.750,4308.3057,N,07726.2591,W,1,06,1.51,168.7,M,-34.4,M,,*5E
$GPRMC,154407.000,A,4308.3054,N,07726.2591,W,0.07,14.95,190923,,,A*47
$GPGGA,154407.250,4308.3053,N,07726.2591,W,1,06,1.51,168.4,M,-34.4,M,,*5D
$GPRMC,154407.500,A,4308.3053,N,07726.2591,W,0.07,48.19,190923,,,A*48
$GPGGA,154407.750,4308.3053,N,07726.2591,W,1,06,1.40,168.2,M,-34.4,M,,*5E
$GPRMC,154408.000,A,4308.3053,N,07726.2591,W,0.12,304.54,190923,,,A*74
$GPGGA,154408.250,4308.3053,N,07726.2591,W,1,06,1.40,168.1,M,-34.4,M,,*57
$GPRMC,154408.500,A,4308.3053,N,07726.2591,W,0.12,291.62,190923,,,A*79
$GPGGA,154408.750,4308.3053,N,07726.2591,W,1,06,1.40,167.7,M,-34.4,M,,*5B
$GPRMC,154409.000,A,4308.3053,N,07726.2591,W,0.24,270.08,190923,,,A*7B
$GPGGA,154409.250,4308.3053,N,07726.2591,W,1,06,1.40,167.2,M,-34.4,M,,*5A
$GPRMC,154409.500,A,4308.3053,N,07726.2591,W,0.15,288.20,190923,,,A*71
$GPGGA,154409.750,4308.3053,N,07726.2591,W,1,06,1.40,166.8,M,-34.4,M,,*54
$GPRMC,154410.000,A,4308.3053,N,07726.2591,W,0.17,300.72,190923,,,A*78
$GPGGA,154410.250,4308.3052,N,07726.2592,W,1,06,1.40,166.4,M,-34.4,M,,*57
$GPRMC,154410.500,A,4308.3051,N,07726.2592,W,0.14,301.00,190923,,,A*7B
$GPGGA,154410.750,4308.3051,N,07726.2592,W,1,06,1.40,166.1,M,-34.4,M,,*54
$GPRMC,154411.000,A,4308.3050,N,07726.2592,W,0.09,285.22,190923,,,A*7F
$GPGGA,154411.250,4308.3050,N,07726.2592,W,1,06,1.40,165.8,M,-34.4,M,,*5B
$GPRMC,154411.500,A,4308.3049,N,07726.2592,W,0.07,281.68,190923,,,A*76
$GPGGA,154411.750,4308.3049,N,07726.2592,W,1,06,1.40,165.5,M,-34.4,M,,*5B
$GPRMC,154412.000,A,4308.3048,N,07726.2592,W,0.08,219.37,190923,,,A*75
$GPGGA,154412.250,4308.3047,N,07726.2592,W,1,06,1.40,165.2,M,-34.4,M,,*54
$GPRMC,154412.500,A,4308.3048,N,07726.2592,W,0.06,284.87,190923,,,A*71
$GPGGA,154412.750,4308.3046,N,07726.2591,W,1,06,1.40,164.9,M,-34.4,M,,*59
$GPRMC,154413.000,A,4308.3047,N,07726.2591,W,0.03,110.16,190923,,,A*7A
$GPGGA,154413.250,4308.3047,N,07726.2591,W,1,06,1.40,164.6,M,-34.4,M,,*53
$GPRMC,154413.500,A,4308.3046,N,07726.2591,W,0.02,120.66,190923,,,A*7B
$GPGGA,154413.750,4308.3046,N,07726.2591,W,1,06,1.40,164.3,M,-34.4,M,,*52
$GPRMC,154414.000,A,4308.3046,N,07726.2591,W,0.05,19.40,190923,,,A*41
$GPGGA,154414.250,4308.3046,N,07726.2591,W,1,06,1.40,164.0,M,-34.4,M,,*53
$GPRMC,154414.500,A,4308.3046,N,07726.2591,W,0.03,234.51,190923,,,A*7F
$GPGGA,154414.750,4308.3046,N,07726.2591,W,1,06,1.40,163.7,M,-34.4,M,,*56
$GPRMC,154415.000,A,4308.3046,N,07726.2591,W,0.02,99.47,190923,,,A*48
$GPGGA,154415.250,4308.3046,N,07726.2592,W,1,06,1.40,163.5,M,-34.4,M,,*53
$GPRMC,154415.500,A,4308.3046,N,07726.2592,W,0.02,12.59,190923,,,A*42
$GPGGA,154415.750,4308.3046,N,07726.2592,W,1,06,1.51,163.4,M,-34.4,M,,*57
$GPRMC,154416.000,A,4308.3046,N,07726.2592,W,0.04,114.39,190923,,,A*73
$GPGGA,154416.250,4308.3046,N,07726.2592,W,1,06,1.40,163.2,M,-34.4,M,,*57
$GPRMC,154416.500,A,4308.3046,N,07726.2592,W,0.04,334.52,190923,,,A*7B
$GPGGA,154416.750,4308.3046,N,07726.2592,W,1,06,1.40,162.8,M,-34.4,M,,*59
$GPRMC,154417.000,A,4308.3046,N,07726.2593,W,0.03,24.06,190923,,,A*4A
$GPGGA,154417.250,4308.3046,N,07726.2593,W,1,06,1.40,162.5,M,-34.4,M,,*51
$GPRMC,154417.500,A,4308.3046,N,07726.2593,W,0.03,162.15,190923,,,A*7E
$GPGGA,154417.750,4308.3046,N,07726.2593,W,1,06,1.40,162.1,M,-34.4,M,,*50
$GPRMC,154418.000,A,4308.3046,N,07726.2593,W,0.01,132.49,190923,,,A*7A
$GPGGA,154418.250,4308.3047,N,07726.2593,W,1,06,1.40,161.8,M,-34.4,M,,*51
$GPRMC,154418.500,A,4308.3046,N,07726.2593,W,0.04,11.73,190923,,,A*43
$GPGGA,154418.750,4308.3047,N,07726.2593,W,1,06,1.51,161.5,M,-34.4,M,,*59
$GPRMC,154419.000,A,4308.3046,N,07726.2593,W,0.07,40.15,190923,,,A*40
$GPGGA,154419.250,4308.3045,N,07726.2594,W,1,06,1.40,161.3,M,-34.4,M,,*5E
$GPRMC,154419.500,A,4308.3045,N,07726.2594,W,0.07,10.05,190923,,,A*45
$GPGGA,154419.750,4308.3044,N,07726.2594,W,1,06,1.51,161.1,M,-34.4,M,,*58
$GPRMC,154420.000,A,4308.3044,N,07726.2594,W,0.06,348.86,190923,,,A*7F
$GPGGA,154420.250,4308.3044,N,07726.2595,W,1,06,1.51,160.9,M,-34.4,M,,*5F
$GPRMC,154420.500,A,4308.3044,N,07726.2595,W,0.07,15.43,190923,,,A*48
$GPGGA,154420.750,4308.3043,N,07726.2595,W,1,06,1.40,160.8,M,-34.4,M,,*5C
$GPRMC,154421.000,A,4308.3043,N,07726.2595,W,0.05,308.86,190923,,,A*7F
$GPGGA,154421.250,4308.3043,N,07726.2595,W,1,06,1.40,160.7,M,-34.4,M,,*57
$GPRMC,154421.500,A,4308.3043,N,07726.2595,W,0.02,34.10,190923,,,A*4E
$GPGGA,154421.750,4308.3043,N,07726.2595,W,1,06,1.40,160.6,M,-34.4,M,,*53
$GPRMC,154422.000,A,4308.3043,N,07726.2595,W,0.04,259.13,190923,,,A*74
$GPGGA,154422.250,4308.3043,N,07726.2596,W,1,06,1.40,160.4,M,-34.4,M,,*54
$GPRMC,154422.500,A,4308.3043,N,07726.2596,W,0.03,18.72,190923,,,A*45
$GPGGA,154422.750,4308.3043,N,07726.2596,W,1,06,1.40,160.3,M,-34.4,M,,*56
$GPRMC,154423.000,A,4308.3043,N,07726.2596,W,0.07,178.42,190923,,,A*71
$GPGGA,154423.250,4308.3043,N,07726.2596,W,1,06,1.40,160.3,M,-34.4,M,,*52
$GPRMC,154423.500,A,4308.3043,N,07726.2596,W,0.03,95.67,190923,,,A*45
$GPGGA,154423.750,4308.3043,N,07726.2596,W,1,06,1.40,160.3,M,-34.4,M,,*57
$GPRMC,154424.000,A,4308.3043,N,07726.2596,W,0.06,351.25,190923,,,A*7F
$GPGGA,154424.250,4308.3042,N,07726.2597,W,1,06,1.51,160.3,M,-34.4,M,,*55
$GPRMC,154424.500,A,4308.3042,N,07726.2597,W,0.05,44.61,190923,,,A*4E
$GPGGA,154424.750,4308.3042,N,07726.2597,W,1,06,1.40,160.3,M,-34.4,M,,*50
$GPRMC,154425.000,A,4308.3042,N,07726.2597,W,0.06,7.88,190923,,,A*79
$GPGGA,154425.250,4308.3042,N,07726.2597,W,1,06,1.51,160.3,M,-34.4,M,,*54
$GPRMC,154425.500,A,4308.3042,N,07726.2597,W,0.00,113.10,190923,,,A*7F
$GPGGA,154425.750,4308.3042,N,07726.2598,W,1,06,1.40,160.2,M,-34.4,M,,*5F
$GPRMC,154426.000,A,4308.3042,N,07726.2598,W,0.04,354.19,190923,,,A*7A
$GPGGA,154426.250,4308.3041,N,07726.2598,W,1,06,1.51,160.2,M,-34.4,M,,*5A
$GPRMC,154426.500,A,4308.3041,N,07726.2598,W,0.06,280.00,190923,,,A*7E
$GPGGA,154426.750,4308.3041,N,07726.2599,W,1,06,1.40,160.2,M,-34.4,M,,*5E
$GPRMC,154427.000,A,4308.3040,N,07726.2599,W,0.02,72.22,190923,,,A*41
$GPGGA,154427.250,4308.3040,N,07726.2599,W,1,06,1.40,160.1,M,-34.4,M,,*58
$GPRMC,154427.500,A,4308.3040,N,07726.2599,W,0.03,355.93,190923,,,A*79
$GPGGA,154427.750,4308.3040,N,07726.2599,W,1,06,1.51,160.1,M,-34.4,M,,*5D
$GPRMC,154428.000,A,4308.3040,N,07726.2600,W,0.03,283.71,190923,,,A*76
$GPGGA,154428.250,4308.3039,N,07726.2600,W,1,06,1.40,160.0,M,-34.4,M,,*5B
$GPRMC,154428.500,A,4308.3039,N,07726.2600,W,0.01,20.40,190923,,,A*46
$GPGGA,154428.750,4308.3038,N,07726.2600,W,1,06,1.40,160.0,M,-34.4,M,,*5F
$GPRMC,154429.000,A,4308.3038,N,07726.2601,W,0.03,279.75,190923,,,A*78
$GPGGA,154429.250,4308.3037,N,07726.2601,W,1,06,1.40,159.9,M,-34.4,M,,*56
$GPRMC,154429.500,A,4308.3037,N,07726.2601,W,0.05,161.76,190923,,,A*7D
$GPGGA,154429.750,4308.3037,N,07726.2601,W,1,06,1.40,160.0,M,-34.4,M,,*50
$GPRMC,154430.000,A,4308.3037,N,07726.2601,W,0.06,14.65,190923,,,A*42
$GPGGA,154430.250,4308.3037,N,07726.2602,W,1,06,1.51,160.0,M,-34.4,M,,*5E
$GPRMC,154430.500,A,4308.3037,N,07726.2602,W,0.01,163.18,190923,,,A*78
$GPGGA,154430.750,4308.3037,N,07726.2602,W,1,06,1.40,160.1,M,-34.4,M,,*5A
$GPRMC,154431.000,A,4308.3036,N,07726.2602,W,0.08,159.04,190923,,,A*70
$GPGGA,154431.250,4308.3036,N,07726.2602,W,1,06,1.40,160.2,M,-34.4,M,,*5C
$GPRMC,154431.500,A,4308.3036,N,07726.2602,W,0.08,165.71,190923,,,A*78
$GPGGA,154431.750,4308.3036,N,07726.2603,W,1,06,1.40,160.3,M,-34.4,M,,*59
$GPRMC,154432.000,A,4308.3035,N,07726.2603,W,0.10,139.02,190923,,,A*78
$GPGGA,154432.250,4308.3035,N,07726.2603,W,1,06,1.40,160.4,M,-34.4,M,,*5B
$GPRMC,154432.500,A,4308.3035,N,07726.2603,W,0.10,158.46,190923,,,A*7A
$GPGGA,154432.750,4308.3035,N,07726.2603,W,1,06,1.40,160.5,M,-34.4,M,,*5F
$GPRMC,154433.000,A,4308.3035,N,07726.2603,W,0.11,148.48,190923,,,A*70
$GPGGA,154433.250,4308.3034,N,07726.2603,W,1,06,1.40,160.6,M,-34.4,M,,*59
$GPRMC,154433.500,A,4308.3034,N,07726.2604,W,0.15,160.34,190923,,,A*76
$GPGGA,154433.750,4308.3034,N,07726.2604,W,1,06,1.40,160.7,M,-34.4,M,,*5A
$GPRMC,154434.000,A,4308.3033,N,07726.2604,W,0.17,190.66,190923,,,A*79
$GPGGA,154434.250,4308.3033,N,07726.2605,W,1,06,1.40,160.9,M,-34.4,M,,*50
$GPRMC,154434.500,A,4308.3033,N,07726.2605,W,0.13,178.64,190923,,,A*7D
$GPGGA,154434.750,4308.3033,N,07726.2604,W,1,06,1.40,161.0,M,-34.4,M,,*5C
$GPRMC,154435.000,A,4308.3033,N,07726.2605,W,0.14,140.83,190923,,,A*7C
$GPGGA,154435.250,4308.3033,N,07726.2605,W,1,06,1.40,161.2,M,-34.4,M,,*5B
$GPRMC,154435.500,A,4308.3033,N,07726.2605,W,0.12,181.76,190923,,,A*78
$GPGGA,154435.750,4308.3033,N,07726.2605,W,1,06,1.40,161.2,M,-34.4,M,,*5E
$GPRMC,154436.000,A,4308.3033,N,07726.2605,W,0.07,182.82,190923,,,A*72
$GPGGA,154436.250,4308.3033,N,07726.2605,W,1,06,1.40,161.2,M,-34.4,M,,*58
$GPRMC,154436.500,A,4308.3033,N,07726.2606,W,0.07,237.36,190923,,,A*76
$GPGGA,154436.750,4308.3033,N,07726.2606,W,1,06,1.40,161.2,M,-34.4,M,,*5E
$GPRMC,154437.000,A,4308.3033,N,07726.2606,W,0.10,280.94,190923,,,A*70
$GPGGA,154437.250,4308.3033,N,07726.2606,W,1,06,1.40,161.2,M,-34.4,M,,*5A
$GPRMC,154437.500,A,4308.3033,N,07726.2606,W,0.16,283.79,190923,,,A*73
$GPGGA,154437.750,4308.3033,N,07726.2606,W,1,06,1.40,161.2,M,-34.4,M,,*5F
$GPRMC,154438.000,A,4308.3033,N,07726.2606,W,0.18,243.91,190923,,,A*7D
$GPGGA,154438.250,4308.3033,N,07726.2606,W,1,06,1.40,161.2,M,-34.4,M,,*55
$GPRMC,154438.500,A,4308.3033,N,07726.2606,W,0.13,200.32,190923,,,A*7D
$GPGGA,154438.750,4308.3033,N,07726.2606,W,1,06,1.40,161.2,M,-34.4,M,,*50
$GPRMC,154439.000,A,4308.3033,N,07726.2607,W,0.14,195.21,190923,,,A*72
$GPGGA,154439.250,4308.3033,N,07726.2607,W,1,06,1.40,161.2,M,-34.4,M,,*55
$GPRMC,154439.500,A,4308.3032,N,07726.2607,W,0.15,193.71,190923,,,A*74
$GPGGA,154439.750,4308.3032,N,07726.2607,W,1,06,1.40,161.2,M,-34.4,M,,*51
$GPRMC,154440.000,A,4308.3032,N,07726.2607,W,0.18,191.64,190923,,,A*74
$GPGGA,154440.250,4308.3032,N,07726.2607,W,1,06,1.40,161.2,M,-34.4,M,,*5A
$GPRMC,154440.500,A,4308.3032,N,07726.2607,W,0.20,179.59,190923,,,A*72
$GPGGA,154440.750,4308.3032,N,07726.2607,W,1,06,1.40,161.2,M,-34.4,M,,*5F
$GPRMC,154441.000,A,4308.3032,N,07726.2607,W,0.14,186.07,190923,,,A*7A
$GPGGA,154441.250,4308.3032,N,07726.2607,W,1,06,1.40,161.2,M,-34.4,M,,*5B
$GPRMC,154441.500,A,4308.3032,N,07726.2607,W,0.05,143.69,190923,,,A*7E
$GPGGA,154441.750,4308.3032,N,07726.2607,W,1,06,1.40,161.2,M,-34.4,M,,*5E
$GPRMC,154442.000,A,4308.3032,N,07726.2607,W,0.04,73.51,190923,,,A*40
$GPGGA,154442.250,4308.3032,N,07726.2607,W,1,06,1.40,161.2,M,-34.4,M,,*58
$GPRMC,154442.500,A,4308.3032,N,07726.2607,W,0.03,25.67,190923,,,A*44
$GPGGA,154442.750,4308.3032,N,07726.2607,W,1,06,1.40,161.2,M,-34.4,M,,*5D
$GPRMC,154443.000,A,4308.3032,N,07726.2607,W,0.04,144.72,190923,,,A*75
$GPGGA,154443.250,4308.3032,N,07726.2607,W,1,06,1.40,161.2,M,-34.4,M,,*59
$GPRMC,154443.500,A,4308.3032,N,07726.2607,W,0.02,103.61,190923,,,A*77
$GPGGA,154443.750,4308.3032,N,07726.2607,W,1,06,1.40,161.2,M,-34.4,M,,*5C
$GPRMC,154444.000,A,4308.3032,N,07726.2607,W,0.04,357.42,190923,,,A*71
$GPGGA,154444.250,4308.3032,N,07726.2607,W,1,06,1.51,161.2,M,-34.4,M,,*5E
$GPRMC,154444.500,A,4308.3032,N,07726.2607,W,0.02,204.32,190923,,,A*72
$GPGGA,154444.750,4308.3032,N,07726.2607,W,1,06,1.40,161.2,M,-34.4,M,,*5B
$GPRMC,154445.000,A,4308.3032,N,07726.2607,W,0.03,130.50,190923,,,A*77
$GPGGA,154445.250,4308.3032,N,07726.2607,W,1,06,1.40,161.2,M,-34.4,M,,*5F
$GPRMC,154445.500,A,4308.3032,N,07726.2607,W,0.02,14.08,190923,,,A*49
$GPGGA,154445.750,4308.3032,N,07726.2607,W,1,06,1.51,161.2,M,-34.4,M,,*5A
$GPRMC,154446.000,A,4308.3032,N,07726.2607,W,0.07,170.80,190923,,,A*79
$GPGGA,154446.250,4308.3032,N,07726.2607,W,1,06,1.40,161.2,M,-34.4,M,,*5C
$GPRMC,154446.500,A,4308.3032,N,07726.2607,W,0.04,130.47,190923,,,A*70
$GPGGA,154446.750,4308.3032,N,07726.2607,W,1,06,1.40,161.2,M,-34.4,M,,*59
$GPRMC,154447.000,A,4308.3032,N,07726.2607,W,0.09,355.14,190923,,,A*7E
$GPGGA,154447.250,4308.3032,N,07726.2607,W,1,06,1.51,161.2,M,-34.4,M,,*5D
$GPRMC,154447.500,A,4308.3032,N,07726.2607,W,0.03,145.83,190923,,,A*7C
$GPGGA,154447.750,4308.3032,N,07726.2607,W,1,06,1.40,161.2,M,-34.4,M,,*58
$GPRMC,154448.000,A,4308.3032,N,07726.2607,W,0.03,175.61,190923,,,A*79
$GPGGA,154448.250,4308.3032,N,07726.2607,W,1,06,1.40,161.2,M,-34.4,M,,*52
$GPRMC,154448.500,A,4308.3032,N,07726.2607,W,0.06,191.94,190923,,,A*79
$GPGGA,154448.750,4308.3032,N,07726.2607,W,1,06,1.40,161.2,M,-34.4,M,,*57
$GPRMC,154449.000,A,4308.3032,N,07726.2607,W,0.04,108.23,190923,,,A*73
$GPGGA,154449.250,4308.3032,N,07726.2607,W,1,06,1.40,161.2,M,-34.4,M,,*53
$GPRMC,154449.500,A,4308.3032,N,07726.2607,W,0.01,283.48,190923,,,A*7E
$GPGGA,154449.750,4308.3032,N,07726.2607,W,1,06,1.40,161.2,M,-34.4,M,,*56
$GPRMC,154450.000,A,4308.3032,N,07726.2607,W,0.03,26.78,190923,,,A*4F
$GPGGA,154450.250,4308.3032,N,07726.2607,W,1,06,1.40,161.2,M,-34.4,M,,*5B
$GPRMC,154450.500,A,4308.3032,N,07726.2607,W,0.02,11.38,190923,,,A*4B
$GPGGA,154450.750,4308.3032,N,07726.2607,W,1,06,1.51,161.2,M,-34.4,M,,*5E
$GPRMC,154451.000,A,4308.3032,N,07726.2607,W,0.02,323.53,190923,,,A*70
$GPGGA,154451.250,4308.3032,N,07726.2607,W,1,06,1.51,161.2,M,-34.4,M,,*5A
$GPRMC,154451.500,A,4308.3032,N,07726.2607,W,0.01,243.29,190923,,,A*7C
$GPGGA,154451.750,4308.3032,N,07726.2607,W,1,06,1.51,161.2,M,-34.4,M,,*5F
$GPRMC,154452.000,A,4308.3032,N,07726.2607,W,0.01,116.01,190923,,,A*73
$GPGGA,154452.250,4308.3032,N,07726.2607,W,1,06,1.51,161.2,M,-34.4,M,,*59
$GPRMC,154452.500,A,4308.3032,N,07726.2607,W,0.00,293.19,190923,,,A*70
$GPGGA,154452.750,4308.3032,N,07726.2607,W,1,06,1.51,161.2,M,-34.4,M,,*5C
$GPRMC,154453.000,A,4308.3032,N,07726.2607,W,0.01,222.86,190923,,,A*79
$GPGGA,154453.250,4308.3032,N,07726.2607,W,1,06,1.51,161.2,M,-34.4,M,,*58
$GPRMC,154453.500,A,4308.3032,N,07726.2607,W,0.00,222.81,190923,,,A*7A
$GPGGA,154453.750,4308.3032,N,07726.2607,W,1,06,1.51,161.2,M,-34.4,M,,*5D
$GPRMC,154454.000,A,4308.3032,N,07726.2607,W,0.02,55.86,190923,,,A*4F
$GPGGA,154454.250,4308.3032,N,07726.2607,W,1,06,1.51,161.2,M,-34.4,M,,*5F
$GPRMC,154454.500,A,4308.3032,N,07726.2607,W,0.00,49.44,190923,,,A*4B
$GPGGA,154454.750,4308.3032,N,07726.2607,W,1,06,1.51,161.2,M,-34.4,M,,*5A
$GPRMC,154455.000,A,4308.3032,N,07726.2607,W,0.02,78.87,190923,,,A*40
$GPGGA,154455.250,4308.3032,N,07726.2607,W,1,06,1.51,161.2,M,-34.4,M,,*5E
$GPRMC,154455.500,A,4308.3032,N,07726.2607,W,0.00,82.38,190923,,,A*46
$GPGGA,154455.750,4308.3032,N,07726.2607,W,1,06,1.51,161.2,M,-34.4,M,,*5B
$GPRMC,154456.000,A,4308.3032,N,07726.2607,W,0.01,54.92,190923,,,A*4A
$GPGGA,154456.250,4308.3032,N,07726.2607,W,1,06,1.51,161.2,M,-34.4,M,,*5D
$GPRMC,154456.500,A,4308.3032,N,07726.2607,W,0.01,71.80,190923,,,A*4B
$GPGGA,154456.750,4308.3032,N,07726.2607,W,1,06,1.51,161.2,M,-34.4,M,,*58
$GPRMC,154457.000,A,4308.3032,N,07726.2607,W,0.01,313.88,190923,,,A*70
$GPGGA,154457.250,4308.3032,N,07726.2607,W,1,06,1.51,161.2,M,-34.4,M,,*5C
$GPRMC,154457.500,A,4308.3032,N,07726.2607,W,0.00,293.68,190923,,,A*73
$GPGGA,154457.750,4308.3032,N,07726.2607,W,1,06,1.51,161.2,M,-34.4,M,,*59
$GPRMC,154458.000,A,4308.3032,N,07726.2607,W,0.00,322.48,190923,,,A*70
$GPGGA,154458.250,4308.3032,N,07726.2607,W,1,06,1.51,161.2,M,-34.4,M,,*53
$GPRMC,154458.500,A,4308.3032,N,07726.2607,W,0.01,306.47,190923,,,A*7D
$GPGGA,154458.750,4308.3032,N,07726.2607,W,1,06,1.51,161.2,M,-34.4,M,,*56
$GPRMC,154459.000,A,4308.3032,N,07726.2607,W,0.02,301.78,190923,,,A*71
$GPGGA,154459.250,4308.3032,N,07726.2607,W,1,06,1.51,161.2,M,-34.4,M,,*52
$GPRMC,154459.500,A,4308.3032,N,07726.2607,W,0.00,40.89,190923,,,A*4E
$GPGGA,154459.750,4308.3032,N,07726.2607,W,1,06,1.51,161.2,M,-34.4,M,,*57
$GPRMC,154500.000,A,4308.3032,N,07726.2607,W,0.01,8.96,190923,,,A*75
$GPGGA,154500.250,4308.3032,N,07726.2607,W,1,06,1.51,161.2,M,-34.4,M,,*5F
$GPRMC,154500.500,A,4308.3032,N,07726.2607,W,0.01,83.21,190923,,,A*4F
$GPGGA,154500.750,4308.3032,N,07726.2607,W,1,06,1.51,161.2,M,-34.4,M,,*5A
$GPRMC,154501.000,A,4308.3032,N,07726.2607,W,0.01,86.98,190923,,,A*4C
$GPGGA,154501.250,4308.3032,N,07726.2607,W,1,06,1.51,161.2,M,-34.4,M,,*5E
$GPRMC,154501.500,A,4308.3032,N,07726.2607,W,0.01,266.65,190923,,,A*77
$GPGGA,154501.750,4308.3032,N,07726.2607,W,1,06,1.51,161.2,M,-34.4,M,,*5B
$GPRMC,154502.000,A,4308.3032,N,07726.2607,W,0.01,355.67,190923,,,A*72
$GPGGA,154502.250,4308.3032,N,07726.2607,W,1,06,1.51,161.2,M,-34.4,M,,*5D
$GPRMC,154502.500,A,4308.3032,N,07726.2607,W,0.00,339.41,190923,,,A*78
$GPGGA,154502.750,4308.3032,N,07726.2607,W,1,06,1.51,161.2,M,-34.4,M,,*58
$GPRMC,154503.000,A,4308.3032,N,07726.2607,W,0.01,55.64,190923,,,A*43
$GPGGA,154503.250,4308.3032,N,07726.2607,W,1,06,1.51,161.2,M,-34.4,M,,*5C
$GPRMC,154503.500,A,4308.3032,N,07726.2607,W,0.00,350.37,190923,,,A*77
$GPGGA,154503.750,4308.3032,N,07726.2607,W,1,06,1.51,161.2,M,-34.4,M,,*59
$GPRMC,154504.000,A,4308.3032,N,07726.2607,W,0.00,0.00,190923,,,A*77
$GPGGA,154504.250,4308.3032,N,07726.2607,W,1,06,1.51,161.2,M,-34.4,M,,*5B
$GPRMC,154504.500,A,4308.3032,N,07726.2607,W,0.01,336.52,190923,,,A*72
$GPGGA,154504.750,4308.3032,N,07726.2607,W,1,06,1.51,161.2,M,-34.4,M,,*5E
$GPRMC,154505.000,A,4308.3032,N,07726.2607,W,0.02,311.13,190923,,,A*75
$GPGGA,154505.250,4308.3032,N,07726.2607,W,1,06,1.51,161.2,M,-34.4,M,,*5A
$GPRMC,154505.500,A,4308.3032,N,07726.2607,W,0.00,316.00,190923,,,A*77
$GPGGA,154505.750,4308.3032,N,07726.2607,W,1,06,1.51,161.2,M,-34.4,M,,*5F
$GPRMC,154506.000,A,4308.3032,N,07726.2607,W,0.00,301.90,190923,,,A*7E
$GPGGA,154506.250,4308.3032,N,07726.2607,W,1,06,1.51,161.2,M,-34.4,M,,*59
$GPRMC,154506.500,A,4308.3032,N,07726.2607,W,0.00,48.96,190923,,,A*43
$GPGGA,154506.750,4308.3032,N,07726.2607,W,1,06,1.51,161.2,M,-34.4,M,,*5C
$GPRMC,154507.000,A,4308.3032,N,07726.2607,W,0.01,359.04,190923,,,A*7E
$GPGGA,154507.250,4308.3032,N,07726.2607,W,1,06,1.51,161.2,M,-34.4,M,,*58
$GPRMC,154507.500,A,4308.3032,N,07726.2607,W,0.00,288.91,190923,,,A*7B
$GPGGA,154507.750,4308.3032,N,07726.2607,W,1,06,1.51,161.2,M,-34.4,M,,*5D
$GPRMC,154508.000,A,4308.3032,N,07726.2607,W,0.01,171.93,190923,,,A*77
$GPGGA,154508.250,4308.3032,N,07726.2607,W,1,06,1.51,161.2,M,-34.4,M,,*57
$GPRMC,154508.500,A,4308.3032,N,07726.2607,W,0.00,239.53,190923,,,A*70
$GPGGA,154508.750,4308.3032,N,07726.2607,W,1,06,1.51,161.2,M,-34.4,M,,*52
$GPRMC,154509.000,A,4308.3032,N,07726.2607,W,0.01,336.93,190923,,,A*77
$GPGGA,154509.250,4308.3032,N,07726.2607,W,1,06,1.51,161.2,M,-34.4,M,,*56
$GPRMC,154509.500,A,4308.3032,N,07726.2607,W,0.01,52.03,190923,,,A*4A
$GPGGA,154509.750,4308.3032,N,07726.2607,W,1,06,1.51,161.2,M,-34.4,M,,*53
$GPRMC,154510.000,A,4308.3032,N,07726.2607,W,0.01,344.31,190923,,,A*72
$GPGGA,154510.250,4308.3032,N,07726.2607,W,1,06,1.51,161.2,M,-34.4,M,,*5E
$GPRMC,154510.500,A,4308.3032,N,07726.2607,W,0.00,357.77,190923,,,A*76
$GPGGA,154510.750,4308.3032,N,07726.2607,W,1,06,1.51,161.1,M,-34.4,M,,*58
$GPRMC,154511.000,A,4308.3032,N,07726.2607,W,0.00,304.88,190923,,,A*74
$GPGGA,154511.250,4308.3032,N,07726.2607,W,1,06,1.51,161.1,M,-34.4,M,,*5C
$GPRMC,154511.500,A,4308.3032,N,07726.2607,W,0.00,98.67,190923,,,A*46
$GPGGA,154511.750,4308.3032,N,07726.2607,W,1,06,1.51,161.1,M,-34.4,M,,*59
$GPRMC,154512.000,A,4308.3032,N,07726.2607,W,0.00,86.62,190923,,,A*4A
$GPGGA,154512.250,4308.3032,N,07726.2607,W,1,06,1.51,161.1,M,-34.4,M,,*5F
$GPRMC,154512.500,A,4308.3032,N,07726.2607,W,0.00,353.90,190923,,,A*79
$GPGGA,154512.750,4308.3032,N,07726.2607,W,1,06,1.51,161.1,M,-34.4,M,,*5A
$GPRMC,154513.000,A,4308.3032,N,07726.2607,W,0.00,349.84,190923,,,A*73
$GPGGA,154513.250,4308.3032,N,07726.2607,W,1,06,1.51,161.1,M,-34.4,M,,*5E
$GPRMC,154513.500,A,4308.3032,N,07726.2607,W,0.01,120.52,190923,,,A*71
$GPGGA,154513.750,4308.3032,N,07726.2607,W,1,06,1.51,161.1,M,-34.4,M,,*5B
$GPRMC,154514.000,A,4308.3032,N,07726.2607,W,0.01,76.61,190923,,,A*41
$GPGGA,154514.250,4308.3032,N,07726.2607,W,1,06,1.51,161.1,M,-34.4,M,,*59
$GPRMC,154514.500,A,4308.3032,N,07726.2607,W,0.00,65.60,190923,,,A*46
$GPGGA,154514.750,4308.3032,N,07726.2607,W,1,06,1.51,161.1,M,-34.4,M,,*5C
$GPRMC,154515.000,A,4308.3032,N,07726.2607,W,0.01,167.04,190923,,,A*72
$GPGGA,154515.250,4308.3032,N,07726.2607,W,1,06,1.51,161.1,M,-34.4,M,,*58
$GPRMC,154515.500,A,4308.3032,N,07726.2607,W,0.00,154.58,190923,,,A*7F
$GPGGA,154515.750,4308.3032,N,07726.2607,W,1,06,1.51,161.1,M,-34.4,M,,*5D
$GPRMC,154516.000,A,4308.3032,N,07726.2607,W,0.00,150.19,190923,,,A*78
$GPGGA,154516.250,4308.3032,N,07726.2607,W,1,06,1.51,161.1,M,-34.4,M,,*5B
$GPRMC,154516.500,A,4308.3032,N,07726.2607,W,0.01,106.56,190923,,,A*74
$GPGGA,154516.750,4308.3032,N,07726.2607,W,1,06,1.51,161.1,M,-34.4,M,,*5E
$GPRMC,154517.000,A,4308.3032,N,07726.2607,W,0.01,148.12,190923,,,A*7A
$GPGGA,154517.250,4308.3032,N,07726.2607,W,1,06,1.51,161.1,M,-34.4,M,,*5A
$GPRMC,154517.500,A,4308.3032,N,07726.2606,W,0.00,0.00,190923,,,A*71
$GPGGA,154517.750,4308.3032,N,07726.2606,W,1,06,1.52,161.1,M,-34.4,M,,*5D
$GPRMC,154518.000,A,4308.3032,N,07726.2606,W,0.01,200.18,190923,,,A*71
$GPGGA,154518.250,4308.3032,N,07726.2606,W,1,06,1.51,161.1,M,-34.4,M,,*54
$GPRMC,154518.500,A,4308.3032,N,07726.2606,W,0.01,168.96,190923,,,A*7F
$GPGGA,154518.750,4308.3032,N,07726.2606,W,1,06,1.51,161.1,M,-34.4,M,,*51
$GPRMC,154519.000,A,4308.3032,N,07726.2606,W,0.02,114.91,190923,,,A*74
$GPGGA,154519.250,4308.3032,N,07726.2606,W,1,06,1.51,161.1,M,-34.4,M,,*55
$GPRMC,154519.500,A,4308.3032,N,07726.2606,W,0.01,127.23,190923,,,A*7B
$GPGGA,154519.750,4308.3032,N,07726.2606,W,1,06,1.52,161.1,M,-34.4,M,,*53
$GPRMC,154520.000,A,4308.3032,N,07726.2606,W,0.00,315.37,190923,,,A*73
$GPGGA,154520.250,4308.3032,N,07726.2606,W,1,06,1.52,161.1,M,-34.4,M,,*5C
$GPRMC,154520.500,A,4308.3032,N,07726.2606,W,0.00,246.61,190923,,,A*72
$GPGGA,154520.750,4308.3032,N,07726.2606,W,1,06,1.51,161.1,M,-34.4,M,,*5A
$GPRMC,154521.000,A,4308.3032,N,07726.2606,W,0.01,309.73,190923,,,A*7E
$GPGGA,154521.250,4308.3032,N,07726.2606,W,1,06,1.51,161.1,M,-34.4,M,,*5E
$GPRMC,154521.500,A,4308.3032,N,07726.2606,W,0.00,343.26,190923,,,A*74
$GPGGA,154521.750,4308.3032,N,07726.2606,W,1,06,1.52,161.1,M,-34.4,M,,*58
$GPRMC,154522.000,A,4308.3032,N,07726.2606,W,0.02,125.25,190923,,,A*71
$GPGGA,154522.250,4308.3032,N,07726.2606,W,1,06,1.52,161.1,M,-34.4,M,,*5E
$GPRMC,154522.500,A,4308.3032,N,07726.2606,W,0.01,165.59,190923,,,A*78
$GPGGA,154522.750,4308.3032,N,07726.2606,W,1,06,1.52,161.1,M,-34.4,M,,*5B
$GPRMC,154523.000,A,4308.3032,N,07726.2606,W,0.01,90.76,190923,,,A*4A
$GPGGA,154523.250,4308.3032,N,07726.2606,W,1,06,1.52,161.1,M,-34.4,M,,*5F
$GPRMC,154523.500,A,4308.3032,N,07726.2606,W,0.00,165.17,190923,,,A*72
$GPGGA,154523.750,4308.3032,N,07726.2606,W,1,06,1.52,161.1,M,-34.4,M,,*5A
$GPRMC,154524.000,A,4308.3032,N,07726.2606,W,0.00,327.18,190923,,,A*7B
$GPGGA,154524.250,4308.3032,N,07726.2606,W,1,06,1.51,161.1,M,-34.4,M,,*5B
$GPRMC,154524.500,A,4308.3032,N,07726.2606,W,0.01,60.41,190923,,,A*43
$GPGGA,154524.750,4308.3032,N,07726.2606,W,1,06,1.52,161.1,M,-34.4,M,,*5D
$GPRMC,154525.000,A,4308.3032,N,07726.2606,W,0.01,145.47,190923,,,A*77
$GPGGA,154525.250,4308.3032,N,07726.2606,W,1,06,1.52,161.1,M,-34.4,M,,*59
$GPRMC,154525.500,A,4308.3032,N,07726.2606,W,0.00,144.64,190923,,,A*73
$GPGGA,154525.750,4308.3032,N,07726.2606,W,1,06,1.52,161.1,M,-34.4,M,,*5C
$GPRMC,154526.000,A,4308.3032,N,07726.2606,W,0.00,0.00,190923,,,A*76
$GPGGA,154526.250,4308.3032,N,07726.2606,W,1,06,1.52,161.1,M,-34.4,M,,*5A
$GPRMC,154526.500,A,4308.3032,N,07726.2606,W,0.01,105.76,190923,,,A*77
$GPGGA,154526.750,4308.3032,N,07726.2606,W,1,06,1.52,161.1,M,-34.4,M,,*5F
$GPRMC,154527.000,A,4308.3032,N,07726.2606,W,0.01,73.15,190923,,,A*46
$GPGGA,154527.250,4308.3032,N,07726.2606,W,1,06,1.52,161.1,M,-34.4,M,,*5B
$GPRMC,154527.500,A,4308.3032,N,07726.2606,W,0.00,121.61,190923,,,A*77
$GPGGA,154527.750,4308.3032,N,07726.2606,W,1,06,1.52,161.1,M,-34.4,M,,*5E
$GPRMC,154528.000,A,4308.3032,N,07726.2606,W,0.01,295.04,190923,,,A*73
$GPGGA,154528.250,4308.3032,N,07726.2606,W,1,06,1.51,161.1,M,-34.4,M,,*57
$GPRMC,154528.500,A,4308.3032,N,07726.2606,W,0.00,146.87,190923,,,A*71
$GPGGA,154528.750,4308.3032,N,07726.2606,W,1,06,1.52,161.1,M,-34.4,M,,*51
$GPRMC,154529.000,A,4308.3032,N,07726.2606,W,0.01,108.84,190923,,,A*7D
$GPGGA,154529.250,4308.3032,N,07726.2606,W,1,06,1.52,161.1,M,-34.4,M,,*55
$GPRMC,154529.500,A,4308.3032,N,07726.2606,W,0.01,128.14,190923,,,A*73
$GPGGA,154529.750,4308.3032,N,07726.2606,W,1,06,1.52,161.1,M,-34.4,M,,*50
$GPRMC,154530.000,A,4308.3032,N,07726.2606,W,0.01,22.65,190923,,,A*43
$GPGGA,154530.250,4308.3032,N,07726.2606,W,1,06,1.52,161.1,M,-34.4,M,,*5D
$GPRMC,154530.500,A,4308.3032,N,07726.2606,W,0.00,308.83,190923,,,A*74
$GPGGA,154530.750,4308.3032,N,07726.2606,W,1,06,1.52,161.1,M,-34.4,M,,*58
$GPRMC,154531.000,A,4308.3032,N,07726.2606,W,0.01,274.13,190923,,,A*72
$GPGGA,154531.250,4308.3032,N,07726.2606,W,1,06,1.52,161.1,M,-34.4,M,,*5C
$GPRMC,154531.500,A,4308.3032,N,07726.2606,W,0.01,156.49,190923,,,A*7B
$GPGGA,154531.750,4308.3032,N,07726.2606,W,1,06,1.52,161.1,M,-34.4,M,,*59
$GPRMC,154532.000,A,4308.3032,N,07726.2606,W,0.01,198.34,190923,,,A*75
$GPGGA,154532.250,4308.3032,N,07726.2606,W,1,06,1.51,161.1,M,-34.4,M,,*5C
$GPRMC,154532.500,A,4308.3032,N,07726.2606,W,0.00,131.73,190923,,,A*71
$GPGGA,154532.750,4308.3032,N,07726.2606,W,1,06,1.52,161.1,M,-34.4,M,,*5A
$GPRMC,154533.000,A,4308.3032,N,07726.2606,W,0.01,71.34,190923,,,A*42
$GPGGA,154533.250,4308.3032,N,07726.2606,W,1,06,1.52,161.1,M,-34.4,M,,*5E
$GPRMC,154533.500,A,4308.3032,N,07726.2606,W,0.00,346.46,190923,,,A*74
$GPGGA,154533.750,4308.3032,N,07726.2606,W,1,06,1.52,161.1,M,-34.4,M,,*5B
$GPRMC,154534.000,A,4308.3032,N,07726.2606,W,0.01,1.22,190923,,,A*75
$GPGGA,154534.250,4308.3032,N,07726.2606,W,1,06,1.52,161.1,M,-34.4,M,,*59
$GPRMC,154534.500,A,4308.3032,N,07726.2606,W,0.01,356.54,190923,,,A*70
$GPGGA,154534.750,4308.3032,N,07726.2606,W,1,06,1.52,161.1,M,-34.4,M,,*5C
$GPRMC,154535.000,A,4308.3032,N,07726.2606,W,0.00,239.73,190923,,,A*78
$GPGGA,154535.250,4308.3032,N,07726.2606,W,1,06,1.52,161.1,M,-34.4,M,,*58
$GPRMC,154535.500,A,4308.3032,N,07726.2606,W,0.01,263.67,190923,,,A*76
$GPGGA,154535.750,4308.3032,N,07726.2606,W,1,06,1.52,161.1,M,-34.4,M,,*5D
$GPRMC,154536.000,A,4308.3032,N,07726.2606,W,0.03,255.69,190923,,,A*79
$GPGGA,154536.250,4308.3032,N,07726.2606,W,1,06,1.52,161.1,M,-34.4,M,,*5B
$GPRMC,154536.500,A,4308.3032,N,07726.2606,W,0.01,309.62,190923,,,A*7D
$GPGGA,154536.750,4308.3032,N,07726.2606,W,1,06,1.52,161.1,M,-34.4,M,,*5E
$GPRMC,154537.000,A,4308.3032,N,07726.2606,W,0.02,13.51,190923,,,A*42
$GPGGA,154537.250,4308.3032,N,07726.2606,W,1,06,1.52,161.1,M,-34.4,M,,*5A
$GPRMC,154537.500,A,4308.3032,N,07726.2606,W,0.00,75.41,190923,,,A*44
$GPGGA,154537.750,4308.3032,N,07726.2606,W,1,06,1.52,161.1,M,-34.4,M,,*5F
$GPRMC,154538.000,A,4308.3032,N,07726.2606,W,0.02,310.00,190923,,,A*79
$GPGGA,154538.250,4308.3032,N,07726.2606,W,1,06,1.52,161.1,M,-34.4,M,,*55
$GPRMC,154538.500,A,4308.3032,N,07726.2606,W,0.01,330.40,190923,,,A*79
$GPGGA,154538.750,4308.3032,N,07726.2606,W,1,06,1.52,161.1,M,-34.4,M,,*50
$GPRMC,154539.000,A,4308.3032,N,07726.2606,W,0.02,62.46,190923,,,A*4C
$GPGGA,154539.250,4308.3032,N,07726.2606,W,1,06,1.52,161.1,M,-34.4,M,,*54
$GPRMC,154539.500,A,4308.3032,N,07726.2606,W,0.01,105.11,190923,,,A*78
$GPGGA,154539.750,4308.3032,N,07726.2606,W,1,06,1.52,161.1,M,-34.4,M,,*51
$GPRMC,154540.000,A,4308.3032,N,07726.2606,W,0.03,25.97,190923,,,A*4C
$GPGGA,154540.250,4308.3032,N,07726.2606,W,1,06,1.52,161.1,M,-34.4,M,,*5A
$GPRMC,154540.500,A,4308.3032,N,07726.2606,W,0.03,355.57,190923,,,A*71
$GPGGA,154540.750,4308.3032,N,07726.2606,W,1,06,1.52,161.1,M,-34.4,M,,*5F
$GPRMC,154541.000,A,4308.3032,N,07726.2606,W,0.04,339.03,190923,,,A*79
$GPGGA,154541.250,4308.3032,N,07726.2606,W,1,06,1.52,161.1,M,-34.4,M,,*5B
$GPRMC,154541.500,A,4308.3032,N,07726.2606,W,0.03,348.10,190923,,,A*7F
$GPGGA,154541.750,4308.3032,N,07726.2606,W,1,06,1.52,161.1,M,-34.4,M,,*5E
$GPRMC,154542.000,A,4308.3033,N,07726.2606,W,0.04,308.91,190923,,,A*72
$GPGGA,154542.250,4308.3033,N,07726.2606,W,1,06,1.39,161.1,M,-34.4,M,,*54
$GPRMC,154542.500,A,4308.3033,N,07726.2606,W,0.05,330.73,190923,,,A*71
$GPGGA,154542.750,4308.3033,N,07726.2606,W,1,06,1.52,161.1,M,-34.4,M,,*5C
$GPRMC,154543.000,A,4308.3033,N,07726.2607,W,0.15,344.51,190923,,,A*76
$GPGGA,154543.250,4308.3033,N,07726.2607,W,1,06,1.40,161.1,M,-34.4,M,,*5A
$GPRMC,154543.500,A,4308.3033,N,07726.2607,W,0.28,0.82,190923,,,A*70
$GPGGA,154543.750,4308.3033,N,07726.2607,W,1,06,1.52,161.1,M,-34.4,M,,*5C
$GPRMC,154544.000,A,4308.3033,N,07726.2607,W,0.11,341.33,190923,,,A*74
$GPGGA,154544.250,4308.3033,N,07726.2607,W,1,06,1.52,161.1,M,-34.4,M,,*5E
$GPRMC,154544.500,A,4308.3033,N,07726.2607,W,0.04,4.15,190923,,,A*73
$GPGGA,154544.750,4308.3033,N,07726.2607,W,1,06,1.52,161.1,M,-34.4,M,,*5B
$GPRMC,154545.000,A,4308.3033,N,07726.2607,W,0.05,324.04,190923,,,A*77
$GPGGA,154545.250,4308.3033,N,07726.2607,W,1,06,1.52,161.1,M,-34.4,M,,*5F
$GPRMC,154545.500,A,4308.3033,N,07726.2607,W,0.04,8.51,190923,,,A*7E
$GPGGA,154545.750,4308.3033,N,07726.2607,W,1,06,1.52,161.1,M,-34.4,M,,*5A
$GPRMC,154546.000,A,4308.3033,N,07726.2607,W,0.06,9.78,190923,,,A*70
$GPGGA,154546.250,4308.3034,N,07726.2607,W,1,06,1.52,161.1,M,-34.4,M,,*5B
$GPRMC,154546.500,A,4308.3034,N,07726.2607,W,0.04,19.58,190923,,,A*43
$GPGGA,154546.750,4308.3034,N,07726.2607,W,1,06,1.52,161.1,M,-34.4,M,,*5E
$GPRMC,154547.000,A,4308.3034,N,07726.2607,W,0.04,5.99,190923,,,A*77
$GPGGA,154547.250,4308.3034,N,07726.2607,W,1,06,1.52,161.1,M,-34.4,M,,*5A
$GPRMC,154547.500,A,4308.3034,N,07726.2607,W,0.06,344.04,190923,,,A*72
$GPGGA,154547.750,4308.3034,N,07726.2607,W,1,06,1.52,161.1,M,-34.4,M,,*5F
$GPRMC,154548.000,A,4308.3034,N,07726.2607,W,0.13,350.39,190923,,,A*77
$GPGGA,154548.250,4308.3034,N,07726.2607,W,1,06,1.52,161.1,M,-34.4,M,,*55
$GPRMC,154548.500,A,4308.3034,N,07726.2607,W,0.24,318.32,190923,,,A*71
$GPGGA,154548.750,4308.3034,N,07726.2607,W,1,06,1.52,161.1,M,-34.4,M,,*50
$GPRMC,154549.000,A,4308.3034,N,07726.2607,W,0.32,333.09,190923,,,A*73
$GPGGA,154549.250,4308.3035,N,07726.2608,W,1,06,1.40,161.1,M,-34.4,M,,*59
$GPRMC,154549.500,A,4308.3035,N,07726.2608,W,0.55,348.96,190923,,,A*73
$GPGGA,154549.750,4308.3035,N,07726.2608,W,1,06,1.52,161.1,M,-34.4,M,,*5F
$GPRMC,154550.000,A,4308.3039,N,07726.2608,W,0.95,357.86,190923,,,A*71
$GPGGA,154550.250,4308.3043,N,07726.2608,W,1,06,1.52,161.1,M,-34.4,M,,*53
$GPRMC,154550.500,A,4308.3046,N,07726.2608,W,1.21,1.09,190923,,,A*75
$GPGGA,154550.750,4308.3049,N,07726.2609,W,1,06,1.52,161.1,M,-34.4,M,,*5D
$GPRMC,154551.000,A,4308.3052,N,07726.2609,W,2.32,3.58,190923,,,A*72
$GPGGA,154551.250,4308.3055,N,07726.2610,W,1,06,1.52,161.0,M,-34.4,M,,*5D
$GPRMC,154551.500,A,4308.3058,N,07726.2611,W,2.55,337.63,190923,,,A*79
$GPGGA,154551.750,4308.3061,N,07726.2613,W,1,06,1.39,161.0,M,-34.4,M,,*51
$GPRMC,154552.000,A,4308.3064,N,07726.2614,W,2.53,340.59,190923,,,A*7A
$GPGGA,154552.250,4308.3068,N,07726.2616,W,1,06,1.39,161.0,M,-34.4,M,,*5B
$GPRMC,154552.500,A,4308.3070,N,07726.2617,W,2.60,330.71,190923,,,A*74
$GPGGA,154552.750,4308.3073,N,07726.2619,W,1,06,1.39,161.0,M,-34.4,M,,*5B
$GPRMC,154553.000,A,4308.3076,N,07726.2620,W,2.66,325.29,190923,,,A*7D
$GPGGA,154553.250,4308.3079,N,07726.2623,W,1,06,1.39,161.0,M,-34.4,M,,*5C
$GPRMC,154553.500,A,4308.3081,N,07726.2626,W,3.39,311.90,190923,,,A*78
$GPGGA,154553.750,4308.3084,N,07726.2628,W,1,06,1.39,160.9,M,-34.4,M,,*58
$GPRMC,154554.000,A,4308.3087,N,07726.2631,W,3.32,307.12,190923,,,A*7C
$GPGGA,154554.250,4308.3089,N,07726.2634,W,1,06,1.40,161.0,M,-34.4,M,,*5C
$GPRMC,154554.500,A,4308.3091,N,07726.2637,W,3.08,295.87,190923,,,A*77
$GPGGA,154554.750,4308.3092,N,07726.2640,W,1,06,1.40,161.0,M,-34.4,M,,*50
$GPRMC,154555.000,A,4308.3094,N,07726.2643,W,3.14,291.51,190923,,,A*77
$GPGGA,154555.250,4308.3095,N,07726.2646,W,1,06,1.40,161.0,M,-34.4,M,,*55
$GPRMC,154555.500,A,4308.3096,N,07726.2649,W,3.13,279.28,190923,,,A*75
$GPGGA,154555.750,4308.3097,N,07726.2652,W,1,06,1.39,161.0,M,-34.4,M,,*59
$GPRMC,154556.000,A,4308.3098,N,07726.2655,W,2.80,280.93,190923,,,A*7D
$GPGGA,154556.250,4308.3099,N,07726.2658,W,1,06,1.40,160.9,M,-34.4,M,,*5D
$GPRMC,154556.500,A,4308.3100,N,07726.2661,W,3.00,276.93,190923,,,A*7F
$GPGGA,154556.750,4308.3101,N,07726.2664,W,1,06,1.40,160.9,M,-34.4,M,,*57
$GPRMC,154557.000,A,4308.3101,N,07726.2667,W,3.14,278.52,190923,,,A*7A
$GPGGA,154557.250,4308.3103,N,07726.2670,W,1,06,1.40,160.8,M,-34.4,M,,*55
$GPRMC,154557.500,A,4308.3104,N,07726.2674,W,3.20,280.38,190923,,,A*74
$GPGGA,154557.750,4308.3105,N,07726.2677,W,1,06,1.40,160.8,M,-34.4,M,,*51
$GPRMC,154558.000,A,4308.3106,N,07726.2679,W,2.84,284.68,190923,,,A*7F
$GPGGA,154558.250,4308.3107,N,07726.2683,W,1,06,1.39,160.7,M,-34.4,M,,*53
$GPRMC,154558.500,A,4308.3108,N,07726.2686,W,2.86,284.72,190923,,,A*7D
$GPGGA,154558.750,4308.3109,N,07726.2689,W,1,06,1.40,160.7,M,-34.4,M,,*5C
$GPRMC,154559.000,A,4308.3109,N,07726.2691,W,2.61,280.01,190923,,,A*77
$GPGGA,154559.250,4308.3111,N,07726.2694,W,1,06,1.39,160.6,M,-34.4,M,,*52
$GPRMC,154559.500,A,4308.3111,N,07726.2696,W,2.62,285.24,190923,,,A*7D
$GPGGA,154559.750,4308.3112,N,07726.2699,W,1,06,1.40,160.5,M,-34.4,M,,*54
$GPRMC,154600.000,A,4308.3113,N,07726.2702,W,2.46,279.38,190923,,,A*71
$GPGGA,154600.250,4308.3114,N,07726.2704,W,1,06,1.39,160.5,M,-34.4,M,,*53
$GPRMC,154600.500,A,4308.3115,N,07726.2707,W,2.72,284.12,190923,,,A*7A
$GPGGA,154600.750,4308.3115,N,07726.2709,W,1,06,1.40,160.5,M,-34.4,M,,*54
$GPRMC,154601.000,A,4308.3116,N,07726.2712,W,2.46,283.01,190923,,,A*7B
$GPGGA,154601.250,4308.3117,N,07726.2714,W,1,06,1.40,160.3,M,-34.4,M,,*58
$GPRMC,154601.500,A,4308.3118,N,07726.2717,W,2.44,289.30,190923,,,A*7F
$GPGGA,154601.750,4308.3119,N,07726.2720,W,1,06,1.39,160.3,M,-34.4,M,,*5A
$GPRMC,154602.000,A,4308.3120,N,07726.2723,W,2.88,283.69,190923,,,A*73
$GPGGA,154602.250,4308.3121,N,07726.2725,W,1,06,1.40,160.2,M,-34.4,M,,*5D
$GPRMC,154602.500,A,4308.3122,N,07726.2728,W,2.84,288.34,190923,,,A*70
$GPGGA,154602.750,4308.3123,N,07726.2731,W,1,06,1.39,160.1,M,-34.4,M,,*52
$GPRMC,154603.000,A,4308.3124,N,07726.2734,W,2.91,287.14,190923,,,A*76
$GPGGA,154603.250,4308.3125,N,07726.2737,W,1,06,1.39,160.1,M,-34.4,M,,*56
$GPRMC,154603.500,A,4308.3126,N,07726.2740,W,2.82,282.93,190923,,,A*7A
$GPGGA,154603.750,4308.3127,N,07726.2742,W,1,06,1.40,160.0,M,-34.4,M,,*5C
$GPRMC,154604.000,A,4308.3128,N,07726.2745,W,2.65,282.11,190923,,,A*70
$GPGGA,154604.250,4308.3129,N,07726.2748,W,1,06,1.40,160.0,M,-34.4,M,,*5A
$GPRMC,154604.500,A,4308.3130,N,07726.2751,W,2.90,288.00,190923,,,A*79
$GPGGA,154604.750,4308.3131,N,07726.2753,W,1,06,1.39,159.9,M,-34.4,M,,*51
$GPRMC,154605.000,A,4308.3131,N,07726.2756,W,2.84,277.59,190923,,,A*72
$GPGGA,154605.250,4308.3132,N,07726.2758,W,1,06,1.39,159.9,M,-34.4,M,,*5D
$GPRMC,154605.500,A,4308.3133,N,07726.2761,W,2.33,285.99,190923,,,A*7C
$GPGGA,154605.750,4308.3134,N,07726.2763,W,1,06,1.39,159.8,M,-34.4,M,,*57
$GPRMC,154606.000,A,4308.3135,N,07726.2766,W,3.54,289.96,190923,,,A*78
$GPGGA,154606.250,4308.3136,N,07726.2769,W,1,06,1.39,159.7,M,-34.4,M,,*56
$GPRMC,154606.500,A,4308.3137,N,07726.2772,W,3.08,301.01,190923,,,A*7C
$GPGGA,154606.750,4308.3138,N,07726.2774,W,1,06,1.39,159.7,M,-34.4,M,,*51
$GPRMC,154607.000,A,4308.3139,N,07726.2777,W,2.86,292.45,190923,,,A*7F
$GPGGA,154607.250,4308.3140,N,07726.2780,W,1,06,1.39,159.6,M,-34.4,M,,*50
$GPRMC,154607.500,A,4308.3141,N,07726.2782,W,2.58,288.78,190923,,,A*79
$GPGGA,154607.750,4308.3142,N,07726.2785,W,1,06,1.39,159.5,M,-34.4,M,,*51
$GPRMC,154608.000,A,4308.3143,N,07726.2788,W,2.76,279.99,190923,,,A*76
$GPGGA,154608.250,4308.3143,N,07726.2791,W,1,06,1.40,159.5,M,-34.4,M,,*51
$GPRMC,154608.500,A,4308.3144,N,07726.2793,W,2.66,276.22,190923,,,A*70
$GPGGA,154608.750,4308.3145,N,07726.2796,W,1,06,1.39,159.4,M,-34.4,M,,*5A
$GPRMC,154609.000,A,4308.3145,N,07726.2799,W,2.97,278.47,190923,,,A*7C
$GPGGA,154609.250,4308.3146,N,07726.2802,W,1,06,1.39,159.4,M,-34.4,M,,*5F
$GPRMC,154609.500,A,4308.3147,N,07726.2805,W,2.79,278.80,190923,,,A*7A
$GPGGA,154609.750,4308.3147,N,07726.2808,W,1,06,1.39,159.5,M,-34.4,M,,*50
$GPRMC,154610.000,A,4308.3148,N,07726.2811,W,2.80,283.15,190923,,,A*73
$GPGGA,154610.250,4308.3148,N,07726.2814,W,1,06,1.39,159.5,M,-34.4,M,,*5F
$GPRMC,154610.500,A,4308.3149,N,07726.2817,W,2.62,275.31,190923,,,A*72
$GPGGA,154610.750,4308.3149,N,07726.2819,W,1,06,1.40,159.5,M,-34.4,M,,*58
$GPRMC,154611.000,A,4308.3150,N,07726.2822,W,2.85,285.01,190923,,,A*7D
$GPGGA,154611.250,4308.3151,N,07726.2825,W,1,06,1.39,159.5,M,-34.4,M,,*54
$GPRMC,154611.500,A,4308.3151,N,07726.2828,W,2.84,284.61,190923,,,A*75
$GPGGA,154611.750,4308.3152,N,07726.2831,W,1,06,1.39,159.5,M,-34.4,M,,*57
$GPRMC,154612.000,A,4308.3153,N,07726.2833,W,2.87,303.68,190923,,,A*7F
$GPGGA,154612.250,4308.3154,N,07726.2836,W,1,06,1.39,159.5,M,-34.4,M,,*50
$GPRMC,154612.500,A,4308.3155,N,07726.2839,W,2.99,302.71,190923,,,A*70
$GPGGA,154612.750,4308.3156,N,07726.2841,W,1,06,1.39,159.4,M,-34.4,M,,*56
$GPRMC,154613.000,A,4308.3156,N,07726.2844,W,3.02,296.85,190923,,,A*79
$GPGGA,154613.250,4308.3157,N,07726.2847,W,1,06,1.39,159.4,M,-34.4,M,,*55
$GPRMC,154613.500,A,4308.3158,N,07726.2850,W,2.80,284.84,190923,,,A*7E
$GPGGA,154613.750,4308.3159,N,07726.2852,W,1,06,1.39,159.3,M,-34.4,M,,*5D
$GPRMC,154614.000,A,4308.3159,N,07726.2855,W,2.61,286.25,190923,,,A*7E
$GPGGA,154614.250,4308.3160,N,07726.2857,W,1,06,1.39,159.3,M,-34.4,M,,*50
$GPRMC,154614.500,A,4308.3161,N,07726.2860,W,2.68,292.01,190923,,,A*7C
$GPGGA,154614.750,4308.3162,N,07726.2862,W,1,06,1.39,159.2,M,-34.4,M,,*50
$GPRMC,154615.000,A,4308.3163,N,07726.2865,W,3.01,296.61,190923,,,A*73
$GPGGA,154615.250,4308.3164,N,07726.2868,W,1,06,1.40,159.0,M,-34.4,M,,*54
$GPRMC,154615.500,A,4308.3166,N,07726.2871,W,3.07,300.14,190923,,,A*7C
$GPGGA,154615.750,4308.3166,N,07726.2873,W,1,06,1.39,158.9,M,-34.4,M,,*5F
$GPRMC,154616.000,A,4308.3167,N,07726.2876,W,2.79,290.83,190923,,,A*72
$GPGGA,154616.250,4308.3169,N,07726.2878,W,1,06,1.39,158.9,M,-34.4,M,,*5D
$GPRMC,154616.500,A,4308.3170,N,07726.2881,W,2.98,296.83,190923,,,A*70
$GPGGA,154616.750,4308.3171,N,07726.2884,W,1,06,1.40,158.9,M,-34.4,M,,*5C
$GPRMC,154617.000,A,4308.3172,N,07726.2886,W,2.73,290.90,190923,,,A*70
$GPGGA,154617.250,4308.3172,N,07726.2889,W,1,06,1.40,158.8,M,-34.4,M,,*57
$GPRMC,154617.500,A,4308.3173,N,07726.2893,W,3.39,275.02,190923,,,A*7F
$GPGGA,154617.750,4308.3174,N,07726.2896,W,1,06,1.39,158.8,M,-34.4,M,,*54
$GPRMC,154618.000,A,4308.3175,N,07726.2899,W,3.42,284.76,190923,,,A*78
$GPGGA,154618.250,4308.3176,N,07726.2901,W,1,06,1.39,158.8,M,-34.4,M,,*53
$GPRMC,154618.500,A,4308.3177,N,07726.2903,W,2.43,294.54,190923,,,A*7C
$GPGGA,154618.750,4308.3178,N,07726.2905,W,1,06,1.39,158.8,M,-34.4,M,,*5C
$GPRMC,154619.000,A,4308.3179,N,07726.2908,W,2.77,299.45,190923,,,A*77
$GPGGA,154619.250,4308.3180,N,07726.2911,W,1,06,1.39,158.8,M,-34.4,M,,*5A
$GPRMC,154619.500,A,4308.3181,N,07726.2913,W,2.71,296.81,190923,,,A*7E
$GPGGA,154619.750,4308.3182,N,07726.2916,W,1,06,1.39,158.8,M,-34.4,M,,*5A
$GPRMC,154620.000,A,4308.3183,N,07726.2917,W,1.98,291.38,190923,,,A*76
$GPGGA,154620.250,4308.3184,N,07726.2919,W,1,06,1.39,158.8,M,-34.4,M,,*5C
$GPRMC,154620.500,A,4308.3185,N,07726.2921,W,2.10,296.96,190923,,,A*70
$GPGGA,154620.750,4308.3185,N,07726.2923,W,1,06,1.39,158.8,M,-34.4,M,,*51
$GPRMC,154621.000,A,4308.3186,N,07726.2926,W,2.20,300.57,190923,,,A*70
$GPGGA,154621.250,4308.3188,N,07726.2928,W,1,06,1.39,158.8,M,-34.4,M,,*53
$GPRMC,154621.500,A,4308.3189,N,07726.2931,W,2.78,300.96,190923,,,A*7C
$GPGGA,154621.750,4308.3190,N,07726.2934,W,1,06,1.39,158.8,M,-34.4,M,,*52
$GPRMC,154622.000,A,4308.3191,N,07726.2936,W,2.68,292.63,190923,,,A*75
$GPGGA,154622.250,4308.3191,N,07726.2938,W,1,06,1.39,158.8,M,-34.4,M,,*59
$GPRMC,154622.500,A,4308.3192,N,07726.2941,W,2.07,294.79,190923,,,A*77
$GPGGA,154622.750,4308.3192,N,07726.2943,W,1,06,1.39,158.8,M,-34.4,M,,*53
$GPRMC,154623.000,A,4308.3193,N,07726.2946,W,2.32,295.11,190923,,,A*7C
$GPGGA,154623.250,4308.3194,N,07726.2948,W,1,06,1.39,158.8,M,-34.4,M,,*5A
$GPRMC,154623.500,A,4308.3196,N,07726.2951,W,2.85,301.72,190923,,,A*7F
$GPGGA,154623.750,4308.3197,N,07726.2954,W,1,06,1.39,158.7,M,-34.4,M,,*5E
$GPRMC,154624.000,A,4308.3199,N,07726.2957,W,3.11,305.13,190923,,,A*7B
$GPGGA,154624.250,4308.3200,N,07726.2960,W,1,06,1.39,158.6,M,-34.4,M,,*57
$GPRMC,154624.500,A,4308.3201,N,07726.2962,W,2.59,298.07,190923,,,A*77
$GPGGA,154624.750,4308.3201,N,07726.2966,W,1,06,1.39,158.6,M,-34.4,M,,*55
$GPRMC,154625.000,A,4308.3201,N,07726.2968,W,2.69,281.20,190923,,,A*77
$GPGGA,154625.250,4308.3202,N,07726.2972,W,1,06,1.39,158.5,M,-34.4,M,,*54
$GPRMC,154625.500,A,4308.3203,N,07726.2974,W,2.72,288.26,190923,,,A*78
$GPGGA,154625.750,4308.3204,N,07726.2976,W,1,06,1.39,158.4,M,-34.4,M,,*52
$GPRMC,154626.000,A,4308.3205,N,07726.2979,W,2.37,286.92,190923,,,A*75
$GPGGA,154626.250,4308.3206,N,07726.2981,W,1,06,1.40,158.4,M,-34.4,M,,*50
$GPRMC,154626.500,A,4308.3207,N,07726.2984,W,2.50,292.29,190923,,,A*74
$GPGGA,154626.750,4308.3209,N,07726.2986,W,1,06,1.39,158.4,M,-34.4,M,,*53
$GPRMC,154627.000,A,4308.3211,N,07726.2989,W,2.63,308.24,190923,,,A*75
$GPGGA,154627.250,4308.3213,N,07726.2991,W,1,06,1.39,158.3,M,-34.4,M,,*5D
$GPRMC,154627.500,A,4308.3214,N,07726.2994,W,2.40,299.23,190923,,,A*76
$GPGGA,154627.750,4308.3215,N,07726.2996,W,1,06,1.39,158.2,M,-34.4,M,,*58
$GPRMC,154628.000,A,4308.3217,N,07726.2998,W,2.19,306.59,190923,,,A*75
$GPGGA,154628.250,4308.3218,N,07726.3001,W,1,06,1.39,158.2,M,-34.4,M,,*59
$GPRMC,154628.500,A,4308.3220,N,07726.3003,W,2.91,308.38,190923,,,A*77
$GPGGA,154628.750,4308.3222,N,07726.3006,W,1,06,1.39,158.1,M,-34.4,M,,*51
$GPRMC,154629.000,A,4308.3224,N,07726.3008,W,2.66,306.99,190923,,,A*71
$GPGGA,154629.250,4308.3225,N,07726.3011,W,1,06,1.39,158.0,M,-34.4,M,,*55
$GPRMC,154629.500,A,4308.3226,N,07726.3013,W,2.45,302.03,190923,,,A*7A
$GPGGA,154629.750,4308.3228,N,07726.3016,W,1,06,1.39,157.9,M,-34.4,M,,*5C
$GPRMC,154630.000,A,4308.3230,N,07726.3018,W,2.68,305.60,190923,,,A*76
$GPGGA,154630.250,4308.3232,N,07726.3021,W,1,06,1.39,157.7,M,-34.4,M,,*50
$GPRMC,154630.500,A,4308.3233,N,07726.3023,W,3.11,308.43,190923,,,A*7B
$GPGGA,154630.750,4308.3235,N,07726.3026,W,1,06,1.39,157.6,M,-34.4,M,,*54
$GPRMC,154631.000,A,4308.3236,N,07726.3028,W,2.80,305.74,190923,,,A*71
$GPGGA,154631.250,4308.3238,N,07726.3031,W,1,06,1.39,157.5,M,-34.4,M,,*58
$GPRMC,154631.500,A,4308.3239,N,07726.3033,W,2.74,308.98,190923,,,A*75
$GPGGA,154631.750,4308.3241,N,07726.3036,W,1,06,1.39,157.4,M,-34.4,M,,*55
$GPRMC,154632.000,A,4308.3243,N,07726.3038,W,2.98,313.90,190923,,,A*75
$GPGGA,154632.250,4308.3245,N,07726.3040,W,1,06,1.39,157.3,M,-34.4,M,,*51
$GPRMC,154632.500,A,4308.3246,N,07726.3043,W,3.04,312.36,190923,,,A*70
$GPGGA,154632.750,4308.3248,N,07726.3045,W,1,06,1.40,157.2,M,-34.4,M,,*53
$GPRMC,154633.000,A,4308.3249,N,07726.3048,W,3.01,302.35,190923,,,A*77
$GPGGA,154633.250,4308.3250,N,07726.3051,W,1,06,1.39,157.1,M,-34.4,M,,*56
$GPRMC,154633.500,A,4308.3251,N,07726.3053,W,2.90,299.83,190923,,,A*76
$GPGGA,154633.750,4308.3252,N,07726.3055,W,1,06,1.39,157.0,M,-34.4,M,,*54
$GPRMC,154634.000,A,4308.3254,N,07726.3058,W,3.16,309.64,190923,,,A*74
$GPGGA,154634.250,4308.3255,N,07726.3060,W,1,06,1.39,156.9,M,-34.4,M,,*5F
$GPRMC,154634.500,A,4308.3256,N,07726.3063,W,2.91,301.58,190923,,,A*72
$GPGGA,154634.750,4308.3257,N,07726.3064,W,1,06,1.39,156.8,M,-34.4,M,,*5D
$GPRMC,154635.000,A,4308.3258,N,07726.3066,W,2.14,300.43,190923,,,A*7B
$GPGGA,154635.250,4308.3259,N,07726.3068,W,1,06,1.39,156.7,M,-34.4,M,,*54
$GPRMC,154635.500,A,4308.3260,N,07726.3070,W,2.48,307.21,190923,,,A*78
$GPGGA,154635.750,4308.3261,N,07726.3072,W,1,06,1.39,156.6,M,-34.4,M,,*50
$GPRMC,154636.000,A,4308.3262,N,07726.3075,W,2.97,306.49,190923,,,A*74
$GPGGA,154636.250,4308.3263,N,07726.3077,W,1,06,1.39,156.5,M,-34.4,M,,*52
$GPRMC,154636.500,A,4308.3264,N,07726.3079,W,2.89,296.77,190923,,,A*71
$GPGGA,154636.750,4308.3265,N,07726.3082,W,1,06,1.39,156.5,M,-34.4,M,,*5B
$GPRMC,154637.000,A,4308.3266,N,07726.3084,W,2.79,292.51,190923,,,A*7A
$GPGGA,154637.250,4308.3267,N,07726.3086,W,1,06,1.39,156.4,M,-34.4,M,,*58
$GPRMC,154637.500,A,4308.3268,N,07726.3088,W,2.71,297.81,190923,,,A*7D
$GPGGA,154637.750,4308.3270,N,07726.3090,W,1,06,1.39,156.4,M,-34.4,M,,*5C
$GPRMC,154638.000,A,4308.3271,N,07726.3093,W,2.84,302.28,190923,,,A*71
$GPGGA,154638.250,4308.3272,N,07726.3095,W,1,06,1.39,156.3,M,-34.4,M,,*56
$GPRMC,154638.500,A,4308.3273,N,07726.3097,W,2.52,303.53,190923,,,A*74
$GPGGA,154638.750,4308.3274,N,07726.3099,W,1,06,1.39,156.2,M,-34.4,M,,*58
$GPRMC,154639.000,A,4308.3275,N,07726.3101,W,2.66,298.92,190923,,,A*71
$GPGGA,154639.250,4308.3277,N,07726.3103,W,1,06,1.39,156.2,M,-34.4,M,,*5D
$GPRMC,154639.500,A,4308.3279,N,07726.3106,W,2.89,309.09,190923,,,A*75
$GPGGA,154639.750,4308.3280,N,07726.3108,W,1,06,1.39,156.2,M,-34.4,M,,*5B
$GPRMC,154640.000,A,4308.3282,N,07726.3110,W,3.01,304.00,190923,,,A*78
$GPGGA,154640.250,4308.3284,N,07726.3112,W,1,06,1.39,156.1,M,-34.4,M,,*5C
$GPRMC,154640.500,A,4308.3285,N,07726.3114,W,2.80,313.07,190923,,,A*77
$GPGGA,154640.750,4308.3286,N,07726.3116,W,1,06,1.39,156.1,M,-34.4,M,,*5F
$GPRMC,154641.000,A,4308.3288,N,07726.3119,W,3.04,304.93,190923,,,A*75
$GPGGA,154641.250,4308.3289,N,07726.3121,W,1,06,1.39,156.0,M,-34.4,M,,*51
$GPRMC,154641.500,A,4308.3290,N,07726.3123,W,2.72,297.88,190923,,,A*71
$GPGGA,154641.750,4308.3291,N,07726.3125,W,1,06,1.39,155.9,M,-34.4,M,,*53
$GPRMC,154642.000,A,4308.3292,N,07726.3128,W,3.14,298.42,190923,,,A*76
$GPGGA,154642.250,4308.3294,N,07726.3130,W,1,06,1.39,155.8,M,-34.4,M,,*55
$GPRMC,154642.500,A,4308.3295,N,07726.3133,W,2.96,302.21,190923,,,A*72
$GPGGA,154642.750,4308.3296,N,07726.3135,W,1,06,1.39,155.8,M,-34.4,M,,*57
$GPRMC,154643.000,A,4308.3297,N,07726.3137,W,2.86,298.70,190923,,,A*77
$GPGGA,154643.250,4308.3298,N,07726.3140,W,1,06,1.39,155.7,M,-34.4,M,,*50
$GPRMC,154643.500,A,4308.3299,N,07726.3143,W,3.12,298.87,190923,,,A*7B
$GPGGA,154643.750,4308.3300,N,07726.3145,W,1,06,1.39,155.6,M,-34.4,M,,*51
$GPRMC,154644.000,A,4308.3301,N,07726.3147,W,2.86,304.37,190923,,,A*7E
$GPGGA,154644.250,4308.3303,N,07726.3149,W,1,06,1.39,155.5,M,-34.4,M,,*5F
$GPRMC,154644.500,A,4308.3304,N,07726.3152,W,2.95,305.62,190923,,,A*79
$GPGGA,154644.750,4308.3305,N,07726.3154,W,1,06,1.39,155.5,M,-34.4,M,,*50
$GPRMC,154645.000,A,4308.3306,N,07726.3156,W,2.96,298.93,190923,,,A*73
$GPGGA,154645.250,4308.3307,N,07726.3159,W,1,06,1.39,155.4,M,-34.4,M,,*5A
$GPRMC,154645.500,A,4308.3307,N,07726.3161,W,2.77,289.56,190923,,,A*75
$GPGGA,154645.750,4308.3309,N,07726.3163,W,1,06,1.39,155.3,M,-34.4,M,,*5F
$GPRMC,154646.000,A,4308.3311,N,07726.3165,W,2.78,296.26,190923,,,A*76
$GPGGA,154646.250,4308.3312,N,07726.3168,W,1,06,1.39,155.3,M,-34.4,M,,*58
$GPRMC,154646.500,A,4308.3313,N,07726.3170,W,2.70,298.35,190923,,,A*71
$GPGGA,154646.750,4308.3314,N,07726.3172,W,1,06,1.39,155.4,M,-34.4,M,,*57
$GPRMC,154647.000,A,4308.3316,N,07726.3174,W,2.71,297.92,190923,,,A*77
$GPGGA,154647.250,4308.3317,N,07726.3176,W,1,06,1.39,155.3,M,-34.4,M,,*53
$GPRMC,154647.500,A,4308.3318,N,07726.3178,W,3.06,296.61,190923,,,A*7C
$GPGGA,154647.750,4308.3319,N,07726.3181,W,1,06,1.39,155.4,M,-34.4,M,,*57
$GPRMC,154648.000,A,4308.3320,N,07726.3183,W,3.26,309.91,190923,,,A*73
$GPGGA,154648.250,4308.3322,N,07726.3185,W,1,06,1.39,155.3,M,-34.4,M,,*56
$GPRMC,154648.500,A,4308.3323,N,07726.3187,W,2.72,289.64,190923,,,A*72
$GPGGA,154648.750,4308.3324,N,07726.3190,W,1,06,1.39,155.2,M,-34.4,M,,*50
$GPRMC,154649.000,A,4308.3326,N,07726.3192,W,2.60,308.15,190923,,,A*7A
$GPGGA,154649.250,4308.3327,N,07726.3194,W,1,06,1.39,155.2,M,-34.4,M,,*53
$GPRMC,154649.500,A,4308.3328,N,07726.3196,W,2.85,298.62,190923,,,A*76
$GPGGA,154649.750,4308.3329,N,07726.3198,W,1,06,1.39,155.2,M,-34.4,M,,*54
$GPRMC,154650.000,A,4308.3330,N,07726.3200,W,2.78,308.19,190923,,,A*78
$GPGGA,154650.250,4308.3331,N,07726.3202,W,1,06,1.39,155.2,M,-34.4,M,,*50
$GPRMC,154650.500,A,4308.3333,N,07726.3204,W,2.97,303.08,190923,,,A*70
$GPGGA,154650.750,4308.3334,N,07726.3206,W,1,06,1.39,155.2,M,-34.4,M,,*54
$GPRMC,154651.000,A,4308.3335,N,07726.3209,W,2.70,298.01,190923,,,A*7C
$GPGGA,154651.250,4308.3336,N,07726.3210,W,1,06,1.39,155.2,M,-34.4,M,,*55
$GPRMC,154651.500,A,4308.3337,N,07726.3213,W,2.73,294.53,190923,,,A*78
$GPGGA,154651.750,4308.3339,N,07726.3215,W,1,06,1.39,155.2,M,-34.4,M,,*5A
$GPRMC,154652.000,A,4308.3341,N,07726.3218,W,2.72,298.80,190923,,,A*77
$GPGGA,154652.250,4308.3342,N,07726.3220,W,1,06,1.39,155.2,M,-34.4,M,,*56
$GPRMC,154652.500,A,4308.3343,N,07726.3222,W,3.05,295.93,190923,,,A*77
$GPGGA,154652.750,4308.3344,N,07726.3225,W,1,06,1.39,155.2,M,-34.4,M,,*50
$GPRMC,154653.000,A,4308.3345,N,07726.3227,W,2.59,300.91,190923,,,A*77
$GPGGA,154653.250,4308.3347,N,07726.3229,W,1,06,1.39,155.2,M,-34.4,M,,*5B
$GPRMC,154653.500,A,4308.3348,N,07726.3231,W,3.03,302.79,190923,,,A*72
$GPGGA,154653.750,4308.3349,N,07726.3234,W,1,06,1.39,155.1,M,-34.4,M,,*5F
$GPRMC,154654.000,A,4308.3350,N,07726.3236,W,2.64,307.76,190923,,,A*74
$GPGGA,154654.250,4308.3352,N,07726.3238,W,1,06,1.39,155.1,M,-34.4,M,,*5B
$GPRMC,154654.500,A,4308.3354,N,07726.3239,W,3.05,314.56,190923,,,A*7C
$GPGGA,154654.750,4308.3356,N,07726.3242,W,1,06,1.39,155.1,M,-34.4,M,,*57
$GPRMC,154655.000,A,4308.3357,N,07726.3244,W,3.00,312.31,190923,,,A*73
$GPGGA,154655.250,4308.3359,N,07726.3246,W,1,06,1.39,155.1,M,-34.4,M,,*58
$GPRMC,154655.500,A,4308.3360,N,07726.3248,W,2.58,304.42,190923,,,A*71
$GPGGA,154655.750,4308.3361,N,07726.3250,W,1,06,1.39,155.1,M,-34.4,M,,*51
$GPRMC,154656.000,A,4308.3362,N,07726.3252,W,2.62,302.10,190923,,,A*76
$GPGGA,154656.250,4308.3363,N,07726.3255,W,1,06,1.39,155.0,M,-34.4,M,,*51
$GPRMC,154656.500,A,4308.3364,N,07726.3257,W,2.87,301.80,190923,,,A*71
$GPGGA,154656.750,4308.3365,N,07726.3260,W,1,06,1.39,155.0,M,-34.4,M,,*54
$GPRMC,154657.000,A,4308.3366,N,07726.3262,W,2.97,299.32,190923,,,A*79
$GPGGA,154657.250,4308.3367,N,07726.3265,W,1,06,1.39,155.0,M,-34.4,M,,*57
$GPRMC,154657.500,A,4308.3368,N,07726.3267,W,2.55,306.44,190923,,,A*7F
$GPGGA,154657.750,4308.3370,N,07726.3269,W,1,06,1.39,155.0,M,-34.4,M,,*58
$GPRMC,154658.000,A,4308.3371,N,07726.3271,W,3.12,313.00,190923,,,A*7C
$GPGGA,154658.250,4308.3372,N,07726.3273,W,1,06,1.39,155.1,M,-34.4,M,,*5A
$GPRMC,154658.500,A,4308.3374,N,07726.3276,W,2.99,305.63,190923,,,A*7B
$GPGGA,154658.750,4308.3375,N,07726.3278,W,1,06,1.39,155.1,M,-34.4,M,,*53
$GPRMC,154659.000,A,4308.3376,N,07726.3281,W,3.30,300.87,190923,,,A*78
$GPGGA,154659.250,4308.3378,N,07726.3284,W,1,06,1.39,155.1,M,-34.4,M,,*59
$GPRMC,154659.500,A,4308.3379,N,07726.3287,W,3.19,305.01,190923,,,A*74
$GPGGA,154659.750,4308.3381,N,07726.3289,W,1,06,1.39,155.1,M,-34.4,M,,*57
$GPRMC,154700.000,A,4308.3381,N,07726.3292,W,2.78,292.16,190923,,,A*70
$GPGGA,154700.250,4308.3382,N,07726.3294,W,1,06,1.39,155.1,M,-34.4,M,,*50
$GPRMC,154700.500,A,4308.3383,N,07726.3297,W,2.88,294.33,190923,,,A*7C
$GPGGA,154700.750,4308.3385,N,07726.3299,W,1,06,1.39,155.1,M,-34.4,M,,*5F
$GPRMC,154701.000,A,4308.3386,N,07726.3302,W,3.01,297.42,190923,,,A*75
$GPGGA,154701.250,4308.3387,N,07726.3304,W,1,06,1.39,155.1,M,-34.4,M,,*5C
$GPRMC,154701.500,A,4308.3388,N,07726.3307,W,2.77,300.36,190923,,,A*77
$GPGGA,154701.750,4308.3389,N,07726.3309,W,1,06,1.39,155.1,M,-34.4,M,,*5A
$GPRMC,154702.000,A,4308.3390,N,07726.3312,W,3.01,295.94,190923,,,A*79
$GPGGA,154702.250,4308.3391,N,07726.3315,W,1,06,1.39,155.1,M,-34.4,M,,*58
$GPRMC,154702.500,A,4308.3393,N,07726.3317,W,2.77,307.96,190923,,,A*72
$GPGGA,154702.750,4308.3394,N,07726.3319,W,1,06,1.39,155.1,M,-34.4,M,,*54
$GPRMC,154703.000,A,4308.3396,N,07726.3321,W,3.64,305.52,190923,,,A*7F
$GPGGA,154703.250,4308.3396,N,07726.3324,W,1,06,1.39,155.2,M,-34.4,M,,*5F
$GPRMC,154703.500,A,4308.3397,N,07726.3327,W,2.86,304.05,190923,,,A*73
$GPGGA,154703.750,4308.3398,N,07726.3329,W,1,06,1.39,155.2,M,-34.4,M,,*59
$GPRMC,154704.000,A,4308.3398,N,07726.3331,W,2.97,286.65,190923,,,A*74
$GPGGA,154704.250,4308.3399,N,07726.3334,W,1,06,1.39,155.3,M,-34.4,M,,*57
$GPRMC,154704.500,A,4308.3400,N,07726.3336,W,2.49,295.53,190923,,,A*74
$GPGGA,154704.750,4308.3401,N,07726.3339,W,1,06,1.39,155.3,M,-34.4,M,,*59
$GPRMC,154705.000,A,4308.3402,N,07726.3341,W,2.80,306.79,190923,,,A*74
$GPGGA,154705.250,4308.3403,N,07726.3343,W,1,06,1.39,155.4,M,-34.4,M,,*55
$GPRMC,154705.500,A,4308.3404,N,07726.3346,W,2.78,306.76,190923,,,A*78
$GPGGA,154705.750,4308.3406,N,07726.3348,W,1,06,1.39,155.4,M,-34.4,M,,*5E
$GPRMC,154706.000,A,4308.3407,N,07726.3350,W,2.96,298.14,190923,,,A*78
$GPGGA,154706.250,4308.3408,N,07726.3352,W,1,06,1.39,155.5,M,-34.4,M,,*5C
$GPRMC,154706.500,A,4308.3409,N,07726.3355,W,2.81,289.06,190923,,,A*73
$GPGGA,154706.750,4308.3410,N,07726.3357,W,1,06,1.39,155.5,M,-34.4,M,,*55
$GPRMC,154707.000,A,4308.3411,N,07726.3359,W,2.54,294.90,190923,,,A*79
$GPGGA,154707.250,4308.3412,N,07726.3362,W,1,06,1.39,155.6,M,-34.4,M,,*56
$GPRMC,154707.500,A,4308.3413,N,07726.3364,W,2.91,294.10,190923,,,A*71
$GPGGA,154707.750,4308.3415,N,07726.3366,W,1,06,1.39,155.7,M,-34.4,M,,*51
$GPRMC,154708.000,A,4308.3417,N,07726.3368,W,2.61,309.38,190923,,,A*73
$GPGGA,154708.250,4308.3418,N,07726.3370,W,1,06,1.39,155.8,M,-34.4,M,,*5E
$GPRMC,154708.500,A,4308.3420,N,07726.3373,W,2.64,295.70,190923,,,A*75
$GPGGA,154708.750,4308.3421,N,07726.3375,W,1,06,1.39,155.7,M,-34.4,M,,*5B
$GPRMC,154709.000,A,4308.3423,N,07726.3377,W,2.79,309.82,190923,,,A*73
$GPGGA,154709.250,4308.3423,N,07726.3379,W,1,06,1.39,155.7,M,-34.4,M,,*51
$GPRMC,154709.500,A,4308.3425,N,07726.3381,W,3.09,307.11,190923,,,A*7B
$GPGGA,154709.750,4308.3426,N,07726.3384,W,1,06,1.39,155.7,M,-34.4,M,,*53
$GPRMC,154710.000,A,4308.3428,N,07726.3386,W,2.78,308.54,190923,,,A*75
$GPGGA,154710.250,4308.3429,N,07726.3388,W,1,06,1.39,155.7,M,-34.4,M,,*5D
$GPRMC,154710.500,A,4308.3430,N,07726.3391,W,2.81,296.57,190923,,,A*7C
$GPGGA,154710.750,4308.3431,N,07726.3393,W,1,06,1.39,155.6,M,-34.4,M,,*5A
$GPRMC,154711.000,A,4308.3432,N,07726.3395,W,2.72,303.90,190923,,,A*74
$GPGGA,154711.250,4308.3434,N,07726.3398,W,1,06,1.39,155.6,M,-34.4,M,,*50
$GPRMC,154711.500,A,4308.3435,N,07726.3400,W,2.80,310.74,190923,,,A*78
$GPGGA,154711.750,4308.3436,N,07726.3401,W,1,06,1.39,155.6,M,-34.4,M,,*50
$GPRMC,154712.000,A,4308.3437,N,07726.3403,W,2.46,303.14,190923,,,A*71
$GPGGA,154712.250,4308.3438,N,07726.3406,W,1,06,1.39,155.6,M,-34.4,M,,*5F
$GPRMC,154712.500,A,4308.3440,N,07726.3408,W,2.80,308.15,190923,,,A*7F
$GPGGA,154712.750,4308.3441,N,07726.3409,W,1,06,1.39,155.7,M,-34.4,M,,*5A
$GPRMC,154713.000,A,4308.3442,N,07726.3412,W,3.03,301.15,190923,,,A*71
$GPGGA,154713.250,4308.3445,N,07726.3414,W,1,06,1.39,155.7,M,-34.4,M,,*56
$GPRMC,154713.500,A,4308.3446,N,07726.3417,W,3.53,304.77,190923,,,A*71
$GPGGA,154713.750,4308.3447,N,07726.3420,W,1,06,1.39,155.7,M,-34.4,M,,*56
$GPRMC,154714.000,A,4308.3448,N,07726.3422,W,3.21,295.56,190923,,,A*74
$GPGGA,154714.250,4308.3449,N,07726.3424,W,1,06,1.39,155.6,M,-34.4,M,,*5F
$GPRMC,154714.500,A,4308.3451,N,07726.3426,W,2.83,308.96,190923,,,A*7D
$GPGGA,154714.750,4308.3452,N,07726.3429,W,1,06,1.39,155.6,M,-34.4,M,,*5D
$GPRMC,154715.000,A,4308.3454,N,07726.3431,W,3.63,315.26,190923,,,A*72
$GPGGA,154715.250,4308.3456,N,07726.3433,W,1,06,1.39,155.6,M,-34.4,M,,*56
$GPRMC,154715.500,A,4308.3457,N,07726.3435,W,3.34,306.13,190923,,,A*76
$GPGGA,154715.750,4308.3458,N,07726.3438,W,1,06,1.39,155.6,M,-34.4,M,,*56
$GPRMC,154716.000,A,4308.3459,N,07726.3440,W,2.97,302.44,190923,,,A*72
$GPGGA,154716.250,4308.3460,N,07726.3442,W,1,06,1.39,155.5,M,-34.4,M,,*55
$GPRMC,154716.500,A,4308.3461,N,07726.3444,W,2.64,308.32,190923,,,A*7F
$GPGGA,154716.750,4308.3462,N,07726.3446,W,1,06,1.39,155.5,M,-34.4,M,,*56
$GPRMC,154717.000,A,4308.3462,N,07726.3449,W,2.92,290.96,190923,,,A*72
$GPGGA,154717.250,4308.3463,N,07726.3451,W,1,06,1.39,155.4,M,-34.4,M,,*54
$GPRMC,154717.500,A,4308.3464,N,07726.3454,W,2.80,299.63,190923,,,A*7D
$GPGGA,154717.750,4308.3465,N,07726.3456,W,1,06,1.39,155.4,M,-34.4,M,,*50
$GPRMC,154718.000,A,4308.3466,N,07726.3458,W,2.93,310.19,190923,,,A*76
$GPGGA,154718.250,4308.3467,N,07726.3460,W,1,06,1.39,155.3,M,-34.4,M,,*5A
$GPRMC,154718.500,A,4308.3467,N,07726.3463,W,2.63,293.65,190923,,,A*74
$GPGGA,154718.750,4308.3468,N,07726.3465,W,1,06,1.39,155.2,M,-34.4,M,,*54
$GPRMC,154719.000,A,4308.3468,N,07726.3467,W,2.74,286.67,190923,,,A*7B
$GPGGA,154719.250,4308.3469,N,07726.3469,W,1,06,1.39,155.2,M,-34.4,M,,*5D
$GPRMC,154719.500,A,4308.3470,N,07726.3472,W,2.58,303.58,190923,,,A*7D
$GPGGA,154719.750,4308.3471,N,07726.3474,W,1,06,1.39,155.1,M,-34.4,M,,*5E
$GPRMC,154720.000,A,4308.3472,N,07726.3476,W,2.75,299.52,190923,,,A*73
$GPGGA,154720.250,4308.3473,N,07726.3478,W,1,06,1.39,155.1,M,-34.4,M,,*5F
$GPRMC,154720.500,A,4308.3474,N,07726.3480,W,2.57,301.93,190923,,,A*74
$GPGGA,154720.750,4308.3475,N,07726.3482,W,1,06,1.39,155.1,M,-34.4,M,,*59
$GPRMC,154721.000,A,4308.3477,N,07726.3485,W,3.06,304.47,190923,,,A*7F
$GPGGA,154721.250,4308.3478,N,07726.3487,W,1,06,1.39,155.0,M,-34.4,M,,*54
$GPRMC,154721.500,A,4308.3479,N,07726.3489,W,2.83,307.59,190923,,,A*78
$GPGGA,154721.750,4308.3481,N,07726.3491,W,1,06,1.39,155.0,M,-34.4,M,,*50
$GPRMC,154722.000,A,4308.3482,N,07726.3493,W,2.85,313.67,190923,,,A*7F
$GPGGA,154722.250,4308.3484,N,07726.3495,W,1,06,1.39,155.0,M,-34.4,M,,*57
$GPRMC,154722.500,A,4308.3485,N,07726.3497,W,3.06,314.70,190923,,,A*72
$GPGGA,154722.750,4308.3486,N,07726.3499,W,1,06,1.39,154.9,M,-34.4,M,,*54
$GPRMC,154723.000,A,4308.3488,N,07726.3502,W,2.72,307.51,190923,,,A*75
$GPGGA,154723.250,4308.3489,N,07726.3504,W,1,06,1.39,154.9,M,-34.4,M,,*5A
$GPRMC,154723.500,A,4308.3490,N,07726.3506,W,2.48,303.47,190923,,,A*77
$GPGGA,154723.750,4308.3491,N,07726.3508,W,1,06,1.39,154.8,M,-34.4,M,,*5B
$GPRMC,154724.000,A,4308.3492,N,07726.3511,W,3.03,300.81,190923,,,A*76
$GPGGA,154724.250,4308.3494,N,07726.3514,W,1,06,1.39,154.8,M,-34.4,M,,*51
$GPRMC,154724.500,A,4308.3495,N,07726.3516,W,3.14,302.47,190923,,,A*7D
$GPGGA,154724.750,4308.3496,N,07726.3518,W,1,06,1.39,154.7,M,-34.4,M,,*55
$GPRMC,154725.000,A,4308.3497,N,07726.3520,W,2.51,307.39,190923,,,A*72
$GPGGA,154725.250,4308.3498,N,07726.3523,W,1,06,1.39,154.7,M,-34.4,M,,*57
$GPRMC,154725.500,A,4308.3499,N,07726.3525,W,2.79,304.88,190923,,,A*7F
$GPGGA,154725.750,4308.3501,N,07726.3527,W,1,06,1.39,154.6,M,-34.4,M,,*56
$GPRMC,154726.000,A,4308.3502,N,07726.3530,W,3.14,306.63,190923,,,A*73
$GPGGA,154726.250,4308.3503,N,07726.3532,W,1,06,1.39,154.5,M,-34.4,M,,*55
$GPRMC,154726.500,A,4308.3504,N,07726.3534,W,2.85,305.93,190923,,,A*71
$GPGGA,154726.750,4308.3505,N,07726.3536,W,1,06,1.39,154.4,M,-34.4,M,,*53
$GPRMC,154727.000,A,4308.3506,N,07726.3538,W,2.85,310.31,190923,,,A*77
$GPGGA,154727.250,4308.3507,N,07726.3540,W,1,06,1.39,154.4,M,-34.4,M,,*54
$GPRMC,154727.500,A,4308.3508,N,07726.3542,W,2.65,300.45,190923,,,A*7D
$GPGGA,154727.750,4308.3508,N,07726.3544,W,1,06,1.39,154.4,M,-34.4,M,,*5A
$GPRMC,154728.000,A,4308.3509,N,07726.3546,W,2.04,303.75,190923,,,A*75
$GPGGA,154728.250,4308.3510,N,07726.3548,W,1,06,1.39,154.3,M,-34.4,M,,*52
$GPRMC,154728.500,A,4308.3511,N,07726.3550,W,2.45,301.44,190923,,,A*7B
$GPGGA,154728.750,4308.3512,N,07726.3552,W,1,06,1.39,154.2,M,-34.4,M,,*5F
$GPRMC,154729.000,A,4308.3513,N,07726.3554,W,2.66,308.90,190923,,,A*78
$GPGGA,154729.250,4308.3515,N,07726.3557,W,1,06,1.39,154.1,M,-34.4,M,,*5A
$GPRMC,154729.500,A,4308.3516,N,07726.3559,W,3.02,304.79,190923,,,A*7D
$GPGGA,154729.750,4308.3517,N,07726.3562,W,1,06,1.39,154.1,M,-34.4,M,,*5B
$GPRMC,154730.000,A,4308.3519,N,07726.3564,W,3.07,309.78,190923,,,A*78
$GPGGA,154730.250,4308.3520,N,07726.3566,W,1,06,1.39,154.0,M,-34.4,M,,*57
$GPRMC,154730.500,A,4308.3521,N,07726.3568,W,2.94,308.91,190923,,,A*77
$GPGGA,154730.750,4308.3522,N,07726.3570,W,1,06,1.39,153.9,M,-34.4,M,,*59
$GPRMC,154731.000,A,4308.3523,N,07726.3572,W,2.58,306.73,190923,,,A*78
$GPGGA,154731.250,4308.3525,N,07726.3575,W,1,06,1.39,153.9,M,-34.4,M,,*5F
$GPRMC,154731.500,A,4308.3527,N,07726.3577,W,3.00,312.22,190923,,,A*71
$GPGGA,154731.750,4308.3527,N,07726.3579,W,1,06,1.39,153.8,M,-34.4,M,,*55
$GPRMC,154732.000,A,4308.3528,N,07726.3581,W,2.51,308.54,190923,,,A*7E
$GPGGA,154732.250,4308.3529,N,07726.3583,W,1,06,1.39,153.7,M,-34.4,M,,*57
$GPRMC,154732.500,A,4308.3530,N,07726.3585,W,2.51,305.57,190923,,,A*78
$GPGGA,154732.750,4308.3531,N,07726.3587,W,1,06,1.39,153.7,M,-34.4,M,,*5F
$GPRMC,154733.000,A,4308.3532,N,07726.3589,W,2.45,305.98,190923,,,A*74
