Vers 81
USE_SERIAL_FEEDBACK=true
DEVELOPMENT_MODE=false
USE_RMC_ONLY=false

$GPRMC,212252.500,A,4308.3002,N,07726.2637,W,0.18,9.61,100823,,,A*78
$GPGGA,212252.750,4308.3003,N,07726.2636,W,1,04,2.70,165.6,M,-34.4,M,,*59
$GPRMC,212253.000,A,4308.3003,N,07726.2636,W,0.14,36.06,100823,,,A*4D
$GPGGA,212253.250,4308.3004,N,07726.2635,W,1,04,2.61,165.8,M,-34.4,M,,*57
$GPRMC,212253.500,A,4308.3004,N,07726.2635,W,0.16,43.93,100823,,,A*40
$GPGGA,212253.750,4308.3005,N,07726.2635,W,1,04,2.62,165.9,M,-34.4,M,,*51
$GPRMC,212254.000,A,4308.3005,N,07726.2635,W,0.15,13.53,100823,,,A*49
$GPGGA,212254.250,4308.3006,N,07726.2634,W,1,04,2.70,165.6,M,-34.4,M,,*5D
$GPRMC,212254.500,A,4308.3006,N,07726.2634,W,0.16,7.58,100823,,,A*73
$GPGGA,212254.750,4308.3006,N,07726.2634,W,1,04,2.70,165.5,M,-34.4,M,,*5B
$GPRMC,212255.000,A,4308.3006,N,07726.2633,W,0.12,46.86,100823,,,A*42
$GPGGA,212255.250,4308.3007,N,07726.2633,W,1,04,2.61,165.5,M,-34.4,M,,*59
$GPRMC,212255.500,A,4308.3007,N,07726.2633,W,0.14,46.97,100823,,,A*40
$GPGGA,212255.750,4308.3008,N,07726.2633,W,1,04,2.61,165.5,M,-34.4,M,,*53
$GPRMC,212256.000,A,4308.3008,N,07726.2633,W,0.30,350.30,100823,,,A*76
$GPGGA,212256.250,4308.3009,N,07726.2633,W,1,04,2.70,165.5,M,-34.4,M,,*54
$GPRMC,212256.500,A,4308.3009,N,07726.2633,W,0.21,350.92,100823,,,A*7A
$GPGGA,212256.750,4308.3008,N,07726.2633,W,1,04,2.70,165.4,M,-34.4,M,,*51
$GPRMC,212257.000,A,4308.3008,N,07726.2633,W,0.12,342.32,100823,,,A*76
$GPGGA,212257.250,4308.3008,N,07726.2633,W,1,04,2.61,165.3,M,-34.4,M,,*52
$GPRMC,212257.500,A,4308.3009,N,07726.2633,W,0.12,337.59,100823,,,A*7D
$GPGGA,212257.750,4308.3009,N,07726.2634,W,1,04,2.61,165.2,M,-34.4,M,,*50
$GPRMC,212258.000,A,4308.3009,N,07726.2634,W,0.10,301.59,100823,,,A*77
$GPGGA,212258.250,4308.3009,N,07726.2634,W,1,04,2.62,165.1,M,-34.4,M,,*5A
$GPRMC,212258.500,A,4308.3009,N,07726.2634,W,0.07,31.10,100823,,,A*49
$GPGGA,212258.750,4308.3009,N,07726.2634,W,1,04,2.61,165.0,M,-34.4,M,,*5D
$GPRMC,212259.000,A,4308.3009,N,07726.2634,W,0.12,50.72,100823,,,A*4A
$GPGGA,212259.250,4308.3009,N,07726.2633,W,1,04,2.61,164.9,M,-34.4,M,,*56
$GPRMC,212259.500,A,4308.3009,N,07726.2633,W,0.19,71.65,100823,,,A*46
$GPGGA,212259.750,4308.3009,N,07726.2634,W,1,04,2.61,164.8,M,-34.4,M,,*55
$GPRMC,212300.000,A,4308.3010,N,07726.2634,W,0.05,37.78,100823,,,A*42
$GPGGA,212300.250,4308.3010,N,07726.2634,W,1,04,2.61,164.7,M,-34.4,M,,*5A
$GPRMC,212300.500,A,4308.3010,N,07726.2634,W,0.05,332.37,100823,,,A*7A
$GPGGA,212300.750,4308.3010,N,07726.2634,W,1,04,2.61,164.5,M,-34.4,M,,*5D
$GPRMC,212301.000,A,4308.3009,N,07726.2635,W,0.11,245.97,100823,,,A*79
$GPGGA,212301.250,4308.3009,N,07726.2635,W,1,04,2.61,164.3,M,-34.4,M,,*56
$GPRMC,212301.500,A,4308.3009,N,07726.2634,W,0.05,163.29,100823,,,A*7A
$GPGGA,212301.750,4308.3010,N,07726.2634,W,1,04,2.61,164.1,M,-34.4,M,,*58
$GPRMC,212302.000,A,4308.3009,N,07726.2634,W,0.10,131.40,100823,,,A*70
$GPGGA,212302.250,4308.3009,N,07726.2634,W,1,04,2.61,163.9,M,-34.4,M,,*59
$GPRMC,212302.500,A,4308.3009,N,07726.2634,W,0.14,184.88,100823,,,A*7B
$GPGGA,212302.750,4308.3010,N,07726.2634,W,1,04,2.61,163.6,M,-34.4,M,,*5B
$GPRMC,212303.000,A,4308.3010,N,07726.2634,W,0.01,201.41,100823,,,A*78
$GPGGA,212303.250,4308.3010,N,07726.2634,W,1,04,2.61,163.5,M,-34.4,M,,*5C
$GPRMC,212303.500,A,4308.3010,N,07726.2634,W,0.07,173.97,100823,,,A*76
$GPGGA,212303.750,4308.3011,N,07726.2634,W,1,04,2.61,163.2,M,-34.4,M,,*5F
$GPRMC,212304.000,A,4308.3011,N,07726.2634,W,0.05,148.09,100823,,,A*78
$GPGGA,212304.250,4308.3012,N,07726.2634,W,1,04,2.61,162.9,M,-34.4,M,,*54
$GPRMC,212304.500,A,4308.3012,N,07726.2634,W,0.07,161.87,100823,,,A*71
$GPGGA,212304.750,4308.3012,N,07726.2634,W,1,04,2.61,162.6,M,-34.4,M,,*5E
$GPRMC,212305.000,A,4308.3013,N,07726.2633,W,0.01,156.52,100823,,,A*79
$GPGGA,212305.250,4308.3013,N,07726.2633,W,1,04,2.61,162.3,M,-34.4,M,,*59
$GPRMC,212305.500,A,4308.3013,N,07726.2633,W,0.08,185.54,100823,,,A*7D
$GPGGA,212305.750,4308.3013,N,07726.2634,W,1,04,2.61,162.1,M,-34.4,M,,*59
$GPRMC,212306.000,A,4308.3014,N,07726.2633,W,0.11,192.62,100823,,,A*77
$GPGGA,212306.250,4308.3014,N,07726.2633,W,1,04,2.61,161.8,M,-34.4,M,,*55
$GPRMC,212306.500,A,4308.3014,N,07726.2633,W,0.12,164.06,100823,,,A*7A
$GPGGA,212306.750,4308.3015,N,07726.2633,W,1,04,2.61,161.5,M,-34.4,M,,*5C
$GPRMC,212307.000,A,4308.3016,N,07726.2633,W,0.14,290.63,100823,,,A*71
$GPGGA,212307.250,4308.3016,N,07726.2633,W,1,04,2.61,161.3,M,-34.4,M,,*5D
$GPRMC,212307.500,A,4308.3017,N,07726.2633,W,0.10,283.97,100823,,,A*78
$GPGGA,212307.750,4308.3017,N,07726.2633,W,1,04,2.61,161.1,M,-34.4,M,,*5B
$GPRMC,212308.000,A,4308.3017,N,07726.2633,W,0.07,265.20,100823,,,A*70
$GPGGA,212308.250,4308.3018,N,07726.2632,W,1,04,2.61,160.9,M,-34.4,M,,*56
$GPRMC,212308.500,A,4308.3018,N,07726.2632,W,0.04,208.92,100823,,,A*7A
$GPGGA,212308.750,4308.3018,N,07726.2632,W,1,04,2.61,160.6,M,-34.4,M,,*5C
$GPRMC,212309.000,A,4308.3019,N,07726.2633,W,0.20,308.15,100823,,,A*76
$GPGGA,212309.250,4308.3020,N,07726.2633,W,1,04,2.61,160.3,M,-34.4,M,,*57
$GPRMC,212309.500,A,4308.3020,N,07726.2633,W,0.25,327.18,100823,,,A*7C
$GPGGA,212309.750,4308.3020,N,07726.2632,W,1,04,2.61,160.1,M,-34.4,M,,*51
$GPRMC,212310.000,A,4308.3020,N,07726.2632,W,0.09,30.32,100823,,,A*43
$GPGGA,212310.250,4308.3020,N,07726.2632,W,1,04,2.61,159.9,M,-34.4,M,,*5E
$GPRMC,212310.500,A,4308.3021,N,07726.2632,W,0.11,23.68,100823,,,A*43
$GPGGA,212310.750,4308.3021,N,07726.2632,W,1,04,2.60,159.6,M,-34.4,M,,*54
$GPRMC,212311.000,A,4308.3021,N,07726.2632,W,0.13,20.15,100823,,,A*4C
$GPGGA,212311.250,4308.3022,N,07726.2632,W,1,04,2.61,159.3,M,-34.4,M,,*57
$GPRMC,212311.500,A,4308.3022,N,07726.2631,W,0.16,21.82,100823,,,A*43
$GPGGA,212311.750,4308.3022,N,07726.2632,W,1,04,2.61,159.1,M,-34.4,M,,*50
$GPRMC,212312.000,A,4308.3021,N,07726.2632,W,0.05,97.79,100823,,,A*4E
$GPGGA,212312.250,4308.3021,N,07726.2632,W,1,04,2.61,158.8,M,-34.4,M,,*5D
$GPRMC,212312.500,A,4308.3021,N,07726.2632,W,0.01,154.12,100823,,,A*7C
$GPGGA,212312.750,4308.3021,N,07726.2632,W,1,04,2.60,158.5,M,-34.4,M,,*54
$GPRMC,212313.000,A,4308.3021,N,07726.2633,W,0.10,253.33,100823,,,A*7E
$GPGGA,212313.250,4308.3021,N,07726.2633,W,1,04,2.61,158.3,M,-34.4,M,,*56
$GPRMC,212313.500,A,4308.3022,N,07726.2632,W,0.07,9.75,100823,,,A*70
$GPGGA,212313.750,4308.3022,N,07726.2632,W,1,04,2.69,158.1,M,-34.4,M,,*5B
$GPRMC,212314.000,A,4308.3022,N,07726.2632,W,0.12,37.03,100823,,,A*4A
$GPGGA,212314.250,4308.3022,N,07726.2632,W,1,04,2.60,158.0,M,-34.4,M,,*51
$GPRMC,212314.500,A,4308.3021,N,07726.2633,W,0.07,74.03,100823,,,A*4E
$GPGGA,212314.750,4308.3021,N,07726.2633,W,1,04,2.60,157.8,M,-34.4,M,,*51
$GPRMC,212315.000,A,4308.3021,N,07726.2633,W,0.06,153.25,100823,,,A*7B
$GPGGA,212315.250,4308.3020,N,07726.2633,W,1,04,2.61,157.7,M,-34.4,M,,*5A
$GPRMC,212315.500,A,4308.3020,N,07726.2633,W,0.09,207.34,100823,,,A*72
$GPGGA,212315.750,4308.3020,N,07726.2633,W,1,04,2.60,157.5,M,-34.4,M,,*5C
$GPRMC,212316.000,A,4308.3020,N,07726.2633,W,0.17,155.11,100823,,,A*78
$GPGGA,212316.250,4308.3020,N,07726.2633,W,1,04,2.60,157.3,M,-34.4,M,,*5C
$GPRMC,212316.500,A,4308.3020,N,07726.2633,W,0.09,142.04,100823,,,A*70
$GPGGA,212316.750,4308.3021,N,07726.2633,W,1,04,2.60,157.2,M,-34.4,M,,*59
$GPRMC,212317.000,A,4308.3020,N,07726.2633,W,0.11,98.24,100823,,,A*49
$GPGGA,212317.250,4308.3020,N,07726.2632,W,1,04,2.60,157.0,M,-34.4,M,,*5F
$GPRMC,212317.500,A,4308.3020,N,07726.2633,W,0.11,158.29,100823,,,A*7C
$GPGGA,212317.750,4308.3019,N,07726.2633,W,1,04,2.60,156.8,M,-34.4,M,,*58
$GPRMC,212318.000,A,4308.3019,N,07726.2633,W,0.19,180.67,100823,,,A*7B
$GPGGA,212318.250,4308.3019,N,07726.2633,W,1,04,2.60,156.7,M,-34.4,M,,*5D
$GPRMC,212318.500,A,4308.3019,N,07726.2633,W,0.18,175.70,100823,,,A*73
$GPGGA,212318.750,4308.3018,N,07726.2633,W,1,04,2.60,156.7,M,-34.4,M,,*59
$GPRMC,212319.000,A,4308.3018,N,07726.2633,W,0.17,178.87,100823,,,A*7C
$GPGGA,212319.250,4308.3018,N,07726.2633,W,1,04,2.60,156.6,M,-34.4,M,,*5C
$GPRMC,212319.500,A,4308.3018,N,07726.2633,W,0.13,183.46,100823,,,A*74
$GPGGA,212319.750,4308.3018,N,07726.2633,W,1,04,2.60,156.4,M,-34.4,M,,*5B
$GPRMC,212320.000,A,4308.3019,N,07726.2633,W,0.02,86.05,100823,,,A*49
$GPGGA,212320.250,4308.3019,N,07726.2632,W,1,04,2.60,156.3,M,-34.4,M,,*53
$GPRMC,212320.500,A,4308.3020,N,07726.2632,W,0.15,49.23,100823,,,A*46
$GPGGA,212320.750,4308.3020,N,07726.2632,W,1,04,2.60,156.2,M,-34.4,M,,*5D
$GPRMC,212321.000,A,4308.3020,N,07726.2632,W,0.19,15.05,100823,,,A*43
$GPGGA,212321.250,4308.3021,N,07726.2632,W,1,04,2.60,156.1,M,-34.4,M,,*5B
$GPRMC,212321.500,A,4308.3020,N,07726.2632,W,0.18,16.56,100823,,,A*42
$GPGGA,212321.750,4308.3020,N,07726.2632,W,1,04,2.60,156.0,M,-34.4,M,,*5E
$GPRMC,212322.000,A,4308.3020,N,07726.2632,W,0.13,60.76,100823,,,A*4C
$GPGGA,212322.250,4308.3020,N,07726.2632,W,1,04,2.60,155.9,M,-34.4,M,,*52
$GPRMC,212322.500,A,4308.3020,N,07726.2632,W,0.13,30.85,100823,,,A*40
$GPGGA,212322.750,4308.3020,N,07726.2632,W,1,04,2.60,155.9,M,-34.4,M,,*57
$GPRMC,212323.000,A,4308.3020,N,07726.2632,W,0.06,59.21,100823,,,A*41
$GPGGA,212323.250,4308.3020,N,07726.2632,W,1,04,2.60,155.8,M,-34.4,M,,*52
$GPRMC,212323.500,A,4308.3020,N,07726.2632,W,0.07,39.82,100823,,,A*4A
$GPGGA,212323.750,4308.3020,N,07726.2632,W,1,04,2.60,155.8,M,-34.4,M,,*57
$GPRMC,212324.000,A,4308.3020,N,07726.2632,W,0.12,104.80,100823,,,A*71
$GPGGA,212324.250,4308.3020,N,07726.2632,W,1,04,2.60,155.8,M,-34.4,M,,*55
$GPRMC,212324.500,A,4308.3020,N,07726.2632,W,0.06,125.26,100823,,,A*7E
$GPGGA,212324.750,4308.3020,N,07726.2632,W,1,04,2.60,155.8,M,-34.4,M,,*50
$GPRMC,212325.000,A,4308.3020,N,07726.2632,W,0.13,104.20,100823,,,A*7B
$GPGGA,212325.250,4308.3020,N,07726.2631,W,1,04,2.60,155.8,M,-34.4,M,,*57
$GPRMC,212325.500,A,4308.3020,N,07726.2631,W,0.19,88.23,100823,,,A*41
$GPGGA,212325.750,4308.3020,N,07726.2631,W,1,04,2.60,155.8,M,-34.4,M,,*52
$GPRMC,212326.000,A,4308.3020,N,07726.2631,W,0.12,99.09,100823,,,A*44
$GPGGA,212326.250,4308.3020,N,07726.2631,W,1,04,2.60,155.8,M,-34.4,M,,*54
$GPRMC,212326.500,A,4308.3020,N,07726.2631,W,0.12,109.22,100823,,,A*70
$GPGGA,212326.750,4308.3020,N,07726.2631,W,1,04,2.60,155.8,M,-34.4,M,,*51
$GPRMC,212327.000,A,4308.3020,N,07726.2631,W,0.27,152.37,100823,,,A*78
$GPGGA,212327.250,4308.3020,N,07726.2630,W,1,04,2.60,155.8,M,-34.4,M,,*54
$GPRMC,212327.500,A,4308.3019,N,07726.2630,W,0.25,158.65,100823,,,A*79
$GPGGA,212327.750,4308.3019,N,07726.2630,W,1,04,2.60,155.8,M,-34.4,M,,*5B
$GPRMC,212328.000,A,4308.3019,N,07726.2630,W,0.26,139.64,100823,,,A*76
$GPGGA,212328.250,4308.3019,N,07726.2630,W,1,04,2.59,155.8,M,-34.4,M,,*5B
$GPRMC,212328.500,A,4308.3019,N,07726.2630,W,0.19,131.07,100823,,,A*72
$GPGGA,212328.750,4308.3019,N,07726.2630,W,1,04,2.60,155.8,M,-34.4,M,,*54
$GPRMC,212329.000,A,4308.3019,N,07726.2630,W,0.14,130.01,100823,,,A*7C
$GPGGA,212329.250,4308.3019,N,07726.2629,W,1,04,2.59,155.8,M,-34.4,M,,*52
$GPRMC,212329.500,A,4308.3019,N,07726.2629,W,0.09,142.77,100823,,,A*79
$GPGGA,212329.750,4308.3019,N,07726.2629,W,1,04,2.60,155.8,M,-34.4,M,,*5D
$GPRMC,212330.000,A,4308.3019,N,07726.2629,W,0.24,48.63,100823,,,A*45
$GPGGA,212330.250,4308.3019,N,07726.2629,W,1,04,2.59,155.8,M,-34.4,M,,*5A
$GPRMC,212330.500,A,4308.3019,N,07726.2629,W,0.20,17.74,100823,,,A*48
$GPGGA,212330.750,4308.3019,N,07726.2629,W,1,04,2.60,155.8,M,-34.4,M,,*55
$GPRMC,212331.000,A,4308.3019,N,07726.2629,W,0.27,34.48,100823,,,A*45
$GPGGA,212331.250,4308.3019,N,07726.2629,W,1,04,2.59,155.8,M,-34.4,M,,*5B
$GPRMC,212331.500,A,4308.3019,N,07726.2629,W,0.17,21.54,100823,,,A*4A
$GPGGA,212331.750,4308.3019,N,07726.2628,W,1,04,2.59,155.8,M,-34.4,M,,*5F
$GPRMC,212332.000,A,4308.3020,N,07726.2629,W,0.07,287.36,100823,,,A*7D
$GPGGA,212332.250,4308.3020,N,07726.2629,W,1,04,2.59,155.8,M,-34.4,M,,*52
$GPRMC,212332.500,A,4308.3020,N,07726.2629,W,0.09,296.58,100823,,,A*7E
$GPGGA,212332.750,4308.3020,N,07726.2629,W,1,04,2.59,155.8,M,-34.4,M,,*57
$GPRMC,212333.000,A,4308.3020,N,07726.2629,W,0.10,0.82,100823,,,A*78
$GPGGA,212333.250,4308.3020,N,07726.2629,W,1,04,2.68,155.8,M,-34.4,M,,*51
$GPRMC,212333.500,A,4308.3020,N,07726.2629,W,0.03,245.03,100823,,,A*75
$GPGGA,212333.750,4308.3020,N,07726.2629,W,1,04,2.59,155.8,M,-34.4,M,,*56
$GPRMC,212334.000,A,4308.3020,N,07726.2629,W,0.10,30.23,100823,,,A*47
$GPGGA,212334.250,4308.3020,N,07726.2629,W,1,04,2.59,155.8,M,-34.4,M,,*54
$GPRMC,212334.500,A,4308.3020,N,07726.2629,W,0.06,2.15,100823,,,A*71
$GPGGA,212334.750,4308.3020,N,07726.2629,W,1,04,2.68,155.8,M,-34.4,M,,*53
$GPRMC,212335.000,A,4308.3020,N,07726.2629,W,0.12,199.40,100823,,,A*73
$GPGGA,212335.250,4308.3020,N,07726.2629,W,1,04,2.59,155.8,M,-34.4,M,,*55
$GPRMC,212335.500,A,4308.3020,N,07726.2629,W,0.04,194.70,100823,,,A*7F
$GPGGA,212335.750,4308.3020,N,07726.2629,W,1,04,2.59,155.8,M,-34.4,M,,*50
$GPRMC,212336.000,A,4308.3020,N,07726.2629,W,0.09,36.73,100823,,,A*4E
$GPGGA,212336.250,4308.3020,N,07726.2629,W,1,04,2.59,155.8,M,-34.4,M,,*56
$GPRMC,212336.500,A,4308.3020,N,07726.2629,W,0.11,86.88,100823,,,A*4D
$GPGGA,212336.750,4308.3020,N,07726.2629,W,1,04,2.59,155.8,M,-34.4,M,,*53
$GPRMC,212337.000,A,4308.3020,N,07726.2628,W,0.08,92.84,100823,,,A*49
$GPGGA,212337.250,4308.3020,N,07726.2628,W,1,04,2.59,155.8,M,-34.4,M,,*56
$GPRMC,212337.500,A,4308.3020,N,07726.2628,W,0.08,42.63,100823,,,A*48
$GPGGA,212337.750,4308.3020,N,07726.2628,W,1,04,2.59,155.8,M,-34.4,M,,*53
$GPRMC,212338.000,A,4308.3020,N,07726.2628,W,0.00,162.58,100823,,,A*71
$GPGGA,212338.250,4308.3020,N,07726.2628,W,1,04,2.59,155.8,M,-34.4,M,,*59
$GPRMC,212338.500,A,4308.3020,N,07726.2628,W,0.05,37.11,100823,,,A*4D
$GPGGA,212338.750,4308.3020,N,07726.2628,W,1,04,2.59,155.8,M,-34.4,M,,*5C
$GPRMC,212339.000,A,4308.3020,N,07726.2628,W,0.15,351.28,100823,,,A*71
$GPGGA,212339.250,4308.3020,N,07726.2628,W,1,04,2.68,155.8,M,-34.4,M,,*5A
$GPRMC,212339.500,A,4308.3021,N,07726.2628,W,0.20,1.98,100823,,,A*7E
$GPGGA,212339.750,4308.3021,N,07726.2628,W,1,04,2.68,155.8,M,-34.4,M,,*5E
$GPRMC,212340.000,A,4308.3021,N,07726.2628,W,0.26,337.04,100823,,,A*70
$GPGGA,212340.250,4308.3021,N,07726.2628,W,1,04,2.59,155.8,M,-34.4,M,,*57
$GPRMC,212340.500,A,4308.3021,N,07726.2628,W,0.20,323.19,100823,,,A*7A
$GPGGA,212340.750,4308.3021,N,07726.2629,W,1,04,2.59,155.8,M,-34.4,M,,*53
$GPRMC,212341.000,A,4308.3021,N,07726.2629,W,0.17,274.00,100823,,,A*70
$GPGGA,212341.250,4308.3021,N,07726.2629,W,1,04,2.59,155.8,M,-34.4,M,,*57
$GPRMC,212341.500,A,4308.3021,N,07726.2629,W,0.19,280.60,100823,,,A*76
$GPGGA,212341.750,4308.3021,N,07726.2629,W,1,04,2.59,155.8,M,-34.4,M,,*52
$GPRMC,212342.000,A,4308.3021,N,07726.2629,W,0.22,291.75,100823,,,A*7C
$GPGGA,212342.250,4308.3021,N,07726.2630,W,1,04,2.59,155.8,M,-34.4,M,,*5C
$GPRMC,212342.500,A,4308.3022,N,07726.2630,W,0.16,296.12,100823,,,A*73
$GPGGA,212342.750,4308.3022,N,07726.2630,W,1,04,2.59,155.8,M,-34.4,M,,*5A
$GPRMC,212343.000,A,4308.3022,N,07726.2630,W,0.10,262.53,100823,,,A*7F
$GPGGA,212343.250,4308.3022,N,07726.2630,W,1,04,2.59,155.8,M,-34.4,M,,*5E
$GPRMC,212343.500,A,4308.3022,N,07726.2630,W,0.12,290.43,100823,,,A*74
$GPGGA,212343.750,4308.3022,N,07726.2630,W,1,04,2.59,155.8,M,-34.4,M,,*5B
$GPRMC,212344.000,A,4308.3022,N,07726.2630,W,0.07,263.56,100823,,,A*7A
$GPGGA,212344.250,4308.3022,N,07726.2631,W,1,04,2.59,155.8,M,-34.4,M,,*58
$GPRMC,212344.500,A,4308.3022,N,07726.2631,W,0.05,269.85,100823,,,A*78
$GPGGA,212344.750,4308.3022,N,07726.2631,W,1,04,2.59,155.8,M,-34.4,M,,*5D
$GPRMC,212345.000,A,4308.3022,N,07726.2631,W,0.12,189.94,100823,,,A*77
$GPGGA,212345.250,4308.3021,N,07726.2631,W,1,04,2.59,155.8,M,-34.4,M,,*5A
$GPRMC,212345.500,A,4308.3021,N,07726.2631,W,0.13,167.67,100823,,,A*7C
$GPGGA,212345.750,4308.3021,N,07726.2631,W,1,04,2.59,155.8,M,-34.4,M,,*5F
$GPRMC,212346.000,A,4308.3021,N,07726.2631,W,0.27,197.44,100823,,,A*73
$GPGGA,212346.250,4308.3021,N,07726.2631,W,1,04,2.59,155.8,M,-34.4,M,,*59
$GPRMC,212346.500,A,4308.3021,N,07726.2631,W,0.23,218.96,100823,,,A*79
$GPGGA,212346.750,4308.3021,N,07726.2631,W,1,04,2.59,155.8,M,-34.4,M,,*5C
$GPRMC,212347.000,A,4308.3021,N,07726.2631,W,0.31,258.12,100823,,,A*76
$GPGGA,212347.250,4308.3021,N,07726.2632,W,1,04,2.59,155.8,M,-34.4,M,,*5B
$GPRMC,212347.500,A,4308.3021,N,07726.2632,W,0.26,245.73,100823,,,A*7D
$GPGGA,212347.750,4308.3020,N,07726.2632,W,1,04,2.59,155.8,M,-34.4,M,,*5F
$GPRMC,212348.000,A,4308.3020,N,07726.2632,W,0.20,191.26,100823,,,A*7A
$GPGGA,212348.250,4308.3020,N,07726.2632,W,1,04,2.59,155.8,M,-34.4,M,,*55
$GPRMC,212348.500,A,4308.3020,N,07726.2632,W,0.20,184.81,100823,,,A*76
$GPGGA,212348.750,4308.3020,N,07726.2632,W,1,04,2.59,155.8,M,-34.4,M,,*50
$GPRMC,212349.000,A,4308.3020,N,07726.2632,W,0.10,248.05,100823,,,A*7E
$GPGGA,212349.250,4308.3020,N,07726.2632,W,1,04,2.59,155.8,M,-34.4,M,,*54
$GPRMC,212349.500,A,4308.3020,N,07726.2632,W,0.09,201.52,100823,,,A*7C
$GPGGA,212349.750,4308.3020,N,07726.2632,W,1,04,2.58,155.8,M,-34.4,M,,*50
$GPRMC,212350.000,A,4308.3020,N,07726.2632,W,0.02,39.03,100823,,,A*47
$GPGGA,212350.250,4308.3020,N,07726.2632,W,1,04,2.58,155.8,M,-34.4,M,,*5D
$GPRMC,212350.500,A,4308.3020,N,07726.2632,W,0.03,4.64,100823,,,A*7C
$GPGGA,212350.750,4308.3020,N,07726.2632,W,1,04,2.68,155.8,M,-34.4,M,,*5B
$GPRMC,212351.000,A,4308.3020,N,07726.2632,W,0.10,17.23,100823,,,A*4B
$GPGGA,212351.250,4308.3020,N,07726.2632,W,1,04,2.58,155.8,M,-34.4,M,,*5C
$GPRMC,212351.500,A,4308.3020,N,07726.2632,W,0.03,0.35,100823,,,A*7D
$GPGGA,212351.750,4308.3020,N,07726.2632,W,1,04,2.67,155.8,M,-34.4,M,,*55
$GPRMC,212352.000,A,4308.3020,N,07726.2632,W,0.18,216.08,100823,,,A*7A
$GPGGA,212352.250,4308.3020,N,07726.2633,W,1,04,2.59,155.8,M,-34.4,M,,*5F
$GPRMC,212352.500,A,4308.3020,N,07726.2633,W,0.12,219.96,100823,,,A*7C
$GPGGA,212352.750,4308.3020,N,07726.2633,W,1,04,2.58,155.8,M,-34.4,M,,*5B
$GPRMC,212353.000,A,4308.3020,N,07726.2633,W,0.08,305.10,100823,,,A*71
$GPGGA,212353.250,4308.3020,N,07726.2633,W,1,04,2.58,155.8,M,-34.4,M,,*5F
$GPRMC,212353.500,A,4308.3020,N,07726.2633,W,0.06,331.89,100823,,,A*7D
$GPGGA,212353.750,4308.3020,N,07726.2633,W,1,04,2.58,155.8,M,-34.4,M,,*5A
$GPRMC,212354.000,A,4308.3020,N,07726.2633,W,0.13,9.09,100823,,,A*7B
$GPGGA,212354.250,4308.3020,N,07726.2633,W,1,04,2.67,155.8,M,-34.4,M,,*54
$GPRMC,212354.500,A,4308.3020,N,07726.2633,W,0.13,9.93,100823,,,A*7D
$GPGGA,212354.750,4308.3020,N,07726.2633,W,1,04,2.67,155.8,M,-34.4,M,,*51
$GPRMC,212355.000,A,4308.3020,N,07726.2633,W,0.19,1.49,100823,,,A*7C
$GPGGA,212355.250,4308.3020,N,07726.2633,W,1,04,2.67,155.8,M,-34.4,M,,*55
$GPRMC,212355.500,A,4308.3020,N,07726.2633,W,0.17,11.73,100823,,,A*4F
$GPGGA,212355.750,4308.3020,N,07726.2633,W,1,04,2.67,155.8,M,-34.4,M,,*50
$GPRMC,212356.000,A,4308.3021,N,07726.2633,W,0.24,20.08,100823,,,A*46
$GPGGA,212356.250,4308.3021,N,07726.2633,W,1,04,2.58,155.8,M,-34.4,M,,*5B
$GPRMC,212356.500,A,4308.3021,N,07726.2633,W,0.20,21.87,100823,,,A*41
$GPGGA,212356.750,4308.3021,N,07726.2633,W,1,04,2.58,155.8,M,-34.4,M,,*5E
$GPRMC,212357.000,A,4308.3021,N,07726.2633,W,0.15,1.32,100823,,,A*7F
$GPGGA,212357.250,4308.3021,N,07726.2633,W,1,04,2.67,155.8,M,-34.4,M,,*56
$GPRMC,212357.500,A,4308.3021,N,07726.2633,W,0.05,357.86,100823,,,A*74
$GPGGA,212357.750,4308.3021,N,07726.2633,W,1,04,2.67,155.8,M,-34.4,M,,*53
$GPRMC,212358.000,A,4308.3021,N,07726.2633,W,0.00,113.17,100823,,,A*71
$GPGGA,212358.250,4308.3021,N,07726.2633,W,1,04,2.58,155.8,M,-34.4,M,,*55
$GPRMC,212358.500,A,4308.3021,N,07726.2632,W,0.08,105.15,100823,,,A*78
$GPGGA,212358.750,4308.3021,N,07726.2632,W,1,04,2.58,155.8,M,-34.4,M,,*51
$GPRMC,212359.000,A,4308.3021,N,07726.2632,W,0.13,121.19,100823,,,A*7C
$GPGGA,212359.250,4308.3021,N,07726.2632,W,1,04,2.58,155.8,M,-34.4,M,,*55
$GPRMC,212359.500,A,4308.3021,N,07726.2632,W,0.06,125.08,100823,,,A*79
$GPGGA,212359.750,4308.3021,N,07726.2632,W,1,04,2.58,155.8,M,-34.4,M,,*50
$GPRMC,212400.000,A,4308.3021,N,07726.2632,W,0.11,6.21,100823,,,A*7A
$GPGGA,212400.250,4308.3021,N,07726.2632,W,1,04,2.67,155.8,M,-34.4,M,,*52
$GPRMC,212400.500,A,4308.3021,N,07726.2632,W,0.14,6.66,100823,,,A*79
$GPGGA,212400.750,4308.3021,N,07726.2632,W,1,04,2.67,155.8,M,-34.4,M,,*57
$GPRMC,212401.000,A,4308.3022,N,07726.2632,W,0.02,70.08,100823,,,A*40
$GPGGA,212401.250,4308.3022,N,07726.2632,W,1,04,2.58,155.8,M,-34.4,M,,*5C
$GPRMC,212401.500,A,4308.3022,N,07726.2632,W,0.03,333.80,100823,,,A*70
$GPGGA,212401.750,4308.3022,N,07726.2632,W,1,04,2.58,155.8,M,-34.4,M,,*59
$GPRMC,212402.000,A,4308.3022,N,07726.2632,W,0.11,15.42,100823,,,A*4C
$GPGGA,212402.250,4308.3022,N,07726.2632,W,1,04,2.58,155.8,M,-34.4,M,,*5F
$GPRMC,212402.500,A,4308.3022,N,07726.2632,W,0.16,352.44,100823,,,A*78
$GPGGA,212402.750,4308.3022,N,07726.2632,W,1,04,2.67,155.8,M,-34.4,M,,*56
$GPRMC,212403.000,A,4308.3022,N,07726.2632,W,0.16,341.66,100823,,,A*7E
$GPGGA,212403.250,4308.3022,N,07726.2632,W,1,04,2.58,155.8,M,-34.4,M,,*5E
$GPRMC,212403.500,A,4308.3022,N,07726.2632,W,0.16,343.92,100823,,,A*72
$GPGGA,212403.750,4308.3022,N,07726.2632,W,1,04,2.58,155.8,M,-34.4,M,,*5B
$GPRMC,212404.000,A,4308.3022,N,07726.2632,W,0.17,21.71,100823,,,A*4B
$GPGGA,212404.250,4308.3023,N,07726.2632,W,1,04,2.58,155.8,M,-34.4,M,,*58
$GPRMC,212404.500,A,4308.3023,N,07726.2632,W,0.16,23.42,100823,,,A*4C
$GPGGA,212404.750,4308.3023,N,07726.2632,W,1,04,2.58,155.8,M,-34.4,M,,*5D
$GPRMC,212405.000,A,4308.3023,N,07726.2632,W,0.16,52.87,100823,,,A*47
$GPGGA,212405.250,4308.3023,N,07726.2632,W,1,04,2.58,155.8,M,-34.4,M,,*59
$GPRMC,212405.500,A,4308.3023,N,07726.2632,W,0.27,53.07,100823,,,A*49
$GPGGA,212405.750,4308.3023,N,07726.2631,W,1,04,2.58,155.8,M,-34.4,M,,*5F
$GPRMC,212406.000,A,4308.3023,N,07726.2631,W,0.23,45.62,100823,,,A*4C
$GPGGA,212406.250,4308.3023,N,07726.2631,W,1,04,2.57,155.8,M,-34.4,M,,*56
$GPRMC,212406.500,A,4308.3023,N,07726.2631,W,0.20,40.13,100823,,,A*49
$GPGGA,212406.750,4308.3024,N,07726.2631,W,1,04,2.58,155.8,M,-34.4,M,,*5B
$GPRMC,212407.000,A,4308.3024,N,07726.2631,W,0.29,61.72,100823,,,A*47
$GPGGA,212407.250,4308.3024,N,07726.2630,W,1,04,2.58,155.8,M,-34.4,M,,*5E
$GPRMC,212407.500,A,4308.3024,N,07726.2630,W,0.20,57.52,100823,,,A*4D
$GPGGA,212407.750,4308.3024,N,07726.2630,W,1,04,2.57,155.8,M,-34.4,M,,*54
$GPRMC,212408.000,A,4308.3024,N,07726.2630,W,0.20,3.34,100823,,,A*76
$GPGGA,212408.250,4308.3024,N,07726.2630,W,1,04,2.67,155.8,M,-34.4,M,,*5D
$GPRMC,212408.500,A,4308.3024,N,07726.2630,W,0.12,358.10,100823,,,A*79
$GPGGA,212408.750,4308.3024,N,07726.2630,W,1,04,2.67,155.8,M,-34.4,M,,*58
$GPRMC,212409.000,A,4308.3024,N,07726.2630,W,0.10,34.12,100823,,,A*44
$GPGGA,212409.250,4308.3024,N,07726.2630,W,1,04,2.57,155.8,M,-34.4,M,,*5F
$GPRMC,212409.500,A,4308.3024,N,07726.2630,W,0.13,25.47,100823,,,A*42
$GPGGA,212409.750,4308.3025,N,07726.2630,W,1,04,2.58,155.8,M,-34.4,M,,*54
$GPRMC,212410.000,A,4308.3025,N,07726.2630,W,0.11,51.73,100823,,,A*48
$GPGGA,212410.250,4308.3025,N,07726.2630,W,1,04,2.57,155.8,M,-34.4,M,,*56
$GPRMC,212410.500,A,4308.3025,N,07726.2629,W,0.18,39.51,100823,,,A*42
$GPGGA,212410.750,4308.3025,N,07726.2629,W,1,04,2.57,155.8,M,-34.4,M,,*5B
$GPRMC,212411.000,A,4308.3025,N,07726.2629,W,0.20,6.09,100823,,,A*7C
$GPGGA,212411.250,4308.3025,N,07726.2629,W,1,04,2.67,155.8,M,-34.4,M,,*5C
$GPRMC,212411.500,A,4308.3025,N,07726.2629,W,0.13,21.29,100823,,,A*4E
$GPGGA,212411.750,4308.3025,N,07726.2629,W,1,04,2.57,155.8,M,-34.4,M,,*5A
$GPRMC,212412.000,A,4308.3025,N,07726.2629,W,0.12,168.65,100823,,,A*7D
$GPGGA,212412.250,4308.3025,N,07726.2629,W,1,04,2.57,155.8,M,-34.4,M,,*5C
$GPRMC,212412.500,A,4308.3025,N,07726.2629,W,0.07,132.01,100823,,,A*71
$GPGGA,212412.750,4308.3025,N,07726.2629,W,1,04,2.57,155.8,M,-34.4,M,,*59
$GPRMC,212413.000,A,4308.3025,N,07726.2629,W,0.12,132.47,100823,,,A*73
$GPGGA,212413.250,4308.3025,N,07726.2629,W,1,04,2.57,155.8,M,-34.4,M,,*5D
$GPRMC,212413.500,A,4308.3025,N,07726.2629,W,0.16,156.72,100823,,,A*76
$GPGGA,212413.750,4308.3025,N,07726.2629,W,1,04,2.57,155.8,M,-34.4,M,,*58
$GPRMC,212414.000,A,4308.3025,N,07726.2629,W,0.21,119.72,100823,,,A*7B
$GPGGA,212414.250,4308.3025,N,07726.2629,W,1,04,2.57,155.8,M,-34.4,M,,*5A
$GPRMC,212414.500,A,4308.3025,N,07726.2628,W,0.21,110.16,100823,,,A*74
$GPGGA,212414.750,4308.3024,N,07726.2628,W,1,04,2.57,155.8,M,-34.4,M,,*5F
$GPRMC,212415.000,A,4308.3024,N,07726.2628,W,0.10,116.91,100823,,,A*7A
$GPGGA,212415.250,4308.3024,N,07726.2628,W,1,04,2.57,155.8,M,-34.4,M,,*5B
$GPRMC,212415.500,A,4308.3024,N,07726.2628,W,0.10,181.28,100823,,,A*73
$GPGGA,212415.750,4308.3024,N,07726.2628,W,1,04,2.58,155.8,M,-34.4,M,,*51
$GPRMC,212416.000,A,4308.3024,N,07726.2628,W,0.23,170.35,100823,,,A*77
$GPGGA,212416.250,4308.3024,N,07726.2628,W,1,04,2.57,155.8,M,-34.4,M,,*58
$GPRMC,212416.500,A,4308.3024,N,07726.2628,W,0.23,168.15,100823,,,A*79
$GPGGA,212416.750,4308.3024,N,07726.2628,W,1,04,2.57,155.8,M,-34.4,M,,*5D
$GPRMC,212417.000,A,4308.3024,N,07726.2628,W,0.19,156.56,100823,,,A*7E
$GPGGA,212417.250,4308.3023,N,07726.2628,W,1,04,2.57,155.8,M,-34.4,M,,*5E
$GPRMC,212417.500,A,4308.3023,N,07726.2628,W,0.20,147.08,100823,,,A*7D
$GPGGA,212417.750,4308.3023,N,07726.2628,W,1,04,2.57,155.8,M,-34.4,M,,*5B
$GPRMC,212418.000,A,4308.3023,N,07726.2627,W,0.26,128.51,100823,,,A*7B
$GPGGA,212418.250,4308.3023,N,07726.2627,W,1,04,2.57,155.8,M,-34.4,M,,*5E
$GPRMC,212418.500,A,4308.3023,N,07726.2627,W,0.19,108.75,100823,,,A*76
$GPGGA,212418.750,4308.3023,N,07726.2627,W,1,04,2.57,155.8,M,-34.4,M,,*5B
$GPRMC,212419.000,A,4308.3023,N,07726.2627,W,0.12,46.01,100823,,,A*41
$GPGGA,212419.250,4308.3023,N,07726.2627,W,1,04,2.57,155.8,M,-34.4,M,,*5F
$GPRMC,212419.500,A,4308.3023,N,07726.2627,W,0.12,335.16,100823,,,A*75
$GPGGA,212419.750,4308.3023,N,07726.2627,W,1,04,2.57,155.8,M,-34.4,M,,*5A
$GPRMC,212420.000,A,4308.3023,N,07726.2627,W,0.09,310.75,100823,,,A*72
$GPGGA,212420.250,4308.3023,N,07726.2627,W,1,04,2.57,155.8,M,-34.4,M,,*55
$GPRMC,212420.500,A,4308.3023,N,07726.2627,W,0.06,322.73,100823,,,A*7F
$GPGGA,212420.750,4308.3023,N,07726.2627,W,1,04,2.57,155.8,M,-34.4,M,,*50
$GPRMC,212421.000,A,4308.3023,N,07726.2627,W,0.12,325.84,100823,,,A*71
$GPGGA,212421.250,4308.3023,N,07726.2627,W,1,04,2.57,155.8,M,-34.4,M,,*54
$GPRMC,212421.500,A,4308.3023,N,07726.2627,W,0.19,286.57,100823,,,A*79
$GPGGA,212421.750,4308.3023,N,07726.2627,W,1,04,2.57,155.8,M,-34.4,M,,*51
$GPRMC,212422.000,A,4308.3023,N,07726.2628,W,0.14,262.76,100823,,,A*74
$GPGGA,212422.250,4308.3023,N,07726.2628,W,1,04,2.57,155.8,M,-34.4,M,,*58
$GPRMC,212422.500,A,4308.3023,N,07726.2628,W,0.05,219.76,100823,,,A*7D
$GPGGA,212422.750,4308.3023,N,07726.2628,W,1,04,2.57,155.8,M,-34.4,M,,*5D
$GPRMC,212423.000,A,4308.3023,N,07726.2628,W,0.16,111.62,100823,,,A*75
$GPGGA,212423.250,4308.3023,N,07726.2628,W,1,04,2.57,155.8,M,-34.4,M,,*59
$GPRMC,212423.500,A,4308.3023,N,07726.2627,W,0.16,94.86,100823,,,A*49
$GPGGA,212423.750,4308.3023,N,07726.2627,W,1,04,2.57,155.8,M,-34.4,M,,*53
$GPRMC,212424.000,A,4308.3023,N,07726.2627,W,0.05,49.03,100823,,,A*44
$GPGGA,212424.250,4308.3023,N,07726.2627,W,1,04,2.57,155.8,M,-34.4,M,,*51
$GPRMC,212424.500,A,4308.3023,N,07726.2627,W,0.02,14.29,100823,,,A*46
$GPGGA,212424.750,4308.3023,N,07726.2627,W,1,04,2.66,155.8,M,-34.4,M,,*56
$GPRMC,212425.000,A,4308.3023,N,07726.2627,W,0.15,17.14,100823,,,A*49
$GPGGA,212425.250,4308.3023,N,07726.2627,W,1,04,2.56,155.8,M,-34.4,M,,*51
$GPRMC,212425.500,A,4308.3023,N,07726.2627,W,0.11,14.90,100823,,,A*47
$GPGGA,212425.750,4308.3023,N,07726.2627,W,1,04,2.66,155.8,M,-34.4,M,,*57
$GPRMC,212426.000,A,4308.3023,N,07726.2627,W,0.13,241.50,100823,,,A*7D
$GPGGA,212426.250,4308.3023,N,07726.2627,W,1,04,2.56,155.8,M,-34.4,M,,*52
$GPRMC,212426.500,A,4308.3023,N,07726.2627,W,0.17,266.89,100823,,,A*7D
$GPGGA,212426.750,4308.3023,N,07726.2628,W,1,04,2.57,155.8,M,-34.4,M,,*59
$GPRMC,212427.000,A,4308.3023,N,07726.2628,W,0.13,290.50,100823,,,A*7F
$GPGGA,212427.250,4308.3023,N,07726.2628,W,1,04,2.57,155.8,M,-34.4,M,,*5D
$GPRMC,212427.500,A,4308.3023,N,07726.2628,W,0.07,302.01,100823,,,A*71
$GPGGA,212427.750,4308.3023,N,07726.2628,W,1,04,2.57,155.8,M,-34.4,M,,*58
$GPRMC,212428.000,A,4308.3023,N,07726.2628,W,0.28,311.35,100823,,,A*73
$GPGGA,212428.250,4308.3024,N,07726.2628,W,1,04,2.56,155.8,M,-34.4,M,,*54
$GPRMC,212428.500,A,4308.3024,N,07726.2629,W,0.28,301.84,100823,,,A*7B
$GPGGA,212428.750,4308.3024,N,07726.2629,W,1,04,2.56,155.8,M,-34.4,M,,*50
$GPRMC,212429.000,A,4308.3024,N,07726.2629,W,0.27,258.62,100823,,,A*75
$GPGGA,212429.250,4308.3024,N,07726.2629,W,1,04,2.56,155.8,M,-34.4,M,,*54
$GPRMC,212429.500,A,4308.3024,N,07726.2629,W,0.19,247.67,100823,,,A*76
$GPGGA,212429.750,4308.3024,N,07726.2630,W,1,04,2.57,155.8,M,-34.4,M,,*58
$GPRMC,212430.000,A,4308.3024,N,07726.2630,W,0.11,257.91,100823,,,A*73
$GPGGA,212430.250,4308.3024,N,07726.2630,W,1,04,2.56,155.8,M,-34.4,M,,*54
$GPRMC,212430.500,A,4308.3024,N,07726.2630,W,0.14,235.53,100823,,,A*79
$GPGGA,212430.750,4308.3024,N,07726.2630,W,1,04,2.56,155.8,M,-34.4,M,,*51
$GPRMC,212431.000,A,4308.3023,N,07726.2630,W,0.13,230.44,100823,,,A*7E
$GPGGA,212431.250,4308.3023,N,07726.2630,W,1,04,2.56,155.8,M,-34.4,M,,*52
$GPRMC,212431.500,A,4308.3023,N,07726.2630,W,0.06,251.74,100823,,,A*7B
$GPGGA,212431.750,4308.3023,N,07726.2631,W,1,04,2.56,155.8,M,-34.4,M,,*56
$GPRMC,212432.000,A,4308.3023,N,07726.2631,W,0.09,194.76,100823,,,A*7B
$GPGGA,212432.250,4308.3023,N,07726.2631,W,1,04,2.56,155.8,M,-34.4,M,,*50
$GPRMC,212432.500,A,4308.3023,N,07726.2631,W,0.07,217.23,100823,,,A*78
$GPGGA,212432.750,4308.3023,N,07726.2631,W,1,04,2.56,155.8,M,-34.4,M,,*55
$GPRMC,212433.000,A,4308.3023,N,07726.2631,W,0.09,332.09,100823,,,A*7C
$GPGGA,212433.250,4308.3023,N,07726.2631,W,1,04,2.56,155.8,M,-34.4,M,,*51
$GPRMC,212433.500,A,4308.3023,N,07726.2631,W,0.02,197.26,100823,,,A*72
$GPGGA,212433.750,4308.3023,N,07726.2631,W,1,04,2.56,155.8,M,-34.4,M,,*54
$GPRMC,212434.000,A,4308.3023,N,07726.2631,W,0.09,303.27,100823,,,A*75
$GPGGA,212434.250,4308.3023,N,07726.2631,W,1,04,2.56,155.8,M,-34.4,M,,*56
$GPRMC,212434.500,A,4308.3023,N,07726.2631,W,0.03,331.25,100823,,,A*79
$GPGGA,212434.750,4308.3023,N,07726.2631,W,1,04,2.56,155.8,M,-34.4,M,,*53
$GPRMC,212435.000,A,4308.3023,N,07726.2631,W,0.04,264.90,100823,,,A*75
$GPGGA,212435.250,4308.3023,N,07726.2631,W,1,04,2.56,155.8,M,-34.4,M,,*57
$GPRMC,212435.500,A,4308.3023,N,07726.2631,W,0.12,265.78,100823,,,A*70
$GPGGA,212435.750,4308.3023,N,07726.2631,W,1,04,2.56,155.8,M,-34.4,M,,*52
$GPRMC,212436.000,A,4308.3023,N,07726.2631,W,0.10,305.87,100823,,,A*73
$GPGGA,212436.250,4308.3023,N,07726.2631,W,1,04,2.56,155.8,M,-34.4,M,,*54
$GPRMC,212436.500,A,4308.3023,N,07726.2632,W,0.14,249.20,100823,,,A*75
$GPGGA,212436.750,4308.3023,N,07726.2632,W,1,04,2.56,155.8,M,-34.4,M,,*52
$GPRMC,212437.000,A,4308.3023,N,07726.2632,W,0.18,286.76,100823,,,A*7D
$GPGGA,212437.250,4308.3023,N,07726.2632,W,1,04,2.56,155.8,M,-34.4,M,,*56
$GPRMC,212437.500,A,4308.3023,N,07726.2632,W,0.20,314.56,100823,,,A*7B
$GPGGA,212437.750,4308.3024,N,07726.2632,W,1,04,2.56,155.8,M,-34.4,M,,*54
$GPRMC,212438.000,A,4308.3024,N,07726.2632,W,0.10,347.96,100823,,,A*7F
$GPGGA,212438.250,4308.3024,N,07726.2632,W,1,04,2.66,155.8,M,-34.4,M,,*5D
$GPRMC,212438.500,A,4308.3024,N,07726.2632,W,0.06,329.58,100823,,,A*77
$GPGGA,212438.750,4308.3024,N,07726.2632,W,1,04,2.56,155.8,M,-34.4,M,,*5B
$GPRMC,212439.000,A,4308.3024,N,07726.2633,W,0.07,243.69,100823,,,A*7C
$GPGGA,212439.250,4308.3024,N,07726.2633,W,1,04,2.56,155.8,M,-34.4,M,,*5E
$GPRMC,212439.500,A,4308.3024,N,07726.2633,W,0.13,289.91,100823,,,A*7D
$GPGGA,212439.750,4308.3024,N,07726.2633,W,1,04,2.56,155.8,M,-34.4,M,,*5B
$GPRMC,212440.000,A,4308.3024,N,07726.2633,W,0.14,319.51,100823,,,A*75
$GPGGA,212440.250,4308.3024,N,07726.2633,W,1,04,2.56,155.8,M,-34.4,M,,*50
$GPRMC,212440.500,A,4308.3024,N,07726.2633,W,0.16,348.41,100823,,,A*77
$GPGGA,212440.750,4308.3024,N,07726.2633,W,1,04,2.66,155.8,M,-34.4,M,,*56
$GPRMC,212441.000,A,4308.3024,N,07726.2633,W,0.16,358.49,100823,,,A*7A
$GPGGA,212441.250,4308.3024,N,07726.2633,W,1,04,2.66,155.8,M,-34.4,M,,*52
$GPRMC,212441.500,A,4308.3025,N,07726.2633,W,0.21,0.71,100823,,,A*7F
$GPGGA,212441.750,4308.3025,N,07726.2633,W,1,04,2.65,155.8,M,-34.4,M,,*55
$GPRMC,212442.000,A,4308.3025,N,07726.2633,W,0.22,2.06,100823,,,A*78
$GPGGA,212442.250,4308.3025,N,07726.2633,W,1,04,2.65,155.8,M,-34.4,M,,*53
$GPRMC,212442.500,A,4308.3025,N,07726.2633,W,0.19,356.57,100823,,,A*73
$GPGGA,212442.750,4308.3025,N,07726.2633,W,1,04,2.65,155.8,M,-34.4,M,,*56
$GPRMC,212443.000,A,4308.3026,N,07726.2633,W,0.28,356.69,100823,,,A*7B
$GPGGA,212443.250,4308.3026,N,07726.2633,W,1,04,2.65,155.8,M,-34.4,M,,*51
$GPRMC,212443.500,A,4308.3026,N,07726.2633,W,0.24,353.85,100823,,,A*75
$GPGGA,212443.750,4308.3026,N,07726.2633,W,1,04,2.66,155.8,M,-34.4,M,,*57
$GPRMC,212444.000,A,4308.3026,N,07726.2633,W,0.11,347.61,100823,,,A*7E
$GPGGA,212444.250,4308.3026,N,07726.2633,W,1,04,2.66,155.8,M,-34.4,M,,*55
$GPRMC,212444.500,A,4308.3026,N,07726.2633,W,0.15,4.29,100823,,,A*77
$GPGGA,212444.750,4308.3026,N,07726.2633,W,1,04,2.65,155.8,M,-34.4,M,,*53
$GPRMC,212445.000,A,4308.3026,N,07726.2633,W,0.13,36.77,100823,,,A*4F
$GPGGA,212445.250,4308.3027,N,07726.2633,W,1,04,2.56,155.8,M,-34.4,M,,*56
$GPRMC,212445.500,A,4308.3027,N,07726.2633,W,0.17,12.28,100823,,,A*43
$GPGGA,212445.750,4308.3027,N,07726.2633,W,1,04,2.65,155.8,M,-34.4,M,,*53
$GPRMC,212446.000,A,4308.3027,N,07726.2633,W,0.02,32.31,100823,,,A*4B
$GPGGA,212446.250,4308.3027,N,07726.2633,W,1,04,2.55,155.8,M,-34.4,M,,*56
$GPRMC,212446.500,A,4308.3027,N,07726.2633,W,0.02,200.74,100823,,,A*7C
$GPGGA,212446.750,4308.3027,N,07726.2633,W,1,04,2.56,155.8,M,-34.4,M,,*50
$GPRMC,212447.000,A,4308.3027,N,07726.2633,W,0.23,334.76,100823,,,A*7F
$GPGGA,212447.250,4308.3027,N,07726.2633,W,1,04,2.55,155.8,M,-34.4,M,,*57
$GPRMC,212447.500,A,4308.3027,N,07726.2634,W,0.26,331.44,100823,,,A*7C
$GPGGA,212447.750,4308.3027,N,07726.2634,W,1,04,2.55,155.7,M,-34.4,M,,*5A
$GPRMC,212448.000,A,4308.3027,N,07726.2634,W,0.28,354.55,100823,,,A*7B
$GPGGA,212448.250,4308.3028,N,07726.2634,W,1,04,2.65,155.7,M,-34.4,M,,*5C
$GPRMC,212448.500,A,4308.3028,N,07726.2634,W,0.28,347.98,100823,,,A*72
$GPGGA,212448.750,4308.3028,N,07726.2634,W,1,04,2.65,155.7,M,-34.4,M,,*59
$GPRMC,212449.000,A,4308.3028,N,07726.2634,W,0.22,1.67,100823,,,A*7D
$GPGGA,212449.250,4308.3028,N,07726.2634,W,1,04,2.65,155.7,M,-34.4,M,,*5D
$GPRMC,212449.500,A,4308.3029,N,07726.2634,W,0.21,337.59,100823,,,A*71
$GPGGA,212449.750,4308.3029,N,07726.2634,W,1,04,2.55,155.7,M,-34.4,M,,*5A
$GPRMC,212450.000,A,4308.3029,N,07726.2634,W,0.09,317.36,100823,,,A*7D
$GPGGA,212450.250,4308.3029,N,07726.2634,W,1,04,2.55,155.7,M,-34.4,M,,*57
$GPRMC,212450.500,A,4308.3029,N,07726.2634,W,0.10,1.73,100823,,,A*75
$GPGGA,212450.750,4308.3029,N,07726.2634,W,1,04,2.65,155.7,M,-34.4,M,,*51
$GPRMC,212451.000,A,4308.3029,N,07726.2634,W,0.07,2.74,100823,,,A*73
$GPGGA,212451.250,4308.3029,N,07726.2634,W,1,04,2.65,155.7,M,-34.4,M,,*55
$GPRMC,212451.500,A,4308.3029,N,07726.2634,W,0.04,318.16,100823,,,A*79
$GPGGA,212451.750,4308.3029,N,07726.2634,W,1,04,2.55,155.7,M,-34.4,M,,*53
$GPRMC,212452.000,A,4308.3029,N,07726.2634,W,0.13,12.72,100823,,,A*42
$GPGGA,212452.250,4308.3029,N,07726.2634,W,1,04,2.65,155.7,M,-34.4,M,,*56
$GPRMC,212452.500,A,4308.3029,N,07726.2634,W,0.15,2.73,100823,,,A*71
$GPGGA,212452.750,4308.3029,N,07726.2634,W,1,04,2.65,155.7,M,-34.4,M,,*53
$GPRMC,212453.000,A,4308.3030,N,07726.2634,W,0.24,354.04,100823,,,A*7F
$GPGGA,212453.250,4308.3030,N,07726.2634,W,1,04,2.65,155.7,M,-34.4,M,,*5F
$GPRMC,212453.500,A,4308.3030,N,07726.2634,W,0.17,359.41,100823,,,A*76
$GPGGA,212453.750,4308.3030,N,07726.2634,W,1,04,2.65,155.7,M,-34.4,M,,*5A
$GPRMC,212454.000,A,4308.3030,N,07726.2634,W,0.15,339.80,100823,,,A*7D
$GPGGA,212454.250,4308.3030,N,07726.2634,W,1,04,2.55,155.7,M,-34.4,M,,*5B
$GPRMC,212454.500,A,4308.3030,N,07726.2635,W,0.16,305.48,100823,,,A*71
$GPGGA,212454.750,4308.3030,N,07726.2635,W,1,04,2.55,155.7,M,-34.4,M,,*5F
$GPRMC,212455.000,A,4308.3030,N,07726.2635,W,0.17,313.59,100823,,,A*73
$GPGGA,212455.250,4308.3030,N,07726.2635,W,1,04,2.55,155.7,M,-34.4,M,,*5B
$GPRMC,212455.500,A,4308.3030,N,07726.2635,W,0.12,312.99,100823,,,A*7E
$GPGGA,212455.750,4308.3031,N,07726.2635,W,1,04,2.55,155.7,M,-34.4,M,,*5F
$GPRMC,212456.000,A,4308.3031,N,07726.2635,W,0.10,320.01,100823,,,A*7B
$GPGGA,212456.250,4308.3031,N,07726.2635,W,1,04,2.55,155.7,M,-34.4,M,,*59
$GPRMC,212456.500,A,4308.3031,N,07726.2635,W,0.11,339.49,100823,,,A*7B
$GPGGA,212456.750,4308.3031,N,07726.2635,W,1,04,2.55,155.7,M,-34.4,M,,*5C
$GPRMC,212457.000,A,4308.3031,N,07726.2635,W,0.11,355.02,100823,,,A*7A
$GPGGA,212457.250,4308.3031,N,07726.2635,W,1,04,2.65,155.7,M,-34.4,M,,*5B
$GPRMC,212457.500,A,4308.3031,N,07726.2635,W,0.15,344.34,100823,,,A*7E
$GPGGA,212457.750,4308.3031,N,07726.2635,W,1,04,2.55,155.7,M,-34.4,M,,*5D
$GPRMC,212458.000,A,4308.3031,N,07726.2635,W,0.20,348.23,100823,,,A*78
$GPGGA,212458.250,4308.3031,N,07726.2636,W,1,04,2.65,155.7,M,-34.4,M,,*57
$GPRMC,212458.500,A,4308.3031,N,07726.2636,W,0.16,345.14,100823,,,A*72
$GPGGA,212458.750,4308.3032,N,07726.2636,W,1,04,2.65,155.7,M,-34.4,M,,*51
$GPRMC,212459.000,A,4308.3032,N,07726.2636,W,0.21,344.12,100823,,,A*76
$GPGGA,212459.250,4308.3032,N,07726.2636,W,1,04,2.55,155.7,M,-34.4,M,,*56
$GPRMC,212459.500,A,4308.3032,N,07726.2636,W,0.16,350.56,100823,,,A*72
$GPGGA,212459.750,4308.3032,N,07726.2636,W,1,04,2.65,155.7,M,-34.4,M,,*50
$GPRMC,212500.000,A,4308.3032,N,07726.2636,W,0.14,39.80,100823,,,A*4F
$GPGGA,212500.250,4308.3032,N,07726.2636,W,1,04,2.55,155.7,M,-34.4,M,,*5B
$GPRMC,212500.500,A,4308.3032,N,07726.2636,W,0.16,4.10,100823,,,A*7F
$GPGGA,212500.750,4308.3032,N,07726.2636,W,1,04,2.65,155.7,M,-34.4,M,,*5D
$GPRMC,212501.000,A,4308.3032,N,07726.2636,W,0.17,334.10,100823,,,A*7A
$GPGGA,212501.250,4308.3033,N,07726.2636,W,1,04,2.55,155.7,M,-34.4,M,,*5B
$GPRMC,212501.500,A,4308.3033,N,07726.2636,W,0.08,348.13,100823,,,A*78
$GPGGA,212501.750,4308.3033,N,07726.2636,W,1,04,2.65,155.7,M,-34.4,M,,*5D
$GPRMC,212502.000,A,4308.3033,N,07726.2636,W,0.09,316.90,100823,,,A*7F
$GPGGA,212502.250,4308.3033,N,07726.2636,W,1,04,2.55,155.7,M,-34.4,M,,*58
$GPRMC,212502.500,A,4308.3033,N,07726.2636,W,0.11,303.73,100823,,,A*7A
$GPGGA,212502.750,4308.3033,N,07726.2636,W,1,04,2.55,155.7,M,-34.4,M,,*5D
$GPRMC,212503.000,A,4308.3033,N,07726.2636,W,0.08,311.35,100823,,,A*77
$GPGGA,212503.250,4308.3033,N,07726.2636,W,1,04,2.55,155.7,M,-34.4,M,,*59
$GPRMC,212503.500,A,4308.3033,N,07726.2636,W,0.06,297.76,100823,,,A*74
$GPGGA,212503.750,4308.3033,N,07726.2636,W,1,04,2.55,155.7,M,-34.4,M,,*5C
$GPRMC,212504.000,A,4308.3033,N,07726.2636,W,0.07,236.11,100823,,,A*7D
$GPGGA,212504.250,4308.3033,N,07726.2636,W,1,04,2.55,155.6,M,-34.4,M,,*5F
$GPRMC,212504.500,A,4308.3033,N,07726.2636,W,0.06,222.02,100823,,,A*7E
$GPGGA,212504.750,4308.3033,N,07726.2636,W,1,04,2.55,155.6,M,-34.4,M,,*5A
$GPRMC,212505.000,A,4308.3033,N,07726.2636,W,0.11,131.39,100823,,,A*75
$GPGGA,212505.250,4308.3033,N,07726.2636,W,1,04,2.54,155.6,M,-34.4,M,,*5F
$GPRMC,212505.500,A,4308.3033,N,07726.2636,W,0.09,165.12,100823,,,A*71
$GPGGA,212505.750,4308.3033,N,07726.2636,W,1,04,2.55,155.6,M,-34.4,M,,*5B
$GPRMC,212506.000,A,4308.3033,N,07726.2636,W,0.02,107.24,100823,,,A*7D
$GPGGA,212506.250,4308.3033,N,07726.2636,W,1,04,2.54,155.6,M,-34.4,M,,*5C
$GPRMC,212506.500,A,4308.3033,N,07726.2636,W,0.08,94.52,100823,,,A*48
$GPGGA,212506.750,4308.3033,N,07726.2636,W,1,04,2.54,155.6,M,-34.4,M,,*59
$GPRMC,212507.000,A,4308.3033,N,07726.2636,W,0.04,91.09,100823,,,A*4B
$GPGGA,212507.250,4308.3033,N,07726.2636,W,1,04,2.54,155.6,M,-34.4,M,,*5D
$GPRMC,212507.500,A,4308.3033,N,07726.2636,W,0.08,1.98,100823,,,A*73
$GPGGA,212507.750,4308.3033,N,07726.2636,W,1,04,2.65,155.6,M,-34.4,M,,*5A
$GPRMC,212508.000,A,4308.3033,N,07726.2636,W,0.03,280.43,100823,,,A*7F
$GPGGA,212508.250,4308.3033,N,07726.2636,W,1,04,2.54,155.6,M,-34.4,M,,*52
$GPRMC,212508.500,A,4308.3033,N,07726.2636,W,0.10,210.20,100823,,,A*74
$GPGGA,212508.750,4308.3033,N,07726.2636,W,1,04,2.54,155.6,M,-34.4,M,,*57
$GPRMC,212509.000,A,4308.3032,N,07726.2636,W,0.19,203.04,100823,,,A*7C
$GPGGA,212509.250,4308.3032,N,07726.2636,W,1,04,2.54,155.6,M,-34.4,M,,*52
$GPRMC,212509.500,A,4308.3032,N,07726.2636,W,0.20,209.23,100823,,,A*7C
$GPGGA,212509.750,4308.3032,N,07726.2636,W,1,04,2.54,155.6,M,-34.4,M,,*57
$GPRMC,212510.000,A,4308.3032,N,07726.2637,W,0.13,216.92,100823,,,A*74
$GPGGA,212510.250,4308.3032,N,07726.2637,W,1,04,2.54,155.6,M,-34.4,M,,*5B
$GPRMC,212510.500,A,4308.3032,N,07726.2637,W,0.10,164.21,100823,,,A*7C
$GPGGA,212510.750,4308.3032,N,07726.2637,W,1,04,2.54,155.6,M,-34.4,M,,*5E
$GPRMC,212511.000,A,4308.3032,N,07726.2637,W,0.19,149.51,100823,,,A*79
$GPGGA,212511.250,4308.3031,N,07726.2636,W,1,04,2.54,155.6,M,-34.4,M,,*58
$GPRMC,212511.500,A,4308.3031,N,07726.2636,W,0.20,155.11,100823,,,A*7D
$GPGGA,212511.750,4308.3031,N,07726.2636,W,1,04,2.54,155.6,M,-34.4,M,,*5D
$GPRMC,212512.000,A,4308.3031,N,07726.2636,W,0.27,159.34,100823,,,A*77
$GPGGA,212512.250,4308.3031,N,07726.2636,W,1,04,2.54,155.6,M,-34.4,M,,*5B
$GPRMC,212512.500,A,4308.3031,N,07726.2636,W,0.29,178.35,100823,,,A*7E
$GPGGA,212512.750,4308.3030,N,07726.2636,W,1,04,2.54,155.6,M,-34.4,M,,*5F
$GPRMC,212513.000,A,4308.3030,N,07726.2636,W,0.22,179.43,100823,,,A*70
$GPGGA,212513.250,4308.3030,N,07726.2636,W,1,04,2.54,155.6,M,-34.4,M,,*5B
$GPRMC,212513.500,A,4308.3030,N,07726.2636,W,0.12,169.87,100823,,,A*7F
$GPGGA,212513.750,4308.3030,N,07726.2636,W,1,04,2.54,155.6,M,-34.4,M,,*5E
$GPRMC,212514.000,A,4308.3030,N,07726.2636,W,0.18,178.06,100823,,,A*7E
$GPGGA,212514.250,4308.3030,N,07726.2636,W,1,04,2.54,155.6,M,-34.4,M,,*5C
$GPRMC,212514.500,A,4308.3030,N,07726.2636,W,0.18,181.45,100823,,,A*7A
$GPGGA,212514.750,4308.3029,N,07726.2636,W,1,04,2.54,155.6,M,-34.4,M,,*51
$GPRMC,212515.000,A,4308.3029,N,07726.2636,W,0.12,187.57,100823,,,A*79
$GPGGA,212515.250,4308.3029,N,07726.2636,W,1,04,2.54,155.6,M,-34.4,M,,*55
$GPRMC,212515.500,A,4308.3029,N,07726.2636,W,0.14,162.18,100823,,,A*7A
$GPGGA,212515.750,4308.3029,N,07726.2636,W,1,04,2.54,155.6,M,-34.4,M,,*50
$GPRMC,212516.000,A,4308.3029,N,07726.2636,W,0.15,162.10,100823,,,A*75
$GPGGA,212516.250,4308.3029,N,07726.2636,W,1,04,2.54,155.6,M,-34.4,M,,*56
$GPRMC,212516.500,A,4308.3029,N,07726.2636,W,0.14,169.75,100823,,,A*79
$GPGGA,212516.750,4308.3029,N,07726.2636,W,1,04,2.54,155.6,M,-34.4,M,,*53
$GPRMC,212517.000,A,4308.3028,N,07726.2636,W,0.20,178.70,100823,,,A*7E
$GPGGA,212517.250,4308.3028,N,07726.2636,W,1,04,2.54,155.6,M,-34.4,M,,*56
$GPRMC,212517.500,A,4308.3028,N,07726.2636,W,0.20,177.33,100823,,,A*73
$GPGGA,212517.750,4308.3028,N,07726.2636,W,1,04,2.54,155.6,M,-34.4,M,,*53
$GPRMC,212518.000,A,4308.3028,N,07726.2636,W,0.09,205.44,100823,,,A*74
$GPGGA,212518.250,4308.3028,N,07726.2636,W,1,04,2.54,155.6,M,-34.4,M,,*59
$GPRMC,212518.500,A,4308.3028,N,07726.2636,W,0.17,219.08,100823,,,A*7B
$GPGGA,212518.750,4308.3028,N,07726.2636,W,1,04,2.54,155.6,M,-34.4,M,,*5C
$GPRMC,212519.000,A,4308.3028,N,07726.2636,W,0.16,217.30,100823,,,A*7B
$GPGGA,212519.250,4308.3027,N,07726.2636,W,1,04,2.54,155.6,M,-34.4,M,,*57
$GPRMC,212519.500,A,4308.3027,N,07726.2636,W,0.17,201.93,100823,,,A*7E
$GPGGA,212519.750,4308.3027,N,07726.2636,W,1,04,2.54,155.6,M,-34.4,M,,*52
$GPRMC,212520.000,A,4308.3027,N,07726.2636,W,0.21,176.47,100823,,,A*7E
$GPGGA,212520.250,4308.3027,N,07726.2636,W,1,04,2.54,155.6,M,-34.4,M,,*5D
$GPRMC,212520.500,A,4308.3027,N,07726.2636,W,0.18,167.27,100823,,,A*77
$GPGGA,212520.750,4308.3027,N,07726.2636,W,1,04,2.54,155.6,M,-34.4,M,,*58
$GPRMC,212521.000,A,4308.3027,N,07726.2636,W,0.13,133.90,100823,,,A*75
$GPGGA,212521.250,4308.3027,N,07726.2636,W,1,04,2.54,155.6,M,-34.4,M,,*5C
$GPRMC,212521.500,A,4308.3026,N,07726.2636,W,0.12,137.08,100823,,,A*75
$GPGGA,212521.750,4308.3026,N,07726.2636,W,1,04,2.54,155.6,M,-34.4,M,,*58
$GPRMC,212522.000,A,4308.3026,N,07726.2636,W,0.03,41.70,100823,,,A*4C
$GPGGA,212522.250,4308.3026,N,07726.2636,W,1,04,2.54,155.6,M,-34.4,M,,*5E
$GPRMC,212522.500,A,4308.3026,N,07726.2636,W,0.09,340.82,100823,,,A*7C
$GPGGA,212522.750,4308.3026,N,07726.2636,W,1,04,2.53,155.6,M,-34.4,M,,*5C
$GPRMC,212523.000,A,4308.3027,N,07726.2636,W,0.06,23.32,100823,,,A*4B
$GPGGA,212523.250,4308.3027,N,07726.2636,W,1,04,2.54,155.6,M,-34.4,M,,*5E
$GPRMC,212523.500,A,4308.3027,N,07726.2636,W,0.13,28.58,100823,,,A*4D
$GPGGA,212523.750,4308.3027,N,07726.2636,W,1,04,2.54,155.6,M,-34.4,M,,*5B
$GPRMC,212524.000,A,4308.3027,N,07726.2636,W,0.07,4.76,100823,,,A*78
$GPGGA,212524.250,4308.3027,N,07726.2636,W,1,04,2.64,155.6,M,-34.4,M,,*5A
$GPRMC,212524.500,A,4308.3027,N,07726.2636,W,0.12,16.36,100823,,,A*4E
$GPGGA,212524.750,4308.3027,N,07726.2636,W,1,04,2.54,155.6,M,-34.4,M,,*5C
$GPRMC,212525.000,A,4308.3027,N,07726.2636,W,0.08,162.23,100823,,,A*77
$GPGGA,212525.250,4308.3027,N,07726.2636,W,1,04,2.53,155.6,M,-34.4,M,,*5F
$GPRMC,212525.500,A,4308.3027,N,07726.2636,W,0.11,157.91,100823,,,A*75
$GPGGA,212525.750,4308.3027,N,07726.2636,W,1,04,2.53,155.6,M,-34.4,M,,*5A
$GPRMC,212526.000,A,4308.3027,N,07726.2636,W,0.19,146.34,100823,,,A*74
$GPGGA,212526.250,4308.3026,N,07726.2635,W,1,04,2.53,155.6,M,-34.4,M,,*5E
$GPRMC,212526.500,A,4308.3026,N,07726.2635,W,0.17,174.01,100823,,,A*7A
$GPGGA,212526.750,4308.3026,N,07726.2635,W,1,04,2.53,155.6,M,-34.4,M,,*5B
$GPRMC,212527.000,A,4308.3026,N,07726.2635,W,0.22,178.63,100823,,,A*70
$GPGGA,212527.250,4308.3026,N,07726.2635,W,1,04,2.53,155.6,M,-34.4,M,,*5F
$GPRMC,212527.500,A,4308.3026,N,07726.2635,W,0.12,189.81,100823,,,A*74
$GPGGA,212527.750,4308.3026,N,07726.2635,W,1,04,2.53,155.6,M,-34.4,M,,*5A
$GPRMC,212528.000,A,4308.3026,N,07726.2635,W,0.17,122.72,100823,,,A*76
$GPGGA,212528.250,4308.3026,N,07726.2635,W,1,04,2.53,155.6,M,-34.4,M,,*50
$GPRMC,212528.500,A,4308.3025,N,07726.2635,W,0.20,120.25,100823,,,A*74
$GPGGA,212528.750,4308.3025,N,07726.2635,W,1,04,2.53,155.6,M,-34.4,M,,*56
$GPRMC,212529.000,A,4308.3025,N,07726.2635,W,0.14,164.41,100823,,,A*75
$GPGGA,212529.250,4308.3025,N,07726.2635,W,1,04,2.53,155.6,M,-34.4,M,,*52
$GPRMC,212529.500,A,4308.3025,N,07726.2635,W,0.10,189.67,100823,,,A*73
$GPGGA,212529.750,4308.3025,N,07726.2635,W,1,04,2.53,155.6,M,-34.4,M,,*57
$GPRMC,212530.000,A,4308.3025,N,07726.2635,W,0.14,237.80,100823,,,A*75
$GPGGA,212530.250,4308.3025,N,07726.2635,W,1,04,2.53,155.6,M,-34.4,M,,*5A
$GPRMC,212530.500,A,4308.3025,N,07726.2635,W,0.07,231.21,100823,,,A*7F
$GPGGA,212530.750,4308.3025,N,07726.2635,W,1,04,2.53,155.6,M,-34.4,M,,*5F
$GPRMC,212531.000,A,4308.3025,N,07726.2635,W,0.14,233.31,100823,,,A*7A
$GPGGA,212531.250,4308.3025,N,07726.2635,W,1,04,2.53,155.6,M,-34.4,M,,*5B
$GPRMC,212531.500,A,4308.3025,N,07726.2635,W,0.11,234.34,100823,,,A*78
$GPGGA,212531.750,4308.3025,N,07726.2635,W,1,04,2.53,155.6,M,-34.4,M,,*5E
$GPRMC,212532.000,A,4308.3025,N,07726.2636,W,0.14,244.16,100823,,,A*7F
$GPGGA,212532.250,4308.3024,N,07726.2636,W,1,04,2.53,155.6,M,-34.4,M,,*5A
$GPRMC,212532.500,A,4308.3024,N,07726.2636,W,0.13,239.18,100823,,,A*78
$GPGGA,212532.750,4308.3024,N,07726.2636,W,1,04,2.53,155.6,M,-34.4,M,,*5F
$GPRMC,212533.000,A,4308.3024,N,07726.2636,W,0.20,180.55,100823,,,A*74
$GPGGA,212533.250,4308.3024,N,07726.2636,W,1,04,2.53,155.6,M,-34.4,M,,*5B
$GPRMC,212533.500,A,4308.3024,N,07726.2636,W,0.26,176.61,100823,,,A*79
$GPGGA,212533.750,4308.3024,N,07726.2636,W,1,04,2.53,155.6,M,-34.4,M,,*5E
$GPRMC,212534.000,A,4308.3024,N,07726.2636,W,0.31,170.43,100823,,,A*7B
$GPGGA,212534.250,4308.3023,N,07726.2636,W,1,04,2.53,155.6,M,-34.4,M,,*5B
$GPRMC,212534.500,A,4308.3023,N,07726.2636,W,0.28,166.21,100823,,,A*72
$GPGGA,212534.750,4308.3023,N,07726.2636,W,1,04,2.53,155.6,M,-34.4,M,,*5E
$GPRMC,212535.000,A,4308.3023,N,07726.2636,W,0.25,168.14,100823,,,A*73
$GPGGA,212535.250,4308.3023,N,07726.2636,W,1,04,2.53,155.6,M,-34.4,M,,*5A
$GPRMC,212535.500,A,4308.3022,N,07726.2636,W,0.16,154.27,100823,,,A*78
$GPGGA,212535.750,4308.3022,N,07726.2636,W,1,04,2.53,155.6,M,-34.4,M,,*5E
$GPRMC,212536.000,A,4308.3022,N,07726.2636,W,0.07,221.97,100823,,,A*74
$GPGGA,212536.250,4308.3022,N,07726.2636,W,1,04,2.53,155.6,M,-34.4,M,,*58
$GPRMC,212536.500,A,4308.3022,N,07726.2636,W,0.07,263.75,100823,,,A*7B
$GPGGA,212536.750,4308.3022,N,07726.2636,W,1,04,2.53,155.6,M,-34.4,M,,*5D
$GPRMC,212537.000,A,4308.3022,N,07726.2636,W,0.04,317.27,100823,,,A*79
$GPGGA,212537.250,4308.3022,N,07726.2636,W,1,04,2.53,155.6,M,-34.4,M,,*59
$GPRMC,212537.500,A,4308.3022,N,07726.2636,W,0.10,280.05,100823,,,A*76
$GPGGA,212537.750,4308.3022,N,07726.2636,W,1,04,2.53,155.6,M,-34.4,M,,*5C
$GPRMC,212538.000,A,4308.3022,N,07726.2636,W,0.14,278.46,100823,,,A*78
$GPGGA,212538.250,4308.3022,N,07726.2636,W,1,04,2.53,155.6,M,-34.4,M,,*56
$GPRMC,212538.500,A,4308.3022,N,07726.2636,W,0.13,274.35,100823,,,A*72
$GPGGA,212538.750,4308.3022,N,07726.2636,W,1,04,2.53,155.6,M,-34.4,M,,*53
$GPRMC,212539.000,A,4308.3022,N,07726.2637,W,0.07,187.80,100823,,,A*73
$GPGGA,212539.250,4308.3022,N,07726.2637,W,1,04,2.53,155.6,M,-34.4,M,,*56
$GPRMC,212539.500,A,4308.3022,N,07726.2637,W,0.12,130.37,100823,,,A*72
$GPGGA,212539.750,4308.3022,N,07726.2636,W,1,04,2.53,155.6,M,-34.4,M,,*52
$GPRMC,212540.000,A,4308.3022,N,07726.2636,W,0.12,144.43,100823,,,A*78
$GPGGA,212540.250,4308.3022,N,07726.2636,W,1,04,2.53,155.6,M,-34.4,M,,*59
$GPRMC,212540.500,A,4308.3022,N,07726.2636,W,0.17,179.11,100823,,,A*71
$GPGGA,212540.750,4308.3022,N,07726.2636,W,1,04,2.53,155.6,M,-34.4,M,,*5C
$GPRMC,212541.000,A,4308.3022,N,07726.2636,W,0.24,227.15,100823,,,A*79
$GPGGA,212541.250,4308.3022,N,07726.2637,W,1,04,2.53,155.6,M,-34.4,M,,*59
$GPRMC,212541.500,A,4308.3022,N,07726.2637,W,0.24,228.18,100823,,,A*7F
$GPGGA,212541.750,4308.3021,N,07726.2637,W,1,04,2.53,155.6,M,-34.4,M,,*5F
$GPRMC,212542.000,A,4308.3021,N,07726.2637,W,0.32,234.19,100823,,,A*71
$GPGGA,212542.250,4308.3021,N,07726.2637,W,1,04,2.53,155.5,M,-34.4,M,,*5A
$GPRMC,212542.500,A,4308.3021,N,07726.2638,W,0.34,233.34,100823,,,A*75
$GPGGA,212542.750,4308.3021,N,07726.2638,W,1,04,2.53,155.5,M,-34.4,M,,*50
$GPRMC,212543.000,A,4308.3021,N,07726.2638,W,0.34,209.70,100823,,,A*78
$GPGGA,212543.250,4308.3020,N,07726.2638,W,1,04,2.52,155.5,M,-34.4,M,,*54
$GPRMC,212543.500,A,4308.3020,N,07726.2638,W,0.25,192.74,100823,,,A*79
$GPGGA,212543.750,4308.3020,N,07726.2638,W,1,04,2.53,155.5,M,-34.4,M,,*50
$GPRMC,212544.000,A,4308.3020,N,07726.2638,W,0.24,160.95,100823,,,A*78
$GPGGA,212544.250,4308.3020,N,07726.2638,W,1,04,2.53,155.5,M,-34.4,M,,*52
$GPRMC,212544.500,A,4308.3020,N,07726.2638,W,0.22,180.06,100823,,,A*7F
$GPGGA,212544.750,4308.3020,N,07726.2638,W,1,04,2.53,155.5,M,-34.4,M,,*57
$GPRMC,212545.000,A,4308.3019,N,07726.2638,W,0.30,187.72,100823,,,A*76
$GPGGA,212545.250,4308.3019,N,07726.2638,W,1,04,2.53,155.5,M,-34.4,M,,*59
$GPRMC,212545.500,A,4308.3019,N,07726.2638,W,0.34,190.41,100823,,,A*71
$GPGGA,212545.750,4308.3019,N,07726.2638,W,1,04,2.52,155.5,M,-34.4,M,,*5D
$GPRMC,212546.000,A,4308.3018,N,07726.2638,W,0.34,194.33,100823,,,A*77
$GPGGA,212546.250,4308.3018,N,07726.2639,W,1,04,2.52,155.5,M,-34.4,M,,*5B
$GPRMC,212546.500,A,4308.3018,N,07726.2639,W,0.30,183.70,100823,,,A*76
$GPGGA,212546.750,4308.3018,N,07726.2639,W,1,04,2.52,155.5,M,-34.4,M,,*5E
$GPRMC,212547.000,A,4308.3018,N,07726.2639,W,0.17,186.90,100823,,,A*7C
$GPGGA,212547.250,4308.3018,N,07726.2639,W,1,04,2.52,155.5,M,-34.4,M,,*5A
$GPRMC,212547.500,A,4308.3017,N,07726.2639,W,0.18,180.59,100823,,,A*7A
$GPGGA,212547.750,4308.3017,N,07726.2639,W,1,04,2.52,155.5,M,-34.4,M,,*50
$GPRMC,212548.000,A,4308.3017,N,07726.2639,W,0.07,235.05,100823,,,A*7A
$GPGGA,212548.250,4308.3017,N,07726.2639,W,1,04,2.52,155.5,M,-34.4,M,,*5A
$GPRMC,212548.500,A,4308.3017,N,07726.2639,W,0.08,205.01,100823,,,A*77
$GPGGA,212548.750,4308.3017,N,07726.2639,W,1,04,2.52,155.5,M,-34.4,M,,*5F
$GPRMC,212549.000,A,4308.3017,N,07726.2639,W,0.12,218.36,100823,,,A*70
$GPGGA,212549.250,4308.3017,N,07726.2639,W,1,04,2.52,155.5,M,-34.4,M,,*5B
$GPRMC,212549.500,A,4308.3017,N,07726.2639,W,0.07,203.31,100823,,,A*7C
$GPGGA,212549.750,4308.3017,N,07726.2639,W,1,04,2.52,155.5,M,-34.4,M,,*5E
$GPRMC,212550.000,A,4308.3017,N,07726.2639,W,0.11,226.31,100823,,,A*71
$GPGGA,212550.250,4308.3017,N,07726.2639,W,1,04,2.52,155.5,M,-34.4,M,,*53
$GPRMC,212550.500,A,4308.3017,N,07726.2639,W,0.10,200.29,100823,,,A*78
$GPGGA,212550.750,4308.3017,N,07726.2639,W,1,04,2.52,155.5,M,-34.4,M,,*56
$GPRMC,212551.000,A,4308.3017,N,07726.2639,W,0.06,190.65,100823,,,A*79
$GPGGA,212551.250,4308.3016,N,07726.2639,W,1,04,2.52,155.5,M,-34.4,M,,*53
$GPRMC,212551.500,A,4308.3016,N,07726.2639,W,0.10,172.76,100823,,,A*74
$GPGGA,212551.750,4308.3016,N,07726.2639,W,1,04,2.52,155.5,M,-34.4,M,,*56
$GPRMC,212552.000,A,4308.3016,N,07726.2639,W,0.04,268.51,100823,,,A*7A
$GPGGA,212552.250,4308.3016,N,07726.2639,W,1,04,2.52,155.5,M,-34.4,M,,*50
$GPRMC,212552.500,A,4308.3016,N,07726.2639,W,0.03,323.68,100823,,,A*7C
$GPGGA,212552.750,4308.3016,N,07726.2639,W,1,04,2.52,155.5,M,-34.4,M,,*55
$GPRMC,212553.000,A,4308.3016,N,07726.2639,W,0.09,181.51,100823,,,A*72
$GPGGA,212553.250,4308.3016,N,07726.2639,W,1,04,2.52,155.5,M,-34.4,M,,*51
$GPRMC,212553.500,A,4308.3016,N,07726.2639,W,0.18,196.45,100823,,,A*74
$GPGGA,212553.750,4308.3016,N,07726.2640,W,1,04,2.52,155.5,M,-34.4,M,,*5A
$GPRMC,212554.000,A,4308.3016,N,07726.2640,W,0.35,203.40,100823,,,A*7D
$GPGGA,212554.250,4308.3016,N,07726.2640,W,1,04,2.52,155.5,M,-34.4,M,,*58
$GPRMC,212554.500,A,4308.3015,N,07726.2640,W,0.28,206.32,100823,,,A*77
$GPGGA,212554.750,4308.3015,N,07726.2640,W,1,04,2.52,155.5,M,-34.4,M,,*5E
$GPRMC,212555.000,A,4308.3015,N,07726.2640,W,0.08,295.02,100823,,,A*78
$GPGGA,212555.250,4308.3015,N,07726.2640,W,1,04,2.52,155.5,M,-34.4,M,,*5A
$GPRMC,212555.500,A,4308.3015,N,07726.2640,W,0.10,19.03,100823,,,A*43
$GPGGA,212555.750,4308.3015,N,07726.2640,W,1,04,2.52,155.5,M,-34.4,M,,*5F
$GPRMC,212556.000,A,4308.3015,N,07726.2640,W,0.15,113.27,100823,,,A*7D
$GPGGA,212556.250,4308.3015,N,07726.2640,W,1,04,2.52,155.5,M,-34.4,M,,*59
$GPRMC,212556.500,A,4308.3015,N,07726.2640,W,0.15,109.78,100823,,,A*79
$GPGGA,212556.750,4308.3015,N,07726.2640,W,1,04,2.52,155.5,M,-34.4,M,,*5C
$GPRMC,212557.000,A,4308.3015,N,07726.2640,W,0.11,4.89,100823,,,A*7B
$GPGGA,212557.250,4308.3015,N,07726.2640,W,1,04,2.63,155.5,M,-34.4,M,,*5A
$GPRMC,212557.500,A,4308.3015,N,07726.2640,W,0.12,0.97,100823,,,A*76
$GPGGA,212557.750,4308.3015,N,07726.2640,W,1,04,2.63,155.5,M,-34.4,M,,*5F
$GPRMC,212558.000,A,4308.3015,N,07726.2640,W,0.01,125.59,100823,,,A*7A
$GPGGA,212558.250,4308.3015,N,07726.2640,W,1,04,2.52,155.5,M,-34.4,M,,*57
$GPRMC,212558.500,A,4308.3015,N,07726.2640,W,0.04,192.14,100823,,,A*7F
$GPGGA,212558.750,4308.3015,N,07726.2640,W,1,04,2.52,155.5,M,-34.4,M,,*52
$GPRMC,212559.000,A,4308.3015,N,07726.2640,W,0.04,201.31,100823,,,A*75
$GPGGA,212559.250,4308.3015,N,07726.2640,W,1,04,2.52,155.5,M,-34.4,M,,*56
$GPRMC,212559.500,A,4308.3015,N,07726.2640,W,0.01,218.18,100823,,,A*76
$GPGGA,212559.750,4308.3015,N,07726.2640,W,1,04,2.52,155.5,M,-34.4,M,,*53
$GPRMC,212600.000,A,4308.3015,N,07726.2640,W,0.05,342.29,100823,,,A*74
$GPGGA,212600.250,4308.3015,N,07726.2640,W,1,04,2.52,155.5,M,-34.4,M,,*59
$GPRMC,212600.500,A,4308.3015,N,07726.2640,W,0.06,3.36,100823,,,A*7A
$GPGGA,212600.750,4308.3015,N,07726.2640,W,1,04,2.63,155.5,M,-34.4,M,,*5E
$GPRMC,212601.000,A,4308.3015,N,07726.2640,W,0.05,45.42,100823,,,A*4C
$GPGGA,212601.250,4308.3015,N,07726.2640,W,1,04,2.51,155.5,M,-34.4,M,,*5B
$GPRMC,212601.500,A,4308.3015,N,07726.2640,W,0.06,125.51,100823,,,A*7F
$GPGGA,212601.750,4308.3015,N,07726.2640,W,1,04,2.51,155.5,M,-34.4,M,,*5E
$GPRMC,212602.000,A,4308.3015,N,07726.2640,W,0.05,219.93,100823,,,A*78
$GPGGA,212602.250,4308.3015,N,07726.2640,W,1,04,2.51,155.5,M,-34.4,M,,*58
$GPRMC,212602.500,A,4308.3015,N,07726.2640,W,0.09,223.85,100823,,,A*7F
$GPGGA,212602.750,4308.3015,N,07726.2640,W,1,04,2.52,155.5,M,-34.4,M,,*5E
$GPRMC,212603.000,A,4308.3015,N,07726.2640,W,0.14,194.59,100823,,,A*79
$GPGGA,212603.250,4308.3015,N,07726.2640,W,1,04,2.51,155.5,M,-34.4,M,,*59
$GPRMC,212603.500,A,4308.3015,N,07726.2640,W,0.16,182.59,100823,,,A*79
$GPGGA,212603.750,4308.3015,N,07726.2640,W,1,04,2.51,155.5,M,-34.4,M,,*5C
$GPRMC,212604.000,A,4308.3015,N,07726.2640,W,0.18,173.38,100823,,,A*7C
$GPGGA,212604.250,4308.3015,N,07726.2640,W,1,04,2.51,155.5,M,-34.4,M,,*5E
$GPRMC,212604.500,A,4308.3015,N,07726.2640,W,0.25,188.00,100823,,,A*78
$GPGGA,212604.750,4308.3014,N,07726.2640,W,1,04,2.51,155.5,M,-34.4,M,,*5A
$GPRMC,212605.000,A,4308.3014,N,07726.2640,W,0.31,180.33,100823,,,A*70
$GPGGA,212605.250,4308.3014,N,07726.2640,W,1,04,2.51,155.5,M,-34.4,M,,*5E
$GPRMC,212605.500,A,4308.3014,N,07726.2640,W,0.32,172.97,100823,,,A*75
$GPGGA,212605.750,4308.3014,N,07726.2640,W,1,04,2.52,155.5,M,-34.4,M,,*58
$GPRMC,212606.000,A,4308.3013,N,07726.2640,W,0.16,184.40,100823,,,A*71
$GPGGA,212606.250,4308.3013,N,07726.2640,W,1,04,2.51,155.5,M,-34.4,M,,*5A
$GPRMC,212606.500,A,4308.3013,N,07726.2640,W,0.15,185.91,100823,,,A*7A
$GPGGA,212606.750,4308.3013,N,07726.2640,W,1,04,2.51,155.4,M,-34.4,M,,*5E
$GPRMC,212607.000,A,4308.3013,N,07726.2640,W,0.06,261.66,100823,,,A*7D
$GPGGA,212607.250,4308.3013,N,07726.2640,W,1,04,2.51,155.4,M,-34.4,M,,*5A
$GPRMC,212607.500,A,4308.3013,N,07726.2640,W,0.08,255.51,100823,,,A*75
$GPGGA,212607.750,4308.3013,N,07726.2640,W,1,04,2.51,155.4,M,-34.4,M,,*5F
$GPRMC,212608.000,A,4308.3013,N,07726.2640,W,0.03,13.09,100823,,,A*49
$GPGGA,212606.250,4308.3013,N,07726.2640,W,1,04,2.63,155.4,M,-34.4,M,,*5A
$GPRMC,212606.500,A,4308.3013,N,07726.2640,W,0.04,347.91,100823,,,A*76
$GPGGA,212606.750,4308.3013,N,07726.2640,W,1,04,2.62,155.4,M,-34.4,M,,*5E
$GPRMC,212607.000,A,4308.3013,N,07726.2640,W,0.04,84.78,100823,,,A*49
$GPGGA,212607.250,4308.3014,N,07726.2640,W,1,04,2.51,155.4,M,-34.4,M,,*5D
$GPRMC,212607.500,A,4308.3014,N,07726.2639,W,0.09,33.05,100823,,,A*4E
$GPGGA,212607.750,4308.3014,N,07726.2639,W,1,04,2.51,155.4,M,-34.4,M,,*56
$GPRMC,212608.000,A,4308.3014,N,07726.2639,W,0.08,42.98,100823,,,A*47
$GPGGA,212608.250,4308.3014,N,07726.2639,W,1,04,2.51,155.4,M,-34.4,M,,*5C
$GPRMC,212608.500,A,4308.3014,N,07726.2639,W,0.00,238.97,100823,,,A*7A
$GPGGA,212608.750,4308.3014,N,07726.2639,W,1,04,2.51,155.4,M,-34.4,M,,*59
$GPRMC,212609.000,A,4308.3015,N,07726.2639,W,0.09,71.46,100823,,,A*45
$GPGGA,212609.250,4308.3015,N,07726.2638,W,1,04,2.51,155.3,M,-34.4,M,,*5A
$GPRMC,212609.500,A,4308.3016,N,07726.2638,W,0.12,68.07,100823,,,A*45
$GPGGA,212609.750,4308.3016,N,07726.2638,W,1,04,2.51,155.3,M,-34.4,M,,*5C
$GPRMC,212610.000,A,4308.3016,N,07726.2638,W,0.09,98.69,100823,,,A*45
$GPGGA,212610.250,4308.3016,N,07726.2638,W,1,04,2.51,155.3,M,-34.4,M,,*51
$GPRMC,212610.500,A,4308.3016,N,07726.2638,W,0.06,167.15,100823,,,A*75
$GPGGA,212610.750,4308.3016,N,07726.2637,W,1,04,2.51,155.3,M,-34.4,M,,*5B
$GPRMC,212611.000,A,4308.3016,N,07726.2637,W,0.11,150.05,100823,,,A*7D
$GPGGA,212611.250,4308.3016,N,07726.2637,W,1,04,2.51,155.2,M,-34.4,M,,*5E
$GPRMC,212611.500,A,4308.3016,N,07726.2636,W,0.12,149.32,100823,,,A*76
$GPGGA,212611.750,4308.3016,N,07726.2636,W,1,04,2.51,155.2,M,-34.4,M,,*5A
$GPRMC,212612.000,A,4308.3017,N,07726.2636,W,0.14,158.50,100823,,,A*73
$GPGGA,212612.250,4308.3017,N,07726.2635,W,1,04,2.51,155.1,M,-34.4,M,,*5D
$GPRMC,212612.500,A,4308.3017,N,07726.2636,W,0.11,149.77,100823,,,A*76
$GPGGA,212612.750,4308.3018,N,07726.2635,W,1,04,2.51,155.1,M,-34.4,M,,*57
$GPRMC,212613.000,A,4308.3018,N,07726.2635,W,0.11,97.78,100823,,,A*43
$GPGGA,212613.250,4308.3018,N,07726.2635,W,1,04,2.51,155.0,M,-34.4,M,,*52
$GPRMC,212613.500,A,4308.3018,N,07726.2635,W,0.08,81.39,100823,,,A*4C
$GPGGA,212613.750,4308.3019,N,07726.2635,W,1,04,2.51,155.0,M,-34.4,M,,*56
$GPRMC,212614.000,A,4308.3019,N,07726.2635,W,0.05,37.54,100823,,,A*44
$GPGGA,212614.250,4308.3019,N,07726.2635,W,1,04,2.51,154.9,M,-34.4,M,,*5C
$GPRMC,212614.500,A,4308.3019,N,07726.2635,W,0.05,336.24,100823,,,A*74
$GPGGA,212614.750,4308.3019,N,07726.2635,W,1,04,2.51,154.9,M,-34.4,M,,*59
$GPRMC,212615.000,A,4308.3019,N,07726.2635,W,0.11,172.99,100823,,,A*71
$GPGGA,212615.250,4308.3018,N,07726.2635,W,1,04,2.50,154.9,M,-34.4,M,,*5D
$GPRMC,212615.500,A,4308.3018,N,07726.2636,W,0.15,200.59,100823,,,A*78
$GPGGA,212615.750,4308.3019,N,07726.2636,W,1,04,2.51,154.9,M,-34.4,M,,*5B
$GPRMC,212616.000,A,4308.3020,N,07726.2636,W,0.15,276.93,100823,,,A*72
$GPGGA,212616.250,4308.3020,N,07726.2637,W,1,04,2.51,154.8,M,-34.4,M,,*57
$GPRMC,212616.500,A,4308.3019,N,07726.2637,W,0.17,243.52,100823,,,A*75
$GPGGA,212616.750,4308.3019,N,07726.2637,W,1,04,2.51,154.8,M,-34.4,M,,*58
$GPRMC,212617.000,A,4308.3020,N,07726.2636,W,0.06,250.44,100823,,,A*7F
$GPGGA,212617.250,4308.3021,N,07726.2636,W,1,04,2.50,154.7,M,-34.4,M,,*58
