Vers 81
USE_SERIAL_FEEDBACK=true
DEVELOPMENT_MODE=false
USE_RMC_ONLY=false

$GPRMC,173434.500,A,4308.3079,N,07726.2605,W,0.39,176.15,160923,,,A*79
$GPGGA,173434.750,4308.3079,N,07726.2605,W,1,06,1.48,155.0,M,-34.4,M,,*59
$GPRMC,173435.000,A,4308.3080,N,07726.2605,W,0.16,215.66,160923,,,A*74
$GPGGA,173435.250,4308.3080,N,07726.2605,W,1,06,1.48,155.5,M,-34.4,M,,*5E
$GPRMC,173435.500,A,4308.3081,N,07726.2606,W,0.13,173.03,160923,,,A*76
$GPGGA,173435.750,4308.3081,N,07726.2605,W,1,06,1.48,156.0,M,-34.4,M,,*5C
$GPRMC,173436.000,A,4308.3081,N,07726.2605,W,0.10,155.87,160923,,,A*78
$GPGGA,173436.250,4308.3082,N,07726.2604,W,1,06,1.48,156.2,M,-34.4,M,,*5A
$GPRMC,173436.500,A,4308.3082,N,07726.2604,W,0.10,196.65,160923,,,A*7C
$GPGGA,173436.750,4308.3083,N,07726.2604,W,1,06,1.48,156.5,M,-34.4,M,,*59
$GPRMC,173437.000,A,4308.3082,N,07726.2604,W,0.15,211.28,160923,,,A*78
$GPGGA,173437.250,4308.3082,N,07726.2604,W,1,06,1.48,157.0,M,-34.4,M,,*58
$GPRMC,173437.500,A,4308.3082,N,07726.2604,W,0.28,217.57,160923,,,A*7D
$GPGGA,173437.750,4308.3082,N,07726.2603,W,1,06,1.48,157.4,M,-34.4,M,,*5E
$GPRMC,173438.000,A,4308.3083,N,07726.2603,W,0.22,218.47,160923,,,A*75
$GPGGA,173438.250,4308.3084,N,07726.2602,W,1,06,1.48,157.7,M,-34.4,M,,*50
$GPRMC,173438.500,A,4308.3085,N,07726.2602,W,0.11,221.25,160923,,,A*79
$GPGGA,173438.750,4308.3085,N,07726.2602,W,1,06,1.48,158.0,M,-34.4,M,,*5C
$GPRMC,173439.000,A,4308.3086,N,07726.2601,W,0.07,219.21,160923,,,A*75
$GPGGA,173439.250,4308.3086,N,07726.2601,W,1,06,1.48,158.3,M,-34.4,M,,*5B
$GPRMC,173439.500,A,4308.3086,N,07726.2601,W,0.05,222.68,160923,,,A*77
$GPGGA,173439.750,4308.3086,N,07726.2601,W,1,06,1.48,158.5,M,-34.4,M,,*58
$GPRMC,173440.000,A,4308.3086,N,07726.2601,W,0.06,206.03,160923,,,A*74
$GPGGA,173440.250,4308.3086,N,07726.2601,W,1,06,1.48,158.8,M,-34.4,M,,*5E
$GPRMC,173440.500,A,4308.3086,N,07726.2600,W,0.01,189.94,160923,,,A*7D
$GPGGA,173440.750,4308.3086,N,07726.2600,W,1,06,1.48,159.0,M,-34.4,M,,*53
$GPRMC,173441.000,A,4308.3086,N,07726.2600,W,0.02,62.04,160923,,,A*47
$GPGGA,173441.250,4308.3087,N,07726.2601,W,1,06,1.48,159.1,M,-34.4,M,,*56
$GPRMC,173441.500,A,4308.3086,N,07726.2601,W,0.10,161.54,160923,,,A*77
$GPGGA,173441.750,4308.3087,N,07726.2601,W,1,06,1.48,159.3,M,-34.4,M,,*51
$GPRMC,173442.000,A,4308.3087,N,07726.2601,W,0.08,0.03,160923,,,A*7D
$GPGGA,173442.250,4308.3087,N,07726.2602,W,1,06,1.63,159.6,M,-34.4,M,,*58
$GPRMC,173442.500,A,4308.3087,N,07726.2602,W,0.02,142.67,160923,,,A*74
$GPGGA,173442.750,4308.3087,N,07726.2602,W,1,06,1.48,159.9,M,-34.4,M,,*5B
$GPRMC,173443.000,A,4308.3088,N,07726.2602,W,0.05,358.83,160923,,,A*7B
$GPGGA,173443.250,4308.3088,N,07726.2603,W,1,06,1.63,160.2,M,-34.4,M,,*59
$GPRMC,173443.500,A,4308.3088,N,07726.2603,W,0.03,50.19,160923,,,A*41
$GPGGA,173443.750,4308.3088,N,07726.2603,W,1,06,1.48,160.5,M,-34.4,M,,*52
$GPRMC,173444.000,A,4308.3088,N,07726.2603,W,0.02,87.83,160923,,,A*4B
$GPGGA,173444.250,4308.3088,N,07726.2603,W,1,06,1.48,160.6,M,-34.4,M,,*53
$GPRMC,173444.500,A,4308.3088,N,07726.2603,W,0.13,111.99,160923,,,A*7B
$GPGGA,173444.750,4308.3089,N,07726.2603,W,1,06,1.48,160.7,M,-34.4,M,,*56
$GPRMC,173445.000,A,4308.3089,N,07726.2603,W,0.14,89.49,160923,,,A*44
$GPGGA,173445.250,4308.3090,N,07726.2603,W,1,06,1.48,160.9,M,-34.4,M,,*54
$GPRMC,173445.500,A,4308.3090,N,07726.2603,W,0.15,66.97,160923,,,A*4A
$GPGGA,173445.750,4308.3091,N,07726.2602,W,1,06,1.48,160.9,M,-34.4,M,,*51
$GPRMC,173446.000,A,4308.3091,N,07726.2602,W,0.12,71.56,160923,,,A*40
$GPGGA,173446.250,4308.3091,N,07726.2602,W,1,06,1.48,160.9,M,-34.4,M,,*57
$GPRMC,173446.500,A,4308.3091,N,07726.2602,W,0.04,99.68,160923,,,A*49
$GPGGA,173446.750,4308.3092,N,07726.2602,W,1,06,1.48,161.0,M,-34.4,M,,*59
$GPRMC,173447.000,A,4308.3092,N,07726.2602,W,0.09,107.17,160923,,,A*7D
$GPGGA,173447.250,4308.3093,N,07726.2602,W,1,06,1.48,161.2,M,-34.4,M,,*5E
$GPRMC,173447.500,A,4308.3093,N,07726.2602,W,0.04,117.63,160923,,,A*76
$GPGGA,173447.750,4308.3094,N,07726.2602,W,1,06,1.48,161.3,M,-34.4,M,,*5D
$GPRMC,173448.000,A,4308.3094,N,07726.2602,W,0.06,131.69,160923,,,A*77
$GPGGA,173448.250,4308.3095,N,07726.2601,W,1,06,1.48,161.5,M,-34.4,M,,*53
$GPRMC,173448.500,A,4308.3095,N,07726.2602,W,0.03,129.42,160923,,,A*76
$GPGGA,173448.750,4308.3096,N,07726.2602,W,1,06,1.48,161.7,M,-34.4,M,,*54
$GPRMC,173449.000,A,4308.3096,N,07726.2602,W,0.02,112.22,160923,,,A*7E
$GPGGA,173449.250,4308.3097,N,07726.2602,W,1,06,1.48,161.9,M,-34.4,M,,*5F
$GPRMC,173449.500,A,4308.3097,N,07726.2602,W,0.04,156.66,160923,,,A*7C
$GPGGA,173449.750,4308.3098,N,07726.2602,W,1,06,1.48,162.1,M,-34.4,M,,*5E
$GPRMC,173450.000,A,4308.3099,N,07726.2602,W,0.06,242.78,160923,,,A*74
$GPGGA,173450.250,4308.3099,N,07726.2602,W,1,06,1.48,162.2,M,-34.4,M,,*51
$GPRMC,173450.500,A,4308.3100,N,07726.2602,W,0.02,267.76,160923,,,A*7D
$GPGGA,173450.750,4308.3100,N,07726.2602,W,1,06,1.48,162.4,M,-34.4,M,,*53
$GPRMC,173451.000,A,4308.3101,N,07726.2601,W,0.01,269.39,160923,,,A*7D
$GPGGA,173451.250,4308.3101,N,07726.2601,W,1,06,1.48,162.5,M,-34.4,M,,*54
$GPRMC,173451.500,A,4308.3102,N,07726.2601,W,0.03,146.72,160923,,,A*78
$GPGGA,173451.750,4308.3102,N,07726.2601,W,1,06,1.48,162.6,M,-34.4,M,,*51
$GPRMC,173452.000,A,4308.3103,N,07726.2601,W,0.02,187.18,160923,,,A*7F
$GPGGA,173452.250,4308.3103,N,07726.2601,W,1,06,1.48,162.7,M,-34.4,M,,*57
$GPRMC,173452.500,A,4308.3103,N,07726.2601,W,0.02,261.10,160923,,,A*79
$GPGGA,173452.750,4308.3104,N,07726.2601,W,1,06,1.48,162.8,M,-34.4,M,,*5A
$GPRMC,173453.000,A,4308.3104,N,07726.2601,W,0.02,123.92,160923,,,A*75
$GPGGA,173453.250,4308.3104,N,07726.2601,W,1,06,1.48,162.9,M,-34.4,M,,*5F
$GPRMC,173453.500,A,4308.3105,N,07726.2601,W,0.05,312.72,160923,,,A*78
$GPGGA,173453.750,4308.3105,N,07726.2601,W,1,06,1.48,163.1,M,-34.4,M,,*52
$GPRMC,173454.000,A,4308.3105,N,07726.2601,W,0.04,231.28,160923,,,A*74
$GPGGA,173454.250,4308.3105,N,07726.2601,W,1,06,1.48,163.2,M,-34.4,M,,*53
$GPRMC,173454.500,A,4308.3106,N,07726.2601,W,0.00,354.62,160923,,,A*7A
$GPGGA,173454.750,4308.3106,N,07726.2600,W,1,06,1.63,163.3,M,-34.4,M,,*5C
$GPRMC,173455.000,A,4308.3106,N,07726.2600,W,0.04,187.70,160923,,,A*74
$GPGGA,173455.250,4308.3107,N,07726.2600,W,1,06,1.48,163.4,M,-34.4,M,,*57
$GPRMC,173455.500,A,4308.3107,N,07726.2600,W,0.04,114.31,160923,,,A*7F
$GPGGA,173455.750,4308.3107,N,07726.2600,W,1,06,1.48,163.4,M,-34.4,M,,*52
$GPRMC,173456.000,A,4308.3107,N,07726.2600,W,0.03,186.78,160923,,,A*78
$GPGGA,173456.250,4308.3108,N,07726.2600,W,1,06,1.48,163.5,M,-34.4,M,,*5A
$GPRMC,173456.500,A,4308.3108,N,07726.2600,W,0.05,174.84,160923,,,A*7A
$GPGGA,173456.750,4308.3108,N,07726.2601,W,1,06,1.48,163.6,M,-34.4,M,,*5D
$GPRMC,173457.000,A,4308.3108,N,07726.2601,W,0.02,329.97,160923,,,A*70
$GPGGA,173457.250,4308.3108,N,07726.2601,W,1,06,1.48,163.7,M,-34.4,M,,*58
$GPRMC,173457.500,A,4308.3109,N,07726.2601,W,0.01,60.65,160923,,,A*44
$GPGGA,173457.750,4308.3109,N,07726.2601,W,1,06,1.48,163.8,M,-34.4,M,,*53
$GPRMC,173458.000,A,4308.3109,N,07726.2601,W,0.03,271.93,160923,,,A*77
$GPGGA,173458.250,4308.3110,N,07726.2601,W,1,06,1.48,163.9,M,-34.4,M,,*50
$GPRMC,173458.500,A,4308.3110,N,07726.2601,W,0.01,319.84,160923,,,A*71
$GPGGA,173458.750,4308.3110,N,07726.2601,W,1,06,1.48,164.0,M,-34.4,M,,*5B
$GPRMC,173459.000,A,4308.3111,N,07726.2601,W,0.01,243.29,160923,,,A*7D
$GPGGA,173459.250,4308.3111,N,07726.2601,W,1,06,1.48,164.0,M,-34.4,M,,*5E
$GPRMC,173459.500,A,4308.3111,N,07726.2601,W,0.03,177.70,160923,,,A*72
$GPGGA,173459.750,4308.3112,N,07726.2601,W,1,06,1.48,164.1,M,-34.4,M,,*59
$GPRMC,173500.000,A,4308.3112,N,07726.2601,W,0.03,60.72,160923,,,A*4C
$GPGGA,173500.250,4308.3112,N,07726.2601,W,1,06,1.48,164.1,M,-34.4,M,,*51
$GPRMC,173500.500,A,4308.3113,N,07726.2601,W,0.06,166.25,160923,,,A*78
$GPGGA,173500.750,4308.3113,N,07726.2601,W,1,06,1.48,164.1,M,-34.4,M,,*55
$GPRMC,173501.000,A,4308.3113,N,07726.2601,W,0.03,248.15,160923,,,A*75
$GPGGA,173501.250,4308.3113,N,07726.2601,W,1,06,1.48,164.2,M,-34.4,M,,*52
$GPRMC,173501.500,A,4308.3114,N,07726.2601,W,0.02,349.95,160923,,,A*7E
$GPGGA,173501.750,4308.3114,N,07726.2601,W,1,06,1.62,164.3,M,-34.4,M,,*59
$GPRMC,173502.000,A,4308.3114,N,07726.2602,W,0.02,336.30,160923,,,A*7C
$GPGGA,173502.250,4308.3114,N,07726.2602,W,1,07,1.28,164.3,M,-34.4,M,,*53
$GPRMC,173502.500,A,4308.3114,N,07726.2602,W,0.03,99.02,160923,,,A*4F
$GPGGA,173502.750,4308.3114,N,07726.2602,W,1,07,1.28,164.5,M,-34.4,M,,*50
$GPRMC,173503.000,A,4308.3114,N,07726.2602,W,0.03,178.44,160923,,,A*77
$GPGGA,173503.250,4308.3114,N,07726.2602,W,1,07,1.28,164.6,M,-34.4,M,,*57
$GPRMC,173503.500,A,4308.3114,N,07726.2602,W,0.01,65.29,160923,,,A*46
$GPGGA,173503.750,4308.3114,N,07726.2603,W,1,07,1.28,164.7,M,-34.4,M,,*52
$GPRMC,173504.000,A,4308.3114,N,07726.2603,W,0.02,224.66,160923,,,A*7A
$GPGGA,173504.250,4308.3115,N,07726.2603,W,1,07,1.28,164.8,M,-34.4,M,,*5E
$GPRMC,173504.500,A,4308.3114,N,07726.2603,W,0.02,252.19,160923,,,A*76
$GPGGA,173504.750,4308.3114,N,07726.2603,W,1,07,1.28,164.9,M,-34.4,M,,*5B
$GPRMC,173505.000,A,4308.3114,N,07726.2603,W,0.04,27.61,160923,,,A*4B
$GPGGA,173505.250,4308.3114,N,07726.2604,W,1,07,1.28,165.0,M,-34.4,M,,*50
$GPRMC,173505.500,A,4308.3114,N,07726.2604,W,0.03,69.98,160923,,,A*42
$GPGGA,173505.750,4308.3114,N,07726.2604,W,1,07,1.28,165.1,M,-34.4,M,,*54
$GPRMC,173506.000,A,4308.3114,N,07726.2604,W,0.00,219.51,160923,,,A*77
$GPGGA,173506.250,4308.3114,N,07726.2604,W,1,07,1.28,165.1,M,-34.4,M,,*52
$GPRMC,173506.500,A,4308.3114,N,07726.2604,W,0.06,29.37,160923,,,A*45
$GPGGA,173506.750,4308.3114,N,07726.2604,W,1,07,1.28,165.1,M,-34.4,M,,*57
$GPRMC,173507.000,A,4308.3114,N,07726.2604,W,0.04,53.55,160923,,,A*4A
$GPGGA,173507.250,4308.3114,N,07726.2604,W,1,07,1.28,165.1,M,-34.4,M,,*53
$GPRMC,173507.500,A,4308.3114,N,07726.2604,W,0.03,95.62,160923,,,A*46
$GPGGA,173507.750,4308.3114,N,07726.2603,W,1,07,1.28,165.1,M,-34.4,M,,*51
$GPRMC,173508.000,A,4308.3114,N,07726.2603,W,0.12,75.21,160923,,,A*42
$GPGGA,173508.250,4308.3114,N,07726.2603,W,1,07,1.28,165.1,M,-34.4,M,,*5B
$GPRMC,173508.500,A,4308.3114,N,07726.2603,W,0.05,82.07,160923,,,A*4D
$GPGGA,173508.750,4308.3114,N,07726.2603,W,1,07,1.28,165.1,M,-34.4,M,,*5E
$GPRMC,173509.000,A,4308.3114,N,07726.2603,W,0.14,80.94,160923,,,A*41
$GPGGA,173509.250,4308.3114,N,07726.2603,W,1,07,1.28,165.1,M,-34.4,M,,*5A
$GPRMC,173509.500,A,4308.3114,N,07726.2603,W,0.07,62.92,160923,,,A*4C
$GPGGA,173509.750,4308.3114,N,07726.2603,W,1,07,1.28,165.1,M,-34.4,M,,*5F
$GPRMC,173510.000,A,4308.3114,N,07726.2603,W,0.07,306.13,160923,,,A*79
$GPGGA,173510.250,4308.3114,N,07726.2603,W,1,07,1.28,165.1,M,-34.4,M,,*52
$GPRMC,173510.500,A,4308.3114,N,07726.2603,W,0.17,266.54,160923,,,A*79
$GPGGA,173510.750,4308.3114,N,07726.2603,W,1,07,1.28,165.1,M,-34.4,M,,*57
$GPRMC,173511.000,A,4308.3114,N,07726.2603,W,0.16,244.47,160923,,,A*7E
$GPGGA,173511.250,4308.3114,N,07726.2603,W,1,07,1.28,165.1,M,-34.4,M,,*53
$GPRMC,173511.500,A,4308.3114,N,07726.2604,W,0.10,202.87,160923,,,A*74
$GPGGA,173511.750,4308.3114,N,07726.2604,W,1,07,1.28,165.1,M,-34.4,M,,*51
$GPRMC,173512.000,A,4308.3114,N,07726.2604,W,0.10,218.25,160923,,,A*71
$GPGGA,173512.250,4308.3114,N,07726.2604,W,1,07,1.28,165.1,M,-34.4,M,,*57
$GPRMC,173512.500,A,4308.3114,N,07726.2604,W,0.15,213.30,160923,,,A*7E
$GPGGA,173512.750,4308.3114,N,07726.2604,W,1,07,1.28,165.1,M,-34.4,M,,*52
$GPRMC,173513.000,A,4308.3114,N,07726.2604,W,0.12,229.33,160923,,,A*77
$GPGGA,173513.250,4308.3114,N,07726.2604,W,1,07,1.28,165.1,M,-34.4,M,,*56
$GPRMC,173513.500,A,4308.3113,N,07726.2604,W,0.21,223.18,160923,,,A*76
$GPGGA,173513.750,4308.3113,N,07726.2604,W,1,07,1.28,165.1,M,-34.4,M,,*54
$GPRMC,173514.000,A,4308.3113,N,07726.2604,W,0.38,223.33,160923,,,A*75
$GPGGA,173514.250,4308.3113,N,07726.2605,W,1,07,1.28,165.1,M,-34.4,M,,*57
$GPRMC,173514.500,A,4308.3113,N,07726.2605,W,0.10,242.48,160923,,,A*70
$GPGGA,173514.750,4308.3113,N,07726.2605,W,1,07,1.47,165.1,M,-34.4,M,,*5B
$GPRMC,173515.000,A,4308.3113,N,07726.2605,W,0.01,200.07,160923,,,A*79
$GPGGA,173515.250,4308.3113,N,07726.2605,W,1,07,1.47,165.1,M,-34.4,M,,*5F
$GPRMC,173515.500,A,4308.3113,N,07726.2605,W,0.10,206.36,160923,,,A*78
$GPGGA,173515.750,4308.3113,N,07726.2605,W,1,07,1.47,165.1,M,-34.4,M,,*5A
$GPRMC,173516.000,A,4308.3113,N,07726.2605,W,0.03,252.99,160923,,,A*78
$GPGGA,173516.250,4308.3113,N,07726.2605,W,1,07,1.47,165.1,M,-34.4,M,,*5C
$GPRMC,173516.500,A,4308.3113,N,07726.2605,W,0.05,66.12,160923,,,A*4D
$GPGGA,173516.750,4308.3113,N,07726.2605,W,1,07,1.47,165.1,M,-34.4,M,,*59
$GPRMC,173517.000,A,4308.3113,N,07726.2605,W,0.02,192.83,160923,,,A*7C
$GPGGA,173517.250,4308.3113,N,07726.2605,W,1,07,1.47,165.1,M,-34.4,M,,*5D
$GPRMC,173517.500,A,4308.3113,N,07726.2605,W,0.02,157.12,160923,,,A*78
$GPGGA,173517.750,4308.3113,N,07726.2605,W,1,07,1.47,165.1,M,-34.4,M,,*58
$GPRMC,173518.000,A,4308.3113,N,07726.2605,W,0.02,154.39,160923,,,A*78
$GPGGA,173518.250,4308.3113,N,07726.2605,W,1,07,1.47,165.1,M,-34.4,M,,*52
$GPRMC,173518.500,A,4308.3113,N,07726.2605,W,0.02,233.31,160923,,,A*77
$GPGGA,173518.750,4308.3113,N,07726.2605,W,1,07,1.47,165.1,M,-34.4,M,,*57
$GPRMC,173519.000,A,4308.3113,N,07726.2605,W,0.02,187.23,160923,,,A*7C
$GPGGA,173519.250,4308.3113,N,07726.2605,W,1,07,1.47,165.1,M,-34.4,M,,*53
$GPRMC,173519.500,A,4308.3113,N,07726.2605,W,0.02,136.94,160923,,,A*7F
$GPGGA,173519.750,4308.3113,N,07726.2605,W,1,07,1.47,165.1,M,-34.4,M,,*56
$GPRMC,173520.000,A,4308.3113,N,07726.2605,W,0.03,187.67,160923,,,A*77
$GPGGA,173520.250,4308.3113,N,07726.2605,W,1,07,1.47,165.1,M,-34.4,M,,*59
$GPRMC,173520.500,A,4308.3113,N,07726.2605,W,0.02,322.93,160923,,,A*75
$GPGGA,173520.750,4308.3113,N,07726.2605,W,1,07,1.47,165.1,M,-34.4,M,,*5C
$GPRMC,173521.000,A,4308.3113,N,07726.2605,W,0.01,193.96,160923,,,A*7F
$GPGGA,173521.250,4308.3113,N,07726.2605,W,1,07,1.47,165.1,M,-34.4,M,,*58
$GPRMC,173521.500,A,4308.3113,N,07726.2605,W,0.02,298.67,160923,,,A*7F
$GPGGA,173521.750,4308.3113,N,07726.2605,W,1,07,1.47,165.1,M,-34.4,M,,*5D
$GPRMC,173522.000,A,4308.3113,N,07726.2605,W,0.01,264.97,160923,,,A*76
$GPGGA,173522.250,4308.3113,N,07726.2605,W,1,07,1.47,165.1,M,-34.4,M,,*5B
$GPRMC,173522.500,A,4308.3113,N,07726.2605,W,0.01,114.42,160923,,,A*7F
$GPGGA,173522.750,4308.3113,N,07726.2605,W,1,07,1.47,165.1,M,-34.4,M,,*5E
$GPRMC,173523.000,A,4308.3113,N,07726.2605,W,0.01,220.16,160923,,,A*7E
$GPGGA,173523.250,4308.3113,N,07726.2605,W,1,07,1.47,165.1,M,-34.4,M,,*5A
$GPRMC,173523.500,A,4308.3113,N,07726.2605,W,0.03,232.19,160923,,,A*75
$GPGGA,173523.750,4308.3113,N,07726.2605,W,1,07,1.47,165.1,M,-34.4,M,,*5F
$GPRMC,173524.000,A,4308.3113,N,07726.2605,W,0.00,113.11,160923,,,A*7C
$GPGGA,173524.250,4308.3113,N,07726.2605,W,1,07,1.47,165.1,M,-34.4,M,,*5D
$GPRMC,173524.500,A,4308.3113,N,07726.2605,W,0.01,183.35,160923,,,A*77
$GPGGA,173524.750,4308.3113,N,07726.2605,W,1,07,1.47,165.1,M,-34.4,M,,*58
$GPRMC,173525.000,A,4308.3113,N,07726.2605,W,0.02,203.35,160923,,,A*7B
$GPGGA,173525.250,4308.3113,N,07726.2605,W,1,07,1.47,165.1,M,-34.4,M,,*5C
$GPRMC,173525.500,A,4308.3113,N,07726.2605,W,0.01,184.38,160923,,,A*7C
$GPGGA,173525.750,4308.3113,N,07726.2605,W,1,07,1.47,165.1,M,-34.4,M,,*59
$GPRMC,173526.000,A,4308.3113,N,07726.2605,W,0.00,105.96,160923,,,A*76
$GPGGA,173526.250,4308.3113,N,07726.2605,W,1,07,1.47,165.1,M,-34.4,M,,*5F
$GPRMC,173526.500,A,4308.3113,N,07726.2605,W,0.00,155.75,160923,,,A*7B
$GPGGA,173526.750,4308.3113,N,07726.2605,W,1,07,1.47,165.1,M,-34.4,M,,*5A
$GPRMC,173527.000,A,4308.3113,N,07726.2605,W,0.00,0.00,160923,,,A*7C
$GPGGA,173527.250,4308.3113,N,07726.2605,W,1,07,1.47,165.1,M,-34.4,M,,*5E
$GPRMC,173527.500,A,4308.3113,N,07726.2605,W,0.04,200.81,160923,,,A*76
$GPGGA,173527.750,4308.3112,N,07726.2605,W,1,07,1.47,165.1,M,-34.4,M,,*5A
$GPRMC,173528.000,A,4308.3112,N,07726.2605,W,0.02,141.44,160923,,,A*74
$GPGGA,173528.250,4308.3112,N,07726.2605,W,1,07,1.47,165.1,M,-34.4,M,,*50
$GPRMC,173528.500,A,4308.3112,N,07726.2605,W,0.03,359.62,160923,,,A*7F
$GPGGA,173528.750,4308.3112,N,07726.2605,W,1,07,1.47,165.1,M,-34.4,M,,*55
$GPRMC,173529.000,A,4308.3112,N,07726.2605,W,0.01,61.78,160923,,,A*4A
$GPGGA,173529.250,4308.3112,N,07726.2605,W,1,07,1.47,165.1,M,-34.4,M,,*51
$GPRMC,173529.500,A,4308.3112,N,07726.2605,W,0.00,139.39,160923,,,A*77
$GPGGA,173529.750,4308.3112,N,07726.2605,W,1,07,1.47,165.1,M,-34.4,M,,*54
$GPRMC,173530.000,A,4308.3112,N,07726.2605,W,0.00,282.83,160923,,,A*78
$GPGGA,173530.250,4308.3112,N,07726.2605,W,1,07,1.47,165.1,M,-34.4,M,,*59
$GPRMC,173530.500,A,4308.3112,N,07726.2605,W,0.02,18.12,160923,,,A*46
$GPGGA,173530.750,4308.3112,N,07726.2605,W,1,07,1.47,165.1,M,-34.4,M,,*5C
$GPRMC,173531.000,A,4308.3112,N,07726.2605,W,0.01,199.44,160923,,,A*7A
$GPGGA,173531.250,4308.3112,N,07726.2605,W,1,07,1.47,165.1,M,-34.4,M,,*58
$GPRMC,173531.500,A,4308.3112,N,07726.2605,W,0.01,308.61,160923,,,A*72
$GPGGA,173531.750,4308.3112,N,07726.2605,W,1,07,1.47,165.1,M,-34.4,M,,*5D
$GPRMC,173532.000,A,4308.3112,N,07726.2605,W,0.01,140.36,160923,,,A*78
$GPGGA,173532.250,4308.3112,N,07726.2605,W,1,07,1.47,165.1,M,-34.4,M,,*5B
$GPRMC,173532.500,A,4308.3112,N,07726.2605,W,0.00,7.04,160923,,,A*7F
$GPGGA,173532.750,4308.3112,N,07726.2605,W,1,07,1.47,165.1,M,-34.4,M,,*5E
$GPRMC,173533.000,A,4308.3112,N,07726.2605,W,0.01,341.62,160923,,,A*7B
$GPGGA,173533.250,4308.3112,N,07726.2605,W,1,07,1.47,165.1,M,-34.4,M,,*5A
$GPRMC,173533.500,A,4308.3112,N,07726.2605,W,0.01,19.80,160923,,,A*4C
$GPGGA,173533.750,4308.3112,N,07726.2605,W,1,07,1.47,165.1,M,-34.4,M,,*5F
$GPRMC,173534.000,A,4308.3112,N,07726.2605,W,0.01,281.99,160923,,,A*75
$GPGGA,173534.250,4308.3112,N,07726.2605,W,1,07,1.47,165.1,M,-34.4,M,,*5D
$GPRMC,173534.500,A,4308.3112,N,07726.2605,W,0.00,82.86,160923,,,A*4E
$GPGGA,173534.750,4308.3112,N,07726.2605,W,1,07,1.47,165.1,M,-34.4,M,,*58
$GPRMC,173535.000,A,4308.3112,N,07726.2605,W,0.01,205.09,160923,,,A*71
$GPGGA,173535.250,4308.3112,N,07726.2605,W,1,07,1.47,165.1,M,-34.4,M,,*5C
$GPRMC,173535.500,A,4308.3112,N,07726.2605,W,0.01,335.02,160923,,,A*7D
$GPGGA,173535.750,4308.3112,N,07726.2605,W,1,07,1.47,165.1,M,-34.4,M,,*59
$GPRMC,173536.000,A,4308.3112,N,07726.2605,W,0.00,261.34,160923,,,A*7F
$GPGGA,173536.250,4308.3112,N,07726.2605,W,1,07,1.47,165.1,M,-34.4,M,,*5F
$GPRMC,173536.500,A,4308.3112,N,07726.2605,W,0.01,228.76,160923,,,A*70
$GPGGA,173536.750,4308.3112,N,07726.2605,W,1,07,1.47,165.1,M,-34.4,M,,*5A
$GPRMC,173537.000,A,4308.3112,N,07726.2605,W,0.01,353.81,160923,,,A*71
$GPGGA,173537.250,4308.3112,N,07726.2605,W,1,07,1.47,165.1,M,-34.4,M,,*5E
$GPRMC,173537.500,A,4308.3112,N,07726.2605,W,0.01,249.78,160923,,,A*78
$GPGGA,173537.750,4308.3112,N,07726.2605,W,1,07,1.47,165.1,M,-34.4,M,,*5B
$GPRMC,173538.000,A,4308.3112,N,07726.2605,W,0.01,285.72,160923,,,A*78
$GPGGA,173538.250,4308.3112,N,07726.2605,W,1,07,1.47,165.1,M,-34.4,M,,*51
$GPRMC,173538.500,A,4308.3112,N,07726.2605,W,0.00,319.80,160923,,,A*75
$GPGGA,173538.750,4308.3112,N,07726.2605,W,1,07,1.47,165.1,M,-34.4,M,,*54
$GPRMC,173539.000,A,4308.3112,N,07726.2605,W,0.00,117.83,160923,,,A*7E
$GPGGA,173539.250,4308.3112,N,07726.2605,W,1,07,1.47,165.1,M,-34.4,M,,*50
$GPRMC,173539.500,A,4308.3112,N,07726.2605,W,0.00,314.02,160923,,,A*73
$GPGGA,173539.750,4308.3112,N,07726.2605,W,1,07,1.47,165.1,M,-34.4,M,,*55
$GPRMC,173540.000,A,4308.3112,N,07726.2605,W,0.01,76.31,160923,,,A*4E
$GPGGA,173540.250,4308.3112,N,07726.2605,W,1,07,1.47,165.1,M,-34.4,M,,*5E
$GPRMC,173540.500,A,4308.3112,N,07726.2605,W,0.00,57.67,160923,,,A*4A
$GPGGA,173540.750,4308.3112,N,07726.2605,W,1,07,1.47,165.1,M,-34.4,M,,*5B
$GPRMC,173541.000,A,4308.3112,N,07726.2605,W,0.01,330.28,160923,,,A*76
$GPGGA,173541.250,4308.3112,N,07726.2605,W,1,07,1.46,165.1,M,-34.4,M,,*5E
$GPRMC,173541.500,A,4308.3112,N,07726.2605,W,0.00,59.45,160923,,,A*45
$GPGGA,173541.750,4308.3112,N,07726.2605,W,1,07,1.47,165.1,M,-34.4,M,,*5A
$GPRMC,173542.000,A,4308.3112,N,07726.2605,W,0.01,289.18,160923,,,A*75
$GPGGA,173542.250,4308.3112,N,07726.2605,W,1,07,1.46,165.1,M,-34.4,M,,*5D
$GPRMC,173542.500,A,4308.3112,N,07726.2605,W,0.00,196.44,160923,,,A*75
$GPGGA,173542.750,4308.3112,N,07726.2605,W,1,07,1.46,165.1,M,-34.4,M,,*58
$GPRMC,173543.000,A,4308.3112,N,07726.2605,W,0.01,272.44,160923,,,A*79
$GPGGA,173543.250,4308.3112,N,07726.2605,W,1,07,1.46,165.1,M,-34.4,M,,*5C
$GPRMC,173543.500,A,4308.3112,N,07726.2605,W,0.00,125.53,160923,,,A*7A
$GPGGA,173543.750,4308.3112,N,07726.2605,W,1,07,1.46,165.1,M,-34.4,M,,*59
$GPRMC,173544.000,A,4308.3112,N,07726.2605,W,0.00,118.46,160923,,,A*72
$GPGGA,173544.250,4308.3112,N,07726.2605,W,1,07,1.47,165.1,M,-34.4,M,,*5A
$GPRMC,173544.500,A,4308.3112,N,07726.2605,W,0.01,71.05,160923,,,A*4F
$GPGGA,173544.750,4308.3112,N,07726.2605,W,1,07,1.47,165.1,M,-34.4,M,,*5F
$GPRMC,173545.000,A,4308.3112,N,07726.2605,W,0.01,240.62,160923,,,A*7A
$GPGGA,173545.250,4308.3112,N,07726.2605,W,1,07,1.46,165.1,M,-34.4,M,,*5A
$GPRMC,173545.500,A,4308.3112,N,07726.2605,W,0.01,221.01,160923,,,A*7D
$GPGGA,173545.750,4308.3112,N,07726.2605,W,1,07,1.46,165.1,M,-34.4,M,,*5F
$GPRMC,173546.000,A,4308.3112,N,07726.2605,W,0.00,305.46,160923,,,A*7E
$GPGGA,173546.250,4308.3112,N,07726.2605,W,1,07,1.46,165.1,M,-34.4,M,,*59
$GPRMC,173546.500,A,4308.3112,N,07726.2605,W,0.01,157.89,160923,,,A*7C
$GPGGA,173546.750,4308.3112,N,07726.2605,W,1,07,1.46,165.1,M,-34.4,M,,*5C
$GPRMC,173547.000,A,4308.3112,N,07726.2605,W,0.00,0.00,160923,,,A*7B
$GPGGA,173547.250,4308.3112,N,07726.2605,W,1,07,1.46,165.1,M,-34.4,M,,*58
$GPRMC,173547.500,A,4308.3112,N,07726.2605,W,0.01,85.14,160923,,,A*47
$GPGGA,173547.750,4308.3112,N,07726.2605,W,1,07,1.46,165.1,M,-34.4,M,,*5D
$GPRMC,173548.000,A,4308.3112,N,07726.2605,W,0.00,204.83,160923,,,A*79
$GPGGA,173548.250,4308.3112,N,07726.2605,W,1,07,1.46,165.1,M,-34.4,M,,*57
$GPRMC,173548.500,A,4308.3112,N,07726.2605,W,0.00,37.28,160923,,,A*4F
$GPGGA,173548.750,4308.3112,N,07726.2605,W,1,07,1.46,165.1,M,-34.4,M,,*52
$GPRMC,173549.000,A,4308.3112,N,07726.2605,W,0.00,110.31,160923,,,A*77
$GPGGA,173549.250,4308.3112,N,07726.2605,W,1,07,1.46,165.1,M,-34.4,M,,*56
$GPRMC,173549.500,A,4308.3112,N,07726.2605,W,0.00,210.52,160923,,,A*74
$GPGGA,173549.750,4308.3112,N,07726.2605,W,1,07,1.46,165.1,M,-34.4,M,,*53
$GPRMC,173550.000,A,4308.3112,N,07726.2605,W,0.00,88.75,160923,,,A*4F
$GPGGA,173550.250,4308.3112,N,07726.2605,W,1,07,1.46,165.1,M,-34.4,M,,*5E
$GPRMC,173550.500,A,4308.3112,N,07726.2605,W,0.00,122.86,160923,,,A*77
$GPGGA,173550.750,4308.3112,N,07726.2605,W,1,07,1.46,165.1,M,-34.4,M,,*5B
$GPRMC,173551.000,A,4308.3112,N,07726.2605,W,0.00,37.10,160923,,,A*49
$GPGGA,173551.250,4308.3112,N,07726.2605,W,1,07,1.46,165.1,M,-34.4,M,,*5F
$GPRMC,173551.500,A,4308.3112,N,07726.2605,W,0.00,228.55,160923,,,A*71
$GPGGA,173551.750,4308.3112,N,07726.2605,W,1,07,1.46,165.1,M,-34.4,M,,*5A
$GPRMC,173552.000,A,4308.3112,N,07726.2605,W,0.01,341.94,160923,,,A*75
$GPGGA,173552.250,4308.3112,N,07726.2605,W,1,07,1.46,165.1,M,-34.4,M,,*5C
$GPRMC,173552.500,A,4308.3112,N,07726.2605,W,0.00,211.06,160923,,,A*7E
$GPGGA,173552.750,4308.3112,N,07726.2605,W,1,07,1.46,165.1,M,-34.4,M,,*59
$GPRMC,173553.000,A,4308.3112,N,07726.2605,W,0.00,241.06,160923,,,A*7F
$GPGGA,173553.250,4308.3112,N,07726.2605,W,1,07,1.46,165.1,M,-34.4,M,,*5D
$GPRMC,173553.500,A,4308.3112,N,07726.2605,W,0.02,5.59,160923,,,A*70
$GPGGA,173553.750,4308.3112,N,07726.2605,W,1,07,1.46,165.1,M,-34.4,M,,*58
$GPRMC,173554.000,A,4308.3112,N,07726.2605,W,0.01,162.90,160923,,,A*74
$GPGGA,173554.250,4308.3112,N,07726.2605,W,1,07,1.46,165.1,M,-34.4,M,,*5A
$GPRMC,173554.500,A,4308.3112,N,07726.2605,W,0.00,208.70,160923,,,A*71
$GPGGA,173554.750,4308.3112,N,07726.2605,W,1,07,1.46,165.1,M,-34.4,M,,*5F
$GPRMC,173555.000,A,4308.3112,N,07726.2605,W,0.00,123.74,160923,,,A*7B
$GPGGA,173555.250,4308.3112,N,07726.2605,W,1,07,1.46,165.1,M,-34.4,M,,*5B
$GPRMC,173555.500,A,4308.3112,N,07726.2605,W,0.00,172.95,160923,,,A*75
$GPGGA,173555.750,4308.3112,N,07726.2605,W,1,07,1.46,165.1,M,-34.4,M,,*5E
$GPRMC,173556.000,A,4308.3112,N,07726.2605,W,0.00,261.06,160923,,,A*78
$GPGGA,173556.250,4308.3112,N,07726.2605,W,1,07,1.46,165.1,M,-34.4,M,,*58
$GPRMC,173556.500,A,4308.3112,N,07726.2605,W,0.00,303.98,160923,,,A*7F
$GPGGA,173556.750,4308.3112,N,07726.2605,W,1,07,1.46,165.1,M,-34.4,M,,*5D
$GPRMC,173557.000,A,4308.3112,N,07726.2605,W,0.00,288.20,160923,,,A*7A
$GPGGA,173557.250,4308.3112,N,07726.2605,W,1,07,1.46,165.1,M,-34.4,M,,*59
$GPRMC,173557.500,A,4308.3112,N,07726.2605,W,0.00,158.90,160923,,,A*7A
$GPGGA,173557.750,4308.3112,N,07726.2605,W,1,07,1.46,165.1,M,-34.4,M,,*5C
$GPRMC,173558.000,A,4308.3112,N,07726.2605,W,0.00,266.46,160923,,,A*75
$GPGGA,173558.250,4308.3112,N,07726.2605,W,1,07,1.46,165.1,M,-34.4,M,,*56
$GPRMC,173558.500,A,4308.3112,N,07726.2605,W,0.00,277.94,160923,,,A*7F
$GPGGA,173558.750,4308.3112,N,07726.2605,W,1,07,1.46,165.1,M,-34.4,M,,*53
$GPRMC,173559.000,A,4308.3112,N,07726.2605,W,0.00,281.57,160923,,,A*7D
$GPGGA,173559.250,4308.3112,N,07726.2605,W,1,07,1.46,165.1,M,-34.4,M,,*57
$GPRMC,173559.500,A,4308.3112,N,07726.2605,W,0.00,224.00,160923,,,A*75
$GPGGA,173559.750,4308.3112,N,07726.2605,W,1,07,1.46,165.1,M,-34.4,M,,*52
$GPRMC,173600.000,A,4308.3112,N,07726.2605,W,0.00,126.32,160923,,,A*7F
$GPGGA,173600.250,4308.3112,N,07726.2605,W,1,07,1.46,165.1,M,-34.4,M,,*58
$GPRMC,173600.500,A,4308.3112,N,07726.2605,W,0.00,287.18,160923,,,A*7A
$GPGGA,173600.750,4308.3112,N,07726.2605,W,1,07,1.46,165.1,M,-34.4,M,,*5D
$GPRMC,173601.000,A,4308.3112,N,07726.2605,W,0.00,346.51,160923,,,A*7F
$GPGGA,173601.250,4308.3112,N,07726.2605,W,1,07,1.46,165.1,M,-34.4,M,,*59
$GPRMC,173601.500,A,4308.3112,N,07726.2605,W,0.00,0.00,160923,,,A*7F
$GPGGA,173601.750,4308.3112,N,07726.2605,W,1,07,1.46,165.1,M,-34.4,M,,*5C
$GPRMC,173602.000,A,4308.3112,N,07726.2605,W,0.00,217.81,160923,,,A*74
$GPGGA,173602.250,4308.3112,N,07726.2605,W,1,07,1.46,165.1,M,-34.4,M,,*5A
$GPRMC,173602.500,A,4308.3112,N,07726.2605,W,0.01,211.89,160923,,,A*7E
$GPGGA,173602.750,4308.3112,N,07726.2605,W,1,07,1.46,165.1,M,-34.4,M,,*5F
$GPRMC,173603.000,A,4308.3112,N,07726.2605,W,0.01,187.06,160923,,,A*71
$GPGGA,173603.250,4308.3112,N,07726.2605,W,1,07,1.46,165.1,M,-34.4,M,,*5B
$GPRMC,173603.500,A,4308.3112,N,07726.2605,W,0.01,232.13,160923,,,A*7D
$GPGGA,173603.750,4308.3112,N,07726.2605,W,1,07,1.46,165.1,M,-34.4,M,,*5E
$GPRMC,173604.000,A,4308.3112,N,07726.2606,W,0.00,0.00,160923,,,A*7C
$GPGGA,173604.250,4308.3112,N,07726.2606,W,1,07,1.46,165.1,M,-34.4,M,,*5F
$GPRMC,173604.500,A,4308.3112,N,07726.2606,W,0.01,258.38,160923,,,A*7C
$GPGGA,173604.750,4308.3112,N,07726.2606,W,1,07,1.46,165.1,M,-34.4,M,,*5A
$GPRMC,173605.000,A,4308.3112,N,07726.2606,W,0.01,245.47,160923,,,A*7C
$GPGGA,173605.250,4308.3112,N,07726.2606,W,1,07,1.46,165.1,M,-34.4,M,,*5E
$GPRMC,173605.500,A,4308.3112,N,07726.2606,W,0.01,259.71,160923,,,A*71
$GPGGA,173605.750,4308.3112,N,07726.2606,W,1,07,1.46,165.1,M,-34.4,M,,*5B
$GPRMC,173606.000,A,4308.3112,N,07726.2606,W,0.00,171.04,160923,,,A*7D
$GPGGA,173606.250,4308.3112,N,07726.2606,W,1,07,1.46,165.1,M,-34.4,M,,*5D
$GPRMC,173606.500,A,4308.3112,N,07726.2606,W,0.00,212.17,160923,,,A*7C
$GPGGA,173606.750,4308.3112,N,07726.2606,W,1,07,1.46,165.1,M,-34.4,M,,*58
$GPRMC,173607.000,A,4308.3112,N,07726.2606,W,0.00,324.83,160923,,,A*71
$GPGGA,173607.250,4308.3112,N,07726.2606,W,1,07,1.46,165.1,M,-34.4,M,,*5C
$GPRMC,173607.500,A,4308.3112,N,07726.2606,W,0.00,310.76,160923,,,A*79
$GPGGA,173607.750,4308.3112,N,07726.2606,W,1,07,1.46,165.1,M,-34.4,M,,*59
$GPRMC,173608.000,A,4308.3112,N,07726.2606,W,0.00,258.44,160923,,,A*7F
$GPGGA,173606.250,4308.3112,N,07726.2606,W,1,07,1.46,165.2,M,-34.4,M,,*5E
$GPRMC,173606.500,A,4308.3112,N,07726.2607,W,0.01,251.61,160923,,,A*7A
$GPGGA,173606.750,4308.3112,N,07726.2607,W,1,07,1.46,165.3,M,-34.4,M,,*5B
$GPRMC,173607.000,A,4308.3112,N,07726.2607,W,0.03,234.11,160923,,,A*78
$GPGGA,173607.250,4308.3112,N,07726.2608,W,1,07,1.46,165.5,M,-34.4,M,,*56
$GPRMC,173607.500,A,4308.3112,N,07726.2608,W,0.03,226.20,160923,,,A*73
$GPGGA,173607.750,4308.3112,N,07726.2608,W,1,07,1.46,165.6,M,-34.4,M,,*50
$GPRMC,173608.000,A,4308.3112,N,07726.2609,W,0.03,222.82,160923,,,A*74
$GPGGA,173608.250,4308.3112,N,07726.2609,W,1,07,1.46,165.8,M,-34.4,M,,*55
$GPRMC,173608.500,A,4308.3112,N,07726.2609,W,0.04,237.09,160923,,,A*71
$GPGGA,173608.750,4308.3112,N,07726.2610,W,1,07,1.46,165.9,M,-34.4,M,,*59
$GPRMC,173609.000,A,4308.3112,N,07726.2610,W,0.04,230.72,160923,,,A*76
$GPGGA,173609.250,4308.3112,N,07726.2610,W,1,07,1.46,166.1,M,-34.4,M,,*56
$GPRMC,173609.500,A,4308.3112,N,07726.2610,W,0.04,209.31,160923,,,A*7E
$GPGGA,173609.750,4308.3112,N,07726.2610,W,1,07,1.46,166.2,M,-34.4,M,,*50
$GPRMC,173610.000,A,4308.3113,N,07726.2610,W,0.04,219.06,160923,,,A*77
$GPGGA,173610.250,4308.3113,N,07726.2611,W,1,07,1.46,166.3,M,-34.4,M,,*5C
$GPRMC,173610.500,A,4308.3113,N,07726.2611,W,0.04,225.04,160923,,,A*7E
$GPGGA,173610.750,4308.3113,N,07726.2611,W,1,07,1.46,166.4,M,-34.4,M,,*5E
$GPRMC,173611.000,A,4308.3114,N,07726.2611,W,0.04,210.18,160923,,,A*76
$GPGGA,173611.250,4308.3114,N,07726.2611,W,1,07,1.46,166.5,M,-34.4,M,,*5C
$GPRMC,173611.500,A,4308.3114,N,07726.2611,W,0.04,218.19,160923,,,A*7A
$GPGGA,173611.750,4308.3114,N,07726.2612,W,1,07,1.46,166.6,M,-34.4,M,,*59
$GPRMC,173612.000,A,4308.3115,N,07726.2612,W,0.04,219.48,160923,,,A*7B
$GPGGA,173612.250,4308.3115,N,07726.2612,W,1,07,1.46,166.7,M,-34.4,M,,*5F
$GPRMC,173612.500,A,4308.3115,N,07726.2612,W,0.04,202.10,160923,,,A*79
$GPGGA,173612.750,4308.3115,N,07726.2612,W,1,07,1.46,166.7,M,-34.4,M,,*5A
$GPRMC,173613.000,A,4308.3115,N,07726.2612,W,0.04,205.16,160923,,,A*7C
$GPGGA,173613.250,4308.3115,N,07726.2613,W,1,07,1.46,166.8,M,-34.4,M,,*50
$GPRMC,173613.500,A,4308.3115,N,07726.2613,W,0.05,201.92,160923,,,A*71
$GPGGA,173613.750,4308.3115,N,07726.2613,W,1,07,1.46,166.9,M,-34.4,M,,*54
$GPRMC,173614.000,A,4308.3116,N,07726.2614,W,0.05,205.41,160923,,,A*7D
$GPGGA,173614.250,4308.3116,N,07726.2614,W,1,07,1.46,166.9,M,-34.4,M,,*52
$GPRMC,173614.500,A,4308.3116,N,07726.2614,W,0.05,207.12,160923,,,A*7C
$GPGGA,173614.750,4308.3116,N,07726.2615,W,1,07,1.46,167.0,M,-34.4,M,,*5E
$GPRMC,173615.000,A,4308.3116,N,07726.2615,W,0.06,218.52,160923,,,A*70
$GPGGA,173615.250,4308.3116,N,07726.2615,W,1,07,1.46,167.0,M,-34.4,M,,*5A
$GPRMC,173615.500,A,4308.3117,N,07726.2615,W,0.06,220.92,160923,,,A*73
$GPGGA,173615.750,4308.3117,N,07726.2616,W,1,07,1.46,167.1,M,-34.4,M,,*5C
$GPRMC,173616.000,A,4308.3117,N,07726.2616,W,0.06,223.46,160923,,,A*7C
$GPGGA,173616.250,4308.3117,N,07726.2616,W,1,07,1.46,167.1,M,-34.4,M,,*5A
$GPRMC,173616.500,A,4308.3117,N,07726.2616,W,0.06,216.97,160923,,,A*73
$GPGGA,173616.750,4308.3117,N,07726.2617,W,1,07,1.46,167.1,M,-34.4,M,,*5E
$GPRMC,173617.000,A,4308.3117,N,07726.2617,W,0.05,217.06,160923,,,A*7C
$GPGGA,173617.250,4308.3117,N,07726.2617,W,1,07,1.46,167.2,M,-34.4,M,,*59
$GPRMC,173617.500,A,4308.3117,N,07726.2618,W,0.06,226.09,160923,,,A*78
$GPGGA,173617.750,4308.3117,N,07726.2618,W,1,07,1.46,167.1,M,-34.4,M,,*50
$GPRMC,173618.000,A,4308.3117,N,07726.2619,W,0.07,229.58,160923,,,A*79
$GPGGA,173618.250,4308.3117,N,07726.2619,W,1,07,1.46,167.2,M,-34.4,M,,*58
$GPRMC,173618.500,A,4308.3117,N,07726.2619,W,0.07,228.43,160923,,,A*77
$GPGGA,173618.750,4308.3117,N,07726.2620,W,1,07,1.46,167.1,M,-34.4,M,,*54
$GPRMC,173619.000,A,4308.3117,N,07726.2620,W,0.08,229.77,160923,,,A*70
$GPGGA,173619.250,4308.3117,N,07726.2621,W,1,07,1.46,167.0,M,-34.4,M,,*50
$GPRMC,173619.500,A,4308.3117,N,07726.2621,W,0.00,28.27,160923,,,A*4A
$GPGGA,173619.750,4308.3117,N,07726.2621,W,1,07,1.46,167.0,M,-34.4,M,,*55
$GPRMC,173620.000,A,4308.3117,N,07726.2621,W,0.00,292.59,160923,,,A*7F
$GPGGA,173620.250,4308.3117,N,07726.2621,W,1,07,1.46,167.0,M,-34.4,M,,*5A
$GPRMC,173620.500,A,4308.3117,N,07726.2621,W,0.00,276.50,160923,,,A*79
$GPGGA,173620.750,4308.3117,N,07726.2621,W,1,07,1.46,167.0,M,-34.4,M,,*5F
$GPRMC,173621.000,A,4308.3117,N,07726.2621,W,0.01,332.53,160923,,,A*7E
$GPGGA,173621.250,4308.3117,N,07726.2621,W,1,07,1.46,167.0,M,-34.4,M,,*5B
$GPRMC,173621.500,A,4308.3117,N,07726.2621,W,0.01,282.57,160923,,,A*75
$GPGGA,173621.750,4308.3117,N,07726.2621,W,1,07,1.46,167.0,M,-34.4,M,,*5E
$GPRMC,173622.000,A,4308.3117,N,07726.2621,W,0.00,240.50,160923,,,A*7B
$GPGGA,173622.250,4308.3117,N,07726.2621,W,1,07,1.46,167.0,M,-34.4,M,,*58
$GPRMC,173622.500,A,4308.3117,N,07726.2621,W,0.00,96.63,160923,,,A*47
$GPGGA,173622.750,4308.3117,N,07726.2621,W,1,07,1.46,167.0,M,-34.4,M,,*5D
$GPRMC,173623.000,A,4308.3118,N,07726.2621,W,0.00,293.63,160923,,,A*7B
$GPGGA,173623.250,4308.3118,N,07726.2621,W,1,07,1.46,167.0,M,-34.4,M,,*56
$GPRMC,173623.500,A,4308.3118,N,07726.2621,W,0.01,78.28,160923,,,A*47
$GPGGA,173623.750,4308.3118,N,07726.2621,W,1,07,1.46,167.0,M,-34.4,M,,*53
$GPRMC,173624.000,A,4308.3118,N,07726.2621,W,0.00,0.00,160923,,,A*71
$GPGGA,173624.250,4308.3118,N,07726.2621,W,1,07,1.46,167.0,M,-34.4,M,,*51
$GPRMC,173624.500,A,4308.3118,N,07726.2621,W,0.00,324.75,160923,,,A*73
$GPGGA,173624.750,4308.3118,N,07726.2621,W,1,07,1.46,167.0,M,-34.4,M,,*54
$GPRMC,173625.000,A,4308.3118,N,07726.2621,W,0.00,285.40,160923,,,A*7B
$GPGGA,173625.250,4308.3118,N,07726.2621,W,1,07,1.46,167.0,M,-34.4,M,,*50
$GPRMC,173625.500,A,4308.3118,N,07726.2621,W,0.01,183.71,160923,,,A*78
$GPGGA,173625.750,4308.3118,N,07726.2621,W,1,07,1.46,167.0,M,-34.4,M,,*55
$GPRMC,173626.000,A,4308.3118,N,07726.2621,W,0.00,62.24,160923,,,A*41
$GPGGA,173626.250,4308.3118,N,07726.2621,W,1,07,1.46,167.0,M,-34.4,M,,*53
$GPRMC,173626.500,A,4308.3118,N,07726.2621,W,0.00,109.18,160923,,,A*77
$GPGGA,173626.750,4308.3118,N,07726.2621,W,1,07,1.46,167.0,M,-34.4,M,,*56
$GPRMC,173627.000,A,4308.3118,N,07726.2621,W,0.01,295.63,160923,,,A*78
$GPGGA,173627.250,4308.3118,N,07726.2621,W,1,07,1.46,167.0,M,-34.4,M,,*52
$GPRMC,173627.500,A,4308.3118,N,07726.2621,W,0.01,356.40,160923,,,A*72
$GPGGA,173627.750,4308.3118,N,07726.2621,W,1,07,1.46,167.0,M,-34.4,M,,*57
$GPRMC,173628.000,A,4308.3118,N,07726.2621,W,0.00,113.73,160923,,,A*7A
$GPGGA,173628.250,4308.3118,N,07726.2621,W,1,07,1.46,167.0,M,-34.4,M,,*5D
$GPRMC,173628.500,A,4308.3118,N,07726.2621,W,0.02,281.04,160923,,,A*75
$GPGGA,173628.750,4308.3118,N,07726.2621,W,1,07,1.46,167.0,M,-34.4,M,,*58
$GPRMC,173629.000,A,4308.3118,N,07726.2621,W,0.02,210.70,160923,,,A*7A
$GPGGA,173629.250,4308.3118,N,07726.2621,W,1,07,1.46,167.0,M,-34.4,M,,*5C
$GPRMC,173629.500,A,4308.3117,N,07726.2621,W,0.01,208.58,160923,,,A*70
$GPGGA,173629.750,4308.3117,N,07726.2621,W,1,07,1.46,167.0,M,-34.4,M,,*56
$GPRMC,173630.000,A,4308.3117,N,07726.2621,W,0.01,176.29,160923,,,A*71
$GPGGA,173630.250,4308.3117,N,07726.2621,W,1,07,1.46,167.0,M,-34.4,M,,*5B
$GPRMC,173630.500,A,4308.3117,N,07726.2621,W,0.02,192.73,160923,,,A*72
$GPGGA,173630.750,4308.3117,N,07726.2621,W,1,07,1.46,167.0,M,-34.4,M,,*5E
$GPRMC,173631.000,A,4308.3117,N,07726.2621,W,0.02,183.07,160923,,,A*75
$GPGGA,173631.250,4308.3117,N,07726.2621,W,1,07,1.46,167.0,M,-34.4,M,,*5A
$GPRMC,173631.500,A,4308.3117,N,07726.2621,W,0.01,177.66,160923,,,A*7F
$GPGGA,173631.750,4308.3117,N,07726.2621,W,1,07,1.46,167.0,M,-34.4,M,,*5F
$GPRMC,173632.000,A,4308.3117,N,07726.2621,W,0.01,180.05,160923,,,A*74
$GPGGA,173632.250,4308.3117,N,07726.2621,W,1,07,1.46,167.0,M,-34.4,M,,*59
$GPRMC,173632.500,A,4308.3117,N,07726.2621,W,0.01,262.32,160923,,,A*7A
$GPGGA,173632.750,4308.3117,N,07726.2621,W,1,07,1.46,167.0,M,-34.4,M,,*5C
$GPRMC,173633.000,A,4308.3117,N,07726.2621,W,0.01,178.29,160923,,,A*7C
$GPGGA,173633.250,4308.3117,N,07726.2621,W,1,07,1.46,167.0,M,-34.4,M,,*58
$GPRMC,173633.500,A,4308.3117,N,07726.2621,W,0.01,186.05,160923,,,A*76
$GPGGA,173633.750,4308.3117,N,07726.2621,W,1,07,1.46,167.0,M,-34.4,M,,*5D
$GPRMC,173634.000,A,4308.3117,N,07726.2621,W,0.01,146.64,160923,,,A*7F
$GPGGA,173634.250,4308.3117,N,07726.2621,W,1,07,1.46,167.0,M,-34.4,M,,*5F
$GPRMC,173634.500,A,4308.3117,N,07726.2621,W,0.01,173.54,160923,,,A*7F
$GPGGA,173634.750,4308.3117,N,07726.2621,W,1,07,1.46,167.0,M,-34.4,M,,*5A
$GPRMC,173635.000,A,4308.3117,N,07726.2621,W,0.01,186.89,160923,,,A*71
$GPGGA,173635.250,4308.3117,N,07726.2621,W,1,07,1.46,167.0,M,-34.4,M,,*5E
$GPRMC,173635.500,A,4308.3117,N,07726.2621,W,0.01,261.13,160923,,,A*7D
$GPGGA,173635.750,4308.3117,N,07726.2621,W,1,07,1.46,167.0,M,-34.4,M,,*5B
$GPRMC,173636.000,A,4308.3117,N,07726.2621,W,0.00,120.28,160923,,,A*74
$GPGGA,173636.250,4308.3117,N,07726.2621,W,1,07,1.46,167.0,M,-34.4,M,,*5D
$GPRMC,173636.500,A,4308.3117,N,07726.2621,W,0.01,127.24,160923,,,A*7B
$GPGGA,173636.750,4308.3117,N,07726.2621,W,1,07,1.46,167.0,M,-34.4,M,,*58
$GPRMC,173637.000,A,4308.3117,N,07726.2621,W,0.00,194.45,160923,,,A*71
$GPGGA,173637.250,4308.3117,N,07726.2621,W,1,07,1.46,167.0,M,-34.4,M,,*5C
$GPRMC,173637.500,A,4308.3117,N,07726.2621,W,0.02,302.33,160923,,,A*7A
$GPGGA,173637.750,4308.3117,N,07726.2621,W,1,07,1.46,167.0,M,-34.4,M,,*59
$GPRMC,173638.000,A,4308.3117,N,07726.2621,W,0.01,187.04,160923,,,A*78
$GPGGA,173638.250,4308.3117,N,07726.2621,W,1,07,1.46,167.0,M,-34.4,M,,*53
$GPRMC,173638.500,A,4308.3117,N,07726.2621,W,0.00,124.99,160923,,,A*71
$GPGGA,173638.750,4308.3117,N,07726.2621,W,1,07,1.46,167.0,M,-34.4,M,,*56
$GPRMC,173639.000,A,4308.3117,N,07726.2621,W,0.02,217.75,160923,,,A*76
$GPGGA,173639.250,4308.3117,N,07726.2621,W,1,07,1.46,167.0,M,-34.4,M,,*52
$GPRMC,173639.500,A,4308.3117,N,07726.2621,W,0.00,305.11,160923,,,A*71
$GPGGA,173639.750,4308.3117,N,07726.2621,W,1,07,1.46,167.0,M,-34.4,M,,*57
$GPRMC,173640.000,A,4308.3117,N,07726.2621,W,0.00,228.36,160923,,,A*71
$GPGGA,173640.250,4308.3117,N,07726.2621,W,1,07,1.46,167.0,M,-34.4,M,,*5C
$GPRMC,173640.500,A,4308.3117,N,07726.2621,W,0.01,205.04,160923,,,A*7B
$GPGGA,173640.750,4308.3117,N,07726.2621,W,1,07,1.46,167.0,M,-34.4,M,,*59
$GPRMC,173641.000,A,4308.3117,N,07726.2621,W,0.01,338.32,160923,,,A*75
$GPGGA,173641.250,4308.3117,N,07726.2621,W,1,07,1.46,167.0,M,-34.4,M,,*5D
$GPRMC,173641.500,A,4308.3117,N,07726.2621,W,0.00,231.15,160923,,,A*7C
$GPGGA,173641.750,4308.3117,N,07726.2621,W,1,07,1.46,167.0,M,-34.4,M,,*58
$GPRMC,173642.000,A,4308.3117,N,07726.2621,W,0.01,268.37,160923,,,A*77
$GPGGA,173642.250,4308.3117,N,07726.2621,W,1,07,1.46,167.0,M,-34.4,M,,*5E
$GPRMC,173642.500,A,4308.3117,N,07726.2621,W,0.00,93.53,160923,,,A*47
$GPGGA,173642.750,4308.3117,N,07726.2621,W,1,07,1.46,167.0,M,-34.4,M,,*5B
$GPRMC,173643.000,A,4308.3117,N,07726.2621,W,0.00,27.10,160923,,,A*4B
$GPGGA,173643.250,4308.3117,N,07726.2621,W,1,07,1.46,167.0,M,-34.4,M,,*5F
$GPRMC,173643.500,A,4308.3117,N,07726.2621,W,0.01,107.31,160923,,,A*7F
$GPGGA,173643.750,4308.3117,N,07726.2621,W,1,07,1.46,167.0,M,-34.4,M,,*5A
$GPRMC,173644.000,A,4308.3117,N,07726.2621,W,0.00,81.66,160923,,,A*41
$GPGGA,173644.250,4308.3117,N,07726.2621,W,1,07,1.46,167.0,M,-34.4,M,,*58
$GPRMC,173644.500,A,4308.3117,N,07726.2621,W,0.00,26.73,160923,,,A*4D
$GPGGA,173644.750,4308.3117,N,07726.2621,W,1,07,1.46,167.0,M,-34.4,M,,*5D
$GPRMC,173645.000,A,4308.3117,N,07726.2621,W,0.00,50.81,160923,,,A*45
$GPGGA,173645.250,4308.3117,N,07726.2621,W,1,07,1.46,167.0,M,-34.4,M,,*59
$GPRMC,173645.500,A,4308.3117,N,07726.2621,W,0.01,16.11,160923,,,A*4A
$GPGGA,173645.750,4308.3117,N,07726.2621,W,1,07,1.46,167.0,M,-34.4,M,,*5C
$GPRMC,173646.000,A,4308.3117,N,07726.2621,W,0.00,134.29,160923,,,A*77
$GPGGA,173646.250,4308.3117,N,07726.2621,W,1,07,1.46,167.0,M,-34.4,M,,*5A
$GPRMC,173646.500,A,4308.3117,N,07726.2621,W,0.01,139.70,160923,,,A*72
$GPGGA,173646.750,4308.3116,N,07726.2621,W,1,07,1.46,167.0,M,-34.4,M,,*5E
$GPRMC,173647.000,A,4308.3116,N,07726.2621,W,0.01,181.39,160923,,,A*79
$GPGGA,173647.250,4308.3116,N,07726.2621,W,1,07,1.46,166.9,M,-34.4,M,,*52
$GPRMC,173647.500,A,4308.3116,N,07726.2621,W,0.01,307.75,160923,,,A*78
$GPGGA,173647.750,4308.3116,N,07726.2621,W,1,07,1.46,166.9,M,-34.4,M,,*57
$GPRMC,173648.000,A,4308.3116,N,07726.2621,W,0.05,352.75,160923,,,A*76
$GPGGA,173648.250,4308.3116,N,07726.2621,W,1,07,1.46,166.9,M,-34.4,M,,*5D
$GPRMC,173648.500,A,4308.3116,N,07726.2621,W,0.01,278.34,160923,,,A*7B
$GPGGA,173648.750,4308.3116,N,07726.2621,W,1,07,1.45,166.9,M,-34.4,M,,*5B
$GPRMC,173649.000,A,4308.3116,N,07726.2621,W,0.01,318.23,160923,,,A*7E
$GPGGA,173649.250,4308.3116,N,07726.2621,W,1,07,1.28,166.9,M,-34.4,M,,*54
$GPRMC,173649.500,A,4308.3116,N,07726.2621,W,0.12,295.45,160923,,,A*7D
$GPGGA,173649.750,4308.3116,N,07726.2621,W,1,07,1.45,166.9,M,-34.4,M,,*5A
$GPRMC,173650.000,A,4308.3116,N,07726.2621,W,0.32,288.70,160923,,,A*78
$GPGGA,173650.250,4308.3117,N,07726.2622,W,1,07,1.28,166.9,M,-34.4,M,,*5E
$GPRMC,173650.500,A,4308.3117,N,07726.2622,W,0.53,322.21,160923,,,A*7D
$GPGGA,173650.750,4308.3117,N,07726.2622,W,1,07,1.28,166.9,M,-34.4,M,,*5B
$GPRMC,173651.000,A,4308.3118,N,07726.2622,W,0.84,338.48,160923,,,A*78
$GPGGA,173651.250,4308.3119,N,07726.2622,W,1,07,1.28,166.9,M,-34.4,M,,*51
$GPRMC,173651.500,A,4308.3120,N,07726.2622,W,1.08,331.65,160923,,,A*75
$GPGGA,173651.750,4308.3121,N,07726.2622,W,1,07,1.28,166.8,M,-34.4,M,,*5E
$GPRMC,173652.000,A,4308.3123,N,07726.2622,W,2.02,354.97,160923,,,A*77
$GPGGA,173652.250,4308.3125,N,07726.2622,W,1,07,1.45,166.9,M,-34.4,M,,*56
$GPRMC,173652.500,A,4308.3128,N,07726.2622,W,3.51,357.79,160923,,,A*7D
$GPGGA,173652.750,4308.3130,N,07726.2622,W,1,07,1.46,166.9,M,-34.4,M,,*54
$GPRMC,173653.000,A,4308.3133,N,07726.2622,W,4.04,356.72,160923,,,A*7E
$GPGGA,173653.250,4308.3136,N,07726.2622,W,1,07,1.45,166.9,M,-34.4,M,,*55
$GPRMC,173653.500,A,4308.3139,N,07726.2622,W,4.64,1.50,160923,,,A*76
$GPGGA,173653.750,4308.3143,N,07726.2622,W,1,07,1.45,166.9,M,-34.4,M,,*52
$GPRMC,173654.000,A,4308.3146,N,07726.2622,W,4.95,358.04,160923,,,A*7C
$GPGGA,173654.250,4308.3150,N,07726.2622,W,1,07,1.45,166.9,M,-34.4,M,,*52
$GPRMC,173654.500,A,4308.3152,N,07726.2622,W,4.50,1.77,160923,,,A*7E
$GPGGA,173654.750,4308.3155,N,07726.2622,W,1,07,1.45,166.9,M,-34.4,M,,*52
$GPRMC,173655.000,A,4308.3157,N,07726.2622,W,3.72,9.30,160923,,,A*73
$GPGGA,173655.250,4308.3159,N,07726.2621,W,1,07,1.46,166.8,M,-34.4,M,,*5B
$GPRMC,173655.500,A,4308.3161,N,07726.2621,W,3.13,7.79,160923,,,A*74
$GPGGA,173655.750,4308.3163,N,07726.2620,W,1,07,1.45,166.8,M,-34.4,M,,*55
$GPRMC,173656.000,A,4308.3165,N,07726.2619,W,2.63,11.13,160923,,,A*40
$GPGGA,173656.250,4308.3167,N,07726.2617,W,1,07,1.45,166.7,M,-34.4,M,,*5C
$GPRMC,173656.500,A,4308.3170,N,07726.2615,W,3.06,18.24,160923,,,A*42
$GPGGA,173656.750,4308.3171,N,07726.2614,W,1,07,1.28,166.7,M,-34.4,M,,*56
$GPRMC,173657.000,A,4308.3173,N,07726.2612,W,3.02,25.42,160923,,,A*48
$GPGGA,173657.250,4308.3175,N,07726.2610,W,1,07,1.28,166.6,M,-34.4,M,,*53
$GPRMC,173657.500,A,4308.3177,N,07726.2608,W,3.31,33.11,160923,,,A*43
$GPGGA,173657.750,4308.3178,N,07726.2607,W,1,07,1.28,166.6,M,-34.4,M,,*5D
$GPRMC,173658.000,A,4308.3180,N,07726.2605,W,3.47,31.60,160923,,,A*49
$GPGGA,173658.250,4308.3182,N,07726.2603,W,1,07,1.28,166.5,M,-34.4,M,,*55
$GPRMC,173658.500,A,4308.3184,N,07726.2602,W,3.67,41.01,160923,,,A*4D
$GPGGA,173658.750,4308.3185,N,07726.2599,W,1,07,1.28,166.4,M,-34.4,M,,*56
$GPRMC,173659.000,A,4308.3186,N,07726.2597,W,3.49,47.71,160923,,,A*49
$GPGGA,173659.250,4308.3187,N,07726.2594,W,1,07,1.28,166.3,M,-34.4,M,,*5A
$GPRMC,173659.500,A,4308.3188,N,07726.2591,W,3.42,59.91,160923,,,A*4E
$GPGGA,173659.750,4308.3189,N,07726.2588,W,1,07,1.28,166.3,M,-34.4,M,,*5C
$GPRMC,173700.000,A,4308.3190,N,07726.2585,W,2.69,64.52,160923,,,A*43
$GPGGA,173700.250,4308.3190,N,07726.2583,W,1,07,1.28,166.3,M,-34.4,M,,*57
$GPRMC,173700.500,A,4308.3190,N,07726.2582,W,1.43,62.29,160923,,,A*40
$GPGGA,173700.750,4308.3191,N,07726.2581,W,1,07,1.28,166.2,M,-34.4,M,,*50
$GPRMC,173701.000,A,4308.3191,N,07726.2580,W,1.03,67.69,160923,,,A*42
$GPGGA,173701.250,4308.3190,N,07726.2580,W,1,07,1.28,166.1,M,-34.4,M,,*57
$GPRMC,173701.500,A,4308.3190,N,07726.2580,W,0.45,83.91,160923,,,A*48
$GPGGA,173701.750,4308.3189,N,07726.2580,W,1,07,1.28,166.0,M,-34.4,M,,*5B
$GPRMC,173702.000,A,4308.3189,N,07726.2581,W,0.22,182.23,160923,,,A*7F
$GPGGA,173702.250,4308.3188,N,07726.2583,W,1,07,1.28,166.0,M,-34.4,M,,*5F
$GPRMC,173702.500,A,4308.3188,N,07726.2587,W,1.08,243.82,160923,,,A*71
$GPGGA,173702.750,4308.3187,N,07726.2590,W,1,07,1.28,165.9,M,-34.4,M,,*5D
$GPRMC,173703.000,A,4308.3187,N,07726.2592,W,1.52,248.54,160923,,,A*71
$GPGGA,173703.250,4308.3186,N,07726.2593,W,1,07,1.28,165.8,M,-34.4,M,,*5A
$GPRMC,173703.500,A,4308.3185,N,07726.2596,W,2.71,247.81,160923,,,A*77
$GPGGA,173703.750,4308.3184,N,07726.2602,W,1,07,1.28,165.7,M,-34.4,M,,*59
$GPRMC,173704.000,A,4308.3184,N,07726.2609,W,5.35,261.57,160923,,,A*79
$GPGGA,173704.250,4308.3184,N,07726.2615,W,1,07,1.45,165.6,M,-34.4,M,,*57
$GPRMC,173704.500,A,4308.3185,N,07726.2622,W,6.72,274.18,160923,,,A*7B
$GPGGA,173704.750,4308.3187,N,07726.2630,W,1,07,1.45,165.5,M,-34.4,M,,*55
$GPRMC,173705.000,A,4308.3187,N,07726.2637,W,7.77,277.92,160923,,,A*7C
$GPGGA,173705.250,4308.3188,N,07726.2645,W,1,07,1.45,165.5,M,-34.4,M,,*5C
$GPRMC,173705.500,A,4308.3189,N,07726.2654,W,8.65,282.50,160923,,,A*7A
$GPGGA,173705.750,4308.3190,N,07726.2663,W,1,07,1.45,165.4,M,-34.4,M,,*55
$GPRMC,173706.000,A,4308.3192,N,07726.2671,W,9.15,284.26,160923,,,A*70
$GPGGA,173706.250,4308.3194,N,07726.2680,W,1,07,1.45,165.3,M,-34.4,M,,*5D
$GPRMC,173706.500,A,4308.3195,N,07726.2691,W,10.05,285.13,160923,,,A*42
$GPGGA,173706.750,4308.3198,N,07726.2701,W,1,07,1.45,165.2,M,-34.4,M,,*5D
$GPRMC,173707.000,A,4308.3201,N,07726.2717,W,11.30,287.31,160923,,,A*42
$GPGGA,173707.250,4308.3204,N,07726.2731,W,1,07,1.45,165.1,M,-34.4,M,,*5F
$GPRMC,173707.500,A,4308.3207,N,07726.2745,W,12.39,289.89,160923,,,A*41
$GPGGA,173707.750,4308.3210,N,07726.2759,W,1,07,1.45,165.1,M,-34.4,M,,*51
$GPRMC,173708.000,A,4308.3213,N,07726.2773,W,13.42,290.85,160923,,,A*42
$GPGGA,173708.250,4308.3217,N,07726.2788,W,1,07,1.45,165.1,M,-34.4,M,,*50
$GPRMC,173708.500,A,4308.3220,N,07726.2803,W,14.03,290.31,160923,,,A*42
$GPGGA,173708.750,4308.3223,N,07726.2817,W,1,07,1.45,165.1,M,-34.4,M,,*5B
$GPRMC,173709.000,A,4308.3226,N,07726.2832,W,14.63,290.17,160923,,,A*40
$GPGGA,173709.250,4308.3229,N,07726.2846,W,1,07,1.45,165.0,M,-34.4,M,,*50
$GPRMC,173709.500,A,4308.3233,N,07726.2860,W,15.11,291.73,160923,,,A*41
$GPGGA,173709.750,4308.3236,N,07726.2873,W,1,07,1.45,165.1,M,-34.4,M,,*5C
$GPRMC,173710.000,A,4308.3240,N,07726.2886,W,15.18,293.76,160923,,,A*4E
$GPGGA,173710.250,4308.3245,N,07726.2899,W,1,07,1.28,165.1,M,-34.4,M,,*5A
$GPRMC,173710.500,A,4308.3250,N,07726.2912,W,15.23,297.13,160923,,,A*49
$GPGGA,173710.750,4308.3255,N,07726.2926,W,1,07,1.45,165.2,M,-34.4,M,,*53
$GPRMC,173711.000,A,4308.3260,N,07726.2941,W,15.77,297.86,160923,,,A*45
$GPGGA,173711.250,4308.3265,N,07726.2955,W,1,07,1.45,165.2,M,-34.4,M,,*50
$GPRMC,173711.500,A,4308.3271,N,07726.2969,W,16.26,298.08,160923,,,A*44
$GPGGA,173711.750,4308.3276,N,07726.2984,W,1,07,1.45,165.3,M,-34.4,M,,*5A
$GPRMC,173712.000,A,4308.3281,N,07726.2998,W,16.65,298.73,160923,,,A*48
$GPGGA,173712.250,4308.3287,N,07726.3012,W,1,07,1.45,165.3,M,-34.4,M,,*55
$GPRMC,173712.500,A,4308.3293,N,07726.3027,W,16.96,299.26,160923,,,A*4F
$GPGGA,173712.750,4308.3299,N,07726.3042,W,1,07,1.45,165.4,M,-34.4,M,,*5D
$GPRMC,173713.000,A,4308.3305,N,07726.3057,W,17.25,299.85,160923,,,A*42
$GPGGA,173713.250,4308.3311,N,07726.3072,W,1,07,1.45,165.5,M,-34.4,M,,*5A
$GPRMC,173713.500,A,4308.3317,N,07726.3087,W,17.77,299.66,160923,,,A*43
$GPGGA,173713.750,4308.3323,N,07726.3102,W,1,07,1.45,165.6,M,-34.4,M,,*5B
$GPRMC,173714.000,A,4308.3330,N,07726.3117,W,18.00,300.47,160923,,,A*41
$GPGGA,173714.250,4308.3337,N,07726.3132,W,1,07,1.45,165.7,M,-34.4,M,,*5E
$GPRMC,173714.500,A,4308.3344,N,07726.3148,W,18.24,301.58,160923,,,A*44
$GPGGA,173714.750,4308.3351,N,07726.3162,W,1,07,1.45,165.8,M,-34.4,M,,*51
$GPRMC,173715.000,A,4308.3358,N,07726.3177,W,18.55,301.87,160923,,,A*45
$GPGGA,173715.250,4308.3366,N,07726.3193,W,1,07,1.45,165.9,M,-34.4,M,,*5E
$GPRMC,173715.500,A,4308.3373,N,07726.3208,W,18.83,301.75,160923,,,A*44
$GPGGA,173715.750,4308.3380,N,07726.3223,W,1,07,1.45,166.0,M,-34.4,M,,*51
$GPRMC,173716.000,A,4308.3388,N,07726.3238,W,19.18,302.20,160923,,,A*45
$GPGGA,173716.250,4308.3395,N,07726.3254,W,1,07,1.45,166.1,M,-34.4,M,,*52
$GPRMC,173716.500,A,4308.3403,N,07726.3269,W,19.53,302.85,160923,,,A*40
$GPGGA,173716.750,4308.3410,N,07726.3285,W,1,07,1.45,166.1,M,-34.4,M,,*51
$GPRMC,173717.000,A,4308.3419,N,07726.3301,W,19.85,303.42,160923,,,A*41
$GPGGA,173717.250,4308.3426,N,07726.3316,W,1,07,1.28,166.2,M,-34.4,M,,*53
$GPRMC,173717.500,A,4308.3434,N,07726.3332,W,20.14,303.73,160923,,,A*4B
$GPGGA,173717.750,4308.3442,N,07726.3348,W,1,07,1.45,166.4,M,-34.4,M,,*52
$GPRMC,173718.000,A,4308.3449,N,07726.3364,W,20.32,303.98,160923,,,A*49
$GPGGA,173718.250,4308.3457,N,07726.3380,W,1,07,1.45,166.4,M,-34.4,M,,*58
$GPRMC,173718.500,A,4308.3465,N,07726.3396,W,20.62,304.33,160923,,,A*4C
$GPGGA,173718.750,4308.3473,N,07726.3412,W,1,07,1.45,166.5,M,-34.4,M,,*56
$GPRMC,173719.000,A,4308.3481,N,07726.3428,W,20.57,304.98,160923,,,A*47
$GPGGA,173719.250,4308.3489,N,07726.3444,W,1,07,1.45,166.5,M,-34.4,M,,*54
$GPRMC,173719.500,A,4308.3498,N,07726.3460,W,20.64,305.83,160923,,,A*4D
$GPGGA,173719.750,4308.3506,N,07726.3476,W,1,07,1.45,166.5,M,-34.4,M,,*56
$GPRMC,173720.000,A,4308.3515,N,07726.3491,W,20.95,307.90,160923,,,A*46
$GPGGA,173720.250,4308.3523,N,07726.3507,W,1,07,1.28,166.7,M,-34.4,M,,*50
$GPRMC,173720.500,A,4308.3532,N,07726.3523,W,20.93,308.36,160923,,,A*4B
$GPGGA,173720.750,4308.3541,N,07726.3538,W,1,07,1.45,166.8,M,-34.4,M,,*59
$GPRMC,173721.000,A,4308.3550,N,07726.3553,W,20.89,309.34,160923,,,A*44
$GPGGA,173721.250,4308.3559,N,07726.3569,W,1,07,1.45,166.9,M,-34.4,M,,*51
$GPRMC,173721.500,A,4308.3568,N,07726.3584,W,20.89,310.58,160923,,,A*42
$GPGGA,173721.750,4308.3577,N,07726.3598,W,1,07,1.45,166.9,M,-34.4,M,,*56
$GPRMC,173722.000,A,4308.3587,N,07726.3613,W,20.90,313.04,160923,,,A*4A
$GPGGA,173722.250,4308.3598,N,07726.3627,W,1,07,1.45,167.0,M,-34.4,M,,*5E
$GPRMC,173722.500,A,4308.3608,N,07726.3640,W,20.99,316.62,160923,,,A*41
$GPGGA,173722.750,4308.3619,N,07726.3653,W,1,07,1.45,167.1,M,-34.4,M,,*53
$GPRMC,173723.000,A,4308.3630,N,07726.3666,W,21.14,319.79,160923,,,A*4B
$GPGGA,173723.250,4308.3642,N,07726.3677,W,1,07,1.45,167.1,M,-34.4,M,,*5F
$GPRMC,173723.500,A,4308.3654,N,07726.3689,W,21.06,324.78,160923,,,A*41
$GPGGA,173723.750,4308.3667,N,07726.3699,W,1,07,1.45,167.1,M,-34.4,M,,*5D
$GPRMC,173724.000,A,4308.3680,N,07726.3710,W,21.30,329.06,160923,,,A*4A
$GPGGA,173724.250,4308.3693,N,07726.3720,W,1,07,1.45,167.1,M,-34.4,M,,*57
$GPRMC,173724.500,A,4308.3706,N,07726.3729,W,21.33,333.35,160923,,,A*42
$GPGGA,173724.750,4308.3721,N,07726.3737,W,1,07,1.45,167.1,M,-34.4,M,,*5C
$GPRMC,173725.000,A,4308.3735,N,07726.3745,W,21.71,337.04,160923,,,A*4C
$GPGGA,173725.250,4308.3750,N,07726.3752,W,1,07,1.45,167.2,M,-34.4,M,,*5E
$GPRMC,173725.500,A,4308.3764,N,07726.3760,W,21.73,339.27,160923,,,A*47
$GPGGA,173725.750,4308.3779,N,07726.3766,W,1,07,1.45,167.2,M,-34.4,M,,*57
$GPRMC,173726.000,A,4308.3794,N,07726.3772,W,21.53,341.46,160923,,,A*47
$GPGGA,173726.250,4308.3809,N,07726.3777,W,1,07,1.28,167.3,M,-34.4,M,,*53
$GPRMC,173726.500,A,4308.3825,N,07726.3781,W,21.62,346.68,160923,,,A*42
$GPGGA,173726.750,4308.3840,N,07726.3785,W,1,07,1.45,167.3,M,-34.4,M,,*5D
$GPRMC,173727.000,A,4308.3854,N,07726.3788,W,21.26,349.36,160923,,,A*4D
$GPGGA,173727.250,4308.3870,N,07726.3790,W,1,07,1.45,167.3,M,-34.4,M,,*5E
$GPRMC,173727.500,A,4308.3887,N,07726.3790,W,22.33,355.21,160923,,,A*43
$GPGGA,173727.750,4308.3904,N,07726.3791,W,1,07,1.45,167.3,M,-34.4,M,,*58
$GPRMC,173728.000,A,4308.3920,N,07726.3792,W,22.89,356.96,160923,,,A*49
$GPGGA,173728.250,4308.3937,N,07726.3792,W,1,07,1.45,167.4,M,-34.4,M,,*56
$GPRMC,173728.500,A,4308.3953,N,07726.3792,W,23.31,359.26,160923,,,A*4E
$GPGGA,173728.750,4308.3970,N,07726.3790,W,1,07,1.45,167.5,M,-34.4,M,,*53
$GPRMC,173729.000,A,4308.3986,N,07726.3789,W,23.65,2.03,160923,,,A*43
$GPGGA,173729.250,4308.4002,N,07726.3786,W,1,07,1.45,167.6,M,-34.4,M,,*58
$GPRMC,173729.500,A,4308.4019,N,07726.3783,W,23.74,4.61,160923,,,A*46
$GPGGA,173729.750,4308.4036,N,07726.3780,W,1,07,1.45,167.6,M,-34.4,M,,*5C
$GPRMC,173730.000,A,4308.4052,N,07726.3778,W,23.86,5.67,160923,,,A*4A
$GPGGA,173730.250,4308.4069,N,07726.3775,W,1,07,1.45,167.7,M,-34.4,M,,*50
$GPRMC,173730.500,A,4308.4085,N,07726.3772,W,24.00,6.52,160923,,,A*43
$GPGGA,173730.750,4308.4102,N,07726.3768,W,1,07,1.45,167.7,M,-34.4,M,,*55
$GPRMC,173731.000,A,4308.4119,N,07726.3765,W,24.28,7.59,160923,,,A*45
$GPGGA,173731.250,4308.4136,N,07726.3761,W,1,07,1.45,167.8,M,-34.4,M,,*50
$GPRMC,173731.500,A,4308.4153,N,07726.3758,W,24.54,8.68,160923,,,A*46
$GPGGA,173731.750,4308.4170,N,07726.3754,W,1,07,1.45,167.8,M,-34.4,M,,*51
$GPRMC,173732.000,A,4308.4187,N,07726.3750,W,24.92,8.88,160923,,,A*45
$GPGGA,173732.250,4308.4204,N,07726.3746,W,1,07,1.45,167.9,M,-34.4,M,,*55
$GPRMC,173732.500,A,4308.4222,N,07726.3742,W,25.03,8.84,160923,,,A*4A
$GPGGA,173732.750,4308.4239,N,07726.3738,W,1,06,1.60,168.0,M,-34.4,M,,*57
$GPRMC,173733.000,A,4308.4256,N,07726.3735,W,25.13,8.98,160923,,,A*41
$GPGGA,173733.250,4308.4273,N,07726.3731,W,1,07,1.45,168.1,M,-34.4,M,,*53
$GPRMC,173733.500,A,4308.4290,N,07726.3727,W,25.15,9.15,160923,,,A*4F
$GPGGA,173733.750,4308.4306,N,07726.3724,W,1,06,1.60,168.2,M,-34.4,M,,*54
$GPRMC,173734.000,A,4308.4323,N,07726.3720,W,24.52,9.52,160923,,,A*42
$GPGGA,173734.250,4308.4338,N,07726.3716,W,1,06,1.59,168.3,M,-34.4,M,,*51
$GPRMC,173734.500,A,4308.4354,N,07726.3712,W,23.98,10.35,160923,,,A*7E
$GPGGA,173734.750,4308.4370,N,07726.3708,W,1,06,1.60,168.4,M,-34.4,M,,*5A
$GPRMC,173735.000,A,4308.4385,N,07726.3704,W,23.55,10.75,160923,,,A*74
$GPGGA,173735.250,4308.4399,N,07726.3700,W,1,06,1.59,168.4,M,-34.4,M,,*5B
$GPRMC,173735.500,A,4308.4414,N,07726.3697,W,22.82,10.32,160923,,,A*7D
$GPGGA,173735.750,4308.4429,N,07726.3694,W,1,06,1.59,168.5,M,-34.4,M,,*5F
$GPRMC,173736.000,A,4308.4443,N,07726.3691,W,22.38,9.68,160923,,,A*49
$GPGGA,173736.250,4308.4457,N,07726.3688,W,1,07,1.45,168.5,M,-34.4,M,,*51
$GPRMC,173736.500,A,4308.4471,N,07726.3685,W,21.58,8.77,160923,,,A*42
$GPGGA,173736.750,4308.4484,N,07726.3682,W,1,07,1.45,168.5,M,-34.4,M,,*50
$GPRMC,173737.000,A,4308.4497,N,07726.3680,W,20.57,8.52,160923,,,A*42
$GPGGA,173737.250,4308.4508,N,07726.3677,W,1,07,1.45,168.5,M,-34.4,M,,*5B
$GPRMC,173737.500,A,4308.4520,N,07726.3674,W,19.00,9.17,160923,,,A*49
$GPGGA,173737.750,4308.4530,N,07726.3672,W,1,07,1.45,168.5,M,-34.4,M,,*50
$GPRMC,173738.000,A,4308.4541,N,07726.3669,W,17.41,10.42,160923,,,A*7B
$GPGGA,173738.250,4308.4551,N,07726.3667,W,1,07,1.45,168.5,M,-34.4,M,,*59
$GPRMC,173738.500,A,4308.4558,N,07726.3662,W,15.95,13.43,160923,,,A*74
$GPGGA,173738.750,4308.4564,N,07726.3657,W,1,07,1.45,168.4,M,-34.4,M,,*58
$GPRMC,173739.000,A,4308.4572,N,07726.3651,W,13.55,17.61,160923,,,A*76
$GPGGA,173739.250,4308.4576,N,07726.3649,W,1,07,1.45,168.2,M,-34.4,M,,*56
$GPRMC,173739.500,A,4308.4579,N,07726.3647,W,10.26,22.81,160923,,,A*70
$GPGGA,173739.750,4308.4581,N,07726.3644,W,1,07,1.45,168.1,M,-34.4,M,,*55
$GPRMC,173740.000,A,4308.4584,N,07726.3641,W,7.83,27.48,160923,,,A*46
$GPGGA,173740.250,4308.4586,N,07726.3639,W,1,07,1.45,168.0,M,-34.4,M,,*52
$GPRMC,173740.500,A,4308.4588,N,07726.3638,W,5.57,31.12,160923,,,A*42
$GPGGA,173740.750,4308.4590,N,07726.3637,W,1,07,1.45,167.7,M,-34.4,M,,*56
$GPRMC,173741.000,A,4308.4592,N,07726.3636,W,4.28,29.12,160923,,,A*43
$GPGGA,173741.250,4308.4595,N,07726.3633,W,1,07,1.45,167.4,M,-34.4,M,,*50
$GPRMC,173741.500,A,4308.4598,N,07726.3630,W,4.60,33.93,160923,,,A*44
$GPGGA,173741.750,4308.4599,N,07726.3627,W,1,07,1.45,167.2,M,-34.4,M,,*5A
$GPRMC,173742.000,A,4308.4601,N,07726.3622,W,5.25,40.42,160923,,,A*4A
$GPGGA,173742.250,4308.4604,N,07726.3618,W,1,07,1.45,167.2,M,-34.4,M,,*57
$GPRMC,173742.500,A,4308.4605,N,07726.3612,W,6.79,45.38,160923,,,A*4A
$GPGGA,173742.750,4308.4608,N,07726.3605,W,1,07,1.45,167.0,M,-34.4,M,,*50
$GPRMC,173743.000,A,4308.4611,N,07726.3598,W,8.39,50.53,160923,,,A*49
$GPGGA,173743.250,4308.4614,N,07726.3590,W,1,07,1.45,166.8,M,-34.4,M,,*5F
$GPRMC,173743.500,A,4308.4617,N,07726.3579,W,10.30,59.65,160923,,,A*79
$GPGGA,173743.750,4308.4620,N,07726.3567,W,1,07,1.45,166.7,M,-34.4,M,,*5A
$GPRMC,173744.000,A,4308.4621,N,07726.3556,W,11.89,72.29,160923,,,A*71
$GPGGA,173744.250,4308.4621,N,07726.3542,W,1,06,1.59,166.7,M,-34.4,M,,*52
$GPRMC,173744.500,A,4308.4620,N,07726.3528,W,13.83,88.74,160923,,,A*79
$GPGGA,173744.750,4308.4618,N,07726.3512,W,1,06,1.59,166.5,M,-34.4,M,,*5A
$GPRMC,173745.000,A,4308.4616,N,07726.3496,W,16.01,96.36,160923,,,A*7A
$GPGGA,173745.250,4308.4613,N,07726.3478,W,1,06,1.59,166.3,M,-34.4,M,,*5E
$GPRMC,173745.500,A,4308.4609,N,07726.3458,W,19.19,101.88,160923,,,A*4F
$GPGGA,173745.750,4308.4605,N,07726.3439,W,1,07,1.45,166.1,M,-34.4,M,,*57
$GPRMC,173746.000,A,4308.4601,N,07726.3418,W,21.00,104.14,160923,,,A*46
$GPGGA,173746.250,4308.4597,N,07726.3397,W,1,07,1.45,165.9,M,-34.4,M,,*51
$GPRMC,173746.500,A,4308.4593,N,07726.3375,W,22.32,104.24,160923,,,A*46
$GPGGA,173746.750,4308.4589,N,07726.3352,W,1,07,1.45,165.8,M,-34.4,M,,*53
$GPRMC,173747.000,A,4308.4586,N,07726.3329,W,23.42,103.89,160923,,,A*49
$GPGGA,173747.250,4308.4582,N,07726.3306,W,1,07,1.45,165.6,M,-34.4,M,,*53
$GPRMC,173747.500,A,4308.4578,N,07726.3281,W,24.91,103.09,160923,,,A*4F
$GPGGA,173747.750,4308.4574,N,07726.3256,W,1,07,1.45,165.3,M,-34.4,M,,*5E
$GPRMC,173748.000,A,4308.4571,N,07726.3231,W,26.20,102.02,160923,,,A*45
$GPGGA,173748.250,4308.4567,N,07726.3204,W,1,07,1.45,164.9,M,-34.4,M,,*5A
$GPRMC,173748.500,A,4308.4564,N,07726.3177,W,27.86,100.48,160923,,,A*44
$GPGGA,173748.750,4308.4561,N,07726.3150,W,1,07,1.45,164.7,M,-34.4,M,,*55
$GPRMC,173749.000,A,4308.4557,N,07726.3122,W,29.13,99.86,160923,,,A*71
$GPGGA,173749.250,4308.4554,N,07726.3093,W,1,07,1.45,164.4,M,-34.4,M,,*5A
$GPRMC,173749.500,A,4308.4551,N,07726.3064,W,30.63,99.39,160923,,,A*7A
$GPGGA,173749.750,4308.4548,N,07726.3034,W,1,07,1.45,164.0,M,-34.4,M,,*5B
$GPRMC,173750.000,A,4308.4544,N,07726.3004,W,31.61,99.39,160923,,,A*76
$GPGGA,173750.250,4308.4541,N,07726.2972,W,1,07,1.45,163.7,M,-34.4,M,,*55
$GPRMC,173750.500,A,4308.4538,N,07726.2941,W,32.97,99.44,160923,,,A*71
$GPGGA,173750.750,4308.4535,N,07726.2909,W,1,07,1.45,163.4,M,-34.4,M,,*5C
$GPRMC,173751.000,A,4308.4532,N,07726.2876,W,33.77,98.84,160923,,,A*78
$GPGGA,173751.250,4308.4529,N,07726.2844,W,1,07,1.45,163.1,M,-34.4,M,,*58
$GPRMC,173751.500,A,4308.4526,N,07726.2810,W,34.70,98.85,160923,,,A*79
$GPGGA,173751.750,4308.4522,N,07726.2777,W,1,07,1.45,162.8,M,-34.4,M,,*51
$GPRMC,173752.000,A,4308.4519,N,07726.2743,W,35.09,98.28,160923,,,A*72
$GPGGA,173752.250,4308.4516,N,07726.2709,W,1,07,1.28,162.6,M,-34.4,M,,*5C
$GPRMC,173752.500,A,4308.4512,N,07726.2674,W,36.16,98.32,160923,,,A*7F
$GPGGA,173752.750,4308.4509,N,07726.2639,W,1,07,1.28,162.4,M,-34.4,M,,*57
$GPRMC,173753.000,A,4308.4510,N,07726.2605,W,36.77,97.36,160923,,,A*73
$GPGGA,173753.250,4308.4507,N,07726.2569,W,1,07,1.28,162.8,M,-34.4,M,,*57
$GPRMC,173753.500,A,4308.4504,N,07726.2534,W,37.05,97.45,160923,,,A*72
$GPGGA,173753.750,4308.4500,N,07726.2498,W,1,07,1.28,162.5,M,-34.4,M,,*57
$GPRMC,173754.000,A,4308.4497,N,07726.2463,W,36.81,97.31,160923,,,A*76
$GPGGA,173754.250,4308.4494,N,07726.2427,W,1,07,1.28,162.2,M,-34.4,M,,*5A
$GPRMC,173754.500,A,4308.4491,N,07726.2392,W,36.61,97.42,160923,,,A*76
$GPGGA,173754.750,4308.4488,N,07726.2357,W,1,07,1.45,161.8,M,-34.4,M,,*50
$GPRMC,173755.000,A,4308.4485,N,07726.2321,W,36.90,97.37,160923,,,A*73
$GPGGA,173755.250,4308.4482,N,07726.2285,W,1,07,1.45,161.3,M,-34.4,M,,*5B
$GPRMC,173755.500,A,4308.4479,N,07726.2249,W,36.86,97.37,160923,,,A*7D
$GPGGA,173755.750,4308.4476,N,07726.2214,W,1,07,1.45,160.7,M,-34.4,M,,*58
$GPRMC,173756.000,A,4308.4473,N,07726.2178,W,36.93,97.37,160923,,,A*74
$GPGGA,173756.250,4308.4471,N,07726.2142,W,1,07,1.45,160.2,M,-34.4,M,,*5C
$GPRMC,173756.500,A,4308.4468,N,07726.2107,W,36.89,97.34,160923,,,A*7B
$GPGGA,173756.750,4308.4464,N,07726.2072,W,1,07,1.45,159.7,M,-34.4,M,,*50
$GPRMC,173757.000,A,4308.4461,N,07726.2037,W,36.65,97.15,160923,,,A*75
$GPGGA,173757.250,4308.4458,N,07726.2002,W,1,07,1.45,159.5,M,-34.4,M,,*5E
$GPRMC,173757.500,A,4308.4454,N,07726.1967,W,36.34,97.14,160923,,,A*7C
$GPGGA,173757.750,4308.4451,N,07726.1933,W,1,07,1.44,159.2,M,-34.4,M,,*5C
$GPRMC,173758.000,A,4308.4448,N,07726.1898,W,36.18,97.24,160923,,,A*77
$GPGGA,173758.250,4308.4444,N,07726.1864,W,1,07,1.44,159.0,M,-34.4,M,,*53
$GPRMC,173758.500,A,4308.4441,N,07726.1830,W,35.94,97.20,160923,,,A*7A
$GPGGA,173758.750,4308.4438,N,07726.1795,W,1,07,1.45,158.8,M,-34.4,M,,*54
$GPRMC,173759.000,A,4308.4435,N,07726.1762,W,35.80,97.51,160923,,,A*76
