Vers 81
USE_SERIAL_FEEDBACK=true
DEVELOPMENT_MODE=false
USE_RMC_ONLY=false

$GPRMC,143625.000,A,4308.3075,N,07726.2671,W,0.14,180.85,220923,,,A*7A
$GPGGA,143625.250,4308.3076,N,07726.2671,W,1,05,1.62,150.0,M,-34.4,M,,*5F
$GPRMC,143625.500,A,4308.3076,N,07726.2671,W,0.07,198.68,220923,,,A*74
$GPGGA,143625.750,4308.3076,N,07726.2671,W,1,05,1.62,150.1,M,-34.4,M,,*5B
$GPRMC,143626.000,A,4308.3076,N,07726.2671,W,0.05,167.92,220923,,,A*75
$GPGGA,143626.250,4308.3076,N,07726.2671,W,1,06,1.39,150.3,M,-34.4,M,,*52
$GPRMC,143626.500,A,4308.3075,N,07726.2671,W,0.17,194.59,220923,,,A*7B
$GPGGA,143626.750,4308.3075,N,07726.2672,W,1,06,1.39,150.6,M,-34.4,M,,*52
$GPRMC,143627.000,A,4308.3075,N,07726.2672,W,0.22,206.37,220923,,,A*7A
$GPGGA,143627.250,4308.3075,N,07726.2672,W,1,06,1.39,150.7,M,-34.4,M,,*57
$GPRMC,143627.500,A,4308.3075,N,07726.2672,W,0.06,222.17,220923,,,A*7D
$GPGGA,143627.750,4308.3076,N,07726.2672,W,1,06,1.39,151.0,M,-34.4,M,,*57
$GPRMC,143628.000,A,4308.3076,N,07726.2672,W,0.06,295.42,220923,,,A*78
$GPGGA,143628.250,4308.3076,N,07726.2672,W,1,06,1.39,151.2,M,-34.4,M,,*5F
$GPRMC,143628.500,A,4308.3076,N,07726.2671,W,0.07,206.58,220923,,,A*7E
$GPGGA,143628.750,4308.3076,N,07726.2671,W,1,06,1.39,151.2,M,-34.4,M,,*59
$GPRMC,143629.000,A,4308.3076,N,07726.2671,W,0.05,187.45,220923,,,A*7E
$GPGGA,143629.250,4308.3076,N,07726.2671,W,1,06,1.39,151.4,M,-34.4,M,,*5B
$GPRMC,143629.500,A,4308.3075,N,07726.2671,W,0.09,151.13,220923,,,A*7C
$GPGGA,143629.750,4308.3075,N,07726.2671,W,1,06,1.39,151.5,M,-34.4,M,,*5C
$GPRMC,143630.000,A,4308.3075,N,07726.2671,W,0.07,161.35,220923,,,A*78
$GPGGA,143630.250,4308.3075,N,07726.2671,W,1,06,1.39,151.5,M,-34.4,M,,*51
$GPRMC,143630.500,A,4308.3075,N,07726.2671,W,0.09,148.94,220923,,,A*73
$GPGGA,143630.750,4308.3075,N,07726.2671,W,1,06,1.39,151.7,M,-34.4,M,,*56
$GPRMC,143631.000,A,4308.3076,N,07726.2671,W,0.04,108.16,220923,,,A*77
$GPGGA,143631.250,4308.3076,N,07726.2671,W,1,06,1.39,151.9,M,-34.4,M,,*5F
$GPRMC,143631.500,A,4308.3075,N,07726.2671,W,0.03,163.53,220923,,,A*7A
$GPGGA,143631.750,4308.3075,N,07726.2671,W,1,06,1.39,152.1,M,-34.4,M,,*52
$GPRMC,143632.000,A,4308.3075,N,07726.2671,W,0.06,247.81,220923,,,A*73
$GPGGA,143632.250,4308.3075,N,07726.2671,W,1,06,1.39,152.2,M,-34.4,M,,*57
$GPRMC,143632.500,A,4308.3074,N,07726.2671,W,0.09,242.49,220923,,,A*79
$GPGGA,143632.750,4308.3074,N,07726.2671,W,1,06,1.39,152.5,M,-34.4,M,,*54
$GPRMC,143633.000,A,4308.3074,N,07726.2670,W,0.03,276.24,220923,,,A*7A
$GPGGA,143633.250,4308.3074,N,07726.2670,W,1,06,1.39,152.6,M,-34.4,M,,*52
$GPRMC,143633.500,A,4308.3074,N,07726.2670,W,0.04,4.71,220923,,,A*7F
$GPGGA,143633.750,4308.3074,N,07726.2669,W,1,06,1.53,152.7,M,-34.4,M,,*52
$GPRMC,143634.000,A,4308.3074,N,07726.2668,W,0.18,53.87,220923,,,A*42
$GPGGA,143634.250,4308.3074,N,07726.2667,W,1,06,1.39,152.9,M,-34.4,M,,*5C
$GPRMC,143634.500,A,4308.3074,N,07726.2667,W,0.17,41.81,220923,,,A*42
$GPGGA,143634.750,4308.3073,N,07726.2667,W,1,06,1.39,153.0,M,-34.4,M,,*56
$GPRMC,143635.000,A,4308.3073,N,07726.2667,W,0.16,35.14,220923,,,A*4F
$GPGGA,143635.250,4308.3073,N,07726.2667,W,1,06,1.39,153.2,M,-34.4,M,,*50
$GPRMC,143635.500,A,4308.3073,N,07726.2666,W,0.09,46.49,220923,,,A*49
$GPGGA,143635.750,4308.3073,N,07726.2666,W,1,06,1.39,153.5,M,-34.4,M,,*53
$GPRMC,143636.000,A,4308.3072,N,07726.2665,W,0.13,45.55,220923,,,A*48
$GPGGA,143636.250,4308.3072,N,07726.2665,W,1,06,1.40,153.8,M,-34.4,M,,*54
$GPRMC,143636.500,A,4308.3072,N,07726.2665,W,0.14,45.40,220923,,,A*4E
$GPGGA,143636.750,4308.3072,N,07726.2665,W,1,06,1.39,154.1,M,-34.4,M,,*51
$GPRMC,143637.000,A,4308.3072,N,07726.2665,W,0.16,13.58,220923,,,A*42
$GPGGA,143637.250,4308.3072,N,07726.2665,W,1,06,1.53,154.3,M,-34.4,M,,*5B
$GPRMC,143637.500,A,4308.3071,N,07726.2666,W,0.09,291.41,220923,,,A*79
$GPGGA,143637.750,4308.3071,N,07726.2666,W,1,06,1.39,154.5,M,-34.4,M,,*54
$GPRMC,143638.000,A,4308.3071,N,07726.2665,W,0.08,339.38,220923,,,A*7C
$GPGGA,143638.250,4308.3071,N,07726.2666,W,1,06,1.39,154.7,M,-34.4,M,,*5C
$GPRMC,143638.500,A,4308.3071,N,07726.2666,W,0.14,349.08,220923,,,A*73
$GPGGA,143638.750,4308.3072,N,07726.2666,W,1,06,1.53,154.9,M,-34.4,M,,*58
$GPRMC,143639.000,A,4308.3071,N,07726.2666,W,0.22,8.69,220923,,,A*73
$GPGGA,143639.250,4308.3071,N,07726.2665,W,1,06,1.53,155.1,M,-34.4,M,,*55
$GPRMC,143639.500,A,4308.3071,N,07726.2665,W,0.22,17.16,220923,,,A*43
$GPGGA,143639.750,4308.3071,N,07726.2665,W,1,06,1.39,155.4,M,-34.4,M,,*59
$GPRMC,143640.000,A,4308.3071,N,07726.2665,W,0.24,30.56,220923,,,A*4F
$GPGGA,143640.250,4308.3070,N,07726.2665,W,1,06,1.39,155.6,M,-34.4,M,,*51
$GPRMC,143640.500,A,4308.3070,N,07726.2665,W,0.25,27.19,220923,,,A*47
$GPGGA,143640.750,4308.3070,N,07726.2665,W,1,06,1.39,155.8,M,-34.4,M,,*5A
$GPRMC,143641.000,A,4308.3070,N,07726.2666,W,0.13,351.40,220923,,,A*7B
$GPGGA,143641.250,4308.3069,N,07726.2666,W,1,06,1.53,156.0,M,-34.4,M,,*52
$GPRMC,143641.500,A,4308.3069,N,07726.2666,W,0.09,325.25,220923,,,A*7D
$GPGGA,143641.750,4308.3068,N,07726.2666,W,1,06,1.40,156.2,M,-34.4,M,,*56
$GPRMC,143642.000,A,4308.3068,N,07726.2666,W,0.05,320.57,220923,,,A*76
$GPGGA,143642.250,4308.3068,N,07726.2666,W,1,06,1.39,156.4,M,-34.4,M,,*58
$GPRMC,143642.500,A,4308.3067,N,07726.2666,W,0.01,121.62,220923,,,A*7D
$GPGGA,143642.750,4308.3067,N,07726.2665,W,1,06,1.39,156.5,M,-34.4,M,,*50
$GPRMC,143643.000,A,4308.3066,N,07726.2665,W,0.07,104.77,220923,,,A*7E
$GPGGA,143643.250,4308.3066,N,07726.2665,W,1,06,1.39,156.6,M,-34.4,M,,*56
$GPRMC,143643.500,A,4308.3066,N,07726.2665,W,0.11,87.37,220923,,,A*42
$GPGGA,143643.750,4308.3065,N,07726.2665,W,1,06,1.39,156.7,M,-34.4,M,,*51
$GPRMC,143644.000,A,4308.3064,N,07726.2665,W,0.07,143.03,220923,,,A*7B
$GPGGA,143644.250,4308.3063,N,07726.2665,W,1,06,1.40,156.8,M,-34.4,M,,*54
$GPRMC,143644.500,A,4308.3063,N,07726.2666,W,0.18,185.47,220923,,,A*7E
$GPGGA,143644.750,4308.3062,N,07726.2665,W,1,06,1.39,157.0,M,-34.4,M,,*57
$GPRMC,143645.000,A,4308.3061,N,07726.2665,W,0.18,169.43,220923,,,A*7D
$GPGGA,143645.250,4308.3061,N,07726.2664,W,1,06,1.39,157.2,M,-34.4,M,,*53
$GPRMC,143645.500,A,4308.3060,N,07726.2664,W,0.17,172.15,220923,,,A*7E
$GPGGA,143645.750,4308.3059,N,07726.2664,W,1,06,1.39,157.3,M,-34.4,M,,*5C
$GPRMC,143646.000,A,4308.3058,N,07726.2663,W,0.23,159.35,220923,,,A*78
$GPGGA,143646.250,4308.3058,N,07726.2663,W,1,06,1.39,157.6,M,-34.4,M,,*59
$GPRMC,143646.500,A,4308.3057,N,07726.2663,W,0.26,158.53,220923,,,A*76
$GPGGA,143646.750,4308.3056,N,07726.2663,W,1,06,1.39,157.7,M,-34.4,M,,*53
$GPRMC,143647.000,A,4308.3056,N,07726.2662,W,0.23,149.78,220923,,,A*7E
$GPGGA,143647.250,4308.3056,N,07726.2662,W,1,06,1.40,157.8,M,-34.4,M,,*57
$GPRMC,143647.500,A,4308.3055,N,07726.2663,W,0.16,180.05,220923,,,A*70
$GPGGA,143647.750,4308.3054,N,07726.2663,W,1,06,1.40,157.8,M,-34.4,M,,*51
$GPRMC,143648.000,A,4308.3054,N,07726.2663,W,0.12,210.17,220923,,,A*76
$GPGGA,143648.250,4308.3054,N,07726.2663,W,1,06,1.39,157.9,M,-34.4,M,,*54
$GPRMC,143648.500,A,4308.3053,N,07726.2663,W,0.10,252.84,220923,,,A*7A
$GPGGA,143648.750,4308.3053,N,07726.2663,W,1,06,1.40,158.0,M,-34.4,M,,*5E
$GPRMC,143649.000,A,4308.3052,N,07726.2663,W,0.12,256.23,220923,,,A*74
$GPGGA,143649.250,4308.3052,N,07726.2663,W,1,06,1.39,158.0,M,-34.4,M,,*55
$GPRMC,143649.500,A,4308.3051,N,07726.2662,W,0.09,243.64,220923,,,A*7E
$GPGGA,143649.750,4308.3050,N,07726.2662,W,1,06,1.40,158.0,M,-34.4,M,,*5D
$GPRMC,143650.000,A,4308.3050,N,07726.2662,W,0.09,213.90,220923,,,A*7C
$GPGGA,143650.250,4308.3050,N,07726.2662,W,1,06,1.39,158.1,M,-34.4,M,,*5F
$GPRMC,143650.500,A,4308.3049,N,07726.2661,W,0.03,169.92,220923,,,A*74
$GPGGA,143650.750,4308.3049,N,07726.2661,W,1,06,1.40,158.2,M,-34.4,M,,*5C
$GPRMC,143651.000,A,4308.3049,N,07726.2661,W,0.01,67.22,220923,,,A*46
$GPGGA,143651.250,4308.3049,N,07726.2661,W,1,06,1.40,158.3,M,-34.4,M,,*59
$GPRMC,143651.500,A,4308.3048,N,07726.2661,W,0.06,272.34,220923,,,A*74
$GPGGA,143651.750,4308.3048,N,07726.2661,W,1,06,1.39,158.4,M,-34.4,M,,*54
$GPRMC,143652.000,A,4308.3048,N,07726.2662,W,0.12,289.35,220923,,,A*71
$GPGGA,143652.250,4308.3048,N,07726.2662,W,1,06,1.39,158.5,M,-34.4,M,,*50
$GPRMC,143652.500,A,4308.3049,N,07726.2662,W,0.17,316.20,220923,,,A*73
$GPGGA,143652.750,4308.3049,N,07726.2662,W,1,06,1.40,158.5,M,-34.4,M,,*5A
$GPRMC,143653.000,A,4308.3049,N,07726.2662,W,0.19,328.72,220923,,,A*73
$GPGGA,143653.250,4308.3049,N,07726.2662,W,1,06,1.40,158.6,M,-34.4,M,,*5D
$GPRMC,143653.500,A,4308.3049,N,07726.2662,W,0.13,321.56,220923,,,A*73
$GPGGA,143653.750,4308.3049,N,07726.2662,W,1,06,1.39,158.6,M,-34.4,M,,*56
$GPRMC,143654.000,A,4308.3049,N,07726.2662,W,0.18,347.27,220923,,,A*7C
$GPGGA,143654.250,4308.3049,N,07726.2662,W,1,06,1.53,158.6,M,-34.4,M,,*58
$GPRMC,143654.500,A,4308.3049,N,07726.2662,W,0.23,345.03,220923,,,A*75
$GPGGA,143654.750,4308.3049,N,07726.2662,W,1,06,1.53,158.6,M,-34.4,M,,*5D
$GPRMC,143655.000,A,4308.3049,N,07726.2662,W,0.22,329.39,220923,,,A*73
$GPGGA,143655.250,4308.3050,N,07726.2662,W,1,06,1.40,158.6,M,-34.4,M,,*53
$GPRMC,143655.500,A,4308.3050,N,07726.2662,W,0.25,334.00,220923,,,A*7F
$GPGGA,143655.750,4308.3050,N,07726.2662,W,1,06,1.40,158.6,M,-34.4,M,,*56
$GPRMC,143656.000,A,4308.3050,N,07726.2663,W,0.33,335.85,220923,,,A*73
$GPGGA,143656.250,4308.3050,N,07726.2663,W,1,06,1.40,158.6,M,-34.4,M,,*51
$GPRMC,143656.500,A,4308.3050,N,07726.2663,W,0.31,331.67,220923,,,A*7C
$GPGGA,143656.750,4308.3051,N,07726.2663,W,1,06,1.40,158.6,M,-34.4,M,,*55
$GPRMC,143657.000,A,4308.3051,N,07726.2663,W,0.26,339.91,220923,,,A*7E
$GPGGA,143657.250,4308.3051,N,07726.2663,W,1,06,1.40,158.6,M,-34.4,M,,*51
$GPRMC,143657.500,A,4308.3051,N,07726.2663,W,0.23,336.86,220923,,,A*77
$GPGGA,143657.750,4308.3051,N,07726.2663,W,1,06,1.40,158.6,M,-34.4,M,,*54
$GPRMC,143658.000,A,4308.3051,N,07726.2663,W,0.24,7.17,220923,,,A*73
$GPGGA,143658.250,4308.3052,N,07726.2663,W,1,06,1.53,158.6,M,-34.4,M,,*5F
$GPRMC,143658.500,A,4308.3052,N,07726.2663,W,0.19,25.57,220923,,,A*4F
$GPGGA,143658.750,4308.3052,N,07726.2663,W,1,06,1.40,158.6,M,-34.4,M,,*58
$GPRMC,143659.000,A,4308.3052,N,07726.2663,W,0.17,12.38,220923,,,A*48
$GPGGA,143659.250,4308.3052,N,07726.2663,W,1,06,1.53,158.6,M,-34.4,M,,*5E
$GPRMC,143659.500,A,4308.3052,N,07726.2663,W,0.16,6.21,220923,,,A*71
$GPGGA,143659.750,4308.3052,N,07726.2663,W,1,06,1.53,158.6,M,-34.4,M,,*5B
$GPRMC,143700.000,A,4308.3052,N,07726.2663,W,0.16,8.87,220923,,,A*7B
$GPGGA,143700.250,4308.3052,N,07726.2663,W,1,06,1.53,158.6,M,-34.4,M,,*53
$GPRMC,143700.500,A,4308.3053,N,07726.2663,W,0.15,13.17,220923,,,A*4F
$GPGGA,143700.750,4308.3053,N,07726.2663,W,1,06,1.53,158.6,M,-34.4,M,,*57
$GPRMC,143701.000,A,4308.3053,N,07726.2663,W,0.17,9.46,220923,,,A*76
$GPGGA,143701.250,4308.3053,N,07726.2663,W,1,06,1.53,158.6,M,-34.4,M,,*53
$GPRMC,143701.500,A,4308.3053,N,07726.2663,W,0.21,21.12,220923,,,A*4D
$GPGGA,143701.750,4308.3053,N,07726.2663,W,1,06,1.40,158.6,M,-34.4,M,,*54
$GPRMC,143702.000,A,4308.3053,N,07726.2663,W,0.24,45.25,220923,,,A*48
$GPGGA,143702.250,4308.3053,N,07726.2662,W,1,07,1.33,158.6,M,-34.4,M,,*56
$GPRMC,143702.500,A,4308.3054,N,07726.2662,W,0.15,53.13,220923,,,A*4B
$GPGGA,143702.750,4308.3054,N,07726.2662,W,1,07,1.33,158.6,M,-34.4,M,,*54
$GPRMC,143703.000,A,4308.3054,N,07726.2662,W,0.04,78.94,220923,,,A*49
$GPGGA,143703.250,4308.3054,N,07726.2662,W,1,07,1.33,158.6,M,-34.4,M,,*50
$GPRMC,143703.500,A,4308.3054,N,07726.2662,W,0.05,71.92,220923,,,A*42
$GPGGA,143703.750,4308.3054,N,07726.2662,W,1,07,1.33,158.6,M,-34.4,M,,*55
$GPRMC,143704.000,A,4308.3054,N,07726.2662,W,0.08,110.06,220923,,,A*76
$GPGGA,143704.250,4308.3054,N,07726.2662,W,1,07,1.33,158.6,M,-34.4,M,,*57
$GPRMC,143704.500,A,4308.3054,N,07726.2662,W,0.03,87.29,220923,,,A*4A
$GPGGA,143704.750,4308.3054,N,07726.2662,W,1,07,1.33,158.6,M,-34.4,M,,*52
$GPRMC,143705.000,A,4308.3054,N,07726.2662,W,0.03,196.72,220923,,,A*71
$GPGGA,143705.250,4308.3054,N,07726.2662,W,1,07,1.33,158.6,M,-34.4,M,,*56
$GPRMC,143705.500,A,4308.3054,N,07726.2662,W,0.08,192.27,220923,,,A*7B
$GPGGA,143705.750,4308.3053,N,07726.2662,W,1,07,1.33,158.6,M,-34.4,M,,*54
$GPRMC,143706.000,A,4308.3053,N,07726.2662,W,0.06,138.34,220923,,,A*76
$GPGGA,143706.250,4308.3053,N,07726.2662,W,1,07,1.33,158.6,M,-34.4,M,,*52
$GPRMC,143706.500,A,4308.3053,N,07726.2662,W,0.06,157.97,220923,,,A*73
$GPGGA,143706.750,4308.3053,N,07726.2662,W,1,07,1.33,158.6,M,-34.4,M,,*57
$GPRMC,143707.000,A,4308.3053,N,07726.2662,W,0.07,172.94,220923,,,A*72
$GPGGA,143707.250,4308.3053,N,07726.2662,W,1,07,1.33,158.6,M,-34.4,M,,*53
$GPRMC,143707.500,A,4308.3053,N,07726.2662,W,0.04,264.11,220923,,,A*7D
$GPGGA,143707.750,4308.3053,N,07726.2662,W,1,07,1.33,158.6,M,-34.4,M,,*56
$GPRMC,143708.000,A,4308.3053,N,07726.2662,W,0.06,307.47,220923,,,A*72
$GPGGA,143708.250,4308.3053,N,07726.2662,W,1,07,1.33,158.6,M,-34.4,M,,*5C
$GPRMC,143708.500,A,4308.3053,N,07726.2662,W,0.04,210.42,220923,,,A*77
$GPGGA,143708.750,4308.3053,N,07726.2662,W,1,07,1.33,158.6,M,-34.4,M,,*59
$GPRMC,143709.000,A,4308.3053,N,07726.2662,W,0.00,264.37,220923,,,A*76
$GPGGA,143709.250,4308.3053,N,07726.2662,W,1,07,1.33,158.6,M,-34.4,M,,*5D
$GPRMC,143709.500,A,4308.3053,N,07726.2662,W,0.08,228.35,220923,,,A*71
$GPGGA,143709.750,4308.3053,N,07726.2662,W,1,07,1.33,158.6,M,-34.4,M,,*58
$GPRMC,143710.000,A,4308.3053,N,07726.2662,W,0.12,263.10,220923,,,A*7F
$GPGGA,143710.250,4308.3053,N,07726.2662,W,1,07,1.33,158.6,M,-34.4,M,,*55
$GPRMC,143710.500,A,4308.3053,N,07726.2662,W,0.08,296.87,220923,,,A*75
$GPGGA,143710.750,4308.3053,N,07726.2663,W,1,07,1.33,158.7,M,-34.4,M,,*50
$GPRMC,143711.000,A,4308.3053,N,07726.2663,W,0.11,298.11,220923,,,A*79
$GPGGA,143711.250,4308.3053,N,07726.2663,W,1,07,1.33,158.7,M,-34.4,M,,*54
$GPRMC,143711.500,A,4308.3053,N,07726.2663,W,0.07,292.15,220923,,,A*75
$GPGGA,143711.750,4308.3053,N,07726.2663,W,1,07,1.33,158.7,M,-34.4,M,,*51
$GPRMC,143712.000,A,4308.3053,N,07726.2663,W,0.07,255.87,220923,,,A*73
$GPGGA,143712.250,4308.3053,N,07726.2663,W,1,07,1.33,158.7,M,-34.4,M,,*57
$GPRMC,143712.500,A,4308.3053,N,07726.2663,W,0.10,249.85,220923,,,A*7F
$GPGGA,143712.750,4308.3053,N,07726.2663,W,1,07,1.33,158.7,M,-34.4,M,,*52
$GPRMC,143713.000,A,4308.3053,N,07726.2663,W,0.15,263.01,220923,,,A*7A
$GPGGA,143713.250,4308.3053,N,07726.2664,W,1,07,1.33,158.7,M,-34.4,M,,*51
$GPRMC,143713.500,A,4308.3053,N,07726.2664,W,0.15,266.06,220923,,,A*7A
$GPGGA,143713.750,4308.3053,N,07726.2664,W,1,07,1.33,158.7,M,-34.4,M,,*54
$GPRMC,143714.000,A,4308.3053,N,07726.2664,W,0.15,250.09,220923,,,A*72
$GPGGA,143714.250,4308.3053,N,07726.2664,W,1,07,1.33,158.7,M,-34.4,M,,*56
$GPRMC,143714.500,A,4308.3053,N,07726.2664,W,0.13,250.40,220923,,,A*7C
$GPGGA,143714.750,4308.3053,N,07726.2664,W,1,07,1.33,158.7,M,-34.4,M,,*53
$GPRMC,143715.000,A,4308.3053,N,07726.2665,W,0.12,235.28,220923,,,A*75
$GPGGA,143715.250,4308.3053,N,07726.2665,W,1,07,1.33,158.7,M,-34.4,M,,*56
$GPRMC,143715.500,A,4308.3053,N,07726.2665,W,0.04,291.90,220923,,,A*7A
$GPGGA,143715.750,4308.3053,N,07726.2665,W,1,07,1.52,158.7,M,-34.4,M,,*54
$GPRMC,143716.000,A,4308.3053,N,07726.2665,W,0.04,255.86,220923,,,A*73
$GPGGA,143716.250,4308.3053,N,07726.2665,W,1,07,1.52,158.7,M,-34.4,M,,*52
$GPRMC,143716.500,A,4308.3053,N,07726.2665,W,0.03,240.55,220923,,,A*7B
$GPGGA,143716.750,4308.3053,N,07726.2665,W,1,07,1.52,158.7,M,-34.4,M,,*57
$GPRMC,143717.000,A,4308.3053,N,07726.2665,W,0.01,315.50,220923,,,A*79
$GPGGA,143717.250,4308.3053,N,07726.2665,W,1,07,1.52,158.7,M,-34.4,M,,*53
$GPRMC,143717.500,A,4308.3053,N,07726.2665,W,0.00,33.86,220923,,,A*41
$GPGGA,143717.750,4308.3053,N,07726.2665,W,1,07,1.52,158.7,M,-34.4,M,,*56
$GPRMC,143718.000,A,4308.3053,N,07726.2665,W,0.03,167.51,220923,,,A*72
$GPGGA,143718.250,4308.3053,N,07726.2665,W,1,07,1.52,158.8,M,-34.4,M,,*53
$GPRMC,143718.500,A,4308.3053,N,07726.2665,W,0.01,23.96,220923,,,A*4F
$GPGGA,143718.750,4308.3053,N,07726.2665,W,1,07,1.52,158.8,M,-34.4,M,,*56
$GPRMC,143719.000,A,4308.3053,N,07726.2665,W,0.04,156.91,220923,,,A*7A
$GPGGA,143719.250,4308.3053,N,07726.2665,W,1,07,1.52,158.8,M,-34.4,M,,*52
$GPRMC,143719.500,A,4308.3053,N,07726.2665,W,0.02,179.48,220923,,,A*70
$GPGGA,143719.750,4308.3053,N,07726.2665,W,1,07,1.52,158.8,M,-34.4,M,,*57
$GPRMC,143720.000,A,4308.3053,N,07726.2665,W,0.02,86.41,220923,,,A*47
$GPGGA,143720.250,4308.3053,N,07726.2665,W,1,07,1.52,158.8,M,-34.4,M,,*58
$GPRMC,143720.500,A,4308.3053,N,07726.2665,W,0.00,121.50,220923,,,A*7C
$GPGGA,143720.750,4308.3053,N,07726.2665,W,1,07,1.52,158.8,M,-34.4,M,,*5D
$GPRMC,143721.000,A,4308.3053,N,07726.2665,W,0.01,299.16,220923,,,A*7B
$GPGGA,143721.250,4308.3053,N,07726.2665,W,1,07,1.52,158.8,M,-34.4,M,,*59
$GPRMC,143721.500,A,4308.3053,N,07726.2665,W,0.03,168.12,220923,,,A*75
$GPGGA,143721.750,4308.3053,N,07726.2665,W,1,07,1.52,158.8,M,-34.4,M,,*5C
$GPRMC,143722.000,A,4308.3053,N,07726.2665,W,0.03,171.28,220923,,,A*72
$GPGGA,143722.250,4308.3053,N,07726.2665,W,1,07,1.52,158.8,M,-34.4,M,,*5A
$GPRMC,143722.500,A,4308.3053,N,07726.2665,W,0.01,142.79,220923,,,A*71
$GPGGA,143722.750,4308.3053,N,07726.2665,W,1,07,1.52,158.8,M,-34.4,M,,*5F
$GPRMC,143723.000,A,4308.3053,N,07726.2665,W,0.00,308.74,220923,,,A*75
$GPGGA,143723.250,4308.3053,N,07726.2665,W,1,07,1.52,158.8,M,-34.4,M,,*5B
$GPRMC,143723.500,A,4308.3053,N,07726.2665,W,0.01,74.00,220923,,,A*4A
$GPGGA,143723.750,4308.3053,N,07726.2665,W,1,07,1.52,158.8,M,-34.4,M,,*5E
$GPRMC,143724.000,A,4308.3053,N,07726.2665,W,0.00,73.64,220923,,,A*4C
$GPGGA,143724.250,4308.3053,N,07726.2665,W,1,07,1.52,158.8,M,-34.4,M,,*5C
$GPRMC,143724.500,A,4308.3053,N,07726.2665,W,0.02,288.46,220923,,,A*7D
$GPGGA,143724.750,4308.3053,N,07726.2665,W,1,06,1.81,158.8,M,-34.4,M,,*56
$GPRMC,143725.000,A,4308.3053,N,07726.2665,W,0.02,293.58,220923,,,A*7C
$GPGGA,143725.250,4308.3053,N,07726.2665,W,1,07,1.52,158.8,M,-34.4,M,,*5D
$GPRMC,143725.500,A,4308.3053,N,07726.2665,W,0.01,157.86,220923,,,A*72
$GPGGA,143725.750,4308.3053,N,07726.2665,W,1,07,1.52,158.8,M,-34.4,M,,*58
$GPRMC,143726.000,A,4308.3053,N,07726.2665,W,0.01,191.61,220923,,,A*77
$GPGGA,143726.250,4308.3053,N,07726.2665,W,1,07,1.52,158.8,M,-34.4,M,,*5E
$GPRMC,143726.500,A,4308.3053,N,07726.2664,W,0.01,216.27,220923,,,A*7D
$GPGGA,143726.750,4308.3053,N,07726.2665,W,1,07,1.52,158.8,M,-34.4,M,,*5B
$GPRMC,143727.000,A,4308.3053,N,07726.2665,W,0.02,241.11,220923,,,A*7C
$GPGGA,143727.250,4308.3053,N,07726.2665,W,1,07,1.52,158.8,M,-34.4,M,,*5F
$GPRMC,143727.500,A,4308.3053,N,07726.2665,W,0.02,199.06,220923,,,A*79
$GPGGA,143727.750,4308.3053,N,07726.2665,W,1,07,1.52,158.8,M,-34.4,M,,*5A
$GPRMC,143728.000,A,4308.3053,N,07726.2664,W,0.02,131.95,220923,,,A*7A
$GPGGA,143728.250,4308.3053,N,07726.2664,W,1,07,1.52,158.8,M,-34.4,M,,*51
$GPRMC,143728.500,A,4308.3053,N,07726.2664,W,0.01,117.25,220923,,,A*73
$GPGGA,143728.750,4308.3053,N,07726.2664,W,1,07,1.52,158.8,M,-34.4,M,,*54
$GPRMC,143729.000,A,4308.3053,N,07726.2664,W,0.01,168.66,220923,,,A*78
$GPGGA,143729.250,4308.3053,N,07726.2664,W,1,07,1.52,158.8,M,-34.4,M,,*50
$GPRMC,143729.500,A,4308.3053,N,07726.2664,W,0.01,169.02,220923,,,A*7E
$GPGGA,143729.750,4308.3053,N,07726.2664,W,1,07,1.52,158.8,M,-34.4,M,,*55
$GPRMC,143730.000,A,4308.3053,N,07726.2664,W,0.01,127.67,220923,,,A*7A
$GPGGA,143730.250,4308.3053,N,07726.2664,W,1,07,1.52,158.8,M,-34.4,M,,*58
$GPRMC,143730.500,A,4308.3053,N,07726.2664,W,0.01,62.54,220923,,,A*4F
$GPGGA,143730.750,4308.3053,N,07726.2664,W,1,07,1.52,158.8,M,-34.4,M,,*5D
$GPRMC,143731.000,A,4308.3053,N,07726.2664,W,0.00,199.64,220923,,,A*7C
$GPGGA,143731.250,4308.3053,N,07726.2664,W,1,07,1.52,158.8,M,-34.4,M,,*59
$GPRMC,143731.500,A,4308.3053,N,07726.2664,W,0.02,142.64,220923,,,A*7D
$GPGGA,143731.750,4308.3053,N,07726.2664,W,1,07,1.52,158.8,M,-34.4,M,,*5C
$GPRMC,143732.000,A,4308.3053,N,07726.2664,W,0.01,145.89,220923,,,A*7C
$GPGGA,143732.250,4308.3053,N,07726.2664,W,1,07,1.52,158.8,M,-34.4,M,,*5A
$GPRMC,143732.500,A,4308.3053,N,07726.2664,W,0.01,100.97,220923,,,A*77
$GPGGA,143732.750,4308.3053,N,07726.2664,W,1,07,1.52,158.9,M,-34.4,M,,*5E
$GPRMC,143733.000,A,4308.3053,N,07726.2664,W,0.01,144.53,220923,,,A*7B
$GPGGA,143733.250,4308.3053,N,07726.2664,W,1,07,1.52,158.9,M,-34.4,M,,*5A
$GPRMC,143733.500,A,4308.3053,N,07726.2664,W,0.02,163.53,220923,,,A*78
$GPGGA,143733.750,4308.3052,N,07726.2664,W,1,07,1.52,158.9,M,-34.4,M,,*5E
$GPRMC,143734.000,A,4308.3052,N,07726.2664,W,0.02,139.67,220923,,,A*73
$GPGGA,143734.250,4308.3052,N,07726.2664,W,1,07,1.52,158.9,M,-34.4,M,,*5C
$GPRMC,143734.500,A,4308.3052,N,07726.2664,W,0.01,102.30,220923,,,A*7F
$GPGGA,143734.750,4308.3052,N,07726.2664,W,1,07,1.52,158.9,M,-34.4,M,,*59
$GPRMC,143735.000,A,4308.3052,N,07726.2664,W,0.02,138.72,220923,,,A*77
$GPGGA,143735.250,4308.3052,N,07726.2664,W,1,07,1.52,158.9,M,-34.4,M,,*5D
$GPRMC,143735.500,A,4308.3052,N,07726.2664,W,0.01,157.95,220923,,,A*71
$GPGGA,143735.750,4308.3052,N,07726.2664,W,1,07,1.52,158.9,M,-34.4,M,,*58
$GPRMC,143736.000,A,4308.3052,N,07726.2664,W,0.01,159.79,220923,,,A*7B
$GPGGA,143736.250,4308.3052,N,07726.2664,W,1,07,1.52,158.9,M,-34.4,M,,*5E
$GPRMC,143736.500,A,4308.3052,N,07726.2664,W,0.02,121.63,220923,,,A*79
$GPGGA,143736.750,4308.3052,N,07726.2664,W,1,07,1.52,158.9,M,-34.4,M,,*5B
$GPRMC,143737.000,A,4308.3052,N,07726.2664,W,0.01,195.18,220923,,,A*7D
$GPGGA,143737.250,4308.3052,N,07726.2664,W,1,07,1.52,158.9,M,-34.4,M,,*5F
$GPRMC,143737.500,A,4308.3052,N,07726.2664,W,0.02,176.14,220923,,,A*7A
$GPGGA,143737.750,4308.3052,N,07726.2664,W,1,07,1.52,158.9,M,-34.4,M,,*5A
$GPRMC,143738.000,A,4308.3052,N,07726.2664,W,0.03,135.89,220923,,,A*72
$GPGGA,143738.250,4308.3052,N,07726.2664,W,1,07,1.52,158.9,M,-34.4,M,,*50
$GPRMC,143738.500,A,4308.3052,N,07726.2664,W,0.01,124.07,220923,,,A*73
$GPGGA,143738.750,4308.3052,N,07726.2664,W,1,07,1.52,158.9,M,-34.4,M,,*55
$GPRMC,143739.000,A,4308.3052,N,07726.2664,W,0.00,190.18,220923,,,A*77
$GPGGA,143739.250,4308.3052,N,07726.2664,W,1,07,1.52,158.9,M,-34.4,M,,*51
$GPRMC,143739.500,A,4308.3052,N,07726.2664,W,0.02,149.75,220923,,,A*7F
$GPGGA,143739.750,4308.3052,N,07726.2664,W,1,07,1.52,158.9,M,-34.4,M,,*54
$GPRMC,143740.000,A,4308.3052,N,07726.2664,W,0.02,128.76,220923,,,A*70
$GPGGA,143740.250,4308.3052,N,07726.2664,W,1,07,1.52,158.9,M,-34.4,M,,*5F
$GPRMC,143740.500,A,4308.3052,N,07726.2664,W,0.02,135.24,220923,,,A*7E
$GPGGA,143740.750,4308.3052,N,07726.2664,W,1,07,1.52,158.9,M,-34.4,M,,*5A
$GPRMC,143741.000,A,4308.3052,N,07726.2664,W,0.01,112.04,220923,,,A*7E
$GPGGA,143741.250,4308.3052,N,07726.2664,W,1,07,1.52,158.9,M,-34.4,M,,*5E
$GPRMC,143741.500,A,4308.3052,N,07726.2664,W,0.01,135.57,220923,,,A*78
$GPGGA,143741.750,4308.3052,N,07726.2664,W,1,07,1.52,158.9,M,-34.4,M,,*5B
$GPRMC,143742.000,A,4308.3052,N,07726.2664,W,0.01,214.49,220923,,,A*71
$GPGGA,143742.250,4308.3052,N,07726.2664,W,1,07,1.52,158.9,M,-34.4,M,,*5D
$GPRMC,143742.500,A,4308.3052,N,07726.2664,W,0.02,152.66,220923,,,A*7B
$GPGGA,143742.750,4308.3052,N,07726.2664,W,1,07,1.52,158.9,M,-34.4,M,,*58
$GPRMC,143743.000,A,4308.3052,N,07726.2664,W,0.01,153.36,220923,,,A*78
$GPGGA,143743.250,4308.3052,N,07726.2664,W,1,07,1.52,158.9,M,-34.4,M,,*5C
$GPRMC,143743.500,A,4308.3052,N,07726.2664,W,0.01,139.85,220923,,,A*79
$GPGGA,143743.750,4308.3052,N,07726.2664,W,1,07,1.52,158.9,M,-34.4,M,,*59
$GPRMC,143744.000,A,4308.3052,N,07726.2664,W,0.01,118.92,220923,,,A*7E
$GPGGA,143744.250,4308.3052,N,07726.2664,W,1,07,1.52,158.9,M,-34.4,M,,*5B
$GPRMC,143744.500,A,4308.3052,N,07726.2663,W,0.01,122.25,220923,,,A*79
$GPGGA,143744.750,4308.3052,N,07726.2663,W,1,07,1.52,158.9,M,-34.4,M,,*59
$GPRMC,143745.000,A,4308.3052,N,07726.2663,W,0.01,186.51,220923,,,A*70
$GPGGA,143745.250,4308.3052,N,07726.2663,W,1,07,1.52,158.9,M,-34.4,M,,*5D
$GPRMC,143745.500,A,4308.3052,N,07726.2663,W,0.01,214.47,220923,,,A*7A
$GPGGA,143745.750,4308.3052,N,07726.2663,W,1,07,1.52,158.9,M,-34.4,M,,*58
$GPRMC,143746.000,A,4308.3052,N,07726.2663,W,0.01,90.05,220923,,,A*44
$GPGGA,143746.250,4308.3052,N,07726.2663,W,1,07,1.52,158.9,M,-34.4,M,,*5E
$GPRMC,143746.500,A,4308.3052,N,07726.2663,W,0.01,102.74,220923,,,A*7D
$GPGGA,143746.750,4308.3052,N,07726.2663,W,1,07,1.52,158.9,M,-34.4,M,,*5B
$GPRMC,143747.000,A,4308.3052,N,07726.2663,W,0.02,152.17,220923,,,A*7A
$GPGGA,143747.250,4308.3052,N,07726.2663,W,1,07,1.52,158.9,M,-34.4,M,,*5F
$GPRMC,143747.500,A,4308.3052,N,07726.2663,W,0.00,116.40,220923,,,A*7F
$GPGGA,143747.750,4308.3052,N,07726.2663,W,1,07,1.52,158.9,M,-34.4,M,,*5A
$GPRMC,143748.000,A,4308.3052,N,07726.2663,W,0.00,348.28,220923,,,A*72
$GPGGA,143748.250,4308.3052,N,07726.2663,W,1,07,1.52,158.9,M,-34.4,M,,*50
$GPRMC,143748.500,A,4308.3052,N,07726.2663,W,0.00,343.34,220923,,,A*71
$GPGGA,143748.750,4308.3052,N,07726.2663,W,1,07,1.52,158.9,M,-34.4,M,,*55
$GPRMC,143749.000,A,4308.3052,N,07726.2663,W,0.01,179.00,220923,,,A*78
$GPGGA,143749.250,4308.3052,N,07726.2663,W,1,07,1.52,158.9,M,-34.4,M,,*51
$GPRMC,143749.500,A,4308.3052,N,07726.2663,W,0.01,179.49,220923,,,A*70
$GPGGA,143749.750,4308.3052,N,07726.2663,W,1,07,1.52,158.9,M,-34.4,M,,*54
$GPRMC,143750.000,A,4308.3052,N,07726.2663,W,0.00,84.03,220923,,,A*41
$GPGGA,143750.250,4308.3052,N,07726.2663,W,1,07,1.52,158.9,M,-34.4,M,,*59
$GPRMC,143750.500,A,4308.3052,N,07726.2663,W,0.01,173.16,220923,,,A*78
$GPGGA,143750.750,4308.3052,N,07726.2663,W,1,07,1.52,158.9,M,-34.4,M,,*5C
$GPRMC,143751.000,A,4308.3051,N,07726.2663,W,0.00,150.84,220923,,,A*74
$GPGGA,143751.250,4308.3051,N,07726.2663,W,1,07,1.52,158.9,M,-34.4,M,,*5B
$GPRMC,143751.500,A,4308.3051,N,07726.2663,W,0.02,56.69,220923,,,A*47
$GPGGA,143751.750,4308.3051,N,07726.2663,W,1,07,1.52,158.9,M,-34.4,M,,*5E
$GPRMC,143752.000,A,4308.3051,N,07726.2663,W,0.01,103.17,220923,,,A*7A
$GPGGA,143752.250,4308.3051,N,07726.2663,W,1,07,1.52,158.9,M,-34.4,M,,*58
$GPRMC,143752.500,A,4308.3051,N,07726.2663,W,0.01,172.79,220923,,,A*71
$GPGGA,143752.750,4308.3051,N,07726.2663,W,1,07,1.52,158.9,M,-34.4,M,,*5D
$GPRMC,143753.000,A,4308.3051,N,07726.2663,W,0.01,60.70,220923,,,A*4E
$GPGGA,143753.250,4308.3051,N,07726.2663,W,1,07,1.52,158.9,M,-34.4,M,,*59
$GPRMC,143753.500,A,4308.3051,N,07726.2663,W,0.01,171.27,220923,,,A*78
$GPGGA,143753.750,4308.3051,N,07726.2663,W,1,07,1.52,158.9,M,-34.4,M,,*5C
$GPRMC,143754.000,A,4308.3051,N,07726.2663,W,0.01,160.16,220923,,,A*78
$GPGGA,143754.250,4308.3051,N,07726.2663,W,1,07,1.52,158.9,M,-34.4,M,,*5E
$GPRMC,143754.500,A,4308.3051,N,07726.2663,W,0.01,107.23,220923,,,A*7A
$GPGGA,143754.750,4308.3051,N,07726.2663,W,1,07,1.52,158.9,M,-34.4,M,,*5B
$GPRMC,143755.000,A,4308.3051,N,07726.2663,W,0.00,95.13,220923,,,A*46
$GPGGA,143755.250,4308.3051,N,07726.2663,W,1,07,1.52,158.9,M,-34.4,M,,*5F
$GPRMC,143755.500,A,4308.3051,N,07726.2663,W,0.01,157.83,220923,,,A*74
$GPGGA,143755.750,4308.3051,N,07726.2663,W,1,07,1.52,158.9,M,-34.4,M,,*5A
$GPRMC,143756.000,A,4308.3051,N,07726.2663,W,0.00,126.57,220923,,,A*7C
$GPGGA,143756.250,4308.3051,N,07726.2663,W,1,07,1.52,158.9,M,-34.4,M,,*5C
$GPRMC,143756.500,A,4308.3051,N,07726.2663,W,0.00,62.28,220923,,,A*40
$GPGGA,143756.750,4308.3051,N,07726.2663,W,1,07,1.52,158.9,M,-34.4,M,,*59
$GPRMC,143757.000,A,4308.3051,N,07726.2663,W,0.00,201.84,220923,,,A*75
$GPGGA,143757.250,4308.3051,N,07726.2663,W,1,07,1.52,158.9,M,-34.4,M,,*5D
$GPRMC,143757.500,A,4308.3051,N,07726.2663,W,0.00,82.71,220923,,,A*43
$GPGGA,143757.750,4308.3051,N,07726.2663,W,1,07,1.52,158.9,M,-34.4,M,,*58
$GPRMC,143758.000,A,4308.3051,N,07726.2663,W,0.00,121.67,220923,,,A*76
$GPGGA,143758.250,4308.3051,N,07726.2663,W,1,07,1.52,158.9,M,-34.4,M,,*52
$GPRMC,143758.500,A,4308.3051,N,07726.2663,W,0.00,216.70,220923,,,A*72
$GPGGA,143758.750,4308.3051,N,07726.2663,W,1,07,1.52,158.9,M,-34.4,M,,*57
$GPRMC,143759.000,A,4308.3051,N,07726.2663,W,0.00,187.44,220923,,,A*7A
$GPGGA,143759.250,4308.3051,N,07726.2663,W,1,07,1.52,158.9,M,-34.4,M,,*53
$GPRMC,143759.500,A,4308.3051,N,07726.2663,W,0.00,0.00,220923,,,A*71
$GPGGA,143759.750,4308.3051,N,07726.2663,W,1,07,1.52,158.9,M,-34.4,M,,*56
$GPRMC,143800.000,A,4308.3051,N,07726.2663,W,0.00,190.44,220923,,,A*7F
$GPGGA,143800.250,4308.3051,N,07726.2663,W,1,07,1.52,158.9,M,-34.4,M,,*50
$GPRMC,143800.500,A,4308.3051,N,07726.2663,W,0.00,78.52,220923,,,A*4A
$GPGGA,143800.750,4308.3051,N,07726.2663,W,1,07,1.52,158.9,M,-34.4,M,,*55
$GPRMC,143801.000,A,4308.3051,N,07726.2663,W,0.00,265.11,220923,,,A*77
$GPGGA,143801.250,4308.3051,N,07726.2663,W,1,07,1.52,158.9,M,-34.4,M,,*51
$GPRMC,143801.500,A,4308.3051,N,07726.2663,W,0.01,218.32,220923,,,A*78
$GPGGA,143801.750,4308.3051,N,07726.2663,W,1,07,1.52,158.9,M,-34.4,M,,*54
$GPRMC,143802.000,A,4308.3051,N,07726.2663,W,0.01,258.37,220923,,,A*7F
$GPGGA,143802.250,4308.3051,N,07726.2663,W,1,07,1.52,158.9,M,-34.4,M,,*52
$GPRMC,143802.500,A,4308.3051,N,07726.2663,W,0.00,246.97,220923,,,A*7E
$GPGGA,143802.750,4308.3051,N,07726.2663,W,1,07,1.52,158.9,M,-34.4,M,,*57
$GPRMC,143803.000,A,4308.3051,N,07726.2663,W,0.00,205.85,220923,,,A*7E
$GPGGA,143803.250,4308.3051,N,07726.2663,W,1,07,1.52,158.9,M,-34.4,M,,*53
$GPRMC,143803.500,A,4308.3051,N,07726.2663,W,0.00,0.00,220923,,,A*71
$GPGGA,143803.750,4308.3051,N,07726.2663,W,1,07,1.52,158.9,M,-34.4,M,,*56
$GPRMC,143804.000,A,4308.3051,N,07726.2663,W,0.01,326.00,220923,,,A*75
$GPGGA,143804.250,4308.3051,N,07726.2663,W,1,07,1.52,158.9,M,-34.4,M,,*54
$GPRMC,143804.500,A,4308.3051,N,07726.2663,W,0.01,319.78,220923,,,A*73
$GPGGA,143804.750,4308.3051,N,07726.2663,W,1,07,1.52,158.9,M,-34.4,M,,*51
$GPRMC,143805.000,A,4308.3051,N,07726.2663,W,0.01,346.38,220923,,,A*79
$GPGGA,143805.250,4308.3051,N,07726.2663,W,1,07,1.52,158.9,M,-34.4,M,,*55
$GPRMC,143805.500,A,4308.3051,N,07726.2663,W,0.00,299.92,220923,,,A*7E
$GPGGA,143805.750,4308.3051,N,07726.2663,W,1,07,1.52,158.9,M,-34.4,M,,*50
$GPRMC,143806.000,A,4308.3051,N,07726.2663,W,0.02,245.34,220923,,,A*77
$GPGGA,143806.250,4308.3051,N,07726.2663,W,1,07,1.52,158.9,M,-34.4,M,,*56
$GPRMC,143806.500,A,4308.3051,N,07726.2663,W,0.01,256.87,220923,,,A*7B
$GPGGA,143806.750,4308.3051,N,07726.2663,W,1,07,1.52,158.9,M,-34.4,M,,*53
$GPRMC,143807.000,A,4308.3051,N,07726.2663,W,0.01,291.02,220923,,,A*79
$GPGGA,143807.250,4308.3051,N,07726.2663,W,1,07,1.52,158.9,M,-34.4,M,,*57
$GPRMC,143807.500,A,4308.3051,N,07726.2663,W,0.02,346.19,220923,,,A*7E
$GPGGA,143807.750,4308.3051,N,07726.2663,W,1,07,1.52,158.9,M,-34.4,M,,*52
$GPRMC,143808.000,A,4308.3051,N,07726.2663,W,0.02,290.57,220923,,,A*74
$GPGGA,143808.250,4308.3051,N,07726.2663,W,1,07,1.52,158.9,M,-34.4,M,,*58
$GPRMC,143808.500,A,4308.3052,N,07726.2663,W,0.01,351.53,220923,,,A*79
$GPGGA,143808.750,4308.3052,N,07726.2663,W,1,07,1.52,158.9,M,-34.4,M,,*5E
$GPRMC,143809.000,A,4308.3052,N,07726.2663,W,0.02,2.62,220923,,,A*79
$GPGGA,143809.250,4308.3052,N,07726.2663,W,1,07,1.52,158.9,M,-34.4,M,,*5A
$GPRMC,143809.500,A,4308.3052,N,07726.2663,W,0.06,18.02,220923,,,A*45
$GPGGA,143809.750,4308.3052,N,07726.2663,W,1,07,1.33,158.9,M,-34.4,M,,*58
$GPRMC,143810.000,A,4308.3052,N,07726.2663,W,0.29,24.87,220923,,,A*47
$GPGGA,143810.250,4308.3052,N,07726.2663,W,1,07,1.33,158.9,M,-34.4,M,,*55
$GPRMC,143810.500,A,4308.3052,N,07726.2663,W,0.52,20.13,220923,,,A*47
$GPGGA,143810.750,4308.3053,N,07726.2663,W,1,07,1.33,158.9,M,-34.4,M,,*51
$GPRMC,143811.000,A,4308.3057,N,07726.2664,W,1.13,16.84,220923,,,A*4E
$GPGGA,143811.250,4308.3060,N,07726.2665,W,1,07,1.52,159.1,M,-34.4,M,,*5D
$GPRMC,143811.500,A,4308.3064,N,07726.2664,W,3.44,14.23,220923,,,A*44
$GPGGA,143811.750,4308.3068,N,07726.2664,W,1,07,1.52,159.2,M,-34.4,M,,*52
$GPRMC,143812.000,A,4308.3072,N,07726.2664,W,5.03,8.27,220923,,,A*79
$GPGGA,143812.250,4308.3077,N,07726.2664,W,1,07,1.52,159.3,M,-34.4,M,,*5B
$GPRMC,143812.500,A,4308.3082,N,07726.2666,W,5.85,359.06,220923,,,A*7B
$GPGGA,143812.750,4308.3087,N,07726.2667,W,1,07,1.52,159.4,M,-34.4,M,,*55
$GPRMC,143813.000,A,4308.3091,N,07726.2667,W,5.81,0.74,220923,,,A*72
$GPGGA,143813.250,4308.3096,N,07726.2667,W,1,07,1.52,159.6,M,-34.4,M,,*53
$GPRMC,143813.500,A,4308.3099,N,07726.2668,W,5.20,354.00,220923,,,A*7A
$GPGGA,143813.750,4308.3103,N,07726.2669,W,1,07,1.52,159.8,M,-34.4,M,,*5B
$GPRMC,143814.000,A,4308.3107,N,07726.2669,W,4.87,350.60,220923,,,A*71
$GPGGA,143814.250,4308.3111,N,07726.2670,W,1,07,1.52,159.9,M,-34.4,M,,*53
$GPRMC,143814.500,A,4308.3114,N,07726.2671,W,4.74,347.39,220923,,,A*79
$GPGGA,143814.750,4308.3118,N,07726.2673,W,1,07,1.52,160.0,M,-34.4,M,,*5F
$GPRMC,143815.000,A,4308.3121,N,07726.2674,W,4.65,339.04,220923,,,A*79
$GPGGA,143815.250,4308.3124,N,07726.2676,W,1,07,1.33,160.1,M,-34.4,M,,*57
$GPRMC,143815.500,A,4308.3127,N,07726.2677,W,3.95,331.80,220923,,,A*75
$GPGGA,143815.750,4308.3129,N,07726.2679,W,1,07,1.52,160.3,M,-34.4,M,,*55
$GPRMC,143816.000,A,4308.3131,N,07726.2680,W,3.40,321.30,220923,,,A*7E
$GPGGA,143816.250,4308.3134,N,07726.2682,W,1,07,1.33,160.6,M,-34.4,M,,*59
$GPRMC,143816.500,A,4308.3136,N,07726.2684,W,3.58,320.40,220923,,,A*77
$GPGGA,143816.750,4308.3139,N,07726.2687,W,1,07,1.33,160.8,M,-34.4,M,,*5A
$GPRMC,143817.000,A,4308.3141,N,07726.2690,W,4.10,310.43,220923,,,A*7D
$GPGGA,143817.250,4308.3142,N,07726.2693,W,1,07,1.52,160.9,M,-34.4,M,,*51
$GPRMC,143817.500,A,4308.3144,N,07726.2696,W,4.17,307.66,220923,,,A*7D
$GPGGA,143817.750,4308.3146,N,07726.2699,W,1,07,1.52,161.0,M,-34.4,M,,*52
$GPRMC,143818.000,A,4308.3147,N,07726.2702,W,4.04,295.92,220923,,,A*7B
$GPGGA,143818.250,4308.3148,N,07726.2706,W,1,07,1.52,161.1,M,-34.4,M,,*50
$GPRMC,143818.500,A,4308.3148,N,07726.2709,W,3.76,281.66,220923,,,A*76
$GPGGA,143818.750,4308.3148,N,07726.2712,W,1,07,1.33,161.3,M,-34.4,M,,*55
$GPRMC,143819.000,A,4308.3148,N,07726.2714,W,2.91,272.75,220923,,,A*78
$GPGGA,143819.250,4308.3148,N,07726.2716,W,1,07,1.33,161.4,M,-34.4,M,,*52
$GPRMC,143819.500,A,4308.3149,N,07726.2716,W,1.23,292.96,220923,,,A*77
$GPGGA,143819.750,4308.3149,N,07726.2715,W,1,07,1.33,161.7,M,-34.4,M,,*56
$GPRMC,143820.000,A,4308.3149,N,07726.2713,W,0.64,28.73,220923,,,A*47
$GPGGA,143820.250,4308.3150,N,07726.2712,W,1,07,1.33,161.8,M,-34.4,M,,*59
$GPRMC,143820.500,A,4308.3150,N,07726.2707,W,1.59,66.72,220923,,,A*4B
$GPGGA,143820.750,4308.3149,N,07726.2701,W,1,07,1.33,161.9,M,-34.4,M,,*57
$GPRMC,143821.000,A,4308.3149,N,07726.2695,W,4.67,77.06,220923,,,A*46
$GPGGA,143821.250,4308.3150,N,07726.2689,W,1,07,1.33,162.1,M,-34.4,M,,*51
$GPRMC,143821.500,A,4308.3151,N,07726.2681,W,6.88,78.80,220923,,,A*4D
$GPGGA,143821.750,4308.3150,N,07726.2672,W,1,07,1.52,162.3,M,-34.4,M,,*55
$GPRMC,143822.000,A,4308.3149,N,07726.2661,W,9.73,89.37,220923,,,A*45
$GPGGA,143822.250,4308.3149,N,07726.2650,W,1,07,1.33,162.4,M,-34.4,M,,*5B
$GPRMC,143822.500,A,4308.3149,N,07726.2638,W,11.32,88.50,220923,,,A*70
$GPGGA,143822.750,4308.3149,N,07726.2625,W,1,07,1.33,162.6,M,-34.4,M,,*5E
$GPRMC,143823.000,A,4308.3149,N,07726.2611,W,13.26,88.59,220923,,,A*71
$GPGGA,143823.250,4308.3149,N,07726.2597,W,1,07,1.33,162.7,M,-34.4,M,,*51
$GPRMC,143823.500,A,4308.3149,N,07726.2582,W,14.46,88.46,220923,,,A*72
$GPGGA,143823.750,4308.3149,N,07726.2566,W,1,07,1.33,162.9,M,-34.4,M,,*54
$GPRMC,143824.000,A,4308.3150,N,07726.2551,W,15.62,87.87,220923,,,A*73
$GPGGA,143824.250,4308.3150,N,07726.2535,W,1,07,1.33,163.0,M,-34.4,M,,*50
$GPRMC,143824.500,A,4308.3151,N,07726.2520,W,15.77,88.61,220923,,,A*72
$GPGGA,143824.750,4308.3151,N,07726.2504,W,1,07,1.33,163.2,M,-34.4,M,,*54
$GPRMC,143825.000,A,4308.3152,N,07726.2487,W,16.64,88.37,220923,,,A*7B
$GPGGA,143825.250,4308.3152,N,07726.2470,W,1,07,1.33,163.4,M,-34.4,M,,*57
$GPRMC,143825.500,A,4308.3152,N,07726.2453,W,17.34,88.92,220923,,,A*7C
$GPGGA,143825.750,4308.3151,N,07726.2435,W,1,07,1.52,163.5,M,-34.4,M,,*56
$GPRMC,143826.000,A,4308.3151,N,07726.2418,W,17.90,89.89,220923,,,A*73
$GPGGA,143826.250,4308.3152,N,07726.2400,W,1,07,1.33,163.6,M,-34.4,M,,*51
$GPRMC,143826.500,A,4308.3151,N,07726.2382,W,18.14,90.35,220923,,,A*7E
$GPGGA,143826.750,4308.3151,N,07726.2364,W,1,07,1.52,163.7,M,-34.4,M,,*54
$GPRMC,143827.000,A,4308.3151,N,07726.2346,W,18.55,89.67,220923,,,A*78
$GPGGA,143827.250,4308.3152,N,07726.2328,W,1,07,1.52,163.7,M,-34.4,M,,*5B
$GPRMC,143827.500,A,4308.3152,N,07726.2309,W,19.21,90.30,220923,,,A*7D
$GPGGA,143827.750,4308.3152,N,07726.2290,W,1,07,1.52,163.7,M,-34.4,M,,*5C
$GPRMC,143828.000,A,4308.3152,N,07726.2271,W,19.43,90.25,220923,,,A*79
$GPGGA,143828.250,4308.3151,N,07726.2252,W,1,07,1.52,163.8,M,-34.4,M,,*54
$GPRMC,143828.500,A,4308.3151,N,07726.2232,W,19.85,91.47,220923,,,A*77
$GPGGA,143828.750,4308.3151,N,07726.2213,W,1,07,1.52,163.9,M,-34.4,M,,*55
$GPRMC,143829.000,A,4308.3150,N,07726.2193,W,20.33,92.04,220923,,,A*79
$GPGGA,143829.250,4308.3149,N,07726.2173,W,1,07,1.52,164.1,M,-34.4,M,,*52
$GPRMC,143829.500,A,4308.3149,N,07726.2152,W,21.13,92.15,220923,,,A*7A
$GPGGA,143829.750,4308.3148,N,07726.2131,W,1,07,1.52,164.2,M,-34.4,M,,*53
$GPRMC,143830.000,A,4308.3148,N,07726.2110,W,22.37,92.67,220923,,,A*70
$GPGGA,143830.250,4308.3147,N,07726.2088,W,1,07,1.33,164.4,M,-34.4,M,,*53
$GPRMC,143830.500,A,4308.3147,N,07726.2067,W,22.39,92.62,220923,,,A*70
$GPGGA,143830.750,4308.3146,N,07726.2045,W,1,07,1.33,164.5,M,-34.4,M,,*57
$GPRMC,143831.000,A,4308.3146,N,07726.2024,W,22.65,91.17,220923,,,A*7A
$GPGGA,143831.250,4308.3146,N,07726.2002,W,1,07,1.33,164.7,M,-34.4,M,,*52
$GPRMC,143831.500,A,4308.3145,N,07726.1980,W,22.81,91.13,220923,,,A*76
$GPGGA,143831.750,4308.3145,N,07726.1957,W,1,07,1.33,164.8,M,-34.4,M,,*51
$GPRMC,143832.000,A,4308.3144,N,07726.1935,W,23.48,91.53,220923,,,A*7F
$GPGGA,143832.250,4308.3143,N,07726.1912,W,1,07,1.33,165.0,M,-34.4,M,,*59
$GPRMC,143832.500,A,4308.3142,N,07726.1889,W,24.04,92.08,220923,,,A*78
$GPGGA,143832.750,4308.3141,N,07726.1865,W,1,07,1.33,165.1,M,-34.4,M,,*5E
$GPRMC,143833.000,A,4308.3140,N,07726.1841,W,24.67,92.32,220923,,,A*76
$GPGGA,143833.250,4308.3140,N,07726.1817,W,1,07,1.33,165.3,M,-34.4,M,,*5C
$GPRMC,143833.500,A,4308.3139,N,07726.1793,W,25.04,92.42,220923,,,A*7E
$GPGGA,143833.750,4308.3138,N,07726.1768,W,1,07,1.33,165.5,M,-34.4,M,,*57
$GPRMC,143834.000,A,4308.3137,N,07726.1744,W,25.45,92.38,220923,,,A*70
$GPGGA,143834.250,4308.3136,N,07726.1719,W,1,07,1.33,165.6,M,-34.4,M,,*5E
$GPRMC,143834.500,A,4308.3135,N,07726.1694,W,25.69,92.09,220923,,,A*77
$GPGGA,143834.750,4308.3134,N,07726.1669,W,1,07,1.33,165.7,M,-34.4,M,,*5E
$GPRMC,143835.000,A,4308.3134,N,07726.1644,W,26.07,91.15,220923,,,A*7A
$GPGGA,143835.250,4308.3135,N,07726.1620,W,1,07,1.33,165.8,M,-34.4,M,,*59
$GPRMC,143835.500,A,4308.3136,N,07726.1596,W,25.98,86.89,220923,,,A*77
$GPGGA,143835.750,4308.3139,N,07726.1571,W,1,07,1.33,165.9,M,-34.4,M,,*56
$GPRMC,143836.000,A,4308.3141,N,07726.1547,W,25.68,83.21,220923,,,A*75
$GPGGA,143836.250,4308.3144,N,07726.1522,W,1,07,1.33,166.1,M,-34.4,M,,*57
$GPRMC,143836.500,A,4308.3147,N,07726.1498,W,25.85,81.45,220923,,,A*76
$GPGGA,143836.750,4308.3151,N,07726.1474,W,1,07,1.33,166.3,M,-34.4,M,,*56
$GPRMC,143837.000,A,4308.3155,N,07726.1451,W,25.03,78.90,220923,,,A*74
$GPGGA,143837.250,4308.3159,N,07726.1428,W,1,07,1.33,166.4,M,-34.4,M,,*54
$GPRMC,143837.500,A,4308.3165,N,07726.1405,W,24.69,75.69,220923,,,A*75
$GPGGA,143837.750,4308.3172,N,07726.1383,W,1,07,1.33,166.6,M,-34.4,M,,*5C
$GPRMC,143838.000,A,4308.3178,N,07726.1362,W,24.12,72.56,220923,,,A*72
$GPGGA,143838.250,4308.3185,N,07726.1341,W,1,07,1.33,166.8,M,-34.4,M,,*5E
$GPRMC,143838.500,A,4308.3192,N,07726.1320,W,23.76,69.61,220923,,,A*7E
$GPGGA,143838.750,4308.3200,N,07726.1300,W,1,07,1.33,167.1,M,-34.4,M,,*58
$GPRMC,143839.000,A,4308.3208,N,07726.1281,W,23.07,66.27,220923,,,A*7B
$GPGGA,143839.250,4308.3218,N,07726.1262,W,1,07,1.33,167.4,M,-34.4,M,,*55
$GPRMC,143839.500,A,4308.3229,N,07726.1246,W,22.48,60.33,220923,,,A*7F
$GPGGA,143839.750,4308.3239,N,07726.1228,W,1,07,1.33,167.6,M,-34.4,M,,*5F
$GPRMC,143840.000,A,4308.3251,N,07726.1214,W,22.17,55.67,220923,,,A*71
$GPGGA,143840.250,4308.3261,N,07726.1198,W,1,07,1.33,167.8,M,-34.4,M,,*5F
$GPRMC,143840.500,A,4308.3271,N,07726.1182,W,21.63,54.19,220923,,,A*72
$GPGGA,143840.750,4308.3281,N,07726.1167,W,1,07,1.33,168.0,M,-34.4,M,,*53
$GPRMC,143841.000,A,4308.3291,N,07726.1152,W,20.99,52.46,220923,,,A*7D
$GPGGA,143841.250,4308.3302,N,07726.1138,W,1,07,1.33,168.2,M,-34.4,M,,*55
$GPRMC,143841.500,A,4308.3313,N,07726.1124,W,20.72,50.49,220923,,,A*7A
$GPGGA,143841.750,4308.3324,N,07726.1112,W,1,07,1.33,168.3,M,-34.4,M,,*5D
$GPRMC,143842.000,A,4308.3337,N,07726.1101,W,20.30,46.90,220923,,,A*78
$GPGGA,143842.250,4308.3351,N,07726.1091,W,1,07,1.33,168.5,M,-34.4,M,,*55
$GPRMC,143842.500,A,4308.3366,N,07726.1083,W,20.09,41.49,220923,,,A*7B
$GPGGA,143842.750,4308.3380,N,07726.1076,W,1,07,1.33,168.6,M,-34.4,M,,*56
$GPRMC,143843.000,A,4308.3394,N,07726.1070,W,19.24,36.77,220923,,,A*76
$GPGGA,143843.250,4308.3421,N,07726.1078,W,1,07,1.33,168.8,M,-34.4,M,,*5E
$GPRMC,143843.500,A,4308.3450,N,07726.1090,W,21.22,9.97,220923,,,A*4D
$GPGGA,143843.750,4308.3473,N,07726.1095,W,1,07,1.52,169.0,M,-34.4,M,,*51
$GPRMC,143844.000,A,4308.3493,N,07726.1098,W,23.57,4.57,220923,,,A*49
$GPGGA,143844.250,4308.3512,N,07726.1099,W,1,07,1.52,169.1,M,-34.4,M,,*58
$GPRMC,143844.500,A,4308.3530,N,07726.1099,W,24.07,2.93,220923,,,A*49
$GPGGA,143844.750,4308.3549,N,07726.1100,W,1,07,1.52,169.3,M,-34.4,M,,*50
$GPRMC,143845.000,A,4308.3567,N,07726.1100,W,24.51,2.46,220923,,,A*45
$GPGGA,143845.250,4308.3586,N,07726.1101,W,1,07,1.52,169.4,M,-34.4,M,,*51
$GPRMC,143845.500,A,4308.3606,N,07726.1102,W,24.97,2.76,220923,,,A*4F
$GPGGA,143845.750,4308.3627,N,07726.1104,W,1,07,1.52,169.5,M,-34.4,M,,*58
$GPRMC,143846.000,A,4308.3647,N,07726.1105,W,25.19,2.55,220923,,,A*4D
$GPGGA,143846.250,4308.3667,N,07726.1107,W,1,07,1.52,169.8,M,-34.4,M,,*54
$GPRMC,143846.500,A,4308.3687,N,07726.1109,W,25.21,2.47,220923,,,A*40
$GPGGA,143846.750,4308.3707,N,07726.1110,W,1,07,1.52,170.1,M,-34.4,M,,*51
$GPRMC,143847.000,A,4308.3727,N,07726.1111,W,25.26,3.04,220923,,,A*47
$GPGGA,143847.250,4308.3748,N,07726.1112,W,1,07,1.33,170.4,M,-34.4,M,,*5E
$GPRMC,143847.500,A,4308.3768,N,07726.1113,W,25.70,1.92,220923,,,A*45
$GPGGA,143847.750,4308.3789,N,07726.1115,W,1,07,1.33,170.7,M,-34.4,M,,*52
$GPRMC,143848.000,A,4308.3809,N,07726.1117,W,26.40,0.65,220923,,,A*4A
$GPGGA,143848.250,4308.3830,N,07726.1118,W,1,07,1.33,171.0,M,-34.4,M,,*5E
$GPRMC,143848.500,A,4308.3849,N,07726.1119,W,26.66,359.92,220923,,,A*46
$GPGGA,143848.750,4308.3869,N,07726.1120,W,1,07,1.33,171.3,M,-34.4,M,,*5F
$GPRMC,143849.000,A,4308.3889,N,07726.1122,W,26.81,358.98,220923,,,A*44
$GPGGA,143849.250,4308.3909,N,07726.1124,W,1,07,1.33,171.6,M,-34.4,M,,*5D
$GPRMC,143849.500,A,4308.3928,N,07726.1126,W,26.73,358.81,220923,,,A*4A
$GPGGA,143849.750,4308.3947,N,07726.1127,W,1,07,1.33,171.9,M,-34.4,M,,*5E
$GPRMC,143850.000,A,4308.3966,N,07726.1129,W,26.41,358.62,220923,,,A*4E
$GPGGA,143850.250,4308.3985,N,07726.1131,W,1,07,1.33,172.0,M,-34.4,M,,*50
$GPRMC,143850.500,A,4308.4004,N,07726.1132,W,26.13,358.77,220923,,,A*48
$GPGGA,143850.750,4308.4023,N,07726.1133,W,1,07,1.33,172.3,M,-34.4,M,,*56
$GPRMC,143851.000,A,4308.4041,N,07726.1134,W,25.51,359.30,220923,,,A*4C
$GPGGA,143851.250,4308.4060,N,07726.1134,W,1,07,1.33,172.4,M,-34.4,M,,*55
$GPRMC,143851.500,A,4308.4078,N,07726.1135,W,25.47,359.41,220923,,,A*43
$GPGGA,143851.750,4308.4097,N,07726.1136,W,1,07,1.52,172.7,M,-34.4,M,,*5E
$GPRMC,143852.000,A,4308.4115,N,07726.1137,W,25.44,359.53,220923,,,A*4D
$GPGGA,143852.250,4308.4133,N,07726.1138,W,1,07,1.33,173.0,M,-34.4,M,,*58
$GPRMC,143852.500,A,4308.4152,N,07726.1138,W,25.20,359.66,220923,,,A*40
$GPGGA,143852.750,4308.4169,N,07726.1138,W,1,07,1.52,173.3,M,-34.4,M,,*56
$GPRMC,143853.000,A,4308.4187,N,07726.1138,W,24.50,359.65,220923,,,A*49
$GPGGA,143853.250,4308.4204,N,07726.1139,W,1,07,1.52,173.6,M,-34.4,M,,*5E
$GPRMC,143853.500,A,4308.4220,N,07726.1139,W,23.74,359.69,220923,,,A*4E
$GPGGA,143853.750,4308.4236,N,07726.1139,W,1,07,1.52,174.1,M,-34.4,M,,*5A
$GPRMC,143854.000,A,4308.4251,N,07726.1138,W,22.08,0.04,220923,,,A*45
$GPGGA,143854.250,4308.4265,N,07726.1138,W,1,07,1.52,174.4,M,-34.4,M,,*5A
$GPRMC,143854.500,A,4308.4278,N,07726.1138,W,19.85,359.96,220923,,,A*42
$GPGGA,143854.750,4308.4291,N,07726.1137,W,1,07,1.52,174.7,M,-34.4,M,,*58
$GPRMC,143855.000,A,4308.4303,N,07726.1137,W,18.28,0.43,220923,,,A*45
$GPGGA,143855.250,4308.4313,N,07726.1137,W,1,07,1.52,175.0,M,-34.4,M,,*51
$GPRMC,143855.500,A,4308.4323,N,07726.1136,W,16.09,359.82,220923,,,A*4C
$GPGGA,143855.750,4308.4333,N,07726.1136,W,1,07,1.52,175.4,M,-34.4,M,,*53
$GPRMC,143856.000,A,4308.4342,N,07726.1136,W,14.50,358.60,220923,,,A*4E
$GPGGA,143856.250,4308.4351,N,07726.1136,W,1,07,1.52,175.7,M,-34.4,M,,*52
$GPRMC,143856.500,A,4308.4359,N,07726.1135,W,13.32,358.62,220923,,,A*43
$GPGGA,143856.750,4308.4363,N,07726.1129,W,1,07,1.52,175.9,M,-34.4,M,,*56
$GPRMC,143857.000,A,4308.4370,N,07726.1126,W,11.57,7.33,220923,,,A*42
$GPGGA,143857.250,4308.4370,N,07726.1117,W,1,07,1.52,176.2,M,-34.4,M,,*55
$GPRMC,143857.500,A,4308.4372,N,07726.1107,W,9.70,31.48,220923,,,A*43
$GPGGA,143857.750,4308.4377,N,07726.1100,W,1,07,1.52,176.4,M,-34.4,M,,*57
$GPRMC,143858.000,A,4308.4382,N,07726.1091,W,11.06,44.08,220923,,,A*76
$GPGGA,143858.250,4308.4387,N,07726.1083,W,1,07,1.33,176.7,M,-34.4,M,,*5C
$GPRMC,143858.500,A,4308.4391,N,07726.1073,W,12.18,56.08,220923,,,A*72
$GPGGA,143858.750,4308.4395,N,07726.1061,W,1,07,1.52,177.1,M,-34.4,M,,*56
$GPRMC,143859.000,A,4308.4399,N,07726.1047,W,14.50,65.58,220923,,,A*76
$GPGGA,143859.250,4308.4402,N,07726.1033,W,1,07,1.33,177.0,M,-34.4,M,,*5A
$GPRMC,143859.500,A,4308.4405,N,07726.1018,W,15.57,72.13,220923,,,A*74
$GPGGA,143859.750,4308.4407,N,07726.1003,W,1,07,1.52,177.4,M,-34.4,M,,*5A
$GPRMC,143900.000,A,4308.4410,N,07726.0986,W,17.53,77.37,220923,,,A*72
$GPGGA,143900.250,4308.4411,N,07726.0968,W,1,07,1.33,177.2,M,-34.4,M,,*51
$GPRMC,143900.500,A,4308.4414,N,07726.0950,W,19.41,79.52,220923,,,A*78
$GPGGA,143900.750,4308.4416,N,07726.0930,W,1,07,1.52,177.6,M,-34.4,M,,*5D
$GPRMC,143901.000,A,4308.4419,N,07726.0909,W,21.35,80.23,220923,,,A*75
$GPGGA,143901.250,4308.4420,N,07726.0888,W,1,07,1.33,177.3,M,-34.4,M,,*5C
$GPRMC,143901.500,A,4308.4423,N,07726.0866,W,23.07,79.75,220923,,,A*77
$GPGGA,143901.750,4308.4426,N,07726.0843,W,1,07,1.52,177.5,M,-34.4,M,,*59
$GPRMC,143902.000,A,4308.4430,N,07726.0820,W,24.33,77.85,220923,,,A*70
$GPGGA,143902.250,4308.4434,N,07726.0796,W,1,07,1.33,177.5,M,-34.4,M,,*5C
$GPRMC,143902.500,A,4308.4437,N,07726.0773,W,25.11,76.99,220923,,,A*76
$GPGGA,143902.750,4308.4441,N,07726.0748,W,1,07,1.33,177.5,M,-34.4,M,,*58
$GPRMC,143903.000,A,4308.4445,N,07726.0724,W,25.92,77.13,220923,,,A*7D
$GPGGA,143903.250,4308.4449,N,07726.0699,W,1,07,1.33,177.5,M,-34.4,M,,*59
$GPRMC,143903.500,A,4308.4453,N,07726.0674,W,26.79,77.49,220923,,,A*72
$GPGGA,143903.750,4308.4457,N,07726.0648,W,1,07,1.33,177.6,M,-34.4,M,,*5C
$GPRMC,143904.000,A,4308.4462,N,07726.0622,W,27.79,76.87,220923,,,A*73
$GPGGA,143904.250,4308.4468,N,07726.0595,W,1,07,1.33,177.7,M,-34.4,M,,*50
$GPRMC,143904.500,A,4308.4473,N,07726.0569,W,28.64,75.71,220923,,,A*73
$GPGGA,143904.750,4308.4478,N,07726.0541,W,1,07,1.33,177.8,M,-34.4,M,,*52
$GPRMC,143905.000,A,4308.4484,N,07726.0513,W,29.77,75.25,220923,,,A*70
$GPGGA,143905.250,4308.4489,N,07726.0485,W,1,07,1.33,178.0,M,-34.4,M,,*56
$GPRMC,143905.500,A,4308.4495,N,07726.0456,W,30.61,75.09,220923,,,A*74
$GPGGA,143905.750,4308.4501,N,07726.0427,W,1,07,1.52,178.2,M,-34.4,M,,*5F
$GPRMC,143906.000,A,4308.4506,N,07726.0398,W,30.88,75.24,220923,,,A*74
$GPGGA,143906.250,4308.4512,N,07726.0369,W,1,07,1.33,178.6,M,-34.4,M,,*55
$GPRMC,143906.500,A,4308.4517,N,07726.0340,W,31.19,75.41,220923,,,A*7E
$GPGGA,143906.750,4308.4524,N,07726.0311,W,1,07,1.52,179.0,M,-34.4,M,,*5A
$GPRMC,143907.000,A,4308.4530,N,07726.0281,W,31.61,74.46,220923,,,A*7A
$GPGGA,143907.250,4308.4536,N,07726.0252,W,1,07,1.33,179.4,M,-34.4,M,,*58
$GPRMC,143907.500,A,4308.4543,N,07726.0223,W,31.87,73.34,220923,,,A*79
$GPGGA,143907.750,4308.4549,N,07726.0193,W,1,07,1.33,179.5,M,-34.4,M,,*5A
$GPRMC,143908.000,A,4308.4556,N,07726.0163,W,32.31,72.92,220923,,,A*73
$GPGGA,143908.250,4308.4563,N,07726.0134,W,1,07,1.33,179.9,M,-34.4,M,,*59
$GPRMC,143908.500,A,4308.4570,N,07726.0105,W,32.21,71.22,220923,,,A*7B
$GPGGA,143908.750,4308.4580,N,07726.0075,W,1,07,1.33,180.2,M,-34.4,M,,*58
$GPRMC,143909.000,A,4308.4590,N,07726.0044,W,32.80,67.41,220923,,,A*7C
$GPGGA,143909.250,4308.4600,N,07726.0015,W,1,07,1.33,180.5,M,-34.4,M,,*56
$GPRMC,143909.500,A,4308.4610,N,07725.9985,W,33.13,64.69,220923,,,A*7E
$GPGGA,143909.750,4308.4621,N,07725.9956,W,1,07,1.52,180.7,M,-34.4,M,,*51
$GPRMC,143910.000,A,4308.4633,N,07725.9927,W,33.45,61.79,220923,,,A*7D
$GPGGA,143910.250,4308.4646,N,07725.9899,W,1,07,1.33,180.7,M,-34.4,M,,*58
$GPRMC,143910.500,A,4308.4659,N,07725.9871,W,34.33,57.74,220923,,,A*78
$GPGGA,143910.750,4308.4674,N,07725.9843,W,1,07,1.52,180.7,M,-34.4,M,,*5C
$GPRMC,143911.000,A,4308.4690,N,07725.9816,W,34.83,52.33,220923,,,A*75
$GPGGA,143911.250,4308.4705,N,07725.9790,W,1,07,1.33,180.8,M,-34.4,M,,*56
$GPRMC,143911.500,A,4308.4722,N,07725.9763,W,36.13,49.97,220923,,,A*7A
$GPGGA,143911.750,4308.4739,N,07725.9736,W,1,07,1.52,180.9,M,-34.4,M,,*56
$GPRMC,143912.000,A,4308.4756,N,07725.9710,W,36.96,49.12,220923,,,A*7B
$GPGGA,143912.250,4308.4776,N,07725.9686,W,1,07,1.33,181.0,M,-34.4,M,,*5E
$GPRMC,143912.500,A,4308.4796,N,07725.9661,W,38.00,44.87,220923,,,A*75
$GPGGA,143912.750,4308.4815,N,07725.9635,W,1,07,1.52,181.1,M,-34.4,M,,*5F
$GPRMC,143913.000,A,4308.4835,N,07725.9609,W,38.81,44.60,220923,,,A*79
$GPGGA,143913.250,4308.4854,N,07725.9584,W,1,07,1.33,181.2,M,-34.4,M,,*53
$GPRMC,143913.500,A,4308.4873,N,07725.9557,W,39.29,44.88,220923,,,A*73
$GPGGA,143913.750,4308.4893,N,07725.9531,W,1,07,1.33,181.4,M,-34.4,M,,*55
$GPRMC,143914.000,A,4308.4912,N,07725.9503,W,39.82,45.36,220923,,,A*73
$GPGGA,143914.250,4308.4931,N,07725.9476,W,1,07,1.33,181.6,M,-34.4,M,,*5E
$GPRMC,143914.500,A,4308.4951,N,07725.9449,W,40.27,46.06,220923,,,A*7F
$GPGGA,143914.750,4308.4970,N,07725.9421,W,1,07,1.33,181.8,M,-34.4,M,,*52
$GPRMC,143915.000,A,4308.4989,N,07725.9393,W,40.53,46.42,220923,,,A*7D
$GPGGA,143915.250,4308.5008,N,07725.9365,W,1,07,1.33,182.0,M,-34.4,M,,*5D
$GPRMC,143915.500,A,4308.5028,N,07725.9338,W,40.80,46.56,220923,,,A*71
$GPGGA,143915.750,4308.5048,N,07725.9309,W,1,07,1.33,182.2,M,-34.4,M,,*54
$GPRMC,143916.000,A,4308.5068,N,07725.9281,W,41.45,46.05,220923,,,A*7E
$GPGGA,143916.250,4308.5088,N,07725.9252,W,1,07,1.33,182.4,M,-34.4,M,,*57
$GPRMC,143916.500,A,4308.5108,N,07725.9224,W,41.75,45.85,220923,,,A*7B
$GPGGA,143916.750,4308.5128,N,07725.9195,W,1,07,1.33,182.4,M,-34.4,M,,*51
$GPRMC,143917.000,A,4308.5149,N,07725.9166,W,42.77,45.49,220923,,,A*7E
$GPGGA,143917.250,4308.5169,N,07725.9136,W,1,07,1.33,182.6,M,-34.4,M,,*5B
$GPRMC,143917.500,A,4308.5190,N,07725.9107,W,42.97,45.44,220923,,,A*7B
$GPGGA,143917.750,4308.5211,N,07725.9078,W,1,07,1.52,182.8,M,-34.4,M,,*50
$GPRMC,143918.000,A,4308.5231,N,07725.9048,W,43.63,45.68,220923,,,A*77
$GPGGA,143918.250,4308.5252,N,07725.9018,W,1,07,1.33,183.1,M,-34.4,M,,*54
$GPRMC,143918.500,A,4308.5273,N,07725.8989,W,43.62,45.58,220923,,,A*73
$GPGGA,143918.750,4308.5294,N,07725.8960,W,1,07,1.52,183.3,M,-34.4,M,,*59
$GPRMC,143919.000,A,4308.5316,N,07725.8930,W,43.68,45.48,220923,,,A*7C
$GPGGA,143919.250,4308.5337,N,07725.8901,W,1,07,1.33,183.3,M,-34.4,M,,*55
$GPRMC,143919.500,A,4308.5358,N,07725.8872,W,43.73,45.41,220923,,,A*77
$GPGGA,143919.750,4308.5379,N,07725.8842,W,1,07,1.52,183.6,M,-34.4,M,,*5E
$GPRMC,143920.000,A,4308.5400,N,07725.8813,W,43.73,45.81,220923,,,A*79
$GPGGA,143920.250,4308.5421,N,07725.8784,W,1,07,1.33,183.9,M,-34.4,M,,*56
$GPRMC,143920.500,A,4308.5441,N,07725.8754,W,43.67,46.19,220923,,,A*72
$GPGGA,143920.750,4308.5462,N,07725.8725,W,1,07,1.33,183.8,M,-34.4,M,,*5E
$GPRMC,143921.000,A,4308.5482,N,07725.8695,W,43.44,46.43,220923,,,A*7B
$GPGGA,143921.250,4308.5502,N,07725.8666,W,1,07,1.33,184.0,M,-34.4,M,,*54
$GPRMC,143921.500,A,4308.5522,N,07725.8637,W,43.02,46.86,220923,,,A*76
$GPGGA,143921.750,4308.5542,N,07725.8608,W,1,07,1.33,184.0,M,-34.4,M,,*5D
$GPRMC,143922.000,A,4308.5559,N,07725.8580,W,42.71,46.87,220923,,,A*77
$GPGGA,143922.250,4308.5578,N,07725.8551,W,1,07,1.33,183.7,M,-34.4,M,,*5D
$GPRMC,143922.500,A,4308.5597,N,07725.8523,W,41.16,46.97,220923,,,A*7A
$GPGGA,143922.750,4308.5616,N,07725.8495,W,1,07,1.52,183.6,M,-34.4,M,,*5C
$GPRMC,143923.000,A,4308.5636,N,07725.8468,W,40.73,46.31,220923,,,A*76
$GPGGA,143923.250,4308.5655,N,07725.8440,W,1,07,1.33,183.5,M,-34.4,M,,*53
$GPRMC,143923.500,A,4308.5674,N,07725.8412,W,40.31,47.29,220923,,,A*76
$GPGGA,143923.750,4308.5693,N,07725.8384,W,1,07,1.33,183.5,M,-34.4,M,,*53
$GPRMC,143924.000,A,4308.5712,N,07725.8356,W,39.84,46.39,220923,,,A*72
$GPGGA,143924.250,4308.5730,N,07725.8330,W,1,07,1.52,183.1,M,-34.4,M,,*55
$GPRMC,143924.500,A,4308.5749,N,07725.8302,W,39.54,46.54,220923,,,A*7E
$GPGGA,143924.750,4308.5768,N,07725.8275,W,1,07,1.52,183.0,M,-34.4,M,,*5C
$GPRMC,143925.000,A,4308.5786,N,07725.8249,W,39.32,46.49,220923,,,A*7B
$GPGGA,143925.250,4308.5804,N,07725.8222,W,1,07,1.52,182.7,M,-34.4,M,,*59
$GPRMC,143925.500,A,4308.5823,N,07725.8195,W,39.13,47.11,220923,,,A*73
$GPGGA,143925.750,4308.5841,N,07725.8168,W,1,07,1.52,182.7,M,-34.4,M,,*50
$GPRMC,143926.000,A,4308.5859,N,07725.8141,W,38.39,46.60,220923,,,A*7F
$GPGGA,143926.250,4308.5877,N,07725.8115,W,1,07,1.33,182.7,M,-34.4,M,,*5E
$GPRMC,143926.500,A,4308.5895,N,07725.8089,W,38.13,46.63,220923,,,A*74
$GPGGA,143926.750,4308.5913,N,07725.8063,W,1,07,1.33,182.7,M,-34.4,M,,*58
$GPRMC,143927.000,A,4308.5931,N,07725.8036,W,38.12,46.76,220923,,,A*7E
$GPGGA,143927.250,4308.5949,N,07725.8010,W,1,07,1.33,182.7,M,-34.4,M,,*57
$GPRMC,143927.500,A,4308.5966,N,07725.7984,W,37.70,46.80,220923,,,A*74
$GPGGA,143927.750,4308.5984,N,07725.7958,W,1,07,1.33,182.7,M,-34.4,M,,*59
$GPRMC,143928.000,A,4308.6001,N,07725.7932,W,37.30,47.50,220923,,,A*70
$GPGGA,143928.250,4308.6019,N,07725.7907,W,1,07,1.33,182.8,M,-34.4,M,,*58
$GPRMC,143928.500,A,4308.6035,N,07725.7881,W,37.03,48.47,220923,,,A*72
$GPGGA,143928.750,4308.6052,N,07725.7855,W,1,07,1.33,182.8,M,-34.4,M,,*54
$GPRMC,143929.000,A,4308.6068,N,07725.7829,W,36.76,49.62,220923,,,A*79
$GPGGA,143929.250,4308.6084,N,07725.7802,W,1,07,1.33,182.8,M,-34.4,M,,*59
$GPRMC,143929.500,A,4308.6100,N,07725.7775,W,36.40,51.03,220923,,,A*7E
$GPGGA,143929.750,4308.6115,N,07725.7748,W,1,07,1.33,182.8,M,-34.4,M,,*54
$GPRMC,143930.000,A,4308.6129,N,07725.7720,W,36.16,53.53,220923,,,A*7C
$GPGGA,143930.250,4308.6143,N,07725.7691,W,1,07,1.33,182.8,M,-34.4,M,,*5F
$GPRMC,143930.500,A,4308.6156,N,07725.7662,W,35.83,56.82,220923,,,A*70
$GPGGA,143930.750,4308.6167,N,07725.7632,W,1,07,1.52,182.8,M,-34.4,M,,*52
$GPRMC,143931.000,A,4308.6179,N,07725.7602,W,35.94,60.64,220923,,,A*74
$GPGGA,143931.250,4308.6190,N,07725.7572,W,1,07,1.33,182.9,M,-34.4,M,,*5F
$GPRMC,143931.500,A,4308.6199,N,07725.7542,W,35.61,64.28,220923,,,A*7E
$GPGGA,143931.750,4308.6207,N,07725.7511,W,1,07,1.33,182.9,M,-34.4,M,,*52
$GPRMC,143932.000,A,4308.6213,N,07725.7479,W,35.72,69.81,220923,,,A*7C
$GPGGA,143932.250,4308.6219,N,07725.7447,W,1,07,1.33,182.8,M,-34.4,M,,*58
$GPRMC,143932.500,A,4308.6224,N,07725.7414,W,36.11,74.66,220923,,,A*75
$GPGGA,143932.750,4308.6228,N,07725.7380,W,1,07,1.52,182.8,M,-34.4,M,,*54
$GPRMC,143933.000,A,4308.6231,N,07725.7345,W,36.84,78.88,220923,,,A*76
$GPGGA,143933.250,4308.6235,N,07725.7310,W,1,07,1.34,182.7,M,-34.4,M,,*5A
$GPRMC,143933.500,A,4308.6238,N,07725.7275,W,37.02,81.47,220923,,,A*72
$GPGGA,143933.750,4308.6240,N,07725.7239,W,1,07,1.52,182.7,M,-34.4,M,,*57
$GPRMC,143934.000,A,4308.6241,N,07725.7203,W,37.42,84.33,220923,,,A*7D
$GPGGA,143934.250,4308.6241,N,07725.7166,W,1,07,1.33,182.5,M,-34.4,M,,*58
$GPRMC,143934.500,A,4308.6242,N,07725.7130,W,37.70,86.56,220923,,,A*78
$GPGGA,143934.750,4308.6240,N,07725.7092,W,1,07,1.52,182.3,M,-34.4,M,,*57
$GPRMC,143935.000,A,4308.6240,N,07725.7056,W,37.73,89.55,220923,,,A*70
$GPGGA,143935.250,4308.6239,N,07725.7020,W,1,07,1.33,182.1,M,-34.4,M,,*51
$GPRMC,143935.500,A,4308.6238,N,07725.6983,W,37.77,91.42,220923,,,A*71
$GPGGA,143935.750,4308.6236,N,07725.6948,W,1,07,1.52,181.9,M,-34.4,M,,*51
$GPRMC,143936.000,A,4308.6235,N,07725.6912,W,37.58,92.17,220923,,,A*7C
$GPGGA,143936.250,4308.6234,N,07725.6877,W,1,07,1.33,181.8,M,-34.4,M,,*5E
$GPRMC,143936.500,A,4308.6232,N,07725.6841,W,37.44,92.33,220923,,,A*72
$GPGGA,143936.750,4308.6232,N,07725.6806,W,1,07,1.52,181.7,M,-34.4,M,,*53
$GPRMC,143937.000,A,4308.6231,N,07725.6771,W,37.37,92.02,220923,,,A*7F
$GPGGA,143937.250,4308.6230,N,07725.6736,W,1,07,1.33,181.6,M,-34.4,M,,*5F
$GPRMC,143937.500,A,4308.6230,N,07725.6702,W,37.17,91.83,220923,,,A*77
$GPGGA,143937.750,4308.6229,N,07725.6667,W,1,07,1.33,181.6,M,-34.4,M,,*57
$GPRMC,143938.000,A,4308.6229,N,07725.6633,W,36.99,91.52,220923,,,A*7D
$GPGGA,143938.250,4308.6231,N,07725.6602,W,1,07,1.33,181.4,M,-34.4,M,,*55
$GPRMC,143938.500,A,4308.6231,N,07725.6569,W,35.53,90.55,220923,,,A*7E
$GPGGA,143938.750,4308.6231,N,07725.6537,W,1,07,1.33,180.9,M,-34.4,M,,*59
$GPRMC,143939.000,A,4308.6231,N,07725.6504,W,35.13,90.97,220923,,,A*7B
$GPGGA,143939.250,4308.6230,N,07725.6471,W,1,07,1.33,180.6,M,-34.4,M,,*50
$GPRMC,143939.500,A,4308.6230,N,07725.6438,W,34.77,90.74,220923,,,A*7F
$GPGGA,143939.750,4308.6229,N,07725.6406,W,1,07,1.52,180.5,M,-34.4,M,,*59
$GPRMC,143940.000,A,4308.6229,N,07725.6373,W,34.59,90.95,220923,,,A*77
$GPGGA,143940.250,4308.6228,N,07725.6341,W,1,07,1.52,180.4,M,-34.4,M,,*56
$GPRMC,143940.500,A,4308.6228,N,07725.6309,W,34.37,91.43,220923,,,A*7C
$GPGGA,143940.750,4308.6227,N,07725.6278,W,1,07,1.52,180.3,M,-34.4,M,,*50
$GPRMC,143941.000,A,4308.6226,N,07725.6248,W,32.27,90.89,220923,,,A*72
$GPGGA,143941.250,4308.6225,N,07725.6217,W,1,07,1.52,180.2,M,-34.4,M,,*5E
$GPRMC,143941.500,A,4308.6225,N,07725.6188,W,31.02,90.95,220923,,,A*72
$GPGGA,143941.750,4308.6224,N,07725.6158,W,1,07,1.52,180.1,M,-34.4,M,,*51
$GPRMC,143942.000,A,4308.6223,N,07725.6130,W,30.36,90.61,220923,,,A*7C
$GPGGA,143942.250,4308.6223,N,07725.6101,W,1,07,1.33,180.2,M,-34.4,M,,*58
$GPRMC,143942.500,A,4308.6222,N,07725.6074,W,29.56,90.91,220923,,,A*78
$GPGGA,143942.750,4308.6221,N,07725.6047,W,1,07,1.52,180.3,M,-34.4,M,,*5A
$GPRMC,143943.000,A,4308.6221,N,07725.6022,W,26.24,91.06,220923,,,A*79
$GPGGA,143943.250,4308.6220,N,07725.5998,W,1,07,1.33,180.3,M,-34.4,M,,*50
$GPRMC,143943.500,A,4308.6219,N,07725.5975,W,24.68,91.02,220923,,,A*71
$GPGGA,143943.750,4308.6218,N,07725.5952,W,1,07,1.52,180.5,M,-34.4,M,,*59
$GPRMC,143944.000,A,4308.6218,N,07725.5931,W,23.16,91.47,220923,,,A*7D
$GPGGA,143944.250,4308.6217,N,07725.5910,W,1,07,1.33,180.6,M,-34.4,M,,*56
$GPRMC,143944.500,A,4308.6216,N,07725.5891,W,21.22,93.43,220923,,,A*7E
$GPGGA,143944.750,4308.6214,N,07725.5874,W,1,07,1.52,180.8,M,-34.4,M,,*5A
$GPRMC,143945.000,A,4308.6213,N,07725.5857,W,18.29,96.54,220923,,,A*77
$GPGGA,143945.250,4308.6212,N,07725.5842,W,1,07,1.33,180.9,M,-34.4,M,,*5B
$GPRMC,143945.500,A,4308.6211,N,07725.5832,W,13.85,98.85,220923,,,A*7C
$GPGGA,143945.750,4308.6210,N,07725.5821,W,1,07,1.34,181.0,M,-34.4,M,,*56
$GPRMC,143946.000,A,4308.6209,N,07725.5811,W,11.10,99.89,220923,,,A*71
$GPGGA,143946.250,4308.6207,N,07725.5802,W,1,07,1.33,181.1,M,-34.4,M,,*51
$GPRMC,143946.500,A,4308.6206,N,07725.5794,W,9.31,99.18,220923,,,A*4B
$GPGGA,143946.750,4308.6204,N,07725.5786,W,1,07,1.33,181.1,M,-34.4,M,,*54
$GPRMC,143947.000,A,4308.6201,N,07725.5780,W,8.10,108.08,220923,,,A*77
$GPGGA,143947.250,4308.6197,N,07725.5775,W,1,07,1.34,181.2,M,-34.4,M,,*51
$GPRMC,143947.500,A,4308.6193,N,07725.5769,W,8.11,123.38,220923,,,A*76
$GPGGA,143947.750,4308.6187,N,07725.5765,W,1,07,1.52,181.3,M,-34.4,M,,*55
$GPRMC,143948.000,A,4308.6181,N,07725.5759,W,9.27,135.69,220923,,,A*7B
$GPGGA,143948.250,4308.6174,N,07725.5754,W,1,07,1.33,181.4,M,-34.4,M,,*51
$GPRMC,143948.500,A,4308.6164,N,07725.5751,W,11.09,152.72,220923,,,A*43
$GPGGA,143948.750,4308.6155,N,07725.5748,W,1,07,1.52,181.5,M,-34.4,M,,*5C
$GPRMC,143949.000,A,4308.6146,N,07725.5744,W,13.13,162.28,220923,,,A*46
$GPGGA,143949.250,4308.6136,N,07725.5740,W,1,07,1.33,181.5,M,-34.4,M,,*52
$GPRMC,143949.500,A,4308.6125,N,07725.5737,W,14.45,165.94,220923,,,A*46
$GPGGA,143949.750,4308.6114,N,07725.5734,W,1,07,1.33,181.6,M,-34.4,M,,*57
$GPRMC,143950.000,A,4308.6103,N,07725.5732,W,15.46,170.20,220923,,,A*43
$GPGGA,143950.250,4308.6092,N,07725.5730,W,1,07,1.33,181.7,M,-34.4,M,,*50
$GPRMC,143950.500,A,4308.6081,N,07725.5728,W,15.89,172.10,220923,,,A*44
$GPGGA,143950.750,4308.6069,N,07725.5728,W,1,07,1.33,181.9,M,-34.4,M,,*56
$GPRMC,143951.000,A,4308.6057,N,07725.5729,W,16.54,176.93,220923,,,A*46
$GPGGA,143951.250,4308.6044,N,07725.5730,W,1,07,1.33,182.2,M,-34.4,M,,*5C
$GPRMC,143951.500,A,4308.6032,N,07725.5732,W,16.87,181.86,220923,,,A*48
