Vers 81
USE_SERIAL_FEEDBACK=true
DEVELOPMENT_MODE=false
USE_RMC_ONLY=false

$GPRMC,234717.000,A,4305.7276,N,07725.8624,W,0.11,19.54,290923,,,A*4B
$GPGGA,234717.250,4305.7276,N,07725.8624,W,1,04,1.45,162.0,M,-34.3,M,,*5C
$GPRMC,234717.500,A,4305.7277,N,07725.8624,W,0.13,23.19,290923,,,A*4D
$GPGGA,234717.750,4305.7277,N,07725.8624,W,1,04,1.45,161.9,M,-34.3,M,,*52
$GPRMC,234718.000,A,4305.7277,N,07725.8624,W,0.16,30.26,290923,,,A*4C
$GPGGA,234718.250,4305.7278,N,07725.8624,W,1,04,1.45,161.9,M,-34.3,M,,*57
$GPRMC,234718.500,A,4305.7278,N,07725.8624,W,0.15,31.06,290923,,,A*46
$GPGGA,234718.750,4305.7278,N,07725.8624,W,1,04,1.45,161.8,M,-34.3,M,,*53
$GPRMC,234719.000,A,4305.7278,N,07725.8624,W,0.13,29.00,290923,,,A*4B
$GPGGA,234719.250,4305.7278,N,07725.8624,W,1,04,1.45,161.8,M,-34.3,M,,*57
$GPRMC,234719.500,A,4305.7279,N,07725.8624,W,0.15,6.79,290923,,,A*7A
$GPGGA,234719.750,4305.7280,N,07725.8624,W,1,04,1.45,161.8,M,-34.3,M,,*55
$GPRMC,234720.000,A,4305.7280,N,07725.8624,W,0.16,5.23,290923,,,A*7C
$GPGGA,234720.250,4305.7280,N,07725.8624,W,1,04,1.45,161.8,M,-34.3,M,,*5A
$GPRMC,234720.500,A,4305.7281,N,07725.8623,W,0.22,19.63,290923,,,A*41
$GPGGA,234720.750,4305.7282,N,07725.8623,W,1,04,1.45,161.8,M,-34.3,M,,*5A
$GPRMC,234721.000,A,4305.7283,N,07725.8623,W,0.26,15.87,290923,,,A*45
$GPGGA,234721.250,4305.7283,N,07725.8623,W,1,04,1.45,161.8,M,-34.3,M,,*5F
$GPRMC,234721.500,A,4305.7283,N,07725.8623,W,0.20,6.63,290923,,,A*7E
$GPGGA,234721.750,4305.7283,N,07725.8623,W,1,04,1.45,161.8,M,-34.3,M,,*5A
$GPRMC,234722.000,A,4305.7283,N,07725.8622,W,0.17,355.42,290923,,,A*7B
$GPGGA,234722.250,4305.7284,N,07725.8622,W,1,04,1.45,161.9,M,-34.3,M,,*5B
$GPRMC,234722.500,A,4305.7284,N,07725.8622,W,0.20,350.42,290923,,,A*78
$GPGGA,234722.750,4305.7284,N,07725.8622,W,1,04,1.45,161.9,M,-34.3,M,,*5E
$GPRMC,234723.000,A,4305.7284,N,07725.8621,W,0.22,1.62,290923,,,A*78
$GPGGA,234723.250,4305.7284,N,07725.8622,W,1,04,1.45,161.9,M,-34.3,M,,*5A
$GPRMC,234723.500,A,4305.7284,N,07725.8622,W,0.20,342.17,290923,,,A*7A
$GPGGA,234723.750,4305.7284,N,07725.8621,W,1,04,1.45,161.9,M,-34.3,M,,*5C
$GPRMC,234724.000,A,4305.7284,N,07725.8621,W,0.18,343.73,290923,,,A*73
$GPGGA,234724.250,4305.7284,N,07725.8621,W,1,04,1.45,161.9,M,-34.3,M,,*5E
$GPRMC,234724.500,A,4305.7284,N,07725.8621,W,0.15,346.87,290923,,,A*75
$GPGGA,234724.750,4305.7284,N,07725.8620,W,1,04,1.45,161.9,M,-34.3,M,,*5A
$GPRMC,234725.000,A,4305.7284,N,07725.8620,W,0.09,4.74,290923,,,A*74
$GPGGA,234725.250,4305.7284,N,07725.8620,W,1,04,1.45,161.9,M,-34.3,M,,*5E
$GPRMC,234725.500,A,4305.7283,N,07725.8619,W,0.08,50.43,290923,,,A*48
$GPGGA,234725.750,4305.7283,N,07725.8619,W,1,04,1.45,162.0,M,-34.3,M,,*5C
$GPRMC,234726.000,A,4305.7283,N,07725.8619,W,0.05,54.11,290923,,,A*40
$GPGGA,234726.250,4305.7283,N,07725.8619,W,1,04,1.45,162.0,M,-34.3,M,,*5A
$GPRMC,234726.500,A,4305.7284,N,07725.8619,W,0.11,57.24,290923,,,A*42
$GPGGA,234726.750,4305.7284,N,07725.8619,W,1,04,1.45,162.1,M,-34.3,M,,*59
$GPRMC,234727.000,A,4305.7284,N,07725.8619,W,0.05,10.51,290923,,,A*42
$GPGGA,234727.250,4305.7284,N,07725.8620,W,1,04,1.45,162.1,M,-34.3,M,,*57
$GPRMC,234727.500,A,4305.7285,N,07725.8620,W,0.14,305.41,290923,,,A*7A
$GPGGA,234727.750,4305.7285,N,07725.8621,W,1,04,1.45,162.2,M,-34.3,M,,*51
$GPRMC,234728.000,A,4305.7286,N,07725.8621,W,0.15,331.33,290923,,,A*71
$GPGGA,234728.250,4305.7286,N,07725.8620,W,1,04,1.45,162.2,M,-34.3,M,,*59
$GPRMC,234728.500,A,4305.7287,N,07725.8621,W,0.18,351.79,290923,,,A*70
$GPGGA,234728.750,4305.7287,N,07725.8621,W,1,04,1.45,162.3,M,-34.3,M,,*5D
$GPRMC,234729.000,A,4305.7287,N,07725.8621,W,0.17,334.36,290923,,,A*73
$GPGGA,234729.250,4305.7287,N,07725.8621,W,1,04,1.45,162.4,M,-34.3,M,,*5E
$GPRMC,234729.500,A,4305.7287,N,07725.8621,W,0.17,330.81,290923,,,A*7E
$GPGGA,234729.750,4305.7288,N,07725.8621,W,1,04,1.45,162.4,M,-34.3,M,,*54
$GPRMC,234730.000,A,4305.7288,N,07725.8621,W,0.20,346.53,290923,,,A*76
$GPGGA,234730.250,4305.7289,N,07725.8621,W,1,04,1.45,162.5,M,-34.3,M,,*59
$GPRMC,234730.500,A,4305.7290,N,07725.8620,W,0.26,354.89,290923,,,A*79
$GPGGA,234730.750,4305.7290,N,07725.8620,W,1,04,1.45,162.5,M,-34.3,M,,*55
$GPRMC,234731.000,A,4305.7290,N,07725.8619,W,0.27,19.05,290923,,,A*48
$GPGGA,234731.250,4305.7290,N,07725.8619,W,1,04,1.45,162.5,M,-34.3,M,,*5B
$GPRMC,234731.500,A,4305.7290,N,07725.8619,W,0.21,357.17,290923,,,A*71
$GPGGA,234731.750,4305.7290,N,07725.8619,W,1,04,1.45,162.6,M,-34.3,M,,*5D
$GPRMC,234732.000,A,4305.7290,N,07725.8619,W,0.17,356.14,290923,,,A*70
$GPGGA,234732.250,4305.7288,N,07725.8619,W,1,05,1.39,162.5,M,-34.3,M,,*5B
$GPRMC,234732.500,A,4305.7286,N,07725.8620,W,0.08,342.03,290923,,,A*75
$GPGGA,234732.750,4305.7285,N,07725.8620,W,1,05,1.39,162.3,M,-34.3,M,,*5F
$GPRMC,234733.000,A,4305.7285,N,07725.8620,W,0.11,322.17,290923,,,A*79
$GPGGA,234733.250,4305.7284,N,07725.8620,W,1,05,1.39,162.3,M,-34.3,M,,*5A
$GPRMC,234733.500,A,4305.7282,N,07725.8620,W,0.10,278.05,290923,,,A*77
$GPGGA,234733.750,4305.7280,N,07725.8621,W,1,05,1.39,162.1,M,-34.3,M,,*58
$GPRMC,234734.000,A,4305.7279,N,07725.8621,W,0.10,235.83,290923,,,A*77
$GPGGA,234734.250,4305.7278,N,07725.8620,W,1,05,1.39,162.0,M,-34.3,M,,*5D
$GPRMC,234734.500,A,4305.7276,N,07725.8620,W,0.13,190.51,290923,,,A*7C
$GPGGA,234734.750,4305.7276,N,07725.8621,W,1,05,1.40,161.9,M,-34.3,M,,*53
$GPRMC,234735.000,A,4305.7275,N,07725.8621,W,0.16,210.52,290923,,,A*77
$GPGGA,234735.250,4305.7274,N,07725.8622,W,1,05,1.39,161.8,M,-34.3,M,,*59
$GPRMC,234735.500,A,4305.7273,N,07725.8622,W,0.21,226.71,290923,,,A*77
$GPGGA,234735.750,4305.7273,N,07725.8622,W,1,05,1.39,161.8,M,-34.3,M,,*5B
$GPRMC,234736.000,A,4305.7273,N,07725.8622,W,0.14,214.61,290923,,,A*77
$GPGGA,234736.250,4305.7273,N,07725.8623,W,1,05,1.39,161.8,M,-34.3,M,,*5C
$GPRMC,234736.500,A,4305.7273,N,07725.8623,W,0.06,221.02,290923,,,A*73
$GPGGA,234736.750,4305.7273,N,07725.8623,W,1,05,1.39,161.8,M,-34.3,M,,*59
$GPRMC,234737.000,A,4305.7273,N,07725.8623,W,0.07,158.10,290923,,,A*78
$GPGGA,234737.250,4305.7273,N,07725.8623,W,1,05,1.39,161.8,M,-34.3,M,,*5D
$GPRMC,234737.500,A,4305.7272,N,07725.8623,W,0.07,138.85,290923,,,A*76
$GPGGA,234737.750,4305.7272,N,07725.8622,W,1,05,1.39,161.8,M,-34.3,M,,*58
$GPRMC,234738.000,A,4305.7272,N,07725.8623,W,0.10,198.84,290923,,,A*71
$GPGGA,234738.250,4305.7272,N,07725.8623,W,1,05,1.39,161.8,M,-34.3,M,,*53
$GPRMC,234738.500,A,4305.7272,N,07725.8623,W,0.16,193.05,290923,,,A*70
$GPGGA,234738.750,4305.7272,N,07725.8623,W,1,05,1.40,161.8,M,-34.3,M,,*58
$GPRMC,234739.000,A,4305.7272,N,07725.8623,W,0.16,193.57,290923,,,A*73
$GPGGA,234739.250,4305.7272,N,07725.8623,W,1,05,1.39,161.8,M,-34.3,M,,*52
$GPRMC,234739.500,A,4305.7272,N,07725.8623,W,0.20,164.41,290923,,,A*7C
$GPGGA,234739.750,4305.7271,N,07725.8623,W,1,05,1.39,161.8,M,-34.3,M,,*54
$GPRMC,234740.000,A,4305.7271,N,07725.8623,W,0.19,152.26,290923,,,A*7A
$GPGGA,234740.250,4305.7271,N,07725.8623,W,1,05,1.40,161.8,M,-34.3,M,,*51
$GPRMC,234740.500,A,4305.7271,N,07725.8622,W,0.19,180.54,290923,,,A*74
$GPGGA,234740.750,4305.7271,N,07725.8622,W,1,05,1.40,161.8,M,-34.3,M,,*55
$GPRMC,234741.000,A,4305.7271,N,07725.8622,W,0.21,187.21,290923,,,A*7E
$GPGGA,234741.250,4305.7271,N,07725.8623,W,1,05,1.39,161.8,M,-34.3,M,,*5E
$GPRMC,234741.500,A,4305.7270,N,07725.8623,W,0.23,177.17,290923,,,A*73
$GPGGA,234741.750,4305.7270,N,07725.8623,W,1,05,1.39,161.8,M,-34.3,M,,*5A
$GPRMC,234742.000,A,4305.7270,N,07725.8623,W,0.33,189.53,290923,,,A*75
$GPGGA,234742.250,4305.7270,N,07725.8623,W,1,05,1.39,161.8,M,-34.3,M,,*5C
$GPRMC,234742.500,A,4305.7270,N,07725.8623,W,0.36,183.72,290923,,,A*7C
$GPGGA,234742.750,4305.7269,N,07725.8623,W,1,05,1.39,161.8,M,-34.3,M,,*51
$GPRMC,234743.000,A,4305.7269,N,07725.8623,W,0.27,165.17,290923,,,A*7B
$GPGGA,234743.250,4305.7269,N,07725.8623,W,1,05,1.39,161.8,M,-34.3,M,,*55
$GPRMC,234743.500,A,4305.7269,N,07725.8622,W,0.22,140.36,290923,,,A*7E
$GPGGA,234743.750,4305.7269,N,07725.8622,W,1,05,1.39,161.8,M,-34.3,M,,*51
$GPRMC,234744.000,A,4305.7269,N,07725.8622,W,0.22,135.88,290923,,,A*7B
$GPGGA,234744.250,4305.7268,N,07725.8622,W,1,05,1.39,161.8,M,-34.3,M,,*52
$GPRMC,234744.500,A,4305.7268,N,07725.8622,W,0.27,141.60,290923,,,A*7F
$GPGGA,234744.750,4305.7268,N,07725.8622,W,1,05,1.39,161.8,M,-34.3,M,,*57
$GPRMC,234745.000,A,4305.7268,N,07725.8622,W,0.22,155.03,290923,,,A*7E
$GPGGA,234745.250,4305.7268,N,07725.8622,W,1,05,1.39,161.8,M,-34.3,M,,*53
$GPRMC,234745.500,A,4305.7268,N,07725.8621,W,0.24,158.25,290923,,,A*77
$GPGGA,234745.750,4305.7268,N,07725.8621,W,1,05,1.39,161.8,M,-34.3,M,,*55
$GPRMC,234746.000,A,4305.7267,N,07725.8621,W,0.24,163.32,290923,,,A*70
$GPGGA,234746.250,4305.7267,N,07725.8621,W,1,05,1.39,161.8,M,-34.3,M,,*5C
$GPRMC,234746.500,A,4305.7267,N,07725.8621,W,0.22,176.08,290923,,,A*7E
$GPGGA,234746.750,4305.7267,N,07725.8621,W,1,05,1.39,161.8,M,-34.3,M,,*59
$GPRMC,234747.000,A,4305.7267,N,07725.8621,W,0.28,172.86,290923,,,A*72
$GPGGA,234747.250,4305.7267,N,07725.8621,W,1,05,1.39,161.8,M,-34.3,M,,*5D
$GPRMC,234747.500,A,4305.7266,N,07725.8621,W,0.30,172.20,290923,,,A*73
$GPGGA,234747.750,4305.7266,N,07725.8621,W,1,05,1.39,161.8,M,-34.3,M,,*59
$GPRMC,234748.000,A,4305.7266,N,07725.8621,W,0.30,172.87,290923,,,A*74
$GPGGA,234748.250,4305.7266,N,07725.8621,W,1,05,1.39,161.8,M,-34.3,M,,*53
$GPRMC,234748.500,A,4305.7265,N,07725.8621,W,0.30,174.55,290923,,,A*7B
$GPGGA,234748.750,4305.7265,N,07725.8621,W,1,05,1.39,161.8,M,-34.3,M,,*55
$GPRMC,234749.000,A,4305.7265,N,07725.8621,W,0.31,170.13,290923,,,A*78
$GPGGA,234749.250,4305.7265,N,07725.8621,W,1,05,1.40,161.8,M,-34.3,M,,*5F
$GPRMC,234749.500,A,4305.7265,N,07725.8621,W,0.37,173.57,290923,,,A*78
$GPGGA,234749.750,4305.7264,N,07725.8621,W,1,05,1.39,161.8,M,-34.3,M,,*55
$GPRMC,234750.000,A,4305.7264,N,07725.8621,W,0.38,172.11,290923,,,A*78
$GPGGA,234750.250,4305.7264,N,07725.8621,W,1,05,1.39,161.8,M,-34.3,M,,*58
$GPRMC,234750.500,A,4305.7264,N,07725.8621,W,0.32,169.31,290923,,,A*7F
$GPGGA,234750.750,4305.7263,N,07725.8620,W,1,05,1.39,161.8,M,-34.3,M,,*5B
$GPRMC,234751.000,A,4305.7263,N,07725.8620,W,0.27,172.73,290923,,,A*75
$GPGGA,234751.250,4305.7263,N,07725.8620,W,1,05,1.39,161.8,M,-34.3,M,,*5F
$GPRMC,234751.500,A,4305.7263,N,07725.8620,W,0.24,167.52,290923,,,A*74
$GPGGA,234751.750,4305.7263,N,07725.8620,W,1,05,1.39,161.8,M,-34.3,M,,*5A
$GPRMC,234752.000,A,4305.7262,N,07725.8620,W,0.25,182.13,290923,,,A*7C
$GPGGA,234752.250,4305.7262,N,07725.8620,W,1,05,1.39,161.8,M,-34.3,M,,*5D
$GPRMC,234752.500,A,4305.7262,N,07725.8620,W,0.27,153.28,290923,,,A*7F
$GPGGA,234752.750,4305.7262,N,07725.8620,W,1,05,1.39,161.8,M,-34.3,M,,*58
$GPRMC,234753.000,A,4305.7262,N,07725.8620,W,0.25,146.42,290923,,,A*71
$GPGGA,234753.250,4305.7262,N,07725.8620,W,1,05,1.39,161.8,M,-34.3,M,,*5C
$GPRMC,234753.500,A,4305.7261,N,07725.8620,W,0.36,144.15,290923,,,A*75
$GPGGA,234753.750,4305.7261,N,07725.8619,W,1,05,1.39,161.8,M,-34.3,M,,*50
$GPRMC,234754.000,A,4305.7261,N,07725.8619,W,0.36,148.72,290923,,,A*70
$GPGGA,234754.250,4305.7261,N,07725.8619,W,1,05,1.39,161.8,M,-34.3,M,,*52
$GPRMC,234754.500,A,4305.7261,N,07725.8619,W,0.37,147.25,290923,,,A*79
$GPGGA,234754.750,4305.7260,N,07725.8619,W,1,05,1.39,161.8,M,-34.3,M,,*56
$GPRMC,234755.000,A,4305.7260,N,07725.8618,W,0.48,145.83,290923,,,A*7B
$GPGGA,234755.250,4305.7260,N,07725.8618,W,1,05,1.40,161.8,M,-34.3,M,,*5D
$GPRMC,234755.500,A,4305.7259,N,07725.8618,W,0.49,146.05,290923,,,A*78
$GPGGA,234755.750,4305.7259,N,07725.8618,W,1,05,1.40,161.8,M,-34.3,M,,*52
$GPRMC,234756.000,A,4305.7259,N,07725.8617,W,0.48,149.90,290923,,,A*73
$GPGGA,234756.250,4305.7259,N,07725.8617,W,1,05,1.39,161.8,M,-34.3,M,,*55
$GPRMC,234756.500,A,4305.7258,N,07725.8617,W,0.48,163.67,290923,,,A*77
$GPGGA,234756.750,4305.7258,N,07725.8617,W,1,05,1.39,161.8,M,-34.3,M,,*51
$GPRMC,234757.000,A,4305.7258,N,07725.8617,W,0.51,161.67,290923,,,A*79
$GPGGA,234757.250,4305.7257,N,07725.8617,W,1,05,1.39,161.8,M,-34.3,M,,*5A
$GPRMC,234757.500,A,4305.7257,N,07725.8616,W,0.52,158.27,290923,,,A*7F
$GPGGA,234757.750,4305.7256,N,07725.8616,W,1,05,1.40,161.8,M,-34.3,M,,*51
$GPRMC,234758.000,A,4305.7256,N,07725.8616,W,0.50,154.64,290923,,,A*7D
$GPGGA,234758.250,4305.7256,N,07725.8616,W,1,05,1.39,161.8,M,-34.3,M,,*55
$GPRMC,234758.500,A,4305.7255,N,07725.8616,W,0.58,148.07,290923,,,A*7B
$GPGGA,234758.750,4305.7255,N,07725.8615,W,1,05,1.39,161.8,M,-34.3,M,,*50
$GPRMC,234759.000,A,4305.7254,N,07725.8615,W,0.57,147.13,290923,,,A*78
$GPGGA,234759.250,4305.7254,N,07725.8615,W,1,05,1.39,161.7,M,-34.3,M,,*5A
$GPRMC,234759.500,A,4305.7252,N,07725.8615,W,0.56,157.07,290923,,,A*7E
$GPGGA,234759.750,4305.7251,N,07725.8615,W,1,05,1.39,161.7,M,-34.3,M,,*5A
$GPRMC,234800.000,A,4305.7250,N,07725.8615,W,0.58,169.84,290923,,,A*72
$GPGGA,234800.250,4305.7249,N,07725.8614,W,1,05,1.39,161.6,M,-34.3,M,,*55
$GPRMC,234800.500,A,4305.7248,N,07725.8614,W,0.64,167.07,290923,,,A*75
$GPGGA,234800.750,4305.7247,N,07725.8613,W,1,05,1.39,161.6,M,-34.3,M,,*59
$GPRMC,234801.000,A,4305.7246,N,07725.8613,W,0.68,166.24,290923,,,A*74
$GPGGA,234801.250,4305.7245,N,07725.8613,W,1,05,1.39,161.6,M,-34.3,M,,*5F
$GPRMC,234801.500,A,4305.7245,N,07725.8613,W,0.67,171.70,290923,,,A*7A
$GPGGA,234801.750,4305.7245,N,07725.8613,W,1,05,1.39,161.5,M,-34.3,M,,*59
$GPRMC,234802.000,A,4305.7245,N,07725.8613,W,0.57,171.45,290923,,,A*79
$GPGGA,234802.250,4305.7245,N,07725.8614,W,1,05,1.39,161.5,M,-34.3,M,,*58
$GPRMC,234802.500,A,4305.7245,N,07725.8614,W,0.52,179.92,290923,,,A*7C
$GPGGA,234802.750,4305.7245,N,07725.8614,W,1,05,1.40,161.5,M,-34.3,M,,*53
$GPRMC,234803.000,A,4305.7245,N,07725.8614,W,0.49,185.82,290923,,,A*70
$GPGGA,234803.250,4305.7245,N,07725.8614,W,1,05,1.39,161.5,M,-34.3,M,,*59
$GPRMC,234803.500,A,4305.7245,N,07725.8614,W,0.43,181.41,290923,,,A*74
$GPGGA,234803.750,4305.7245,N,07725.8614,W,1,05,1.39,161.4,M,-34.3,M,,*5D
$GPRMC,234804.000,A,4305.7245,N,07725.8614,W,0.41,176.71,290923,,,A*7F
$GPGGA,234804.250,4305.7245,N,07725.8614,W,1,05,1.39,161.4,M,-34.3,M,,*5F
$GPRMC,234804.500,A,4305.7245,N,07725.8614,W,0.39,183.06,290923,,,A*7F
$GPGGA,234804.750,4305.7244,N,07725.8614,W,1,05,1.39,161.3,M,-34.3,M,,*5C
$GPRMC,234805.000,A,4305.7244,N,07725.8614,W,0.41,184.97,290923,,,A*7A
$GPGGA,234805.250,4305.7244,N,07725.8614,W,1,05,1.39,161.3,M,-34.3,M,,*58
$GPRMC,234805.500,A,4305.7244,N,07725.8614,W,0.42,196.70,290923,,,A*76
$GPGGA,234805.750,4305.7243,N,07725.8615,W,1,05,1.39,161.3,M,-34.3,M,,*5B
$GPRMC,234806.000,A,4305.7243,N,07725.8615,W,0.43,187.84,290923,,,A*7C
$GPGGA,234806.250,4305.7243,N,07725.8615,W,1,05,1.39,161.3,M,-34.3,M,,*5D
$GPRMC,234806.500,A,4305.7242,N,07725.8615,W,0.44,183.75,290923,,,A*75
$GPGGA,234806.750,4305.7242,N,07725.8615,W,1,05,1.39,161.3,M,-34.3,M,,*59
$GPRMC,234807.000,A,4305.7242,N,07725.8615,W,0.45,186.18,290923,,,A*7E
$GPGGA,234807.250,4305.7241,N,07725.8615,W,1,05,1.40,161.3,M,-34.3,M,,*50
$GPRMC,234807.500,A,4305.7241,N,07725.8615,W,0.42,173.35,290923,,,A*7A
$GPGGA,234807.750,4305.7241,N,07725.8615,W,1,05,1.40,161.3,M,-34.3,M,,*55
$GPRMC,234808.000,A,4305.7241,N,07725.8615,W,0.40,180.53,290923,,,A*7E
$GPGGA,234808.250,4305.7240,N,07725.8615,W,1,05,1.39,161.3,M,-34.3,M,,*50
$GPRMC,234808.500,A,4305.7240,N,07725.8615,W,0.43,191.95,290923,,,A*73
$GPGGA,234808.750,4305.7240,N,07725.8615,W,1,05,1.39,161.3,M,-34.3,M,,*55
$GPRMC,234809.000,A,4305.7239,N,07725.8615,W,0.40,192.84,290923,,,A*79
$GPGGA,234809.250,4305.7239,N,07725.8615,W,1,05,1.39,161.3,M,-34.3,M,,*5F
$GPRMC,234809.500,A,4305.7239,N,07725.8615,W,0.35,199.19,290923,,,A*71
$GPGGA,234809.750,4305.7239,N,07725.8615,W,1,05,1.39,161.3,M,-34.3,M,,*5A
$GPRMC,234810.000,A,4305.7239,N,07725.8615,W,0.31,204.57,290923,,,A*75
$GPGGA,234810.250,4305.7238,N,07725.8616,W,1,05,1.39,161.3,M,-34.3,M,,*55
$GPRMC,234810.500,A,4305.7238,N,07725.8616,W,0.22,193.25,290923,,,A*78
$GPGGA,234810.750,4305.7238,N,07725.8616,W,1,05,1.39,161.3,M,-34.3,M,,*50
$GPRMC,234811.000,A,4305.7238,N,07725.8616,W,0.15,203.55,290923,,,A*75
$GPGGA,234811.250,4305.7238,N,07725.8616,W,1,05,1.39,161.3,M,-34.3,M,,*54
$GPRMC,234811.500,A,4305.7238,N,07725.8616,W,0.14,210.71,290923,,,A*75
$GPGGA,234811.750,4305.7238,N,07725.8616,W,1,05,1.40,161.3,M,-34.3,M,,*5F
$GPRMC,234812.000,A,4305.7238,N,07725.8616,W,0.13,174.56,290923,,,A*70
$GPGGA,234812.250,4305.7238,N,07725.8616,W,1,05,1.39,161.3,M,-34.3,M,,*57
$GPRMC,234812.500,A,4305.7238,N,07725.8616,W,0.18,195.65,290923,,,A*71
$GPGGA,234812.750,4305.7237,N,07725.8616,W,1,05,1.39,161.3,M,-34.3,M,,*5D
$GPRMC,234813.000,A,4305.7237,N,07725.8616,W,0.22,207.58,290923,,,A*75
$GPGGA,234813.250,4305.7237,N,07725.8616,W,1,05,1.40,161.3,M,-34.3,M,,*57
$GPRMC,234813.500,A,4305.7237,N,07725.8616,W,0.20,191.16,290923,,,A*74
$GPGGA,234813.750,4305.7237,N,07725.8616,W,1,05,1.39,161.3,M,-34.3,M,,*5C
$GPRMC,234814.000,A,4305.7237,N,07725.8616,W,0.20,216.10,290923,,,A*7C
$GPGGA,234814.250,4305.7237,N,07725.8617,W,1,05,1.39,161.3,M,-34.3,M,,*5F
$GPRMC,234814.500,A,4305.7237,N,07725.8617,W,0.17,206.40,290923,,,A*78
$GPGGA,234814.750,4305.7237,N,07725.8617,W,1,05,1.39,161.3,M,-34.3,M,,*5A
$GPRMC,234815.000,A,4305.7236,N,07725.8617,W,0.15,194.25,290923,,,A*74
$GPGGA,234815.250,4305.7236,N,07725.8617,W,1,05,1.40,161.3,M,-34.3,M,,*51
$GPRMC,234815.500,A,4305.7236,N,07725.8617,W,0.08,167.15,290923,,,A*72
$GPGGA,234815.750,4305.7236,N,07725.8617,W,1,05,1.39,161.3,M,-34.3,M,,*5A
$GPRMC,234816.000,A,4305.7236,N,07725.8617,W,0.07,117.78,290923,,,A*77
$GPGGA,234816.250,4305.7236,N,07725.8617,W,1,05,1.40,161.3,M,-34.3,M,,*52
$GPRMC,234816.500,A,4305.7236,N,07725.8617,W,0.14,89.17,290923,,,A*4F
$GPGGA,234816.750,4305.7236,N,07725.8616,W,1,05,1.40,161.3,M,-34.3,M,,*56
$GPRMC,234817.000,A,4305.7236,N,07725.8616,W,0.17,82.33,290923,,,A*44
$GPGGA,234817.250,4305.7236,N,07725.8616,W,1,05,1.39,161.3,M,-34.3,M,,*5C
$GPRMC,234817.500,A,4305.7236,N,07725.8616,W,0.10,90.34,290923,,,A*42
$GPGGA,234817.750,4305.7236,N,07725.8616,W,1,05,1.39,161.3,M,-34.3,M,,*59
$GPRMC,234818.000,A,4305.7236,N,07725.8616,W,0.03,29.63,290923,,,A*4A
$GPGGA,234818.250,4305.7236,N,07725.8616,W,1,05,1.39,161.3,M,-34.3,M,,*53
$GPRMC,234818.500,A,4305.7236,N,07725.8616,W,0.06,58.65,290923,,,A*4A
$GPGGA,234818.750,4305.7236,N,07725.8616,W,1,05,1.40,161.3,M,-34.3,M,,*58
$GPRMC,234819.000,A,4305.7236,N,07725.8616,W,0.06,41.56,290923,,,A*46
$GPGGA,234819.250,4305.7237,N,07725.8616,W,1,05,1.39,161.3,M,-34.3,M,,*53
$GPRMC,234819.500,A,4305.7237,N,07725.8616,W,0.12,20.67,290923,,,A*42
$GPGGA,234819.750,4305.7237,N,07725.8616,W,1,05,1.39,161.3,M,-34.3,M,,*56
$GPRMC,234820.000,A,4305.7237,N,07725.8616,W,0.14,1.39,290923,,,A*73
$GPGGA,234820.250,4305.7237,N,07725.8616,W,1,05,1.40,161.3,M,-34.3,M,,*57
$GPRMC,234820.500,A,4305.7237,N,07725.8616,W,0.23,17.08,290923,,,A*47
$GPGGA,234820.750,4305.7237,N,07725.8616,W,1,05,1.39,161.3,M,-34.3,M,,*5C
$GPRMC,234821.000,A,4305.7237,N,07725.8616,W,0.26,24.46,290923,,,A*4C
$GPGGA,234821.250,4305.7238,N,07725.8615,W,1,05,1.40,161.3,M,-34.3,M,,*5A
$GPRMC,234821.500,A,4305.7238,N,07725.8615,W,0.22,19.98,290923,,,A*4C
$GPGGA,234821.750,4305.7238,N,07725.8615,W,1,05,1.39,161.3,M,-34.3,M,,*51
$GPRMC,234822.000,A,4305.7238,N,07725.8615,W,0.18,25.21,290923,,,A*4E
$GPGGA,234822.250,4305.7238,N,07725.8615,W,1,05,1.39,161.3,M,-34.3,M,,*57
$GPRMC,234822.500,A,4305.7238,N,07725.8615,W,0.15,344.88,290923,,,A*71
$GPGGA,234822.750,4305.7238,N,07725.8615,W,1,05,1.39,161.3,M,-34.3,M,,*52
$GPRMC,234823.000,A,4305.7238,N,07725.8615,W,0.15,322.14,290923,,,A*70
$GPGGA,234823.250,4305.7238,N,07725.8615,W,1,05,1.39,161.3,M,-34.3,M,,*56
$GPRMC,234823.500,A,4305.7239,N,07725.8615,W,0.11,319.55,290923,,,A*7D
$GPGGA,234823.750,4305.7239,N,07725.8616,W,1,05,1.39,161.3,M,-34.3,M,,*51
$GPRMC,234824.000,A,4305.7239,N,07725.8616,W,0.09,314.04,290923,,,A*7C
$GPGGA,234824.250,4305.7239,N,07725.8616,W,1,05,1.39,161.3,M,-34.3,M,,*53
$GPRMC,234824.500,A,4305.7239,N,07725.8616,W,0.12,338.07,290923,,,A*7E
$GPGGA,234824.750,4305.7239,N,07725.8616,W,1,05,1.39,161.3,M,-34.3,M,,*56
$GPRMC,234825.000,A,4305.7239,N,07725.8616,W,0.16,12.92,290923,,,A*49
$GPGGA,234825.250,4305.7239,N,07725.8616,W,1,05,1.40,161.3,M,-34.3,M,,*5C
$GPRMC,234825.500,A,4305.7239,N,07725.8616,W,0.15,8.70,290923,,,A*78
$GPGGA,234825.750,4305.7239,N,07725.8616,W,1,05,1.40,161.3,M,-34.3,M,,*59
$GPRMC,234826.000,A,4305.7239,N,07725.8616,W,0.18,339.61,290923,,,A*72
$GPGGA,234826.250,4305.7240,N,07725.8616,W,1,05,1.39,161.3,M,-34.3,M,,*5F
$GPRMC,234826.500,A,4305.7240,N,07725.8616,W,0.19,3.47,290923,,,A*76
$GPGGA,234826.750,4305.7240,N,07725.8616,W,1,05,1.40,161.3,M,-34.3,M,,*54
$GPRMC,234827.000,A,4305.7240,N,07725.8616,W,0.19,349.54,290923,,,A*7D
$GPGGA,234827.250,4305.7240,N,07725.8616,W,1,05,1.40,161.3,M,-34.3,M,,*50
$GPRMC,234827.500,A,4305.7240,N,07725.8616,W,0.20,4.55,290923,,,A*79
$GPGGA,234827.750,4305.7240,N,07725.8616,W,1,05,1.40,161.3,M,-34.3,M,,*55
$GPRMC,234828.000,A,4305.7240,N,07725.8616,W,0.18,7.55,290923,,,A*7B
$GPGGA,234828.250,4305.7241,N,07725.8616,W,1,05,1.40,161.3,M,-34.3,M,,*5E
$GPRMC,234828.500,A,4305.7241,N,07725.8616,W,0.21,7.78,290923,,,A*7A
$GPGGA,234828.750,4305.7241,N,07725.8616,W,1,05,1.40,161.3,M,-34.3,M,,*5B
$GPRMC,234829.000,A,4305.7241,N,07725.8616,W,0.19,351.32,290923,,,A*7B
$GPGGA,234829.250,4305.7241,N,07725.8616,W,1,05,1.40,161.3,M,-34.3,M,,*5F
$GPRMC,234829.500,A,4305.7241,N,07725.8616,W,0.19,313.71,290923,,,A*7F
$GPGGA,234829.750,4305.7241,N,07725.8616,W,1,05,1.39,161.3,M,-34.3,M,,*54
$GPRMC,234830.000,A,4305.7241,N,07725.8616,W,0.18,346.04,290923,,,A*71
$GPGGA,234830.250,4305.7242,N,07725.8616,W,1,05,1.40,161.3,M,-34.3,M,,*54
$GPRMC,234830.500,A,4305.7242,N,07725.8616,W,0.14,346.88,290923,,,A*7F
$GPGGA,234830.750,4305.7242,N,07725.8616,W,1,05,1.40,161.3,M,-34.3,M,,*51
$GPRMC,234831.000,A,4305.7242,N,07725.8616,W,0.13,311.44,290923,,,A*7E
$GPGGA,234831.250,4305.7242,N,07725.8616,W,1,05,1.39,161.3,M,-34.3,M,,*5B
$GPRMC,234831.500,A,4305.7242,N,07725.8617,W,0.14,315.55,290923,,,A*79
$GPGGA,234831.750,4305.7242,N,07725.8617,W,1,05,1.39,161.2,M,-34.3,M,,*5E
$GPRMC,234832.000,A,4305.7242,N,07725.8617,W,0.17,299.02,290923,,,A*7B
$GPGGA,234832.250,4305.7242,N,07725.8617,W,1,05,1.39,161.2,M,-34.3,M,,*58
$GPRMC,234832.500,A,4305.7242,N,07725.8617,W,0.15,306.16,290923,,,A*7E
$GPGGA,234832.750,4305.7242,N,07725.8617,W,1,05,1.39,161.2,M,-34.3,M,,*5D
$GPRMC,234833.000,A,4305.7242,N,07725.8617,W,0.12,309.64,290923,,,A*77
$GPGGA,234833.250,4305.7242,N,07725.8617,W,1,05,1.39,161.2,M,-34.3,M,,*59
$GPRMC,234833.500,A,4305.7242,N,07725.8617,W,0.10,329.95,290923,,,A*7C
$GPGGA,234833.750,4305.7242,N,07725.8617,W,1,05,1.39,161.2,M,-34.3,M,,*5C
$GPRMC,234834.000,A,4305.7243,N,07725.8617,W,0.12,357.97,290923,,,A*76
$GPGGA,234834.250,4305.7243,N,07725.8617,W,1,05,1.40,161.2,M,-34.3,M,,*51
$GPRMC,234834.500,A,4305.7243,N,07725.8618,W,0.19,313.83,290923,,,A*72
$GPGGA,234834.750,4305.7243,N,07725.8618,W,1,05,1.40,161.2,M,-34.3,M,,*5B
$GPRMC,234835.000,A,4305.7243,N,07725.8618,W,0.18,320.16,290923,,,A*7B
$GPGGA,234835.250,4305.7243,N,07725.8618,W,1,05,1.39,161.2,M,-34.3,M,,*51
$GPRMC,234835.500,A,4305.7243,N,07725.8618,W,0.26,304.31,290923,,,A*70
$GPGGA,234835.750,4305.7243,N,07725.8618,W,1,05,1.40,161.2,M,-34.3,M,,*5A
$GPRMC,234836.000,A,4305.7243,N,07725.8619,W,0.27,314.48,290923,,,A*79
$GPGGA,234836.250,4305.7243,N,07725.8619,W,1,05,1.39,161.2,M,-34.3,M,,*53
$GPRMC,234836.500,A,4305.7244,N,07725.8619,W,0.25,313.87,290923,,,A*7D
$GPGGA,234836.750,4305.7244,N,07725.8619,W,1,05,1.39,161.2,M,-34.3,M,,*51
$GPRMC,234837.000,A,4305.7244,N,07725.8619,W,0.25,312.56,290923,,,A*74
$GPGGA,234837.250,4305.7244,N,07725.8619,W,1,05,1.39,161.2,M,-34.3,M,,*55
$GPRMC,234837.500,A,4305.7244,N,07725.8620,W,0.18,325.20,290923,,,A*70
$GPGGA,234837.750,4305.7244,N,07725.8620,W,1,05,1.40,161.2,M,-34.3,M,,*54
$GPRMC,234838.000,A,4305.7244,N,07725.8620,W,0.20,305.35,290923,,,A*77
$GPGGA,234838.250,4305.7244,N,07725.8620,W,1,05,1.39,161.2,M,-34.3,M,,*50
$GPRMC,234838.500,A,4305.7244,N,07725.8620,W,0.23,299.98,290923,,,A*72
$GPGGA,234838.750,4305.7244,N,07725.8620,W,1,05,1.40,161.2,M,-34.3,M,,*5B
$GPRMC,234839.000,A,4305.7245,N,07725.8621,W,0.25,285.82,290923,,,A*76
$GPGGA,234839.250,4305.7245,N,07725.8621,W,1,05,1.39,161.2,M,-34.3,M,,*51
$GPRMC,234839.500,A,4305.7245,N,07725.8621,W,0.22,279.38,290923,,,A*76
$GPGGA,234839.750,4305.7245,N,07725.8621,W,1,05,1.40,161.2,M,-34.3,M,,*5A
$GPRMC,234840.000,A,4305.7245,N,07725.8622,W,0.25,267.79,290923,,,A*73
$GPGGA,234840.250,4305.7245,N,07725.8622,W,1,05,1.39,161.2,M,-34.3,M,,*5C
$GPRMC,234840.500,A,4305.7245,N,07725.8622,W,0.22,270.85,290923,,,A*74
$GPGGA,234840.750,4305.7245,N,07725.8622,W,1,05,1.39,161.2,M,-34.3,M,,*59
$GPRMC,234841.000,A,4305.7245,N,07725.8622,W,0.12,277.00,290923,,,A*79
$GPGGA,234841.250,4305.7245,N,07725.8623,W,1,05,1.39,161.2,M,-34.3,M,,*5C
$GPRMC,234841.500,A,4305.7245,N,07725.8623,W,0.18,278.53,290923,,,A*7E
$GPGGA,234841.750,4305.7245,N,07725.8623,W,1,05,1.39,161.2,M,-34.3,M,,*59
$GPRMC,234842.000,A,4305.7245,N,07725.8623,W,0.12,281.07,290923,,,A*75
$GPGGA,234842.250,4305.7245,N,07725.8623,W,1,05,1.39,161.2,M,-34.3,M,,*5F
$GPRMC,234842.500,A,4305.7245,N,07725.8623,W,0.15,291.29,290923,,,A*7A
$GPGGA,234842.750,4305.7245,N,07725.8623,W,1,05,1.39,161.2,M,-34.3,M,,*5A
$GPRMC,234843.000,A,4305.7245,N,07725.8623,W,0.16,305.26,290923,,,A*7E
$GPGGA,234843.250,4305.7245,N,07725.8624,W,1,05,1.39,161.2,M,-34.3,M,,*59
$GPRMC,234843.500,A,4305.7245,N,07725.8624,W,0.17,315.80,290923,,,A*70
$GPGGA,234843.750,4305.7245,N,07725.8624,W,1,05,1.39,161.2,M,-34.3,M,,*5C
$GPRMC,234844.000,A,4305.7245,N,07725.8624,W,0.20,300.63,290923,,,A*7F
$GPGGA,234844.250,4305.7245,N,07725.8624,W,1,05,1.40,161.2,M,-34.3,M,,*50
$GPRMC,234844.500,A,4305.7245,N,07725.8624,W,0.14,324.41,290923,,,A*7B
$GPGGA,234844.750,4305.7245,N,07725.8624,W,1,05,1.39,161.2,M,-34.3,M,,*5B
$GPRMC,234845.000,A,4305.7245,N,07725.8624,W,0.18,328.01,290923,,,A*7B
$GPGGA,234845.250,4305.7246,N,07725.8625,W,1,05,1.39,161.2,M,-34.3,M,,*5D
$GPRMC,234845.500,A,4305.7246,N,07725.8625,W,0.25,319.13,290923,,,A*73
$GPGGA,234845.750,4305.7246,N,07725.8625,W,1,05,1.39,161.2,M,-34.3,M,,*58
$GPRMC,234846.000,A,4305.7246,N,07725.8625,W,0.24,316.00,290923,,,A*79
$GPGGA,234846.250,4305.7246,N,07725.8625,W,1,05,1.39,161.2,M,-34.3,M,,*5E
$GPRMC,234846.500,A,4305.7246,N,07725.8625,W,0.23,314.40,290923,,,A*7D
$GPGGA,234846.750,4305.7246,N,07725.8625,W,1,05,1.39,161.2,M,-34.3,M,,*5B
$GPRMC,234847.000,A,4305.7246,N,07725.8626,W,0.24,320.35,290923,,,A*78
$GPGGA,234847.250,4305.7247,N,07725.8626,W,1,05,1.40,161.2,M,-34.3,M,,*53
$GPRMC,234847.500,A,4305.7247,N,07725.8626,W,0.24,336.63,290923,,,A*78
$GPGGA,234847.750,4305.7247,N,07725.8626,W,1,05,1.39,161.2,M,-34.3,M,,*58
$GPRMC,234848.000,A,4305.7247,N,07725.8626,W,0.25,336.95,290923,,,A*7A
$GPGGA,234848.250,4305.7247,N,07725.8626,W,1,05,1.39,161.2,M,-34.3,M,,*52
$GPRMC,234848.500,A,4305.7247,N,07725.8626,W,0.24,338.22,290923,,,A*7C
$GPGGA,234848.750,4305.7247,N,07725.8626,W,1,05,1.39,161.2,M,-34.3,M,,*57
$GPRMC,234849.000,A,4305.7248,N,07725.8626,W,0.22,330.03,290923,,,A*7A
$GPGGA,234849.250,4305.7248,N,07725.8627,W,1,05,1.39,161.2,M,-34.3,M,,*5D
$GPRMC,234849.500,A,4305.7248,N,07725.8627,W,0.28,308.85,290923,,,A*71
$GPGGA,234849.750,4305.7248,N,07725.8627,W,1,05,1.39,161.2,M,-34.3,M,,*58
$GPRMC,234850.000,A,4305.7248,N,07725.8627,W,0.23,337.50,290923,,,A*73
$GPGGA,234850.250,4305.7248,N,07725.8627,W,1,05,1.40,161.2,M,-34.3,M,,*5B
$GPRMC,234850.500,A,4305.7248,N,07725.8627,W,0.20,347.53,290923,,,A*71
$GPGGA,234850.750,4305.7249,N,07725.8627,W,1,05,1.39,161.2,M,-34.3,M,,*51
$GPRMC,234851.000,A,4305.7249,N,07725.8627,W,0.21,327.83,290923,,,A*7E
$GPGGA,234851.250,4305.7249,N,07725.8627,W,1,05,1.40,161.2,M,-34.3,M,,*5B
$GPRMC,234851.500,A,4305.7249,N,07725.8627,W,0.16,341.14,290923,,,A*71
$GPGGA,234851.750,4305.7249,N,07725.8628,W,1,05,1.40,161.2,M,-34.3,M,,*51
$GPRMC,234852.000,A,4305.7249,N,07725.8628,W,0.13,352.29,290923,,,A*71
$GPGGA,234852.250,4305.7249,N,07725.8628,W,1,05,1.40,161.2,M,-34.3,M,,*57
$GPRMC,234852.500,A,4305.7249,N,07725.8628,W,0.14,325.90,290923,,,A*71
$GPGGA,234852.750,4305.7249,N,07725.8628,W,1,05,1.40,161.2,M,-34.3,M,,*52
$GPRMC,234853.000,A,4305.7249,N,07725.8628,W,0.14,351.25,290923,,,A*78
$GPGGA,234853.250,4305.7250,N,07725.8628,W,1,05,1.40,161.2,M,-34.3,M,,*5E
$GPRMC,234853.500,A,4305.7250,N,07725.8628,W,0.12,351.55,290923,,,A*74
$GPGGA,234853.750,4305.7250,N,07725.8628,W,1,05,1.40,161.2,M,-34.3,M,,*5B
$GPRMC,234854.000,A,4305.7250,N,07725.8628,W,0.13,318.41,290923,,,A*7F
$GPGGA,234854.250,4305.7250,N,07725.8628,W,1,05,1.39,161.2,M,-34.3,M,,*57
$GPRMC,234854.500,A,4305.7250,N,07725.8628,W,0.13,322.28,290923,,,A*7C
$GPGGA,234854.750,4305.7250,N,07725.8628,W,1,05,1.40,161.2,M,-34.3,M,,*5C
$GPRMC,234855.000,A,4305.7250,N,07725.8628,W,0.14,333.77,290923,,,A*75
$GPGGA,234855.250,4305.7250,N,07725.8628,W,1,05,1.39,161.2,M,-34.3,M,,*56
$GPRMC,234855.500,A,4305.7250,N,07725.8628,W,0.17,333.63,290923,,,A*76
$GPGGA,234855.750,4305.7250,N,07725.8628,W,1,05,1.39,161.2,M,-34.3,M,,*53
$GPRMC,234856.000,A,4305.7251,N,07725.8628,W,0.21,336.12,290923,,,A*77
$GPGGA,234856.250,4305.7251,N,07725.8629,W,1,05,1.39,161.2,M,-34.3,M,,*55
$GPRMC,234856.500,A,4305.7251,N,07725.8629,W,0.24,339.59,290923,,,A*76
$GPGGA,234856.750,4305.7251,N,07725.8629,W,1,05,1.40,161.2,M,-34.3,M,,*5E
$GPRMC,234857.000,A,4305.7251,N,07725.8629,W,0.26,316.03,290923,,,A*72
$GPGGA,234857.250,4305.7251,N,07725.8629,W,1,05,1.39,161.2,M,-34.3,M,,*54
$GPRMC,234857.500,A,4305.7252,N,07725.8629,W,0.26,331.65,290923,,,A*71
$GPGGA,234857.750,4305.7252,N,07725.8629,W,1,05,1.40,161.2,M,-34.3,M,,*5C
$GPRMC,234858.000,A,4305.7252,N,07725.8629,W,0.25,335.56,290923,,,A*7C
$GPGGA,234858.250,4305.7252,N,07725.8630,W,1,05,1.39,161.2,M,-34.3,M,,*50
$GPRMC,234858.500,A,4305.7252,N,07725.8630,W,0.20,343.63,290923,,,A*73
$GPGGA,234858.750,4305.7252,N,07725.8630,W,1,05,1.39,161.2,M,-34.3,M,,*55
$GPRMC,234859.000,A,4305.7252,N,07725.8630,W,0.21,3.73,290923,,,A*70
$GPGGA,234859.250,4305.7253,N,07725.8630,W,1,05,1.39,161.2,M,-34.3,M,,*50
$GPRMC,234859.500,A,4305.7253,N,07725.8630,W,0.16,351.19,290923,,,A*78
$GPGGA,234859.750,4305.7253,N,07725.8630,W,1,05,1.40,161.2,M,-34.3,M,,*5B
$GPRMC,234900.000,A,4305.7253,N,07725.8630,W,0.08,296.55,290923,,,A*7D
$GPGGA,234900.250,4305.7253,N,07725.8630,W,1,05,1.40,161.2,M,-34.3,M,,*53
$GPRMC,234900.500,A,4305.7253,N,07725.8630,W,0.10,274.69,290923,,,A*72
$GPGGA,234900.750,4305.7253,N,07725.8630,W,1,05,1.39,161.2,M,-34.3,M,,*58
$GPRMC,234901.000,A,4305.7253,N,07725.8630,W,0.23,280.09,290923,,,A*7B
$GPGGA,234901.250,4305.7253,N,07725.8630,W,1,05,1.40,161.2,M,-34.3,M,,*52
$GPRMC,234901.500,A,4305.7253,N,07725.8630,W,0.16,344.48,290923,,,A*74
$GPGGA,234901.750,4305.7253,N,07725.8630,W,1,05,1.40,161.2,M,-34.3,M,,*57
$GPRMC,234902.000,A,4305.7253,N,07725.8630,W,0.15,30.63,290923,,,A*48
$GPGGA,234902.250,4305.7253,N,07725.8630,W,1,05,1.39,161.2,M,-34.3,M,,*5F
$GPRMC,234902.500,A,4305.7253,N,07725.8630,W,0.11,340.67,290923,,,A*79
$GPGGA,234902.750,4305.7253,N,07725.8630,W,1,05,1.39,161.2,M,-34.3,M,,*5A
$GPRMC,234903.000,A,4305.7253,N,07725.8630,W,0.13,312.80,290923,,,A*71
$GPGGA,234903.250,4305.7254,N,07725.8631,W,1,05,1.39,161.2,M,-34.3,M,,*58
$GPRMC,234903.500,A,4305.7254,N,07725.8631,W,0.07,288.15,290923,,,A*79
$GPGGA,234903.750,4305.7254,N,07725.8631,W,1,05,1.39,161.2,M,-34.3,M,,*5D
$GPRMC,234904.000,A,4305.7254,N,07725.8631,W,0.01,88.22,290923,,,A*4B
$GPGGA,234904.250,4305.7254,N,07725.8631,W,1,05,1.40,161.2,M,-34.3,M,,*51
$GPRMC,234904.500,A,4305.7253,N,07725.8631,W,0.17,229.07,290923,,,A*70
$GPGGA,234904.750,4305.7253,N,07725.8631,W,1,05,1.40,161.2,M,-34.3,M,,*53
$GPRMC,234905.000,A,4305.7253,N,07725.8631,W,0.21,171.37,290923,,,A*7C
$GPGGA,234905.250,4305.7253,N,07725.8631,W,1,05,1.39,161.2,M,-34.3,M,,*59
$GPRMC,234905.500,A,4305.7253,N,07725.8631,W,0.28,181.12,290923,,,A*78
$GPGGA,234905.750,4305.7253,N,07725.8631,W,1,05,1.40,161.2,M,-34.3,M,,*52
$GPRMC,234906.000,A,4305.7253,N,07725.8631,W,0.29,173.96,290923,,,A*7E
$GPGGA,234906.250,4305.7252,N,07725.8631,W,1,05,1.39,161.2,M,-34.3,M,,*5B
$GPRMC,234906.500,A,4305.7252,N,07725.8631,W,0.28,181.40,290923,,,A*7D
$GPGGA,234906.750,4305.7252,N,07725.8631,W,1,05,1.40,161.2,M,-34.3,M,,*50
$GPRMC,234907.000,A,4305.7252,N,07725.8631,W,0.22,188.08,290923,,,A*76
$GPGGA,234907.250,4305.7252,N,07725.8631,W,1,05,1.39,161.2,M,-34.3,M,,*5A
$GPRMC,234907.500,A,4305.7251,N,07725.8631,W,0.26,191.63,290923,,,A*71
$GPGGA,234907.750,4305.7251,N,07725.8631,W,1,05,1.39,161.2,M,-34.3,M,,*5C
$GPRMC,234908.000,A,4305.7251,N,07725.8631,W,0.35,201.70,290923,,,A*71
$GPGGA,234908.250,4305.7251,N,07725.8631,W,1,05,1.39,161.2,M,-34.3,M,,*56
$GPRMC,234908.500,A,4305.7250,N,07725.8630,W,0.32,186.05,290923,,,D*78
$GPGGA,234908.750,4305.7250,N,07725.8630,W,2,05,1.40,161.2,M,-34.3,M,0000,0000*5E
$GPRMC,234909.000,A,4305.7250,N,07725.8630,W,0.27,187.79,290923,,,D*72
$GPGGA,234909.250,4305.7250,N,07725.8630,W,2,05,1.40,161.2,M,-34.3,M,0000,0000*5A
$GPRMC,234909.500,A,4305.7249,N,07725.8629,W,0.27,196.23,290923,,,D*78
$GPGGA,234909.750,4305.7249,N,07725.8629,W,2,05,1.40,161.2,M,-34.3,M,0000,0000*5F
$GPRMC,234910.000,A,4305.7248,N,07725.8629,W,0.31,196.55,290923,,,D*72
$GPGGA,234910.250,4305.7247,N,07725.8629,W,2,05,1.39,161.2,M,-34.3,M,0000,0000*52
$GPRMC,234910.500,A,4305.7247,N,07725.8628,W,0.32,192.79,290923,,,D*70
$GPGGA,234910.750,4305.7247,N,07725.8628,W,2,05,1.40,161.2,M,-34.3,M,0000,0000*58
$GPRMC,234911.000,A,4305.7247,N,07725.8628,W,0.25,195.42,290923,,,D*7D
$GPGGA,234911.250,4305.7247,N,07725.8627,W,2,05,1.40,161.2,M,-34.3,M,0000,0000*53
$GPRMC,234911.500,A,4305.7248,N,07725.8627,W,0.15,195.00,290923,,,D*7D
$GPGGA,234911.750,4305.7248,N,07725.8628,W,2,05,1.39,161.2,M,-34.3,M,0000,0000*58
$GPRMC,234912.000,A,4305.7248,N,07725.8628,W,0.16,196.96,290923,,,D*7B
$GPGGA,234912.250,4305.7248,N,07725.8627,W,2,05,1.40,161.2,M,-34.3,M,0000,0000*5F
$GPRMC,234912.500,A,4305.7249,N,07725.8627,W,0.09,198.92,290923,,,D*74
$GPGGA,234912.750,4305.7249,N,07725.8627,W,2,05,1.39,161.2,M,-34.3,M,0000,0000*55
$GPRMC,234913.000,A,4305.7249,N,07725.8626,W,0.05,199.85,290923,,,D*7A
$GPGGA,234913.250,4305.7248,N,07725.8626,W,2,05,1.39,161.2,M,-34.3,M,0000,0000*51
$GPRMC,234913.500,A,4305.7248,N,07725.8626,W,0.07,201.31,290923,,,D*71
$GPGGA,234913.750,4305.7247,N,07725.8626,W,2,05,1.39,161.2,M,-34.3,M,0000,0000*5B
$GPRMC,234914.000,A,4305.7247,N,07725.8626,W,0.10,201.92,290923,,,D*73
$GPGGA,234914.250,4305.7248,N,07725.8625,W,2,05,1.39,161.2,M,-34.3,M,0000,0000*55
$GPRMC,234914.500,A,4305.7248,N,07725.8624,W,0.07,124.05,290923,,,D*77
$GPGGA,234914.750,4305.7248,N,07725.8624,W,2,05,1.40,161.2,M,-34.3,M,0000,0000*5F
$GPRMC,234915.000,A,4305.7249,N,07725.8624,W,0.02,270.19,290923,,,D*78
$GPGGA,234915.250,4305.7249,N,07725.8624,W,2,05,1.40,161.1,M,-34.3,M,0000,0000*59
$GPRMC,234915.500,A,4305.7248,N,07725.8624,W,0.02,185.28,290923,,,D*77
$GPGGA,234915.750,4305.7248,N,07725.8624,W,2,05,1.39,161.1,M,-34.3,M,0000,0000*53
$GPRMC,234916.000,A,4305.7248,N,07725.8624,W,0.06,164.23,290923,,,D*71
$GPGGA,234916.250,4305.7248,N,07725.8623,W,2,05,1.40,161.1,M,-34.3,M,0000,0000*5C
$GPRMC,234916.500,A,4305.7247,N,07725.8623,W,0.11,143.63,290923,,,D*7B
$GPGGA,234916.750,4305.7247,N,07725.8624,W,2,05,1.39,161.1,M,-34.3,M,0000,0000*5F
$GPRMC,234917.000,A,4305.7247,N,07725.8623,W,0.09,151.47,290923,,,D*73
$GPGGA,234917.250,4305.7248,N,07725.8623,W,2,05,1.39,161.1,M,-34.3,M,0000,0000*53
$GPRMC,234917.500,A,4305.7247,N,07725.8623,W,0.14,113.83,290923,,,D*74
$GPGGA,234917.750,4305.7247,N,07725.8623,W,2,05,1.40,161.0,M,-34.3,M,0000,0000*56
$GPRMC,234918.000,A,4305.7247,N,07725.8623,W,0.12,142.45,290923,,,D*76
$GPGGA,234918.250,4305.7247,N,07725.8623,W,2,05,1.39,161.0,M,-34.3,M,0000,0000*52
$GPRMC,234918.500,A,4305.7247,N,07725.8622,W,0.10,99.33,290923,,,D*46
$GPGGA,234918.750,4305.7247,N,07725.8622,W,2,05,1.39,161.0,M,-34.3,M,0000,0000*56
$GPRMC,234919.000,A,4305.7247,N,07725.8622,W,0.06,100.66,290923,,,D*74
$GPGGA,234919.250,4305.7247,N,07725.8623,W,2,05,1.40,160.9,M,-34.3,M,0000,0000*55
$GPRMC,234919.500,A,4305.7247,N,07725.8623,W,0.01,258.90,290923,,,D*70
$GPGGA,234919.750,4305.7246,N,07725.8623,W,2,05,1.39,160.9,M,-34.3,M,0000,0000*5F
$GPRMC,234920.000,A,4305.7246,N,07725.8623,W,0.04,203.74,290923,,,D*7F
$GPGGA,234920.250,4305.7246,N,07725.8622,W,2,06,1.16,160.9,M,-34.3,M,0000,0000*5F
$GPRMC,234920.500,A,4305.7245,N,07725.8622,W,0.08,93.47,290923,,,D*4F
$GPGGA,234920.750,4305.7246,N,07725.8622,W,2,06,1.16,160.9,M,-34.3,M,0000,0000*5A
$GPRMC,234921.000,A,4305.7245,N,07725.8622,W,0.14,66.22,290923,,,D*4F
$GPGGA,234921.250,4305.7243,N,07725.8622,W,2,06,1.17,160.8,M,-34.3,M,0000,0000*5B
$GPRMC,234921.500,A,4305.7242,N,07725.8623,W,0.05,167.68,290923,,,D*72
$GPGGA,234921.750,4305.7241,N,07725.8623,W,2,06,1.17,160.8,M,-34.3,M,0000,0000*5D
$GPRMC,234922.000,A,4305.7240,N,07725.8623,W,0.06,127.58,290923,,,D*72
$GPGGA,234922.250,4305.7240,N,07725.8623,W,2,06,1.16,160.8,M,-34.3,M,0000,0000*5B
$GPRMC,234922.500,A,4305.7241,N,07725.8623,W,0.07,24.94,290923,,,D*45
$GPGGA,234922.750,4305.7241,N,07725.8623,W,2,06,1.16,160.7,M,-34.3,M,0000,0000*50
$GPRMC,234923.000,A,4305.7241,N,07725.8623,W,0.12,3.91,290923,,,D*75
$GPGGA,234923.250,4305.7239,N,07725.8623,W,2,06,1.20,160.7,M,-34.3,M,0000,0000*5E
$GPRMC,234923.500,A,4305.7238,N,07725.8624,W,0.05,273.13,290923,,,D*70
$GPGGA,234923.750,4305.7238,N,07725.8623,W,2,06,1.17,160.7,M,-34.3,M,0000,0000*5E
$GPRMC,234924.000,A,4305.7237,N,07725.8623,W,0.03,148.33,290923,,,D*75
$GPGGA,234924.250,4305.7237,N,07725.8623,W,2,06,1.17,160.6,M,-34.3,M,0000,0000*52
$GPRMC,234924.500,A,4305.7236,N,07725.8624,W,0.05,229.81,290923,,,D*7D
$GPGGA,234924.750,4305.7236,N,07725.8624,W,2,06,1.16,160.6,M,-34.3,M,0000,0000*50
$GPRMC,234925.000,A,4305.7235,N,07725.8625,W,0.12,256.45,290923,,,D*7D
$GPGGA,234925.250,4305.7235,N,07725.8625,W,2,06,1.16,160.6,M,-34.3,M,0000,0000*56
$GPRMC,234925.500,A,4305.7234,N,07725.8626,W,0.09,243.27,290923,,,D*70
$GPGGA,234925.750,4305.7234,N,07725.8626,W,2,06,1.16,160.6,M,-34.3,M,0000,0000*51
$GPRMC,234926.000,A,4305.7234,N,07725.8626,W,0.00,14.42,290923,,,D*4C
$GPGGA,234926.250,4305.7233,N,07725.8627,W,2,06,1.16,160.6,M,-34.3,M,0000,0000*51
$GPRMC,234926.500,A,4305.7232,N,07725.8627,W,0.02,217.62,290923,,,D*7F
$GPGGA,234926.750,4305.7232,N,07725.8627,W,2,06,1.17,160.6,M,-34.3,M,0000,0000*54
$GPRMC,234927.000,A,4305.7232,N,07725.8627,W,0.01,18.68,290923,,,D*4F
$GPGGA,234927.250,4305.7232,N,07725.8627,W,2,06,1.17,160.6,M,-34.3,M,0000,0000*50
$GPRMC,234927.500,A,4305.7232,N,07725.8627,W,0.01,21.27,290923,,,D*4B
$GPGGA,234927.750,4305.7231,N,07725.8628,W,2,06,1.16,160.5,M,-34.3,M,0000,0000*5B
$GPRMC,234928.000,A,4305.7230,N,07725.8628,W,0.03,212.32,290923,,,D*78
$GPGGA,234928.250,4305.7229,N,07725.8628,W,2,06,1.16,160.5,M,-34.3,M,0000,0000*58
$GPRMC,234928.500,A,4305.7229,N,07725.8628,W,0.02,150.00,290923,,,D*70
$GPGGA,234928.750,4305.7229,N,07725.8628,W,2,06,1.16,160.5,M,-34.3,M,0000,0000*5D
$GPRMC,234929.000,A,4305.7229,N,07725.8628,W,0.03,334.40,290923,,,D*71
$GPGGA,234929.250,4305.7228,N,07725.8628,W,2,06,1.16,160.5,M,-34.3,M,0000,0000*58
$GPRMC,234929.500,A,4305.7228,N,07725.8628,W,0.01,305.53,290923,,,D*77
$GPGGA,234929.750,4305.7228,N,07725.8628,W,2,06,1.16,160.5,M,-34.3,M,0000,0000*5D
$GPRMC,234930.000,A,4305.7227,N,07725.8628,W,0.01,120.09,290923,,,D*7F
$GPGGA,234930.250,4305.7227,N,07725.8628,W,2,06,1.16,160.5,M,-34.3,M,0000,0000*5F
$GPRMC,234930.500,A,4305.7227,N,07725.8628,W,0.01,36.75,290923,,,D*47
$GPGGA,234930.750,4305.7227,N,07725.8627,W,2,06,1.16,160.5,M,-34.3,M,0000,0000*55
$GPRMC,234931.000,A,4305.7226,N,07725.8627,W,0.02,192.75,290923,,,D*71
$GPGGA,234931.250,4305.7225,N,07725.8627,W,2,06,1.16,160.5,M,-34.3,M,0000,0000*53
$GPRMC,234931.500,A,4305.7224,N,07725.8627,W,0.03,150.66,290923,,,D*7B
$GPGGA,234931.750,4305.7224,N,07725.8626,W,2,06,1.16,160.5,M,-34.3,M,0000,0000*56
$GPRMC,234932.000,A,4305.7223,N,07725.8626,W,0.00,0.00,290923,,,D*7C
$GPGGA,234932.250,4305.7223,N,07725.8626,W,2,06,1.16,160.5,M,-34.3,M,0000,0000*57
$GPRMC,234932.500,A,4305.7223,N,07725.8626,W,0.01,219.12,290923,,,D*71
$GPGGA,234932.750,4305.7222,N,07725.8625,W,2,06,1.16,160.6,M,-34.3,M,0000,0000*53
$GPRMC,234933.000,A,4305.7221,N,07725.8625,W,0.01,171.94,290923,,,D*77
$GPGGA,234933.250,4305.7221,N,07725.8625,W,2,06,1.16,160.6,M,-34.3,M,0000,0000*54
$GPRMC,234933.500,A,4305.7221,N,07725.8625,W,0.01,325.12,290923,,,D*7F
$GPGGA,234933.750,4305.7221,N,07725.8625,W,2,06,1.17,160.6,M,-34.3,M,0000,0000*50
$GPRMC,234934.000,A,4305.7220,N,07725.8625,W,0.01,200.38,290923,,,D*72
$GPGGA,234934.250,4305.7220,N,07725.8625,W,2,06,1.16,160.6,M,-34.3,M,0000,0000*52
$GPRMC,234934.500,A,4305.7220,N,07725.8625,W,0.01,254.88,290923,,,D*7D
$GPGGA,234934.750,4305.7219,N,07725.8625,W,2,06,1.16,160.6,M,-34.3,M,0000,0000*5D
$GPRMC,234935.000,A,4305.7219,N,07725.8625,W,0.02,196.85,290923,,,D*70
$GPGGA,234935.250,4305.7218,N,07725.8624,W,2,06,1.16,160.6,M,-34.3,M,0000,0000*59
$GPRMC,234935.500,A,4305.7218,N,07725.8624,W,0.02,71.94,290923,,,D*4D
$GPGGA,234935.750,4305.7219,N,07725.8624,W,2,06,1.16,160.7,M,-34.3,M,0000,0000*5C
$GPRMC,234936.000,A,4305.7219,N,07725.8623,W,0.01,32.38,290923,,,D*4F
$GPGGA,234936.250,4305.7219,N,07725.8623,W,2,06,1.16,160.7,M,-34.3,M,0000,0000*5D
$GPRMC,234936.500,A,4305.7219,N,07725.8623,W,0.01,310.40,290923,,,D*76
$GPGGA,234936.750,4305.7219,N,07725.8623,W,2,06,1.16,160.7,M,-34.3,M,0000,0000*58
$GPRMC,234937.000,A,4305.7219,N,07725.8623,W,0.01,14.29,290923,,,D*4A
$GPGGA,234937.250,4305.7219,N,07725.8624,W,2,06,1.16,160.7,M,-34.3,M,0000,0000*5B
$GPRMC,234937.500,A,4305.7219,N,07725.8624,W,0.01,320.49,290923,,,D*7A
$GPGGA,234937.750,4305.7219,N,07725.8624,W,2,06,1.16,160.7,M,-34.3,M,0000,0000*5E
$GPRMC,234938.000,A,4305.7219,N,07725.8624,W,0.01,221.17,290923,,,D*7B
$GPGGA,234938.250,4305.7219,N,07725.8624,W,2,06,1.16,160.8,M,-34.3,M,0000,0000*5B
$GPRMC,234938.500,A,4305.7219,N,07725.8624,W,0.01,87.50,290923,,,D*43
$GPGGA,234938.750,4305.7218,N,07725.8624,W,2,06,1.16,160.8,M,-34.3,M,0000,0000*5F
$GPRMC,234939.000,A,4305.7218,N,07725.8624,W,0.01,195.55,290923,,,D*71
$GPGGA,234939.250,4305.7218,N,07725.8624,W,2,06,1.16,160.8,M,-34.3,M,0000,0000*5B
$GPRMC,234939.500,A,4305.7218,N,07725.8623,W,0.01,128.00,290923,,,D*75
$GPGGA,234939.750,4305.7217,N,07725.8623,W,2,06,1.17,160.8,M,-34.3,M,0000,0000*57
$GPRMC,234940.000,A,4305.7216,N,07725.8623,W,0.02,165.93,290923,,,D*70
$GPGGA,234940.250,4305.7216,N,07725.8623,W,2,06,1.16,160.8,M,-34.3,M,0000,0000*5C
$GPRMC,234940.500,A,4305.7216,N,07725.8623,W,0.01,210.39,290923,,,D*77
$GPGGA,234940.750,4305.7215,N,07725.8623,W,2,06,1.16,160.8,M,-34.3,M,0000,0000*5A
$GPRMC,234941.000,A,4305.7215,N,07725.8623,W,0.01,151.97,290923,,,D*72
$GPGGA,234941.250,4305.7214,N,07725.8622,W,2,06,1.16,160.8,M,-34.3,M,0000,0000*5E
$GPRMC,234941.500,A,4305.7214,N,07725.8622,W,0.01,194.15,290923,,,D*74
$GPGGA,234941.750,4305.7213,N,07725.8622,W,2,06,1.16,160.9,M,-34.3,M,0000,0000*5D
$GPRMC,234942.000,A,4305.7212,N,07725.8622,W,0.01,181.93,290923,,,D*7E
$GPGGA,234942.250,4305.7212,N,07725.8622,W,2,06,1.16,160.9,M,-34.3,M,0000,0000*5A
$GPRMC,234942.500,A,4305.7212,N,07725.8621,W,0.01,63.81,290923,,,D*46
$GPGGA,234942.750,4305.7212,N,07725.8621,W,2,06,1.16,160.9,M,-34.3,M,0000,0000*5C
$GPRMC,234943.000,A,4305.7212,N,07725.8621,W,0.01,85.51,290923,,,D*47
$GPGGA,234943.250,4305.7211,N,07725.8620,W,2,06,1.16,160.9,M,-34.3,M,0000,0000*5A
$GPRMC,234943.500,A,4305.7211,N,07725.8620,W,0.01,212.42,290923,,,D*7E
$GPGGA,234943.750,4305.7210,N,07725.8621,W,2,06,1.16,160.9,M,-34.3,M,0000,0000*5F
$GPRMC,234944.000,A,4305.7210,N,07725.8620,W,0.00,185.29,290923,,,D*7C
$GPGGA,234944.250,4305.7210,N,07725.8620,W,2,06,1.16,160.9,M,-34.3,M,0000,0000*5C
$GPRMC,234944.500,A,4305.7209,N,07725.8620,W,0.01,122.23,290923,,,D*77
$GPGGA,234944.750,4305.7209,N,07725.8619,W,2,06,1.16,160.9,M,-34.3,M,0000,0000*5B
$GPRMC,234945.000,A,4305.7209,N,07725.8619,W,0.00,153.27,290923,,,D*7A
$GPGGA,234945.250,4305.7209,N,07725.8619,W,2,06,1.16,160.9,M,-34.3,M,0000,0000*5F
$GPRMC,234945.500,A,4305.7208,N,07725.8619,W,0.01,146.82,290923,,,D*74
$GPGGA,234945.750,4305.7207,N,07725.8619,W,2,06,1.16,160.9,M,-34.3,M,0000,0000*54
$GPRMC,234946.000,A,4305.7207,N,07725.8619,W,0.01,162.71,290923,,,D*77
$GPGGA,234946.250,4305.7207,N,07725.8618,W,2,06,1.16,160.9,M,-34.3,M,0000,0000*53
$GPRMC,234946.500,A,4305.7206,N,07725.8618,W,0.02,155.00,290923,,,D*73
$GPGGA,234946.750,4305.7205,N,07725.8618,W,2,06,1.16,160.9,M,-34.3,M,0000,0000*54
$GPRMC,234947.000,A,4305.7205,N,07725.8618,W,0.01,178.26,290923,,,D*7C
$GPGGA,234947.250,4305.7205,N,07725.8618,W,2,06,1.16,160.8,M,-34.3,M,0000,0000*51
$GPRMC,234947.500,A,4305.7204,N,07725.8618,W,0.01,247.58,290923,,,D*7E
$GPGGA,234947.750,4305.7204,N,07725.8618,W,2,06,1.16,160.8,M,-34.3,M,0000,0000*55
$GPRMC,234948.000,A,4305.7204,N,07725.8618,W,0.01,357.47,290923,,,D*7A
$GPGGA,234948.250,4305.7204,N,07725.8618,W,2,06,1.16,160.8,M,-34.3,M,0000,0000*5F
$GPRMC,234948.500,A,4305.7204,N,07725.8618,W,0.01,256.68,290923,,,D*72
$GPGGA,234948.750,4305.7204,N,07725.8619,W,2,06,1.16,160.9,M,-34.3,M,0000,0000*5A
$GPRMC,234949.000,A,4305.7204,N,07725.8619,W,0.01,231.51,290923,,,D*7C
$GPGGA,234949.250,4305.7203,N,07725.8619,W,2,06,1.16,160.9,M,-34.3,M,0000,0000*59
$GPRMC,234949.500,A,4305.7204,N,07725.8619,W,0.00,353.06,290923,,,D*7F
$GPGGA,234949.750,4305.7203,N,07725.8619,W,2,06,1.16,160.9,M,-34.3,M,0000,0000*5C
$GPRMC,234950.000,A,4305.7203,N,07725.8619,W,0.00,77.94,290923,,,D*4B
$GPGGA,234950.250,4305.7203,N,07725.8618,W,2,06,1.16,160.9,M,-34.3,M,0000,0000*50
$GPRMC,234950.500,A,4305.7203,N,07725.8619,W,0.00,205.73,290923,,,D*70
$GPGGA,234950.750,4305.7203,N,07725.8618,W,2,06,1.16,160.8,M,-34.3,M,0000,0000*54
$GPRMC,234951.000,A,4305.7203,N,07725.8618,W,0.00,166.61,290923,,,D*70
$GPGGA,234951.250,4305.7202,N,07725.8618,W,2,06,1.16,160.8,M,-34.3,M,0000,0000*51
$GPRMC,234951.500,A,4305.7202,N,07725.8619,W,0.00,233.77,290923,,,D*71
$GPGGA,234951.750,4305.7202,N,07725.8619,W,2,06,1.16,160.8,M,-34.3,M,0000,0000*55
$GPRMC,234952.000,A,4305.7202,N,07725.8619,W,0.01,268.26,290923,,,D*7C
$GPGGA,234952.250,4305.7202,N,07725.8619,W,2,06,1.16,160.8,M,-34.3,M,0000,0000*53
$GPRMC,234952.500,A,4305.7202,N,07725.8619,W,0.00,142.87,290923,,,D*78
$GPGGA,234952.750,4305.7202,N,07725.8619,W,2,06,1.16,160.8,M,-34.3,M,0000,0000*56
$GPRMC,234953.000,A,4305.7202,N,07725.8619,W,0.00,132.35,290923,,,D*72
$GPGGA,234953.250,4305.7202,N,07725.8619,W,2,06,1.16,160.8,M,-34.3,M,0000,0000*52
$GPRMC,234953.500,A,4305.7202,N,07725.8619,W,0.01,226.21,290923,,,D*75
$GPGGA,234953.750,4305.7202,N,07725.8619,W,2,06,1.16,160.8,M,-34.3,M,0000,0000*57
$GPRMC,234954.000,A,4305.7202,N,07725.8619,W,0.01,202.52,290923,,,D*75
$GPGGA,234954.250,4305.7202,N,07725.8619,W,2,06,1.16,160.8,M,-34.3,M,0000,0000*55
$GPRMC,234954.500,A,4305.7202,N,07725.8619,W,0.00,85.62,290923,,,D*4F
$GPGGA,234954.750,4305.7202,N,07725.8619,W,2,06,1.16,160.8,M,-34.3,M,0000,0000*50
$GPRMC,234955.000,A,4305.7202,N,07725.8619,W,0.00,10.85,290923,,,D*4E
$GPGGA,234955.250,4305.7202,N,07725.8619,W,2,06,1.16,160.8,M,-34.3,M,0000,0000*54
$GPRMC,234955.500,A,4305.7202,N,07725.8619,W,0.01,123.51,290923,,,D*72
$GPGGA,234955.750,4305.7202,N,07725.8619,W,2,06,1.16,160.8,M,-34.3,M,0000,0000*51
$GPRMC,234956.000,A,4305.7202,N,07725.8619,W,0.00,156.20,290923,,,D*71
$GPGGA,234956.250,4305.7202,N,07725.8619,W,2,06,1.16,160.8,M,-34.3,M,0000,0000*57
$GPRMC,234956.500,A,4305.7202,N,07725.8619,W,0.01,346.57,290923,,,D*76
$GPGGA,234956.750,4305.7202,N,07725.8619,W,2,06,1.16,160.8,M,-34.3,M,0000,0000*52
$GPRMC,234957.000,A,4305.7202,N,07725.8619,W,0.01,288.45,290923,,,D*72
$GPGGA,234957.250,4305.7202,N,07725.8619,W,2,06,1.16,160.8,M,-34.3,M,0000,0000*56
$GPRMC,234957.500,A,4305.7202,N,07725.8619,W,0.00,117.79,290923,,,D*7C
$GPGGA,234957.750,4305.7202,N,07725.8619,W,2,06,1.16,160.8,M,-34.3,M,0000,0000*53
$GPRMC,234958.000,A,4305.7202,N,07725.8619,W,0.00,168.64,290923,,,D*72
$GPGGA,234958.250,4305.7202,N,07725.8619,W,2,06,1.16,160.8,M,-34.3,M,0000,0000*59
$GPRMC,234958.500,A,4305.7202,N,07725.8619,W,0.01,211.22,290923,,,D*79
$GPGGA,234958.750,4305.7202,N,07725.8619,W,2,06,1.16,160.8,M,-34.3,M,0000,0000*5C
$GPRMC,234959.000,A,4305.7202,N,07725.8619,W,0.01,234.90,290923,,,D*73
$GPGGA,234959.250,4305.7202,N,07725.8619,W,2,06,1.16,160.8,M,-34.3,M,0000,0000*58
$GPRMC,234959.500,A,4305.7202,N,07725.8619,W,0.00,346.13,290923,,,D*78
$GPGGA,234959.750,4305.7202,N,07725.8619,W,2,06,1.16,160.8,M,-34.3,M,0000,0000*5D
$GPRMC,235000.000,A,4305.7202,N,07725.8619,W,0.01,126.07,290923,,,D*79
$GPGGA,235000.250,4305.7202,N,07725.8619,W,2,06,1.16,160.8,M,-34.3,M,0000,0000*5C
$GPRMC,235000.500,A,4305.7202,N,07725.8619,W,0.00,185.46,290923,,,D*71
$GPGGA,235000.750,4305.7202,N,07725.8619,W,2,06,1.16,160.8,M,-34.3,M,0000,0000*59
$GPRMC,235001.000,A,4305.7202,N,07725.8619,W,0.01,283.28,290923,,,D*79
$GPGGA,235001.250,4305.7202,N,07725.8619,W,2,06,1.16,160.8,M,-34.3,M,0000,0000*5D
$GPRMC,235001.500,A,4305.7202,N,07725.8619,W,0.01,203.17,290923,,,D*78
$GPGGA,235001.750,4305.7202,N,07725.8619,W,2,06,1.16,160.8,M,-34.3,M,0000,0000*58
$GPRMC,235002.000,A,4305.7202,N,07725.8619,W,0.00,195.64,290923,,,D*77
$GPGGA,235002.250,4305.7202,N,07725.8619,W,2,06,1.16,160.8,M,-34.3,M,0000,0000*5E
$GPRMC,235002.500,A,4305.7202,N,07725.8619,W,0.00,333.97,290923,,,D*70
$GPGGA,235002.750,4305.7202,N,07725.8619,W,2,06,1.16,160.8,M,-34.3,M,0000,0000*5B
$GPRMC,235003.000,A,4305.7202,N,07725.8619,W,0.00,217.12,290923,,,D*7E
$GPGGA,235003.250,4305.7202,N,07725.8619,W,2,06,1.16,160.8,M,-34.3,M,0000,0000*5F
$GPRMC,235003.500,A,4305.7202,N,07725.8619,W,0.00,0.00,290923,,,D*7C
$GPGGA,235003.750,4305.7202,N,07725.8619,W,2,06,1.16,160.8,M,-34.3,M,0000,0000*5A
$GPRMC,235004.000,A,4305.7202,N,07725.8619,W,0.00,0.00,290923,,,D*7E
$GPGGA,235004.250,4305.7202,N,07725.8619,W,2,06,1.16,160.8,M,-34.3,M,0000,0000*58
$GPRMC,235004.500,A,4305.7202,N,07725.8619,W,0.01,105.06,290923,,,D*78
$GPGGA,235004.750,4305.7202,N,07725.8619,W,2,06,1.16,160.8,M,-34.3,M,0000,0000*5D
$GPRMC,235005.000,A,4305.7202,N,07725.8619,W,0.00,99.59,290923,,,D*43
$GPGGA,235005.250,4305.7202,N,07725.8619,W,2,06,1.16,160.8,M,-34.3,M,0000,0000*59
$GPRMC,235005.500,A,4305.7202,N,07725.8619,W,0.00,302.05,290923,,,D*7E
$GPGGA,235005.750,4305.7202,N,07725.8619,W,2,06,1.16,160.8,M,-34.3,M,0000,0000*5C
$GPRMC,235006.000,A,4305.7202,N,07725.8619,W,0.01,278.85,290923,,,D*7D
$GPGGA,235006.250,4305.7202,N,07725.8619,W,2,06,1.16,160.8,M,-34.3,M,0000,0000*5A
$GPRMC,235006.500,A,4305.7202,N,07725.8619,W,0.00,310.39,290923,,,D*71
$GPGGA,235006.750,4305.7202,N,07725.8619,W,2,06,1.16,160.8,M,-34.3,M,0000,0000*5F
$GPRMC,235007.000,A,4305.7202,N,07725.8619,W,0.01,278.30,290923,,,D*72
$GPGGA,235007.250,4305.7202,N,07725.8619,W,2,06,1.16,160.8,M,-34.3,M,0000,0000*5B
$GPRMC,235007.500,A,4305.7202,N,07725.8619,W,0.01,240.55,290923,,,D*7F
$GPGGA,235007.750,4305.7202,N,07725.8619,W,2,06,1.16,160.8,M,-34.3,M,0000,0000*5E
$GPRMC,235008.000,A,4305.7202,N,07725.8619,W,0.01,223.12,290923,,,D*73
$GPGGA,235008.250,4305.7202,N,07725.8619,W,2,06,1.16,160.8,M,-34.3,M,0000,0000*54
$GPRMC,235008.500,A,4305.7202,N,07725.8619,W,0.00,126.84,290923,,,D*7E
$GPGGA,235008.750,4305.7202,N,07725.8619,W,2,06,1.16,160.8,M,-34.3,M,0000,0000*51
$GPRMC,235009.000,A,4305.7202,N,07725.8619,W,0.01,165.32,290923,,,D*71
$GPGGA,235009.250,4305.7202,N,07725.8619,W,2,06,1.16,160.8,M,-34.3,M,0000,0000*55
$GPRMC,235009.500,A,4305.7202,N,07725.8619,W,0.01,216.82,290923,,,D*78
$GPGGA,235009.750,4305.7202,N,07725.8619,W,2,06,1.16,160.8,M,-34.3,M,0000,0000*50
$GPRMC,235010.000,A,4305.7202,N,07725.8619,W,0.01,157.41,290923,,,D*7C
$GPGGA,235010.250,4305.7202,N,07725.8619,W,2,06,1.16,160.8,M,-34.3,M,0000,0000*5D
$GPRMC,235010.500,A,4305.7202,N,07725.8619,W,0.01,148.73,290923,,,D*76
$GPGGA,235010.750,4305.7202,N,07725.8619,W,2,06,1.16,160.8,M,-34.3,M,0000,0000*58
$GPRMC,235011.000,A,4305.7202,N,07725.8619,W,0.00,208.76,290923,,,D*71
$GPGGA,235011.250,4305.7202,N,07725.8619,W,2,06,1.16,160.8,M,-34.3,M,0000,0000*5C
$GPRMC,235011.500,A,4305.7202,N,07725.8619,W,0.00,243.09,290923,,,D*73
$GPGGA,235011.750,4305.7202,N,07725.8619,W,2,06,1.16,160.8,M,-34.3,M,0000,0000*59
$GPRMC,235012.000,A,4305.7202,N,07725.8619,W,0.00,296.43,290923,,,D*73
$GPGGA,235012.250,4305.7202,N,07725.8619,W,2,06,1.16,160.8,M,-34.3,M,0000,0000*5F
$GPRMC,235012.500,A,4305.7202,N,07725.8619,W,0.00,306.64,290923,,,D*7B
$GPGGA,235012.750,4305.7202,N,07725.8619,W,2,06,1.16,160.8,M,-34.3,M,0000,0000*5A
$GPRMC,235013.000,A,4305.7202,N,07725.8619,W,0.00,232.88,290923,,,D*7B
$GPGGA,235013.250,4305.7202,N,07725.8619,W,2,06,1.16,160.8,M,-34.3,M,0000,0000*5E
$GPRMC,235013.500,A,4305.7202,N,07725.8619,W,0.01,158.18,290923,,,D*79
$GPGGA,235013.750,4305.7202,N,07725.8619,W,2,06,1.16,160.8,M,-34.3,M,0000,0000*5B
$GPRMC,235014.000,A,4305.7202,N,07725.8619,W,0.01,291.03,290923,,,D*77
$GPGGA,235014.250,4305.7202,N,07725.8619,W,2,06,1.16,160.8,M,-34.3,M,0000,0000*59
$GPRMC,235014.500,A,4305.7202,N,07725.8619,W,0.01,67.17,290923,,,D*4C
$GPGGA,235014.750,4305.7202,N,07725.8619,W,2,06,1.16,160.8,M,-34.3,M,0000,0000*5C
$GPRMC,235015.000,A,4305.7202,N,07725.8619,W,0.00,109.83,290923,,,D*7D
$GPGGA,235015.250,4305.7202,N,07725.8619,W,2,06,1.16,160.8,M,-34.3,M,0000,0000*58
$GPRMC,235015.500,A,4305.7202,N,07725.8619,W,0.00,307.80,290923,,,D*77
$GPGGA,235015.750,4305.7202,N,07725.8619,W,2,06,1.16,160.8,M,-34.3,M,0000,0000*5D
$GPRMC,235016.000,A,4305.7202,N,07725.8619,W,0.01,350.69,290923,,,D*75
$GPGGA,235016.250,4305.7202,N,07725.8619,W,2,06,1.16,160.8,M,-34.3,M,0000,0000*5B
$GPRMC,235016.500,A,4305.7202,N,07725.8619,W,0.01,324.53,290923,,,D*7A
$GPGGA,235016.750,4305.7202,N,07725.8619,W,2,06,1.16,160.8,M,-34.3,M,0000,0000*5E
$GPRMC,235017.000,A,4305.7202,N,07725.8619,W,0.01,323.25,290923,,,D*78
$GPGGA,235017.250,4305.7202,N,07725.8619,W,2,06,1.16,160.8,M,-34.3,M,0000,0000*5A
$GPRMC,235017.500,A,4305.7202,N,07725.8619,W,0.01,305.40,290923,,,D*7A
$GPGGA,235017.750,4305.7202,N,07725.8619,W,2,06,1.16,160.8,M,-34.3,M,0000,0000*5F
$GPRMC,235018.000,A,4305.7202,N,07725.8619,W,0.01,315.35,290923,,,D*73
$GPGGA,235018.250,4305.7202,N,07725.8619,W,2,06,1.16,160.8,M,-34.3,M,0000,0000*55
$GPRMC,235018.500,A,4305.7202,N,07725.8619,W,0.01,328.84,290923,,,D*72
$GPGGA,235018.750,4305.7202,N,07725.8619,W,2,06,1.16,160.8,M,-34.3,M,0000,0000*50
$GPRMC,235019.000,A,4305.7202,N,07725.8619,W,0.01,338.26,290923,,,D*7F
$GPGGA,235019.250,4305.7202,N,07725.8619,W,2,06,1.16,160.8,M,-34.3,M,0000,0000*54
$GPRMC,235019.500,A,4305.7202,N,07725.8619,W,0.00,32.18,290923,,,D*4F
$GPGGA,235019.750,4305.7202,N,07725.8619,W,2,06,1.16,160.8,M,-34.3,M,0000,0000*51
$GPRMC,235020.000,A,4305.7202,N,07725.8619,W,0.01,333.92,290923,,,D*71
$GPGGA,235020.250,4305.7202,N,07725.8619,W,2,06,1.16,160.8,M,-34.3,M,0000,0000*5E
$GPRMC,235020.500,A,4305.7202,N,07725.8619,W,0.01,3.01,290923,,,D*7E
$GPGGA,235020.750,4305.7202,N,07725.8619,W,2,06,1.16,160.8,M,-34.3,M,0000,0000*5B
$GPRMC,235021.000,A,4305.7202,N,07725.8619,W,0.01,344.45,290923,,,D*7A
$GPGGA,235021.250,4305.7202,N,07725.8619,W,2,06,1.16,160.8,M,-34.3,M,0000,0000*5F
$GPRMC,235021.500,A,4305.7202,N,07725.8619,W,0.00,105.76,290923,,,D*79
$GPGGA,235021.750,4305.7202,N,07725.8619,W,2,06,1.16,160.8,M,-34.3,M,0000,0000*5A
$GPRMC,235022.000,A,4305.7202,N,07725.8619,W,0.01,203.68,290923,,,D*74
$GPGGA,235022.250,4305.7202,N,07725.8619,W,2,06,1.16,160.8,M,-34.3,M,0000,0000*5C
$GPRMC,235022.500,A,4305.7202,N,07725.8619,W,0.01,263.80,290923,,,D*71
$GPGGA,235022.750,4305.7202,N,07725.8619,W,2,06,1.16,160.8,M,-34.3,M,0000,0000*59
$GPRMC,235023.000,A,4305.7202,N,07725.8619,W,0.01,267.89,290923,,,D*78
$GPGGA,235023.250,4305.7202,N,07725.8619,W,2,06,1.16,160.8,M,-34.3,M,0000,0000*5D
$GPRMC,235023.500,A,4305.7202,N,07725.8619,W,0.01,254.90,290923,,,D*75
$GPGGA,235023.750,4305.7202,N,07725.8619,W,2,06,1.16,160.8,M,-34.3,M,0000,0000*58
$GPRMC,235024.000,A,4305.7202,N,07725.8619,W,0.01,198.33,290923,,,D*7D
$GPGGA,235024.250,4305.7202,N,07725.8619,W,2,06,1.16,160.8,M,-34.3,M,0000,0000*5A
$GPRMC,235024.500,A,4305.7202,N,07725.8619,W,0.00,254.70,290923,,,D*7D
$GPGGA,235024.750,4305.7202,N,07725.8619,W,2,06,1.16,160.8,M,-34.3,M,0000,0000*5F
$GPRMC,235025.000,A,4305.7202,N,07725.8619,W,0.00,146.11,290923,,,D*7E
$GPGGA,235025.250,4305.7202,N,07725.8619,W,2,06,1.16,160.8,M,-34.3,M,0000,0000*5B
$GPRMC,235025.500,A,4305.7202,N,07725.8619,W,0.01,200.06,290923,,,D*7D
$GPGGA,235025.750,4305.7202,N,07725.8619,W,2,06,1.16,160.8,M,-34.3,M,0000,0000*5E
$GPRMC,235026.000,A,4305.7202,N,07725.8619,W,0.00,152.47,290923,,,D*7B
$GPGGA,235026.250,4305.7202,N,07725.8619,W,2,06,1.16,160.8,M,-34.3,M,0000,0000*58
$GPRMC,235026.500,A,4305.7202,N,07725.8619,W,0.01,208.69,290923,,,D*7F
$GPGGA,235026.750,4305.7202,N,07725.8620,W,2,06,1.16,160.8,M,-34.3,M,0000,0000*57
$GPRMC,235027.000,A,4305.7201,N,07725.8620,W,0.01,231.39,290923,,,D*7D
$GPGGA,235027.250,4305.7201,N,07725.8621,W,2,06,1.16,160.8,M,-34.3,M,0000,0000*51
$GPRMC,235027.500,A,4305.7200,N,07725.8621,W,0.01,197.50,290923,,,D*78
$GPGGA,235027.750,4305.7200,N,07725.8621,W,2,06,1.19,160.8,M,-34.3,M,0000,0000*5A
$GPRMC,235028.000,A,4305.7200,N,07725.8621,W,0.01,202.95,290923,,,D*74
$GPGGA,235028.250,4305.7200,N,07725.8621,W,2,06,1.19,160.8,M,-34.3,M,0000,0000*50
$GPRMC,235028.500,A,4305.7200,N,07725.8621,W,0.01,176.24,290923,,,D*7B
$GPGGA,235028.750,4305.7200,N,07725.8621,W,2,06,1.19,160.8,M,-34.3,M,0000,0000*55
$GPRMC,235029.000,A,4305.7200,N,07725.8621,W,0.01,232.83,290923,,,D*71
$GPGGA,235029.250,4305.7200,N,07725.8621,W,2,06,1.19,160.8,M,-34.3,M,0000,0000*51
$GPRMC,235029.500,A,4305.7200,N,07725.8621,W,0.01,204.73,290923,,,D*7E
$GPGGA,235029.750,4305.7200,N,07725.8621,W,2,06,1.19,160.8,M,-34.3,M,0000,0000*54
$GPRMC,235030.000,A,4305.7200,N,07725.8621,W,0.02,204.57,290923,,,D*76
$GPGGA,235030.250,4305.7200,N,07725.8621,W,2,06,1.19,160.8,M,-34.3,M,0000,0000*59
$GPRMC,235030.500,A,4305.7200,N,07725.8621,W,0.02,227.78,290923,,,D*7F
$GPGGA,235030.750,4305.7200,N,07725.8621,W,2,06,1.19,160.8,M,-34.3,M,0000,0000*5C
$GPRMC,235031.000,A,4305.7200,N,07725.8621,W,0.01,232.80,290923,,,D*7B
$GPGGA,235031.250,4305.7200,N,07725.8621,W,2,06,1.19,160.8,M,-34.3,M,0000,0000*58
$GPRMC,235031.500,A,4305.7200,N,07725.8621,W,0.01,254.82,290923,,,D*7C
$GPGGA,235031.750,4305.7200,N,07725.8621,W,2,06,1.19,160.8,M,-34.3,M,0000,0000*5D
$GPRMC,235032.000,A,4305.7200,N,07725.8621,W,0.01,197.62,290923,,,D*78
$GPGGA,235032.250,4305.7200,N,07725.8621,W,2,06,1.19,160.8,M,-34.3,M,0000,0000*5B
$GPRMC,235032.500,A,4305.7200,N,07725.8621,W,0.02,188.07,290923,,,D*73
$GPGGA,235032.750,4305.7200,N,07725.8621,W,2,06,1.19,160.8,M,-34.3,M,0000,0000*5E
$GPRMC,235033.000,A,4305.7200,N,07725.8621,W,0.01,202.80,290923,,,D*7A
$GPGGA,235033.250,4305.7200,N,07725.8621,W,2,06,1.19,160.8,M,-34.3,M,0000,0000*5A
$GPRMC,235033.500,A,4305.7199,N,07725.8621,W,0.01,190.24,290923,,,D*7A
$GPGGA,235033.750,4305.7199,N,07725.8621,W,2,06,1.19,160.8,M,-34.3,M,0000,0000*5C
$GPRMC,235034.000,A,4305.7199,N,07725.8621,W,0.01,210.70,290923,,,D*72
$GPGGA,235034.250,4305.7199,N,07725.8621,W,2,06,1.19,160.8,M,-34.3,M,0000,0000*5E
$GPRMC,235034.500,A,4305.7199,N,07725.8621,W,0.01,219.23,290923,,,D*78
$GPGGA,235034.750,4305.7199,N,07725.8621,W,2,06,1.19,160.8,M,-34.3,M,0000,0000*5B
$GPRMC,235035.000,A,4305.7199,N,07725.8622,W,0.01,197.34,290923,,,D*7C
$GPGGA,235035.250,4305.7199,N,07725.8622,W,2,06,1.19,160.8,M,-34.3,M,0000,0000*5C
$GPRMC,235035.500,A,4305.7199,N,07725.8622,W,0.01,206.69,290923,,,D*7A
$GPGGA,235035.750,4305.7199,N,07725.8622,W,2,06,1.19,160.8,M,-34.3,M,0000,0000*59
$GPRMC,235036.000,A,4305.7199,N,07725.8622,W,0.01,240.60,290923,,,D*77
$GPGGA,235036.250,4305.7199,N,07725.8622,W,2,06,1.19,160.8,M,-34.3,M,0000,0000*5F
$GPRMC,235036.500,A,4305.7199,N,07725.8622,W,0.02,252.12,290923,,,D*77
$GPGGA,235036.750,4305.7199,N,07725.8622,W,2,06,1.19,160.8,M,-34.3,M,0000,0000*5A
$GPRMC,235037.000,A,4305.7199,N,07725.8622,W,0.01,273.98,290923,,,D*71
$GPGGA,235037.250,4305.7199,N,07725.8622,W,2,06,1.19,160.8,M,-34.3,M,0000,0000*5E
$GPRMC,235037.500,A,4305.7199,N,07725.8622,W,0.01,199.43,290923,,,D*75
$GPGGA,235037.750,4305.7199,N,07725.8622,W,2,06,1.19,160.8,M,-34.3,M,0000,0000*5B
$GPRMC,235038.000,A,4305.7199,N,07725.8622,W,0.01,269.49,290923,,,D*79
$GPGGA,235038.250,4305.7199,N,07725.8622,W,2,06,1.19,160.8,M,-34.3,M,0000,0000*51
$GPRMC,235038.500,A,4305.7199,N,07725.8622,W,0.01,282.62,290923,,,D*70
