Vers 81
USE_SERIAL_FEEDBACK=true
DEVELOPMENT_MODE=false
USE_RMC_ONLY=false

$GPRMC,234833.750,A,4306.1613,N,07726.4716,W,0.29,142.67,100823,,,A*72
$GPGGA,234834.000,4306.1613,N,07726.4717,W,1,07,1.35,139.7,M,-34.3,M,,*54
$GPRMC,234834.250,A,4306.1614,N,07726.4719,W,0.17,162.50,100823,,,A*73
$GPGGA,234834.500,4306.1615,N,07726.4721,W,1,07,1.35,138.9,M,-34.3,M,,*5D
$GPRMC,234834.750,A,4306.1615,N,07726.4722,W,0.13,148.28,100823,,,A*7C
$GPGGA,234835.000,4306.1615,N,07726.4723,W,1,07,1.35,138.1,M,-34.3,M,,*53
$GPRMC,234835.250,A,4306.1615,N,07726.4724,W,0.12,179.81,100823,,,A*7E
$GPGGA,234835.500,4306.1616,N,07726.4724,W,1,07,1.35,137.5,M,-34.3,M,,*59
$GPRMC,234835.750,A,4306.1616,N,07726.4725,W,0.14,191.73,100823,,,A*74
$GPGGA,234836.000,4306.1618,N,07726.4726,W,1,07,1.35,137.6,M,-34.3,M,,*50
$GPRMC,234836.250,A,4306.1620,N,07726.4727,W,0.14,184.71,100823,,,A*73
$GPGGA,234836.500,4306.1621,N,07726.4728,W,1,07,1.35,138.0,M,-34.3,M,,*58
$GPRMC,234836.750,A,4306.1622,N,07726.4728,W,0.12,126.93,100823,,,A*79
$GPGGA,234837.000,4306.1623,N,07726.4728,W,1,07,1.35,138.2,M,-34.3,M,,*5C
$GPRMC,234837.250,A,4306.1623,N,07726.4728,W,0.11,147.44,100823,,,A*72
$GPGGA,234837.500,4306.1623,N,07726.4728,W,1,07,1.35,138.3,M,-34.3,M,,*58
$GPRMC,234837.750,A,4306.1624,N,07726.4729,W,0.10,204.76,100823,,,A*75
$GPGGA,234838.000,4306.1625,N,07726.4729,W,1,07,1.35,138.5,M,-34.3,M,,*53
$GPRMC,234838.250,A,4306.1625,N,07726.4729,W,0.09,239.07,100823,,,A*7E
$GPGGA,234838.500,4306.1625,N,07726.4729,W,1,07,1.35,138.9,M,-34.3,M,,*5A
$GPRMC,234838.750,A,4306.1626,N,07726.4728,W,0.07,218.05,100823,,,A*76
$GPGGA,234839.000,4306.1626,N,07726.4728,W,1,07,1.35,139.1,M,-34.3,M,,*55
$GPRMC,234839.250,A,4306.1626,N,07726.4727,W,0.07,188.15,100823,,,A*76
$GPGGA,234839.500,4306.1626,N,07726.4727,W,1,07,1.35,139.3,M,-34.3,M,,*5D
$GPRMC,234839.750,A,4306.1626,N,07726.4727,W,0.12,212.50,100823,,,A*76
$GPGGA,234840.000,4306.1626,N,07726.4727,W,1,07,1.35,139.7,M,-34.3,M,,*52
$GPRMC,234840.250,A,4306.1627,N,07726.4727,W,0.08,234.84,100823,,,A*7A
$GPGGA,234840.500,4306.1627,N,07726.4727,W,1,07,1.35,140.0,M,-34.3,M,,*5F
$GPRMC,234840.750,A,4306.1628,N,07726.4726,W,0.01,66.77,100823,,,A*41
$GPGGA,234841.000,4306.1628,N,07726.4726,W,1,07,1.35,140.3,M,-34.3,M,,*56
$GPRMC,234841.250,A,4306.1628,N,07726.4726,W,0.01,299.82,100823,,,A*7D
$GPGGA,234841.500,4306.1628,N,07726.4726,W,1,07,1.35,140.5,M,-34.3,M,,*55
$GPRMC,234841.750,A,4306.1628,N,07726.4726,W,0.08,203.66,100823,,,A*78
$GPGGA,234842.000,4306.1629,N,07726.4726,W,1,07,1.35,140.8,M,-34.3,M,,*5F
$GPRMC,234842.250,A,4306.1629,N,07726.4725,W,0.11,218.17,100823,,,A*78
$GPGGA,234842.500,4306.1629,N,07726.4725,W,1,07,1.35,141.1,M,-34.3,M,,*51
$GPRMC,234842.750,A,4306.1629,N,07726.4724,W,0.05,242.65,100823,,,A*73
$GPGGA,234843.000,4306.1630,N,07726.4724,W,1,07,1.35,141.2,M,-34.3,M,,*5F
$GPRMC,234843.250,A,4306.1630,N,07726.4724,W,0.10,88.75,100823,,,A*4E
$GPGGA,234843.500,4306.1630,N,07726.4724,W,1,07,1.35,141.2,M,-34.3,M,,*5A
$GPRMC,234843.750,A,4306.1629,N,07726.4724,W,0.21,115.03,100823,,,A*75
$GPGGA,234844.000,4306.1629,N,07726.4723,W,1,07,1.35,141.3,M,-34.3,M,,*56
$GPRMC,234844.250,A,4306.1629,N,07726.4723,W,0.21,134.30,100823,,,A*73
$GPGGA,234844.500,4306.1629,N,07726.4723,W,1,07,1.35,141.4,M,-34.3,M,,*54
$GPRMC,234844.750,A,4306.1628,N,07726.4723,W,0.12,120.75,100823,,,A*73
$GPGGA,234845.000,4306.1628,N,07726.4723,W,1,07,1.35,141.5,M,-34.3,M,,*50
$GPRMC,234845.250,A,4306.1628,N,07726.4723,W,0.08,121.21,100823,,,A*7C
$GPGGA,234845.500,4306.1628,N,07726.4723,W,1,07,1.35,141.5,M,-34.3,M,,*55
$GPRMC,234845.750,A,4306.1628,N,07726.4722,W,0.21,114.13,100823,,,A*74
$GPGGA,234846.000,4306.1627,N,07726.4722,W,1,07,1.35,141.4,M,-34.3,M,,*5C
$GPRMC,234846.250,A,4306.1627,N,07726.4722,W,0.19,144.50,100823,,,A*74
$GPGGA,234846.500,4306.1627,N,07726.4723,W,1,07,1.35,141.2,M,-34.3,M,,*5E
$GPRMC,234846.750,A,4306.1627,N,07726.4723,W,0.15,180.26,100823,,,A*75
$GPGGA,234847.000,4306.1627,N,07726.4723,W,1,07,1.35,141.1,M,-34.3,M,,*59
$GPRMC,234847.250,A,4306.1626,N,07726.4723,W,0.12,170.50,100823,,,A*79
$GPGGA,234847.500,4306.1627,N,07726.4723,W,1,07,1.35,140.9,M,-34.3,M,,*55
$GPRMC,234847.750,A,4306.1626,N,07726.4723,W,0.11,182.64,100823,,,A*75
$GPGGA,234848.000,4306.1626,N,07726.4723,W,1,07,1.35,140.8,M,-34.3,M,,*5F
$GPRMC,234848.250,A,4306.1626,N,07726.4723,W,0.09,191.60,100823,,,A*70
$GPGGA,234848.500,4306.1626,N,07726.4723,W,1,07,1.35,140.6,M,-34.3,M,,*54
$GPRMC,234848.750,A,4306.1626,N,07726.4723,W,0.15,140.25,100823,,,A*75
$GPGGA,234849.000,4306.1626,N,07726.4723,W,1,07,1.35,140.5,M,-34.3,M,,*53
$GPRMC,234849.250,A,4306.1625,N,07726.4723,W,0.13,136.01,100823,,,A*73
$GPGGA,234849.500,4306.1625,N,07726.4724,W,1,07,1.35,140.4,M,-34.3,M,,*53
$GPRMC,234849.750,A,4306.1625,N,07726.4724,W,0.03,195.34,100823,,,A*7F
$GPGGA,234850.000,4306.1625,N,07726.4723,W,1,07,1.35,140.4,M,-34.3,M,,*59
$GPRMC,234850.250,A,4306.1624,N,07726.4723,W,0.19,147.63,100823,,,A*72
$GPGGA,234850.500,4306.1624,N,07726.4723,W,1,07,1.35,140.4,M,-34.3,M,,*5D
$GPRMC,234850.750,A,4306.1624,N,07726.4723,W,0.22,156.12,100823,,,A*79
$GPGGA,234851.000,4306.1624,N,07726.4724,W,1,07,1.35,140.4,M,-34.3,M,,*5E
$GPRMC,234851.250,A,4306.1624,N,07726.4724,W,0.10,159.55,100823,,,A*77
$GPGGA,234851.500,4306.1624,N,07726.4724,W,1,07,1.35,140.4,M,-34.3,M,,*5B
$GPRMC,234851.750,A,4306.1624,N,07726.4724,W,0.13,208.86,100823,,,A*78
$GPGGA,234852.000,4306.1623,N,07726.4724,W,1,07,1.35,140.5,M,-34.3,M,,*5B
$GPRMC,234852.250,A,4306.1623,N,07726.4724,W,0.12,165.82,100823,,,A*74
$GPGGA,234852.500,4306.1623,N,07726.4724,W,1,07,1.35,140.5,M,-34.3,M,,*5E
$GPRMC,234852.750,A,4306.1623,N,07726.4724,W,0.13,194.40,100823,,,A*70
$GPGGA,234853.000,4306.1623,N,07726.4725,W,1,07,1.35,140.6,M,-34.3,M,,*58
$GPRMC,234853.250,A,4306.1623,N,07726.4724,W,0.13,202.61,100823,,,A*7B
$GPGGA,234853.500,4306.1623,N,07726.4724,W,1,07,1.35,140.8,M,-34.3,M,,*52
$GPRMC,234853.750,A,4306.1623,N,07726.4724,W,0.06,167.17,100823,,,A*7B
$GPGGA,234854.000,4306.1624,N,07726.4724,W,1,07,1.35,140.8,M,-34.3,M,,*57
$GPRMC,234854.250,A,4306.1624,N,07726.4724,W,0.06,84.29,100823,,,A*4F
$GPGGA,234854.500,4306.1624,N,07726.4724,W,1,07,1.35,140.9,M,-34.3,M,,*53
$GPRMC,234854.750,A,4306.1624,N,07726.4723,W,0.23,83.03,100823,,,A*45
$GPGGA,234855.000,4306.1624,N,07726.4723,W,1,07,1.35,141.0,M,-34.3,M,,*58
$GPRMC,234855.250,A,4306.1623,N,07726.4723,W,0.15,98.18,100823,,,A*43
$GPGGA,234855.500,4306.1623,N,07726.4723,W,1,07,1.35,141.0,M,-34.3,M,,*5A
$GPRMC,234855.750,A,4306.1622,N,07726.4725,W,0.23,218.39,100823,,,A*7D
$GPGGA,234856.000,4306.1622,N,07726.4726,W,1,07,1.35,141.0,M,-34.3,M,,*58
$GPRMC,234856.250,A,4306.1621,N,07726.4727,W,0.56,225.39,100823,,,A*76
$GPGGA,234856.500,4306.1620,N,07726.4728,W,1,07,1.35,141.0,M,-34.3,M,,*51
$GPRMC,234856.750,A,4306.1618,N,07726.4728,W,0.86,217.52,100823,,,A*77
$GPGGA,234857.000,4306.1614,N,07726.4727,W,1,07,1.35,141.0,M,-34.3,M,,*5D
$GPRMC,234857.250,A,4306.1612,N,07726.4727,W,1.29,198.21,100823,,,A*72
$GPGGA,234857.500,4306.1609,N,07726.4726,W,1,07,1.35,141.0,M,-34.3,M,,*55
$GPRMC,234857.750,A,4306.1606,N,07726.4727,W,1.96,196.38,100823,,,A*70
$GPGGA,234858.000,4306.1605,N,07726.4729,W,1,07,1.35,141.0,M,-34.3,M,,*5C
$GPRMC,234858.250,A,4306.1602,N,07726.4730,W,2.88,203.26,100823,,,A*74
$GPGGA,234858.500,4306.1597,N,07726.4730,W,1,07,1.35,141.0,M,-34.3,M,,*59
$GPRMC,234858.750,A,4306.1594,N,07726.4730,W,4.19,181.28,100823,,,A*74
$GPGGA,234859.000,4306.1589,N,07726.4729,W,1,07,1.43,141.0,M,-34.3,M,,*5B
$GPRMC,234859.250,A,4306.1585,N,07726.4727,W,4.72,168.32,100823,,,A*77
$GPGGA,234859.500,4306.1580,N,07726.4725,W,1,07,1.43,141.0,M,-34.3,M,,*5B
$GPRMC,234859.750,A,4306.1576,N,07726.4723,W,5.41,152.69,100823,,,A*7C
$GPGGA,234900.000,4306.1572,N,07726.4719,W,1,07,1.43,141.0,M,-34.3,M,,*51
$GPRMC,234900.250,A,4306.1569,N,07726.4715,W,5.55,137.87,100823,,,A*79
$GPGGA,234900.500,4306.1565,N,07726.4711,W,1,07,1.43,141.0,M,-34.3,M,,*5A
$GPRMC,234900.750,A,4306.1561,N,07726.4707,W,5.08,129.49,100823,,,A*72
$GPGGA,234901.000,4306.1559,N,07726.4703,W,1,07,1.43,141.1,M,-34.3,M,,*53
$GPRMC,234901.250,A,4306.1556,N,07726.4699,W,5.20,124.91,100823,,,A*76
$GPGGA,234901.500,4306.1554,N,07726.4694,W,1,07,1.43,141.2,M,-34.3,M,,*57
$GPRMC,234901.750,A,4306.1551,N,07726.4689,W,5.77,118.89,100823,,,A*71
$GPGGA,234902.000,4306.1549,N,07726.4684,W,1,07,1.43,141.3,M,-34.3,M,,*5D
$GPRMC,234902.250,A,4306.1547,N,07726.4680,W,5.25,117.66,100823,,,A*70
$GPGGA,234902.500,4306.1546,N,07726.4676,W,1,07,1.43,141.6,M,-34.3,M,,*5F
$GPRMC,234902.750,A,4306.1544,N,07726.4671,W,4.67,117.59,100823,,,A*73
$GPGGA,234903.000,4306.1542,N,07726.4668,W,1,07,1.43,141.8,M,-34.3,M,,*5E
$GPRMC,234903.250,A,4306.1540,N,07726.4664,W,4.18,119.41,100823,,,A*78
$GPGGA,234903.500,4306.1539,N,07726.4661,W,1,07,1.43,142.1,M,-34.3,M,,*54
$GPRMC,234903.750,A,4306.1537,N,07726.4657,W,3.64,121.37,100823,,,A*7B
$GPGGA,234904.000,4306.1536,N,07726.4655,W,1,07,1.35,142.3,M,-34.3,M,,*5D
$GPRMC,234904.250,A,4306.1534,N,07726.4651,W,3.15,120.41,100823,,,A*7A
$GPGGA,234904.500,4306.1532,N,07726.4648,W,1,07,1.35,142.5,M,-34.3,M,,*56
$GPRMC,234904.750,A,4306.1530,N,07726.4645,W,2.91,123.86,100823,,,A*7B
$GPGGA,234905.000,4306.1528,N,07726.4642,W,1,07,1.35,142.6,M,-34.3,M,,*50
$GPRMC,234905.250,A,4306.1526,N,07726.4639,W,3.03,126.24,100823,,,A*74
$GPGGA,234905.500,4306.1525,N,07726.4637,W,1,07,1.35,142.8,M,-34.3,M,,*54
$GPRMC,234905.750,A,4306.1522,N,07726.4633,W,3.78,136.11,100823,,,A*74
$GPGGA,234906.000,4306.1519,N,07726.4630,W,1,07,1.35,142.9,M,-34.3,M,,*5B
$GPRMC,234906.250,A,4306.1516,N,07726.4627,W,4.45,141.76,100823,,,A*78
$GPGGA,234906.500,4306.1512,N,07726.4623,W,1,07,1.43,143.0,M,-34.3,M,,*5E
$GPRMC,234906.750,A,4306.1508,N,07726.4620,W,4.77,145.84,100823,,,A*7D
$GPGGA,234907.000,4306.1504,N,07726.4617,W,1,07,1.43,143.1,M,-34.3,M,,*5B
$GPRMC,234907.250,A,4306.1501,N,07726.4615,W,4.80,157.16,100823,,,A*76
$GPGGA,234907.500,4306.1497,N,07726.4614,W,1,07,1.43,143.2,M,-34.3,M,,*55
$GPRMC,234907.750,A,4306.1494,N,07726.4613,W,4.62,173.39,100823,,,A*7F
$GPGGA,234908.000,4306.1489,N,07726.4612,W,1,07,1.43,143.3,M,-34.3,M,,*57
$GPRMC,234908.250,A,4306.1484,N,07726.4612,W,5.89,178.31,100823,,,A*72
$GPGGA,234908.500,4306.1480,N,07726.4613,W,1,07,1.43,143.3,M,-34.3,M,,*5A
$GPRMC,234908.750,A,4306.1475,N,07726.4613,W,6.23,183.63,100823,,,A*78
$GPGGA,234909.000,4306.1470,N,07726.4613,W,1,07,1.43,143.3,M,-34.3,M,,*51
$GPRMC,234909.250,A,4306.1465,N,07726.4614,W,6.40,186.46,100823,,,A*7D
$GPGGA,234909.500,4306.1460,N,07726.4614,W,1,07,1.43,143.5,M,-34.3,M,,*54
$GPRMC,234909.750,A,4306.1454,N,07726.4615,W,6.94,192.23,100823,,,A*74
$GPGGA,234910.000,4306.1448,N,07726.4617,W,1,07,1.43,143.5,M,-34.3,M,,*50
$GPRMC,234910.250,A,4306.1442,N,07726.4619,W,7.56,197.37,100823,,,A*7D
$GPGGA,234910.500,4306.1437,N,07726.4622,W,1,07,1.43,143.4,M,-34.3,M,,*5A
$GPRMC,234910.750,A,4306.1433,N,07726.4625,W,6.93,205.89,100823,,,A*74
$GPGGA,234911.000,4306.1428,N,07726.4628,W,1,07,1.43,143.4,M,-34.3,M,,*5A
$GPRMC,234911.250,A,4306.1423,N,07726.4631,W,7.38,205.78,100823,,,A*7A
$GPGGA,234911.500,4306.1418,N,07726.4634,W,1,07,1.43,143.4,M,-34.3,M,,*51
$GPRMC,234911.750,A,4306.1412,N,07726.4637,W,7.50,205.15,100823,,,A*7E
$GPGGA,234912.000,4306.1407,N,07726.4640,W,1,07,1.43,143.5,M,-34.3,M,,*5B
$GPRMC,234912.250,A,4306.1402,N,07726.4643,W,7.84,202.81,100823,,,A*79
$GPGGA,234912.500,4306.1397,N,07726.4646,W,1,07,1.43,143.5,M,-34.3,M,,*56
$GPRMC,234912.750,A,4306.1392,N,07726.4649,W,7.07,203.02,100823,,,A*79
$GPGGA,234913.000,4306.1388,N,07726.4652,W,1,07,1.43,143.5,M,-34.3,M,,*59
$GPRMC,234913.250,A,4306.1384,N,07726.4654,W,6.28,201.93,100823,,,A*70
$GPGGA,234913.500,4306.1380,N,07726.4657,W,1,07,1.43,143.5,M,-34.3,M,,*51
$GPRMC,234913.750,A,4306.1378,N,07726.4659,W,4.97,205.50,100823,,,A*76
$GPGGA,234914.000,4306.1376,N,07726.4661,W,1,07,1.43,143.4,M,-34.3,M,,*5E
$GPRMC,234914.250,A,4306.1373,N,07726.4663,W,4.01,204.82,100823,,,A*77
$GPGGA,234914.500,4306.1371,N,07726.4664,W,1,07,1.43,143.4,M,-34.3,M,,*59
$GPRMC,234914.750,A,4306.1369,N,07726.4665,W,3.50,207.00,100823,,,A*75
$GPGGA,234915.000,4306.1366,N,07726.4666,W,1,07,1.35,143.5,M,-34.3,M,,*59
$GPRMC,234915.250,A,4306.1363,N,07726.4667,W,3.31,210.19,100823,,,A*70
$GPGGA,234915.500,4306.1361,N,07726.4668,W,1,07,1.35,143.6,M,-34.3,M,,*56
$GPRMC,234915.750,A,4306.1360,N,07726.4669,W,2.61,213.68,100823,,,A*79
$GPGGA,234916.000,4306.1357,N,07726.4669,W,1,07,1.35,143.7,M,-34.3,M,,*55
$GPRMC,234916.250,A,4306.1355,N,07726.4669,W,2.52,205.37,100823,,,A*74
$GPGGA,234916.500,4306.1353,N,07726.4669,W,1,07,1.35,143.8,M,-34.3,M,,*5B
$GPRMC,234916.750,A,4306.1351,N,07726.4670,W,2.20,205.33,100823,,,A*7C
$GPGGA,234917.000,4306.1349,N,07726.4670,W,1,07,1.35,143.9,M,-34.3,M,,*5D
$GPRMC,234917.250,A,4306.1347,N,07726.4671,W,2.07,216.32,100823,,,A*78
$GPGGA,234917.500,4306.1346,N,07726.4672,W,1,07,1.35,143.9,M,-34.3,M,,*55
$GPRMC,234917.750,A,4306.1344,N,07726.4673,W,2.15,217.14,100823,,,A*7A
$GPGGA,234918.000,4306.1342,N,07726.4674,W,1,07,1.35,143.8,M,-34.3,M,,*5C
$GPRMC,234918.250,A,4306.1340,N,07726.4675,W,2.41,209.15,100823,,,A*7D
$GPGGA,234918.500,4306.1338,N,07726.4676,W,1,07,1.35,143.8,M,-34.3,M,,*56
$GPRMC,234918.750,A,4306.1336,N,07726.4677,W,2.26,215.66,100823,,,A*73
$GPGGA,234919.000,4306.1334,N,07726.4678,W,1,07,1.35,143.7,M,-34.3,M,,*5F
$GPRMC,234919.250,A,4306.1332,N,07726.4680,W,2.72,212.02,100823,,,A*7F
$GPGGA,234919.500,4306.1330,N,07726.4682,W,1,07,1.35,143.6,M,-34.3,M,,*5A
$GPRMC,234919.750,A,4306.1327,N,07726.4684,W,3.04,215.97,100823,,,A*71
$GPGGA,234920.000,4306.1325,N,07726.4686,W,1,07,1.35,143.5,M,-34.3,M,,*56
$GPRMC,234920.250,A,4306.1322,N,07726.4689,W,3.87,218.58,100823,,,A*73
$GPGGA,234920.500,4306.1320,N,07726.4692,W,1,07,1.35,143.4,M,-34.3,M,,*52
$GPRMC,234920.750,A,4306.1318,N,07726.4696,W,3.85,232.06,100823,,,A*70
$GPGGA,234921.000,4306.1317,N,07726.4700,W,1,07,1.35,143.3,M,-34.3,M,,*5F
$GPRMC,234921.250,A,4306.1316,N,07726.4704,W,3.99,247.37,100823,,,A*7D
$GPGGA,234921.500,4306.1314,N,07726.4708,W,1,07,1.43,143.1,M,-34.3,M,,*52
$GPRMC,234921.750,A,4306.1312,N,07726.4712,W,4.35,240.78,100823,,,A*76
$GPGGA,234922.000,4306.1311,N,07726.4717,W,1,07,1.43,142.9,M,-34.3,M,,*56
$GPRMC,234922.250,A,4306.1311,N,07726.4722,W,4.86,258.66,100823,,,A*7E
$GPGGA,234922.500,4306.1310,N,07726.4727,W,1,07,1.43,142.7,M,-34.3,M,,*5F
$GPRMC,234922.750,A,4306.1310,N,07726.4733,W,5.49,269.82,100823,,,A*70
$GPGGA,234923.000,4306.1310,N,07726.4738,W,1,07,1.43,142.7,M,-34.3,M,,*55
$GPRMC,234923.250,A,4306.1311,N,07726.4744,W,5.65,279.43,100823,,,A*77
$GPGGA,234923.500,4306.1312,N,07726.4749,W,1,07,1.43,142.7,M,-34.3,M,,*54
$GPRMC,234923.750,A,4306.1313,N,07726.4755,W,6.25,290.37,100823,,,A*73
$GPGGA,234924.000,4306.1315,N,07726.4761,W,1,07,1.43,142.8,M,-34.3,M,,*54
$GPRMC,234924.250,A,4306.1317,N,07726.4767,W,7.30,296.60,100823,,,A*75
$GPGGA,234924.500,4306.1320,N,07726.4773,W,1,07,1.43,142.8,M,-34.3,M,,*54
$GPRMC,234924.750,A,4306.1322,N,07726.4780,W,7.87,296.62,100823,,,A*71
$GPGGA,234925.000,4306.1325,N,07726.4786,W,1,07,1.43,142.8,M,-34.3,M,,*5F
$GPRMC,234925.250,A,4306.1327,N,07726.4793,W,8.03,298.17,100823,,,A*7D
$GPGGA,234925.500,4306.1330,N,07726.4799,W,1,07,1.43,142.9,M,-34.3,M,,*51
$GPRMC,234925.750,A,4306.1333,N,07726.4806,W,8.22,301.37,100823,,,A*7E
$GPGGA,234926.000,4306.1336,N,07726.4813,W,1,07,1.43,142.9,M,-34.3,M,,*5C
$GPRMC,234926.250,A,4306.1339,N,07726.4819,W,8.66,302.88,100823,,,A*7B
$GPGGA,234926.500,4306.1341,N,07726.4825,W,1,07,1.43,143.1,M,-34.3,M,,*55
$GPRMC,234926.750,A,4306.1342,N,07726.4831,W,8.07,292.90,100823,,,A*7E
$GPGGA,234927.000,4306.1343,N,07726.4838,W,1,07,1.43,143.9,M,-34.3,M,,*57
$GPRMC,234927.250,A,4306.1345,N,07726.4844,W,7.93,296.21,100823,,,A*73
$GPGGA,234927.500,4306.1347,N,07726.4850,W,1,07,1.43,144.6,M,-34.3,M,,*50
$GPRMC,234927.750,A,4306.1348,N,07726.4856,W,7.84,295.07,100823,,,A*79
$GPGGA,234928.000,4306.1349,N,07726.4862,W,1,07,1.43,145.2,M,-34.3,M,,*50
$GPRMC,234928.250,A,4306.1351,N,07726.4868,W,7.11,294.44,100823,,,A*7C
$GPGGA,234928.500,4306.1352,N,07726.4874,W,1,07,1.43,145.7,M,-34.3,M,,*5D
$GPRMC,234928.750,A,4306.1354,N,07726.4881,W,7.45,298.12,100823,,,A*75
$GPGGA,234929.000,4306.1357,N,07726.4887,W,1,07,1.43,146.2,M,-34.3,M,,*56
$GPRMC,234929.250,A,4306.1360,N,07726.4894,W,8.25,303.84,100823,,,A*77
$GPGGA,234929.500,4306.1362,N,07726.4901,W,1,07,1.43,146.4,M,-34.3,M,,*5C
$GPRMC,234929.750,A,4306.1365,N,07726.4909,W,8.47,301.10,100823,,,A*79
$GPGGA,234930.000,4306.1367,N,07726.4916,W,1,07,1.43,146.6,M,-34.3,M,,*50
$GPRMC,234930.250,A,4306.1370,N,07726.4923,W,8.50,299.51,100823,,,A*7B
$GPGGA,234930.500,4306.1372,N,07726.4931,W,1,07,1.43,146.6,M,-34.3,M,,*54
$GPRMC,234930.750,A,4306.1375,N,07726.4939,W,9.00,297.60,100823,,,A*78
$GPGGA,234931.000,4306.1376,N,07726.4947,W,1,07,1.43,146.9,M,-34.3,M,,*5A
$GPRMC,234931.250,A,4306.1378,N,07726.4955,W,9.08,297.35,100823,,,A*73
$GPGGA,234931.500,4306.1380,N,07726.4963,W,1,07,1.43,147.2,M,-34.3,M,,*5A
$GPRMC,234931.750,A,4306.1382,N,07726.4972,W,9.40,296.28,100823,,,A*77
$GPGGA,234932.000,4306.1384,N,07726.4980,W,1,07,1.43,147.4,M,-34.3,M,,*53
$GPRMC,234932.250,A,4306.1385,N,07726.4989,W,9.28,295.82,100823,,,A*7F
$GPGGA,234932.500,4306.1386,N,07726.4998,W,1,07,1.43,147.4,M,-34.3,M,,*5D
$GPRMC,234932.750,A,4306.1387,N,07726.5007,W,8.90,294.42,100823,,,A*79
$GPGGA,234933.000,4306.1388,N,07726.5016,W,1,07,1.43,147.3,M,-34.3,M,,*5E
$GPRMC,234933.250,A,4306.1388,N,07726.5025,W,8.67,294.24,100823,,,A*7A
$GPGGA,234933.500,4306.1389,N,07726.5034,W,1,07,1.43,147.5,M,-34.3,M,,*5C
$GPRMC,234933.750,A,4306.1389,N,07726.5043,W,8.62,290.32,100823,,,A*78
$GPGGA,234934.000,4306.1389,N,07726.5052,W,1,07,1.43,147.8,M,-34.3,M,,*53
$GPRMC,234934.250,A,4306.1390,N,07726.5059,W,8.29,290.92,100823,,,A*7C
$GPGGA,234934.500,4306.1390,N,07726.5066,W,1,07,1.43,148.1,M,-34.3,M,,*5F
$GPRMC,234934.750,A,4306.1390,N,07726.5072,W,6.85,287.26,100823,,,A*71
$GPGGA,234935.000,4306.1391,N,07726.5077,W,1,07,1.43,148.5,M,-34.3,M,,*5E
$GPRMC,234935.250,A,4306.1391,N,07726.5082,W,5.64,285.86,100823,,,A*7F
$GPGGA,234935.500,4306.1391,N,07726.5086,W,1,07,1.43,148.9,M,-34.3,M,,*59
$GPRMC,234935.750,A,4306.1391,N,07726.5090,W,4.15,288.82,100823,,,A*77
$GPGGA,234936.000,4306.1391,N,07726.5093,W,1,07,1.43,149.2,M,-34.3,M,,*51
$GPRMC,234936.250,A,4306.1391,N,07726.5096,W,3.41,288.93,100823,,,A*71
$GPGGA,234936.500,4306.1391,N,07726.5099,W,1,07,1.35,149.6,M,-34.3,M,,*5B
$GPRMC,234936.750,A,4306.1391,N,07726.5100,W,2.37,288.38,100823,,,A*7B
$GPGGA,234937.000,4306.1392,N,07726.5102,W,1,07,1.35,149.8,M,-34.3,M,,*51
$GPRMC,234937.250,A,4306.1392,N,07726.5103,W,2.13,295.58,100823,,,A*73
$GPGGA,234937.500,4306.1392,N,07726.5104,W,1,07,1.35,150.2,M,-34.3,M,,*50
$GPRMC,234937.750,A,4306.1392,N,07726.5104,W,0.88,294.32,100823,,,A*7C
$GPGGA,234938.000,4306.1392,N,07726.5103,W,1,07,1.35,150.6,M,-34.3,M,,*59
$GPRMC,234938.250,A,4306.1392,N,07726.5103,W,0.35,292.74,100823,,,A*73
$GPGGA,234938.500,4306.1392,N,07726.5102,W,1,07,1.35,150.5,M,-34.3,M,,*5E
$GPRMC,234938.750,A,4306.1392,N,07726.5101,W,0.06,276.07,100823,,,A*7A
$GPGGA,234939.000,4306.1392,N,07726.5100,W,1,07,1.35,150.6,M,-34.3,M,,*5B
$GPRMC,234939.250,A,4306.1392,N,07726.5100,W,0.02,98.93,100823,,,A*44
$GPGGA,234939.500,4306.1391,N,07726.5099,W,1,07,1.35,150.7,M,-34.3,M,,*5D
$GPRMC,234939.750,A,4306.1391,N,07726.5099,W,0.03,231.81,100823,,,A*70
$GPGGA,234940.000,4306.1392,N,07726.5099,W,1,07,1.35,150.7,M,-34.3,M,,*55
$GPRMC,234940.250,A,4306.1392,N,07726.5100,W,0.20,309.66,100823,,,A*7B
$GPGGA,234940.500,4306.1392,N,07726.5102,W,1,07,1.35,150.7,M,-34.3,M,,*53
$GPRMC,234940.750,A,4306.1392,N,07726.5104,W,0.80,291.30,100823,,,A*73
$GPGGA,234941.000,4306.1393,N,07726.5104,W,1,07,1.35,150.7,M,-34.3,M,,*50
$GPRMC,234941.250,A,4306.1393,N,07726.5105,W,1.12,278.06,100823,,,A*7F
$GPGGA,234941.500,4306.1393,N,07726.5106,W,1,07,1.35,150.7,M,-34.3,M,,*57
$GPRMC,234941.750,A,4306.1393,N,07726.5107,W,1.28,290.15,100823,,,A*75
$GPGGA,234942.000,4306.1393,N,07726.5109,W,1,07,1.35,150.7,M,-34.3,M,,*5E
$GPRMC,234942.250,A,4306.1394,N,07726.5110,W,1.69,283.31,100823,,,A*73
$GPGGA,234942.500,4306.1394,N,07726.5112,W,1,07,1.35,150.8,M,-34.3,M,,*59
$GPRMC,234942.750,A,4306.1394,N,07726.5115,W,2.94,280.90,100823,,,A*7A
$GPGGA,234943.000,4306.1394,N,07726.5119,W,1,07,1.35,150.7,M,-34.3,M,,*59
$GPRMC,234943.250,A,4306.1395,N,07726.5123,W,3.82,290.83,100823,,,A*7F
$GPGGA,234943.500,4306.1396,N,07726.5127,W,1,07,1.35,150.6,M,-34.3,M,,*52
$GPRMC,234943.750,A,4306.1397,N,07726.5131,W,4.26,295.11,100823,,,A*7C
$GPGGA,234944.000,4306.1399,N,07726.5135,W,1,07,1.43,150.5,M,-34.3,M,,*5E
$GPRMC,234944.250,A,4306.1400,N,07726.5139,W,4.25,301.73,100823,,,A*74
$GPGGA,234944.500,4306.1403,N,07726.5142,W,1,07,1.43,150.4,M,-34.3,M,,*5E
$GPRMC,234944.750,A,4306.1406,N,07726.5146,W,4.88,320.76,100823,,,A*7E
$GPGGA,234945.000,4306.1409,N,07726.5149,W,1,07,1.43,150.3,M,-34.3,M,,*5C
$GPRMC,234945.250,A,4306.1412,N,07726.5152,W,5.41,328.18,100823,,,A*7E
$GPGGA,234945.500,4306.1418,N,07726.5155,W,1,07,1.43,150.3,M,-34.3,M,,*54
$GPRMC,234945.750,A,4306.1423,N,07726.5158,W,6.89,338.89,100823,,,A*7D
$GPGGA,234946.000,4306.1428,N,07726.5160,W,1,07,1.43,150.2,M,-34.3,M,,*56
$GPRMC,234946.250,A,4306.1433,N,07726.5162,W,7.62,346.08,100823,,,A*77
$GPGGA,234946.500,4306.1440,N,07726.5163,W,1,07,1.43,150.2,M,-34.3,M,,*5E
$GPRMC,234946.750,A,4306.1446,N,07726.5165,W,8.68,351.40,100823,,,A*78
$GPGGA,234947.000,4306.1453,N,07726.5166,W,1,07,1.43,150.2,M,-34.3,M,,*5D
$GPRMC,234947.250,A,4306.1461,N,07726.5166,W,9.98,355.92,100823,,,A*7F
$GPGGA,234947.500,4306.1469,N,07726.5166,W,1,06,2.54,150.4,M,-34.3,M,,*53
$GPRMC,234947.750,A,4306.1477,N,07726.5166,W,11.16,0.62,100823,,,A*4E
$GPGGA,234948.000,4306.1486,N,07726.5166,W,1,06,2.54,150.6,M,-34.3,M,,*5A
$GPRMC,234948.250,A,4306.1495,N,07726.5166,W,11.86,2.29,100823,,,A*4C
$GPGGA,234948.500,4306.1504,N,07726.5165,W,1,07,1.43,150.9,M,-34.3,M,,*5C
$GPRMC,234948.750,A,4306.1514,N,07726.5164,W,12.60,2.97,100823,,,A*4D
$GPGGA,234949.000,4306.1524,N,07726.5163,W,1,06,2.54,151.3,M,-34.3,M,,*53
$GPRMC,234949.250,A,4306.1533,N,07726.5162,W,13.08,3.26,100823,,,A*4E
$GPGGA,234949.500,4306.1544,N,07726.5162,W,1,06,2.54,151.5,M,-34.3,M,,*57
$GPRMC,234949.750,A,4306.1554,N,07726.5161,W,13.59,3.47,100823,,,A*4A
$GPGGA,234950.000,4306.1564,N,07726.5161,W,1,07,1.43,151.6,M,-34.3,M,,*5C
$GPRMC,234950.250,A,4306.1574,N,07726.5160,W,13.99,3.18,100823,,,A*42
$GPGGA,234950.500,4306.1585,N,07726.5160,W,1,06,2.54,151.7,M,-34.3,M,,*52
$GPRMC,234950.750,A,4306.1595,N,07726.5160,W,14.41,2.35,100823,,,A*44
$GPGGA,234951.000,4306.1606,N,07726.5160,W,1,06,2.55,151.7,M,-34.3,M,,*5F
$GPRMC,234951.250,A,4306.1616,N,07726.5160,W,14.72,1.38,100823,,,A*46
$GPGGA,234951.500,4306.1627,N,07726.5161,W,1,06,2.54,151.6,M,-34.3,M,,*58
$GPRMC,234951.750,A,4306.1638,N,07726.5161,W,14.85,0.71,100823,,,A*4A
$GPGGA,234952.000,4306.1648,N,07726.5162,W,1,07,1.43,151.6,M,-34.3,M,,*50
$GPRMC,234952.250,A,4306.1659,N,07726.5162,W,14.89,0.98,100823,,,A*43
$GPGGA,234952.500,4306.1670,N,07726.5162,W,1,07,1.43,151.4,M,-34.3,M,,*5C
$GPRMC,234952.750,A,4306.1680,N,07726.5162,W,14.96,1.22,100823,,,A*4C
$GPGGA,234953.000,4306.1691,N,07726.5162,W,1,07,1.43,151.3,M,-34.3,M,,*50
$GPRMC,234953.250,A,4306.1701,N,07726.5162,W,14.98,1.27,100823,,,A*4B
$GPGGA,234953.500,4306.1712,N,07726.5162,W,1,06,2.55,151.1,M,-34.3,M,,*58
$GPRMC,234953.750,A,4306.1723,N,07726.5162,W,14.80,1.02,100823,,,A*40
$GPGGA,234954.000,4306.1733,N,07726.5162,W,1,06,2.54,151.0,M,-34.3,M,,*59
$GPRMC,234954.250,A,4306.1744,N,07726.5162,W,14.73,1.34,100823,,,A*4A
$GPGGA,234954.500,4306.1754,N,07726.5162,W,1,07,1.43,150.9,M,-34.3,M,,*51
$GPRMC,234954.750,A,4306.1765,N,07726.5162,W,14.64,1.85,100823,,,A*40
$GPGGA,234955.000,4306.1777,N,07726.5161,W,1,07,1.43,150.2,M,-34.3,M,,*5C
$GPRMC,234955.250,A,4306.1788,N,07726.5161,W,14.43,2.66,100823,,,A*4F
$GPGGA,234955.500,4306.1799,N,07726.5161,W,1,07,1.43,149.7,M,-34.3,M,,*54
$GPRMC,234955.750,A,4306.1810,N,07726.5161,W,14.17,2.76,100823,,,A*44
$GPGGA,234956.000,4306.1820,N,07726.5161,W,1,07,1.43,149.4,M,-34.3,M,,*5C
$GPRMC,234956.250,A,4306.1831,N,07726.5160,W,13.99,2.88,100823,,,A*40
$GPGGA,234956.500,4306.1841,N,07726.5159,W,1,07,1.43,149.3,M,-34.3,M,,*52
$GPRMC,234956.750,A,4306.1852,N,07726.5158,W,13.88,3.48,100823,,,A*46
$GPGGA,234957.000,4306.1862,N,07726.5157,W,1,07,1.43,149.2,M,-34.3,M,,*58
$GPRMC,234957.250,A,4306.1873,N,07726.5156,W,13.94,3.34,100823,,,A*49
$GPGGA,234957.500,4306.1883,N,07726.5156,W,1,07,1.43,149.2,M,-34.3,M,,*53
$GPRMC,234957.750,A,4306.1893,N,07726.5156,W,13.93,2.61,100823,,,A*44
$GPGGA,234958.000,4306.1904,N,07726.5155,W,1,07,1.43,149.4,M,-34.3,M,,*52
$GPRMC,234958.250,A,4306.1914,N,07726.5155,W,13.96,1.96,100823,,,A*4D
$GPGGA,234958.500,4306.1924,N,07726.5155,W,1,07,1.43,149.6,M,-34.3,M,,*57
$GPRMC,234958.750,A,4306.1935,N,07726.5155,W,14.18,1.58,100823,,,A*48
$GPGGA,234959.000,4306.1945,N,07726.5155,W,1,07,1.43,149.8,M,-34.3,M,,*5A
$GPRMC,234959.250,A,4306.1956,N,07726.5155,W,14.27,1.17,100823,,,A*4E
$GPGGA,234959.500,4306.1966,N,07726.5154,W,1,07,1.43,149.7,M,-34.3,M,,*50
$GPRMC,234959.750,A,4306.1976,N,07726.5154,W,14.26,1.44,100823,,,A*4F
$GPGGA,235000.000,4306.1987,N,07726.5154,W,1,07,1.43,149.6,M,-34.3,M,,*5F
$GPRMC,235000.250,A,4306.1997,N,07726.5155,W,14.25,1.46,100823,,,A*41
$GPGGA,235000.500,4306.2008,N,07726.5155,W,1,07,1.43,149.3,M,-34.3,M,,*53
$GPRMC,235000.750,A,4306.2018,N,07726.5155,W,14.51,0.99,100823,,,A*49
$GPGGA,235001.000,4306.2029,N,07726.5155,W,1,07,1.43,148.9,M,-34.3,M,,*5F
$GPRMC,235001.250,A,4306.2040,N,07726.5155,W,14.95,0.83,100823,,,A*43
$GPGGA,235001.500,4306.2051,N,07726.5156,W,1,07,1.43,148.6,M,-34.3,M,,*59
$GPRMC,235001.750,A,4306.2063,N,07726.5156,W,15.54,0.55,100823,,,A*43
$GPGGA,235002.000,4306.2074,N,07726.5156,W,1,07,1.43,148.2,M,-34.3,M,,*5C
$GPRMC,235002.250,A,4306.2085,N,07726.5157,W,15.67,0.50,100823,,,A*49
$GPGGA,235002.500,4306.2096,N,07726.5157,W,1,07,1.43,147.9,M,-34.3,M,,*50
$GPRMC,235002.750,A,4306.2108,N,07726.5156,W,16.12,1.17,100823,,,A*4A
$GPGGA,235003.000,4306.2119,N,07726.5156,W,1,07,1.43,147.7,M,-34.3,M,,*5D
$GPRMC,235003.250,A,4306.2131,N,07726.5157,W,16.18,1.36,100823,,,A*4C
$GPGGA,235003.500,4306.2143,N,07726.5157,W,1,07,1.43,147.2,M,-34.3,M,,*53
$GPRMC,235003.750,A,4306.2156,N,07726.5157,W,16.61,1.70,100823,,,A*44
$GPGGA,235004.000,4306.2168,N,07726.5157,W,1,07,1.43,147.0,M,-34.3,M,,*5A
$GPRMC,235004.250,A,4306.2180,N,07726.5157,W,16.81,1.30,100823,,,A*47
$GPGGA,235004.500,4306.2193,N,07726.5157,W,1,07,1.43,146.8,M,-34.3,M,,*52
$GPRMC,235004.750,A,4306.2205,N,07726.5156,W,17.15,1.83,100823,,,A*49
$GPGGA,235005.000,4306.2217,N,07726.5156,W,1,07,1.43,146.9,M,-34.3,M,,*59
$GPRMC,235005.250,A,4306.2230,N,07726.5156,W,17.53,1.74,100823,,,A*41
$GPGGA,235005.500,4306.2243,N,07726.5156,W,1,07,1.43,147.1,M,-34.3,M,,*54
$GPRMC,235005.750,A,4306.2256,N,07726.5155,W,18.11,1.40,100823,,,A*49
$GPGGA,235006.000,4306.2270,N,07726.5156,W,1,07,1.43,147.2,M,-34.3,M,,*51
$GPRMC,235006.250,A,4306.2283,N,07726.5156,W,18.72,0.72,100823,,,A*41
$GPGGA,235006.500,4306.2298,N,07726.5156,W,1,07,1.43,147.3,M,-34.3,M,,*53
$GPRMC,235006.750,A,4306.2312,N,07726.5156,W,19.45,0.18,100823,,,A*44
$GPGGA,235007.000,4306.2327,N,07726.5156,W,1,07,1.43,147.5,M,-34.3,M,,*54
$GPRMC,235007.250,A,4306.2341,N,07726.5156,W,19.77,359.94,100823,,,A*4C
$GPGGA,235007.500,4306.2356,N,07726.5157,W,1,07,1.43,147.5,M,-34.3,M,,*56
$GPRMC,235007.750,A,4306.2370,N,07726.5157,W,20.14,0.10,100823,,,A*46
$GPGGA,235008.000,4306.2385,N,07726.5157,W,1,07,1.43,147.5,M,-34.3,M,,*52
$GPRMC,235008.250,A,4306.2400,N,07726.5158,W,20.37,0.02,100823,,,A*41
$GPGGA,235008.500,4306.2415,N,07726.5158,W,1,07,1.43,147.4,M,-34.3,M,,*57
$GPRMC,235008.750,A,4306.2430,N,07726.5158,W,20.70,0.39,100823,,,A*4C
$GPGGA,235009.000,4306.2445,N,07726.5158,W,1,07,1.43,147.1,M,-34.3,M,,*53
$GPRMC,235009.250,A,4306.2459,N,07726.5158,W,20.84,0.59,100823,,,A*4A
$GPGGA,235009.500,4306.2475,N,07726.5158,W,1,07,1.43,147.1,M,-34.3,M,,*55
$GPRMC,235009.750,A,4306.2490,N,07726.5158,W,21.37,0.96,100823,,,A*40
$GPGGA,235010.000,4306.2505,N,07726.5159,W,1,07,1.43,147.1,M,-34.3,M,,*5F
$GPRMC,235010.250,A,4306.2521,N,07726.5159,W,22.01,1.12,100823,,,A*4C
$GPGGA,235010.500,4306.2537,N,07726.5160,W,1,07,1.43,147.1,M,-34.3,M,,*51
$GPRMC,235010.750,A,4306.2553,N,07726.5160,W,22.37,1.58,100823,,,A*4D
$GPGGA,235011.000,4306.2569,N,07726.5161,W,1,07,1.43,147.2,M,-34.3,M,,*5C
$GPRMC,235011.250,A,4306.2585,N,07726.5161,W,22.82,2.13,100823,,,A*41
$GPGGA,235011.500,4306.2602,N,07726.5161,W,1,07,1.43,147.2,M,-34.3,M,,*57
$GPRMC,235011.750,A,4306.2618,N,07726.5161,W,23.04,2.50,100823,,,A*4B
$GPGGA,235012.000,4306.2635,N,07726.5161,W,1,06,2.55,147.3,M,-34.3,M,,*51
$GPRMC,235012.250,A,4306.2651,N,07726.5161,W,23.39,2.12,100823,,,A*48
$GPGGA,235012.500,4306.2668,N,07726.5161,W,1,06,2.55,147.4,M,-34.3,M,,*5B
$GPRMC,235012.750,A,4306.2685,N,07726.5161,W,23.45,2.37,100823,,,A*48
$GPGGA,235013.000,4306.2701,N,07726.5161,W,1,06,2.55,147.6,M,-34.3,M,,*53
$GPRMC,235013.250,A,4306.2718,N,07726.5162,W,23.55,1.43,100823,,,A*4B
$GPGGA,235013.500,4306.2735,N,07726.5162,W,1,06,2.55,147.8,M,-34.3,M,,*5C
$GPRMC,235013.750,A,4306.2752,N,07726.5162,W,23.83,2.09,100823,,,A*46
$GPGGA,235014.000,4306.2769,N,07726.5162,W,1,06,2.55,148.1,M,-34.3,M,,*51
$GPRMC,235014.250,A,4306.2786,N,07726.5161,W,24.12,2.24,100823,,,A*4E
$GPGGA,235014.500,4306.2803,N,07726.5161,W,1,07,1.43,148.8,M,-34.3,M,,*58
$GPRMC,235014.750,A,4306.2820,N,07726.5161,W,24.63,1.71,100823,,,A*4D
$GPGGA,235015.000,4306.2837,N,07726.5161,W,1,07,1.43,149.6,M,-34.3,M,,*54
$GPRMC,235015.250,A,4306.2854,N,07726.5161,W,24.45,1.75,100823,,,A*4A
$GPGGA,235015.500,4306.2871,N,07726.5161,W,1,07,1.43,150.0,M,-34.3,M,,*5D
$GPRMC,235015.750,A,4306.2888,N,07726.5160,W,24.23,2.32,100823,,,A*4F
$GPGGA,235016.000,4306.2904,N,07726.5159,W,1,06,2.55,150.4,M,-34.3,M,,*52
$GPRMC,235016.250,A,4306.2921,N,07726.5158,W,24.23,2.14,100823,,,A*44
$GPGGA,235016.500,4306.2938,N,07726.5158,W,1,07,1.43,150.8,M,-34.3,M,,*50
$GPRMC,235016.750,A,4306.2956,N,07726.5159,W,24.56,1.33,100823,,,A*44
$GPGGA,235017.000,4306.2973,N,07726.5159,W,1,07,1.43,151.1,M,-34.3,M,,*52
$GPRMC,235017.250,A,4306.2990,N,07726.5158,W,24.62,1.42,100823,,,A*4A
$GPGGA,235017.500,4306.3007,N,07726.5158,W,1,06,2.55,151.4,M,-34.3,M,,*5D
$GPRMC,235017.750,A,4306.3024,N,07726.5158,W,24.61,0.80,100823,,,A*44
$GPGGA,235018.000,4306.3041,N,07726.5158,W,1,07,1.43,151.7,M,-34.3,M,,*53
$GPRMC,235018.250,A,4306.3058,N,07726.5157,W,24.64,1.22,100823,,,A*46
$GPGGA,235018.500,4306.3075,N,07726.5157,W,1,06,2.55,151.9,M,-34.3,M,,*55
$GPRMC,235018.750,A,4306.3092,N,07726.5156,W,24.61,2.02,100823,,,A*40
$GPGGA,235019.000,4306.3109,N,07726.5155,W,1,07,1.43,152.1,M,-34.3,M,,*57
$GPRMC,235019.250,A,4306.3125,N,07726.5155,W,24.54,2.23,100823,,,A*4F
$GPGGA,235019.500,4306.3143,N,07726.5154,W,1,07,1.43,152.3,M,-34.3,M,,*5F
$GPRMC,235019.750,A,4306.3160,N,07726.5154,W,24.54,2.13,100823,,,A*49
$GPGGA,235020.000,4306.3177,N,07726.5153,W,1,07,1.43,152.5,M,-34.3,M,,*56
$GPRMC,235020.250,A,4306.3195,N,07726.5152,W,24.62,2.31,100823,,,A*4F
$GPGGA,235020.500,4306.3212,N,07726.5152,W,1,07,1.43,152.8,M,-34.3,M,,*5F
$GPRMC,235020.750,A,4306.3229,N,07726.5151,W,25.09,2.20,100823,,,A*41
$GPGGA,235021.000,4306.3247,N,07726.5150,W,1,07,1.43,153.2,M,-34.3,M,,*52
$GPRMC,235021.250,A,4306.3265,N,07726.5149,W,25.02,1.99,100823,,,A*4E
$GPGGA,235021.500,4306.3282,N,07726.5148,W,1,07,1.43,153.6,M,-34.3,M,,*53
$GPRMC,235021.750,A,4306.3300,N,07726.5148,W,24.97,2.15,100823,,,A*42
$GPGGA,235022.000,4306.3317,N,07726.5148,W,1,07,1.43,154.0,M,-34.3,M,,*59
$GPRMC,235022.250,A,4306.3335,N,07726.5147,W,24.98,1.03,100823,,,A*46
$GPGGA,235022.500,4306.3353,N,07726.5147,W,1,07,1.43,154.5,M,-34.3,M,,*56
$GPRMC,235022.750,A,4306.3371,N,07726.5146,W,25.39,1.38,100823,,,A*40
$GPGGA,235023.000,4306.3392,N,07726.5146,W,1,06,1.54,154.1,M,-34.3,M,,*5D
$GPRMC,235023.250,A,4306.3410,N,07726.5145,W,25.48,1.35,100823,,,A*4C
$GPGGA,235023.500,4306.3428,N,07726.5144,W,1,07,1.35,154.7,M,-34.3,M,,*5C
$GPRMC,235023.750,A,4306.3445,N,07726.5144,W,25.51,1.18,100823,,,A*4F
$GPGGA,235024.000,4306.3463,N,07726.5143,W,1,07,1.43,155.1,M,-34.3,M,,*50
$GPRMC,235024.250,A,4306.3482,N,07726.5143,W,25.57,1.16,100823,,,A*49
$GPGGA,235024.500,4306.3500,N,07726.5142,W,1,07,1.43,155.1,M,-34.3,M,,*50
$GPRMC,235024.750,A,4306.3518,N,07726.5141,W,25.58,1.58,100823,,,A*49
$GPGGA,235025.000,4306.3537,N,07726.5140,W,1,07,1.43,154.8,M,-34.3,M,,*5A
$GPRMC,235025.250,A,4306.3555,N,07726.5139,W,25.40,2.09,100823,,,A*45
$GPGGA,235025.500,4306.3573,N,07726.5139,W,1,07,1.43,154.6,M,-34.3,M,,*5F
$GPRMC,235025.750,A,4306.3591,N,07726.5138,W,25.13,1.94,100823,,,A*48
$GPGGA,235026.000,4306.3609,N,07726.5138,W,1,07,1.43,154.5,M,-34.3,M,,*55
$GPRMC,235026.250,A,4306.3627,N,07726.5137,W,25.06,1.33,100823,,,A*46
$GPGGA,235026.500,4306.3645,N,07726.5137,W,1,07,1.43,154.2,M,-34.3,M,,*50
$GPRMC,235026.750,A,4306.3663,N,07726.5137,W,24.79,1.13,100823,,,A*48
$GPGGA,235027.000,4306.3681,N,07726.5137,W,1,07,1.43,153.7,M,-34.3,M,,*5E
$GPRMC,235027.250,A,4306.3699,N,07726.5137,W,24.50,0.86,100823,,,A*4F
$GPGGA,235027.500,4306.3716,N,07726.5137,W,1,07,1.43,153.6,M,-34.3,M,,*55
$GPRMC,235027.750,A,4306.3733,N,07726.5137,W,24.08,0.79,100823,,,A*46
$GPGGA,235028.000,4306.3750,N,07726.5137,W,1,07,1.43,153.8,M,-34.3,M,,*53
$GPRMC,235028.250,A,4306.3767,N,07726.5137,W,23.88,0.66,100823,,,A*4C
$GPGGA,235028.500,4306.3784,N,07726.5137,W,1,07,1.43,153.7,M,-34.3,M,,*50
$GPRMC,235028.750,A,4306.3801,N,07726.5137,W,23.88,0.67,100823,,,A*47
$GPGGA,235029.000,4306.3818,N,07726.5137,W,1,07,1.43,153.7,M,-34.3,M,,*5E
$GPRMC,235029.250,A,4306.3835,N,07726.5137,W,23.52,1.07,100823,,,A*44
$GPGGA,235029.500,4306.3852,N,07726.5137,W,1,07,1.43,153.6,M,-34.3,M,,*54
$GPRMC,235029.750,A,4306.3869,N,07726.5137,W,23.22,1.32,100823,,,A*49
$GPGGA,235030.000,4306.3885,N,07726.5136,W,1,06,2.55,153.8,M,-34.3,M,,*59
$GPRMC,235030.250,A,4306.3901,N,07726.5136,W,23.29,0.82,100823,,,A*4B
$GPGGA,235030.500,4306.3918,N,07726.5136,W,1,07,1.43,154.1,M,-34.3,M,,*52
$GPRMC,235030.750,A,4306.3934,N,07726.5135,W,23.14,0.95,100823,,,A*43
$GPGGA,235031.000,4306.3950,N,07726.5135,W,1,06,2.55,154.7,M,-34.3,M,,*5A
$GPRMC,235031.250,A,4306.3966,N,07726.5134,W,23.19,0.54,100823,,,A*41
$GPGGA,235031.500,4306.3983,N,07726.5134,W,1,07,1.43,155.1,M,-34.3,M,,*52
$GPRMC,235031.750,A,4306.3999,N,07726.5134,W,23.26,0.52,100823,,,A*4E
$GPGGA,235032.000,4306.4015,N,07726.5133,W,1,07,1.43,155.4,M,-34.3,M,,*57
$GPRMC,235032.250,A,4306.4031,N,07726.5133,W,23.22,0.91,100823,,,A*48
$GPGGA,235032.500,4306.4047,N,07726.5132,W,1,07,1.43,155.7,M,-34.3,M,,*57
$GPRMC,235032.750,A,4306.4064,N,07726.5131,W,23.23,1.80,100823,,,A*4F
$GPGGA,235033.000,4306.4080,N,07726.5130,W,1,07,1.43,156.0,M,-34.3,M,,*5E
$GPRMC,235033.250,A,4306.4096,N,07726.5129,W,23.25,2.15,100823,,,A*46
$GPGGA,235033.500,4306.4112,N,07726.5129,W,1,07,1.43,156.3,M,-34.3,M,,*5A
$GPRMC,235033.750,A,4306.4128,N,07726.5128,W,23.19,1.69,100823,,,A*41
$GPGGA,235034.000,4306.4144,N,07726.5128,W,1,07,1.43,156.6,M,-34.3,M,,*5F
$GPRMC,235034.250,A,4306.4160,N,07726.5128,W,23.15,1.21,100823,,,A*4F
$GPGGA,235034.500,4306.4176,N,07726.5127,W,1,07,1.43,156.9,M,-34.3,M,,*5B
$GPRMC,235034.750,A,4306.4192,N,07726.5126,W,23.10,2.35,100823,,,A*4A
$GPGGA,235035.000,4306.4209,N,07726.5125,W,1,07,1.43,157.1,M,-34.3,M,,*5F
$GPRMC,235035.250,A,4306.4225,N,07726.5124,W,23.13,2.04,100823,,,A*42
$GPGGA,235035.500,4306.4241,N,07726.5124,W,1,07,1.43,157.4,M,-34.3,M,,*52
$GPRMC,235035.750,A,4306.4256,N,07726.5123,W,22.85,1.62,100823,,,A*49
$GPGGA,235036.000,4306.4272,N,07726.5123,W,1,07,1.43,157.8,M,-34.3,M,,*5F
$GPRMC,235036.250,A,4306.4288,N,07726.5122,W,22.79,1.68,100823,,,A*44
$GPGGA,235036.500,4306.4304,N,07726.5121,W,1,07,1.43,158.2,M,-34.3,M,,*5D
$GPRMC,235036.750,A,4306.4320,N,07726.5121,W,22.73,2.43,100823,,,A*41
$GPGGA,235037.000,4306.4336,N,07726.5120,W,1,07,1.43,158.6,M,-34.3,M,,*5D
$GPRMC,235037.250,A,4306.4352,N,07726.5119,W,22.76,2.12,100823,,,A*4A
$GPGGA,235037.500,4306.4368,N,07726.5118,W,1,06,2.55,159.1,M,-34.3,M,,*5B
$GPRMC,235037.750,A,4306.4384,N,07726.5117,W,22.83,2.36,100823,,,A*46
$GPGGA,235038.000,4306.4400,N,07726.5117,W,1,06,2.55,159.6,M,-34.3,M,,*50
$GPRMC,235038.250,A,4306.4416,N,07726.5117,W,22.84,1.57,100823,,,A*43
$GPGGA,235038.500,4306.4432,N,07726.5117,W,1,07,1.43,160.2,M,-34.3,M,,*5F
$GPRMC,235038.750,A,4306.4448,N,07726.5116,W,22.64,1.41,100823,,,A*45
$GPGGA,235039.000,4306.4464,N,07726.5116,W,1,07,1.43,160.8,M,-34.3,M,,*53
$GPRMC,235039.250,A,4306.4480,N,07726.5115,W,22.55,1.60,100823,,,A*47
$GPGGA,235039.500,4306.4496,N,07726.5114,W,1,06,2.55,161.4,M,-34.3,M,,*51
$GPRMC,235039.750,A,4306.4511,N,07726.5113,W,22.27,2.21,100823,,,A*4E
$GPGGA,235040.000,4306.4527,N,07726.5112,W,1,07,1.43,162.1,M,-34.3,M,,*54
$GPRMC,235040.250,A,4306.4542,N,07726.5111,W,22.04,2.13,100823,,,A*41
$GPGGA,235040.500,4306.4558,N,07726.5111,W,1,07,1.43,162.5,M,-34.3,M,,*5E
$GPRMC,235040.750,A,4306.4573,N,07726.5112,W,21.71,0.99,100823,,,A*44
$GPGGA,235041.000,4306.4588,N,07726.5112,W,1,07,1.43,163.0,M,-34.3,M,,*50
$GPRMC,235041.250,A,4306.4603,N,07726.5112,W,21.45,0.95,100823,,,A*4F
$GPGGA,235041.500,4306.4617,N,07726.5112,W,1,06,2.55,163.3,M,-34.3,M,,*56
$GPRMC,235041.750,A,4306.4631,N,07726.5112,W,20.71,0.79,100823,,,A*4F
$GPGGA,235042.000,4306.4644,N,07726.5111,W,1,06,2.55,163.7,M,-34.3,M,,*51
$GPRMC,235042.250,A,4306.4657,N,07726.5111,W,19.39,1.71,100823,,,A*45
$GPGGA,235042.500,4306.4669,N,07726.5111,W,1,07,1.43,164.1,M,-34.3,M,,*5F
$GPRMC,235042.750,A,4306.4682,N,07726.5110,W,18.21,2.48,100823,,,A*48
$GPGGA,235043.000,4306.4694,N,07726.5110,W,1,07,1.43,164.5,M,-34.3,M,,*5C
$GPRMC,235043.250,A,4306.4706,N,07726.5110,W,17.77,1.99,100823,,,A*42
$GPGGA,235043.500,4306.4718,N,07726.5110,W,1,06,2.56,164.7,M,-34.3,M,,*58
$GPRMC,235043.750,A,4306.4728,N,07726.5110,W,16.79,1.62,100823,,,A*40
$GPGGA,235044.000,4306.4739,N,07726.5110,W,1,06,2.56,165.0,M,-34.3,M,,*5F
$GPRMC,235044.250,A,4306.4750,N,07726.5109,W,16.52,3.08,100823,,,A*42
$GPGGA,235044.500,4306.4760,N,07726.5109,W,1,06,2.55,165.4,M,-34.3,M,,*59
$GPRMC,235044.750,A,4306.4770,N,07726.5108,W,15.68,3.13,100823,,,A*44
$GPGGA,235045.000,4306.4780,N,07726.5108,W,1,07,1.43,165.9,M,-34.3,M,,*5A
$GPRMC,235045.250,A,4306.4791,N,07726.5108,W,14.74,1.73,100823,,,A*47
$GPGGA,235045.500,4306.4800,N,07726.5108,W,1,07,1.43,166.2,M,-34.3,M,,*50
$GPRMC,235045.750,A,4306.4810,N,07726.5109,W,13.14,1.66,100823,,,A*40
$GPGGA,235046.000,4306.4817,N,07726.5109,W,1,07,1.43,166.8,M,-34.3,M,,*5B
$GPRMC,235046.250,A,4306.4825,N,07726.5109,W,11.70,1.94,100823,,,A*4D
$GPGGA,235046.500,4306.4832,N,07726.5109,W,1,07,1.43,167.4,M,-34.3,M,,*54
$GPRMC,235046.750,A,4306.4839,N,07726.5109,W,10.09,4.60,100823,,,A*44
$GPGGA,235047.000,4306.4846,N,07726.5109,W,1,06,2.56,167.9,M,-34.3,M,,*58
$GPRMC,235047.250,A,4306.4853,N,07726.5109,W,9.59,3.01,100823,,,A*71
$GPGGA,235047.500,4306.4860,N,07726.5110,W,1,06,2.56,168.0,M,-34.3,M,,*57
$GPRMC,235047.750,A,4306.4866,N,07726.5110,W,8.53,359.01,100823,,,A*7D
$GPGGA,235048.000,4306.4873,N,07726.5110,W,1,06,2.56,167.9,M,-34.3,M,,*59
$GPRMC,235048.250,A,4306.4878,N,07726.5110,W,8.02,359.18,100823,,,A*74
$GPGGA,235048.500,4306.4885,N,07726.5110,W,1,06,2.56,168.1,M,-34.3,M,,*52
$GPRMC,235048.750,A,4306.4891,N,07726.5110,W,7.91,1.07,100823,,,A*73
$GPGGA,235049.000,4306.4897,N,07726.5110,W,1,06,2.55,168.3,M,-34.3,M,,*54
$GPRMC,235049.250,A,4306.4904,N,07726.5110,W,8.37,1.59,100823,,,A*72
$GPGGA,235049.500,4306.4910,N,07726.5110,W,1,06,2.56,168.4,M,-34.3,M,,*5B
$GPRMC,235049.750,A,4306.4918,N,07726.5111,W,9.43,2.66,100823,,,A*76
$GPGGA,235050.000,4306.4925,N,07726.5111,W,1,06,2.56,168.3,M,-34.3,M,,*56
$GPRMC,235050.250,A,4306.4932,N,07726.5111,W,10.18,2.21,100823,,,A*46
$GPGGA,235050.500,4306.4940,N,07726.5112,W,1,06,2.56,168.1,M,-34.3,M,,*51
$GPRMC,235050.750,A,4306.4948,N,07726.5112,W,10.82,2.10,100823,,,A*4C
$GPGGA,235051.000,4306.4955,N,07726.5112,W,1,06,2.56,168.0,M,-34.3,M,,*50
$GPRMC,235051.250,A,4306.4963,N,07726.5113,W,11.35,2.13,100823,,,A*4E
$GPGGA,235051.500,4306.4971,N,07726.5113,W,1,06,2.56,167.8,M,-34.3,M,,*55
$GPRMC,235051.750,A,4306.4981,N,07726.5113,W,12.22,2.07,100823,,,A*47
$GPGGA,235052.000,4306.4990,N,07726.5114,W,1,06,2.56,166.7,M,-34.3,M,,*55
$GPRMC,235052.250,A,4306.4999,N,07726.5114,W,12.72,2.44,100823,,,A*4D
$GPGGA,235052.500,4306.5009,N,07726.5114,W,1,06,2.56,166.0,M,-34.3,M,,*5F
$GPRMC,235052.750,A,4306.5019,N,07726.5114,W,13.46,2.57,100823,,,A*4C
$GPGGA,235053.000,4306.5028,N,07726.5114,W,1,06,2.56,165.5,M,-34.3,M,,*5E
$GPRMC,235053.250,A,4306.5038,N,07726.5114,W,14.05,1.68,100823,,,A*44
$GPGGA,235053.500,4306.5047,N,07726.5114,W,1,06,2.56,165.4,M,-34.3,M,,*53
$GPRMC,235053.750,A,4306.5058,N,07726.5114,W,14.76,2.05,100823,,,A*4B
$GPGGA,235054.000,4306.5069,N,07726.5114,W,1,06,2.56,165.1,M,-34.3,M,,*58
$GPRMC,235054.250,A,4306.5079,N,07726.5114,W,15.40,1.95,100823,,,A*44
$GPGGA,235054.500,4306.5089,N,07726.5113,W,1,06,2.56,165.3,M,-34.3,M,,*56
$GPRMC,235054.750,A,4306.5099,N,07726.5113,W,15.80,1.84,100823,,,A*44
$GPGGA,235055.000,4306.5110,N,07726.5112,W,1,06,2.56,165.8,M,-34.3,M,,*59
$GPRMC,235055.250,A,4306.5122,N,07726.5112,W,16.48,0.83,100823,,,A*41
$GPGGA,235055.500,4306.5134,N,07726.5112,W,1,06,2.56,165.6,M,-34.3,M,,*54
$GPRMC,235055.750,A,4306.5146,N,07726.5112,W,17.03,0.99,100823,,,A*43
$GPGGA,235056.000,4306.5160,N,07726.5112,W,1,06,2.56,165.1,M,-34.3,M,,*54
$GPRMC,235056.250,A,4306.5171,N,07726.5111,W,17.80,2.24,100823,,,A*4D
$GPGGA,235056.500,4306.5184,N,07726.5111,W,1,06,2.56,165.3,M,-34.3,M,,*5A
$GPRMC,235056.750,A,4306.5197,N,07726.5111,W,18.05,2.18,100823,,,A*4D
$GPGGA,235057.000,4306.5210,N,07726.5110,W,1,06,2.56,165.3,M,-34.3,M,,*51
$GPRMC,235057.250,A,4306.5223,N,07726.5110,W,18.72,1.28,100823,,,A*44
$GPGGA,235057.500,4306.5237,N,07726.5109,W,1,06,2.56,165.6,M,-34.3,M,,*5C
$GPRMC,235057.750,A,4306.5250,N,07726.5109,W,19.17,1.05,100823,,,A*40
$GPGGA,235058.000,4306.5263,N,07726.5108,W,1,06,2.56,166.2,M,-34.3,M,,*51
$GPRMC,235058.250,A,4306.5276,N,07726.5108,W,19.68,1.11,100823,,,A*42
$GPGGA,235058.500,4306.5290,N,07726.5107,W,1,06,2.56,166.6,M,-34.3,M,,*53
$GPRMC,235058.750,A,4306.5304,N,07726.5107,W,20.02,1.21,100823,,,A*49
$GPGGA,235059.000,4306.5319,N,07726.5106,W,1,06,2.56,166.9,M,-34.3,M,,*59
$GPRMC,235059.250,A,4306.5333,N,07726.5106,W,20.79,1.39,100823,,,A*4D
$GPGGA,235059.500,4306.5349,N,07726.5105,W,1,05,2.63,167.0,M,-34.3,M,,*57
$GPRMC,235059.750,A,4306.5364,N,07726.5105,W,21.47,1.04,100823,,,A*4B
$GPGGA,235100.000,4306.5379,N,07726.5105,W,1,06,1.49,167.1,M,-34.3,M,,*55
$GPRMC,235100.250,A,4306.5393,N,07726.5104,W,21.98,1.22,100823,,,A*4C
$GPGGA,235100.500,4306.5410,N,07726.5104,W,1,06,1.49,167.4,M,-34.3,M,,*5C
$GPRMC,235100.750,A,4306.5426,N,07726.5104,W,22.62,1.05,100823,,,A*43
$GPGGA,235101.000,4306.5442,N,07726.5104,W,1,06,1.49,167.2,M,-34.3,M,,*59
$GPRMC,235101.250,A,4306.5459,N,07726.5104,W,23.18,0.72,100823,,,A*42
$GPGGA,235101.500,4306.5476,N,07726.5104,W,1,06,1.49,166.6,M,-34.3,M,,*5E
$GPRMC,235101.750,A,4306.5494,N,07726.5104,W,23.48,0.68,100823,,,A*48
$GPGGA,235102.000,4306.5513,N,07726.5104,W,1,06,1.49,165.0,M,-34.3,M,,*5F
$GPRMC,235102.250,A,4306.5528,N,07726.5103,W,23.82,1.05,100823,,,A*43
$GPGGA,235102.500,4306.5545,N,07726.5103,W,1,06,1.49,165.4,M,-34.3,M,,*5A
$GPRMC,235102.750,A,4306.5563,N,07726.5103,W,24.01,0.99,100823,,,A*41
$GPGGA,235103.000,4306.5580,N,07726.5102,W,1,06,1.49,165.0,M,-34.3,M,,*52
$GPRMC,235103.250,A,4306.5597,N,07726.5102,W,23.79,1.12,100823,,,A*45
$GPGGA,235103.500,4306.5613,N,07726.5102,W,1,06,1.49,164.8,M,-34.3,M,,*57
$GPRMC,235103.750,A,4306.5630,N,07726.5101,W,23.41,0.88,100823,,,A*44
$GPGGA,235104.000,4306.5647,N,07726.5101,W,1,06,1.49,164.5,M,-34.3,M,,*5A
$GPRMC,235104.250,A,4306.5664,N,07726.5101,W,23.14,0.87,100823,,,A*48
$GPGGA,235104.500,4306.5680,N,07726.5100,W,1,06,1.49,164.3,M,-34.3,M,,*53
$GPRMC,235104.750,A,4306.5696,N,07726.5100,W,22.78,0.89,100823,,,A*44
$GPGGA,235105.000,4306.5712,N,07726.5100,W,1,06,1.49,164.2,M,-34.3,M,,*5C
$GPRMC,235105.250,A,4306.5729,N,07726.5100,W,23.22,0.63,100823,,,A*4F
$GPGGA,235105.500,4306.5746,N,07726.5100,W,1,06,1.49,163.8,M,-34.3,M,,*55
$GPRMC,235105.750,A,4306.5763,N,07726.5099,W,23.60,0.68,100823,,,A*48
$GPGGA,235106.000,4306.5780,N,07726.5099,W,1,06,1.49,163.5,M,-34.3,M,,*55
$GPRMC,235106.250,A,4306.5797,N,07726.5099,W,24.13,0.73,100823,,,A*4C
$GPGGA,235106.500,4306.5814,N,07726.5098,W,1,06,1.49,163.4,M,-34.3,M,,*52
$GPRMC,235106.750,A,4306.5832,N,07726.5098,W,24.24,0.75,100823,,,A*4A
$GPGGA,235107.000,4306.5850,N,07726.5098,W,1,06,1.49,163.3,M,-34.3,M,,*51
$GPRMC,235107.250,A,4306.5867,N,07726.5097,W,24.54,0.97,100823,,,A*4A
$GPGGA,235107.500,4306.5885,N,07726.5097,W,1,06,1.49,163.4,M,-34.3,M,,*54
$GPRMC,235107.750,A,4306.5903,N,07726.5096,W,25.09,0.99,100823,,,A*4A
$GPGGA,235108.000,4306.5921,N,07726.5096,W,1,06,1.49,163.2,M,-34.3,M,,*56
$GPRMC,235108.250,A,4306.5940,N,07726.5096,W,25.95,0.94,100823,,,A*4F
$GPGGA,235108.500,4306.5958,N,07726.5096,W,1,05,1.65,163.2,M,-34.3,M,,*50
$GPRMC,235108.750,A,4306.5977,N,07726.5095,W,26.80,0.87,100823,,,A*48
$GPGGA,235109.000,4306.5996,N,07726.5095,W,1,06,1.46,163.1,M,-34.3,M,,*54
$GPRMC,235109.250,A,4306.6015,N,07726.5095,W,27.09,0.99,100823,,,A*4D
$GPGGA,235109.500,4306.6033,N,07726.5094,W,1,06,1.45,163.0,M,-34.3,M,,*57
$GPRMC,235109.750,A,4306.6052,N,07726.5094,W,27.28,1.45,100823,,,A*49
$GPGGA,235110.000,4306.6071,N,07726.5093,W,1,06,1.45,162.8,M,-34.3,M,,*52
$GPRMC,235110.250,A,4306.6090,N,07726.5093,W,27.50,1.87,100823,,,A*4C
$GPGGA,235110.500,4306.6111,N,07726.5093,W,1,06,1.46,162.4,M,-34.3,M,,*5F
$GPRMC,235110.750,A,4306.6131,N,07726.5093,W,28.62,1.67,100823,,,A*43
$GPGGA,235111.000,4306.6151,N,07726.5092,W,1,06,1.46,162.0,M,-34.3,M,,*5A
$GPRMC,235111.250,A,4306.6172,N,07726.5091,W,28.95,2.11,100823,,,A*48
$GPGGA,235111.500,4306.6192,N,07726.5091,W,1,06,1.45,161.6,M,-34.3,M,,*55
$GPRMC,235111.750,A,4306.6213,N,07726.5091,W,29.68,1.84,100823,,,A*45
$GPGGA,235112.000,4306.6237,N,07726.5093,W,1,06,1.45,161.1,M,-34.3,M,,*5A
$GPRMC,235112.250,A,4306.6259,N,07726.5093,W,30.84,0.95,100823,,,A*44
$GPGGA,235112.500,4306.6281,N,07726.5093,W,1,06,1.46,160.7,M,-34.3,M,,*56
$GPRMC,235112.750,A,4306.6304,N,07726.5093,W,31.35,1.02,100823,,,A*4C
$GPGGA,235113.000,4306.6326,N,07726.5093,W,1,06,1.45,160.2,M,-34.3,M,,*58
$GPRMC,235113.250,A,4306.6348,N,07726.5093,W,31.45,1.08,100823,,,A*4D
$GPGGA,235113.500,4306.6370,N,07726.5092,W,1,06,1.45,159.9,M,-34.3,M,,*5E
$GPRMC,235113.750,A,4306.6393,N,07726.5092,W,31.66,0.94,100823,,,A*4A
$GPGGA,235114.000,4306.6417,N,07726.5092,W,1,06,1.45,159.7,M,-34.3,M,,*54
$GPRMC,235114.250,A,4306.6439,N,07726.5092,W,32.23,1.11,100823,,,A*41
$GPGGA,235114.500,4306.6462,N,07726.5091,W,1,06,1.45,159.5,M,-34.3,M,,*52
$GPRMC,235114.750,A,4306.6484,N,07726.5090,W,32.19,1.48,100823,,,A*45
$GPGGA,235115.000,4306.6507,N,07726.5090,W,1,06,1.45,159.3,M,-34.3,M,,*53
$GPRMC,235115.250,A,4306.6530,N,07726.5089,W,32.43,1.99,100823,,,A*44
$GPGGA,235115.500,4306.6553,N,07726.5087,W,1,06,1.45,159.2,M,-34.3,M,,*50
$GPRMC,235115.750,A,4306.6576,N,07726.5086,W,32.57,2.59,100823,,,A*46
$GPGGA,235116.000,4306.6600,N,07726.5085,W,1,06,1.45,159.2,M,-34.3,M,,*51
$GPRMC,235116.250,A,4306.6623,N,07726.5084,W,32.68,2.43,100823,,,A*46
$GPGGA,235116.500,4306.6647,N,07726.5083,W,1,06,1.45,159.1,M,-34.3,M,,*52
$GPRMC,235116.750,A,4306.6672,N,07726.5081,W,33.09,2.34,100823,,,A*44
$GPGGA,235117.000,4306.6696,N,07726.5080,W,1,06,1.46,159.0,M,-34.3,M,,*5B
$GPRMC,235117.250,A,4306.6719,N,07726.5079,W,33.12,1.99,100823,,,A*45
$GPGGA,235117.500,4306.6743,N,07726.5077,W,1,06,1.45,159.1,M,-34.3,M,,*5D
$GPRMC,235117.750,A,4306.6768,N,07726.5078,W,33.39,2.09,100823,,,A*44
$GPGGA,235118.000,4306.6794,N,07726.5078,W,1,06,1.45,158.9,M,-34.3,M,,*5B
$GPRMC,235118.250,A,4306.6819,N,07726.5079,W,34.08,1.26,100823,,,A*4D
$GPGGA,235118.500,4306.6844,N,07726.5080,W,1,06,1.45,158.8,M,-34.3,M,,*5A
$GPRMC,235118.750,A,4306.6869,N,07726.5081,W,34.19,359.87,100823,,,A*4D
$GPGGA,235119.000,4306.6894,N,07726.5082,W,1,06,1.45,158.6,M,-34.3,M,,*5F
$GPRMC,235119.250,A,4306.6919,N,07726.5082,W,34.72,0.06,100823,,,A*47
$GPGGA,235119.500,4306.6943,N,07726.5082,W,1,06,1.45,158.3,M,-34.3,M,,*54
$GPRMC,235119.750,A,4306.6968,N,07726.5082,W,34.85,0.78,100823,,,A*45
$GPGGA,235120.000,4306.6994,N,07726.5082,W,1,06,1.45,157.8,M,-34.3,M,,*55
$GPRMC,235120.250,A,4306.7018,N,07726.5081,W,35.24,1.38,100823,,,A*49
$GPGGA,235120.500,4306.7043,N,07726.5081,W,1,06,1.45,157.5,M,-34.3,M,,*5C
$GPRMC,235120.750,A,4306.7068,N,07726.5081,W,35.35,1.50,100823,,,A*45
$GPGGA,235121.000,4306.7094,N,07726.5082,W,1,06,1.45,157.3,M,-34.3,M,,*57
$GPRMC,235121.250,A,4306.7118,N,07726.5082,W,35.36,1.32,100823,,,A*43
$GPGGA,235121.500,4306.7143,N,07726.5082,W,1,06,1.45,157.2,M,-34.3,M,,*58
$GPRMC,235121.750,A,4306.7168,N,07726.5082,W,35.37,1.89,100823,,,A*40
$GPGGA,235122.000,4306.7194,N,07726.5082,W,1,06,1.45,157.1,M,-34.3,M,,*57
$GPRMC,235122.250,A,4306.7219,N,07726.5081,W,35.64,2.00,100823,,,A*44
$GPGGA,235122.500,4306.7245,N,07726.5080,W,1,06,1.45,157.0,M,-34.3,M,,*5E
$GPRMC,235122.750,A,4306.7271,N,07726.5079,W,35.95,2.32,100823,,,A*47
$GPGGA,235123.000,4306.7297,N,07726.5079,W,1,06,1.45,156.9,M,-34.3,M,,*5B
$GPRMC,235123.250,A,4306.7323,N,07726.5078,W,36.40,1.78,100823,,,A*42
$GPGGA,235123.500,4306.7350,N,07726.5078,W,1,06,1.46,156.8,M,-34.3,M,,*57
$GPRMC,235123.750,A,4306.7376,N,07726.5078,W,36.85,1.81,100823,,,A*48
$GPGGA,235124.000,4306.7403,N,07726.5077,W,1,06,1.49,156.9,M,-34.3,M,,*55
$GPRMC,235124.250,A,4306.7430,N,07726.5077,W,37.12,1.82,100823,,,A*4C
$GPGGA,235124.500,4306.7458,N,07726.5077,W,1,06,1.45,157.0,M,-34.3,M,,*5A
$GPRMC,235124.750,A,4306.7485,N,07726.5076,W,37.69,1.78,100823,,,A*4F
$GPGGA,235125.000,4306.7513,N,07726.5076,W,1,06,1.49,157.0,M,-34.3,M,,*5D
$GPRMC,235125.250,A,4306.7540,N,07726.5075,W,38.06,1.83,100823,,,A*42
$GPGGA,235125.500,4306.7568,N,07726.5074,W,1,06,1.45,157.3,M,-34.3,M,,*59
$GPRMC,235125.750,A,4306.7595,N,07726.5074,W,38.10,1.50,100823,,,A*47
$GPGGA,235126.000,4306.7623,N,07726.5074,W,1,06,1.45,157.7,M,-34.3,M,,*57
$GPRMC,235126.250,A,4306.7650,N,07726.5073,W,38.28,1.44,100823,,,A*42
$GPGGA,235126.500,4306.7677,N,07726.5073,W,1,06,1.45,158.2,M,-34.3,M,,*5E
$GPRMC,235126.750,A,4306.7704,N,07726.5072,W,38.12,1.40,100823,,,A*4B
$GPGGA,235127.000,4306.7732,N,07726.5072,W,1,06,1.45,158.5,M,-34.3,M,,*5C
$GPRMC,235127.250,A,4306.7760,N,07726.5072,W,38.05,1.39,100823,,,A*45
$GPGGA,235127.500,4306.7787,N,07726.5072,W,1,06,1.45,158.3,M,-34.3,M,,*51
$GPRMC,235127.750,A,4306.7815,N,07726.5072,W,38.47,0.65,100823,,,A*43
$GPGGA,235128.000,4306.7842,N,07726.5072,W,1,06,1.45,158.1,M,-34.3,M,,*5F
$GPRMC,235128.250,A,4306.7870,N,07726.5072,W,38.53,0.90,100823,,,A*45
$GPGGA,235128.500,4306.7897,N,07726.5072,W,1,06,1.49,157.8,M,-34.3,M,,*58
$GPRMC,235128.750,A,4306.7925,N,07726.5072,W,38.76,1.31,100823,,,A*4C
$GPGGA,235129.000,4306.7953,N,07726.5072,W,1,06,1.49,157.4,M,-34.3,M,,*59
$GPRMC,235129.250,A,4306.7981,N,07726.5071,W,38.90,1.24,100823,,,A*49
$GPGGA,235129.500,4306.8009,N,07726.5071,W,1,06,1.49,157.1,M,-34.3,M,,*53
$GPRMC,235129.750,A,4306.8038,N,07726.5070,W,39.84,0.85,100823,,,A*47
$GPGGA,235130.000,4306.8066,N,07726.5070,W,1,06,1.49,156.7,M,-34.3,M,,*51
$GPRMC,235130.250,A,4306.8094,N,07726.5069,W,40.06,0.65,100823,,,A*4E
$GPGGA,235130.500,4306.8122,N,07726.5069,W,1,06,1.49,156.6,M,-34.3,M,,*5C
$GPRMC,235130.750,A,4306.8150,N,07726.5069,W,40.09,0.79,100823,,,A*40
$GPGGA,235131.000,4306.8178,N,07726.5069,W,1,06,1.49,156.5,M,-34.3,M,,*54
$GPRMC,235131.250,A,4306.8206,N,07726.5069,W,40.27,0.60,100823,,,A*40
$GPGGA,235131.500,4306.8235,N,07726.5069,W,1,06,1.49,156.5,M,-34.3,M,,*5B
$GPRMC,235131.750,A,4306.8263,N,07726.5068,W,40.25,0.46,100823,,,A*41
$GPGGA,235132.000,4306.8291,N,07726.5068,W,1,05,2.64,156.5,M,-34.3,M,,*5D
$GPRMC,235132.250,A,4306.8319,N,07726.5068,W,40.33,0.46,100823,,,A*4C
$GPGGA,235132.500,4306.8348,N,07726.5068,W,1,06,1.45,156.5,M,-34.3,M,,*5E
$GPRMC,235132.750,A,4306.8376,N,07726.5067,W,40.43,0.42,100823,,,A*4C
$GPGGA,235133.000,4306.8405,N,07726.5067,W,1,06,1.45,156.7,M,-34.3,M,,*59
$GPRMC,235133.250,A,4306.8433,N,07726.5067,W,40.47,0.55,100823,,,A*4C
$GPGGA,235133.500,4306.8462,N,07726.5067,W,1,06,1.46,156.7,M,-34.3,M,,*5E
$GPRMC,235133.750,A,4306.8490,N,07726.5067,W,40.25,0.72,100823,,,A*41
$GPGGA,235134.000,4306.8518,N,07726.5066,W,1,06,1.49,156.9,M,-34.3,M,,*50
$GPRMC,235134.250,A,4306.8547,N,07726.5066,W,40.25,0.73,100823,,,A*48
$GPGGA,235134.500,4306.8575,N,07726.5065,W,1,06,1.49,157.1,M,-34.3,M,,*54
$GPRMC,235134.750,A,4306.8604,N,07726.5064,W,40.30,1.01,100823,,,A*4B
$GPGGA,235135.000,4306.8633,N,07726.5063,W,1,06,1.49,157.2,M,-34.3,M,,*54
$GPRMC,235135.250,A,4306.8662,N,07726.5062,W,40.47,1.20,100823,,,A*4A
$GPGGA,235135.500,4306.8690,N,07726.5062,W,1,06,1.45,157.3,M,-34.3,M,,*54
$GPRMC,235135.750,A,4306.8719,N,07726.5061,W,40.70,1.08,100823,,,A*4F
$GPGGA,235136.000,4306.8748,N,07726.5060,W,1,06,1.49,157.3,M,-34.3,M,,*58
$GPRMC,235136.250,A,4306.8777,N,07726.5060,W,40.83,1.17,100823,,,A*42
$GPGGA,235136.500,4306.8807,N,07726.5058,W,1,06,1.49,157.2,M,-34.3,M,,*53
$GPRMC,235136.750,A,4306.8836,N,07726.5057,W,41.14,1.46,100823,,,A*42
$GPGGA,235137.000,4306.8865,N,07726.5057,W,1,06,1.49,157.0,M,-34.3,M,,*5E
$GPRMC,235137.250,A,4306.8894,N,07726.5056,W,41.24,1.18,100823,,,A*47
$GPGGA,235137.500,4306.8924,N,07726.5055,W,1,06,1.49,156.8,M,-34.3,M,,*54
$GPRMC,235137.750,A,4306.8953,N,07726.5055,W,41.32,0.82,100823,,,A*4E
$GPGGA,235138.000,4306.8983,N,07726.5055,W,1,06,1.49,156.5,M,-34.3,M,,*5E
$GPRMC,235138.250,A,4306.9012,N,07726.5054,W,41.50,0.92,100823,,,A*4D
$GPGGA,235138.500,4306.9041,N,07726.5054,W,1,06,1.49,156.3,M,-34.3,M,,*5A
$GPRMC,235138.750,A,4306.9070,N,07726.5053,W,41.34,1.06,100823,,,A*45
$GPGGA,235139.000,4306.9100,N,07726.5052,W,1,06,1.49,156.0,M,-34.3,M,,*5F
$GPRMC,235139.250,A,4306.9129,N,07726.5051,W,41.39,1.10,100823,,,A*44
$GPGGA,235139.500,4306.9158,N,07726.5050,W,1,06,1.49,155.7,M,-34.3,M,,*51
$GPRMC,235139.750,A,4306.9188,N,07726.5048,W,41.62,2.08,100823,,,A*46
$GPGGA,235140.000,4306.9217,N,07726.5047,W,1,06,1.49,155.4,M,-34.3,M,,*57
$GPRMC,235140.250,A,4306.9246,N,07726.5046,W,41.30,1.48,100823,,,A*42
$GPGGA,235140.500,4306.9276,N,07726.5045,W,1,06,1.49,155.2,M,-34.3,M,,*51
$GPRMC,235140.750,A,4306.9305,N,07726.5044,W,41.28,1.67,100823,,,A*47
$GPGGA,235141.000,4306.9335,N,07726.5045,W,1,06,1.49,154.9,M,-34.3,M,,*59
$GPRMC,235141.250,A,4306.9364,N,07726.5045,W,41.56,0.50,100823,,,A*49
$GPGGA,235141.500,4306.9394,N,07726.5044,W,1,06,1.49,154.7,M,-34.3,M,,*58
$GPRMC,235141.750,A,4306.9424,N,07726.5044,W,41.76,0.91,100823,,,A*41
$GPGGA,235142.000,4306.9454,N,07726.5043,W,1,06,1.49,154.3,M,-34.3,M,,*56
$GPRMC,235142.250,A,4306.9484,N,07726.5042,W,41.70,1.15,100823,,,A*40
$GPGGA,235142.500,4306.9514,N,07726.5042,W,1,06,1.49,154.1,M,-34.3,M,,*55
$GPRMC,235142.750,A,4306.9544,N,07726.5042,W,41.95,0.58,100823,,,A*4B
$GPGGA,235143.000,4306.9574,N,07726.5042,W,1,06,1.49,153.8,M,-34.3,M,,*59
$GPRMC,235143.250,A,4306.9603,N,07726.5042,W,41.85,0.26,100823,,,A*47
$GPGGA,235143.500,4306.9633,N,07726.5041,W,1,06,1.49,153.8,M,-34.3,M,,*5F
$GPRMC,235143.750,A,4306.9662,N,07726.5041,W,41.74,0.22,100823,,,A*4C
$GPGGA,235144.000,4306.9691,N,07726.5040,W,1,06,1.49,153.9,M,-34.3,M,,*55
$GPRMC,235144.250,A,4306.9720,N,07726.5040,W,41.47,0.67,100823,,,A*49
$GPGGA,235144.500,4306.9749,N,07726.5039,W,1,06,1.49,154.0,M,-34.3,M,,*54
$GPRMC,235144.750,A,4306.9778,N,07726.5038,W,41.25,0.98,100823,,,A*4A
$GPGGA,235145.000,4306.9807,N,07726.5037,W,1,06,1.49,154.2,M,-34.3,M,,*59
$GPRMC,235145.250,A,4306.9835,N,07726.5037,W,40.96,1.13,100823,,,A*4C
$GPGGA,235145.500,4306.9864,N,07726.5036,W,1,06,1.49,154.3,M,-34.3,M,,*59
$GPRMC,235145.750,A,4306.9892,N,07726.5036,W,40.87,0.74,100823,,,A*45
$GPGGA,235146.000,4306.9921,N,07726.5036,W,1,06,1.49,154.4,M,-34.3,M,,*58
$GPRMC,235146.250,A,4306.9949,N,07726.5036,W,40.84,0.48,100823,,,A*48
$GPGGA,235146.500,4306.9977,N,07726.5035,W,1,06,1.49,154.4,M,-34.3,M,,*5D
$GPRMC,235146.750,A,4307.0006,N,07726.5035,W,40.81,0.59,100823,,,A*41
$GPGGA,235147.000,4307.0034,N,07726.5035,W,1,06,1.49,154.5,M,-34.3,M,,*5E
$GPRMC,235147.250,A,4307.0063,N,07726.5035,W,40.78,0.81,100823,,,A*45
$GPGGA,235147.500,4307.0091,N,07726.5035,W,1,06,1.49,154.6,M,-34.3,M,,*57
$GPRMC,235147.750,A,4307.0119,N,07726.5035,W,40.67,0.60,100823,,,A*4D
$GPGGA,235148.000,4307.0148,N,07726.5035,W,1,06,1.49,154.7,M,-34.3,M,,*59
$GPRMC,235148.250,A,4307.0176,N,07726.5035,W,40.44,0.91,100823,,,A*41
$GPGGA,235148.500,4307.0204,N,07726.5034,W,1,06,1.49,154.8,M,-34.3,M,,*59
$GPRMC,235148.750,A,4307.0232,N,07726.5034,W,40.21,0.78,100823,,,A*42
$GPGGA,235149.000,4307.0260,N,07726.5034,W,1,06,1.49,155.0,M,-34.3,M,,*56
$GPRMC,235149.250,A,4307.0288,N,07726.5034,W,39.96,0.88,100823,,,A*4A
$GPGGA,235149.500,4307.0316,N,07726.5033,W,1,06,1.45,155.3,M,-34.3,M,,*5B
$GPRMC,235149.750,A,4307.0344,N,07726.5032,W,40.02,1.90,100823,,,A*43
$GPGGA,235150.000,4307.0372,N,07726.5031,W,1,06,1.45,155.6,M,-34.3,M,,*53
$GPRMC,235150.250,A,4307.0400,N,07726.5030,W,39.90,1.69,100823,,,A*48
$GPGGA,235150.500,4307.0427,N,07726.5028,W,1,06,1.45,156.0,M,-34.3,M,,*5C
$GPRMC,235150.750,A,4307.0455,N,07726.5027,W,39.92,2.19,100823,,,A*4D
$GPGGA,235151.000,4307.0483,N,07726.5025,W,1,05,1.65,156.3,M,-34.3,M,,*59
$GPRMC,235151.250,A,4307.0510,N,07726.5024,W,39.17,1.83,100823,,,A*47
$GPGGA,235151.500,4307.0537,N,07726.5023,W,1,05,1.65,156.9,M,-34.3,M,,*5E
$GPRMC,235151.750,A,4307.0565,N,07726.5022,W,39.01,2.30,100823,,,A*4A
$GPGGA,235152.000,4307.0592,N,07726.5021,W,1,06,1.49,157.2,M,-34.3,M,,*52
$GPRMC,235152.250,A,4307.0619,N,07726.5019,W,38.99,2.27,100823,,,A*4A
$GPGGA,235152.500,4307.0646,N,07726.5018,W,1,06,1.49,157.5,M,-34.3,M,,*50
$GPRMC,235152.750,A,4307.0673,N,07726.5017,W,38.91,2.00,100823,,,A*40
$GPGGA,235153.000,4307.0700,N,07726.5016,W,1,06,1.49,157.9,M,-34.3,M,,*55
$GPRMC,235153.250,A,4307.0727,N,07726.5015,W,38.69,1.68,100823,,,A*4C
$GPGGA,235153.500,4307.0754,N,07726.5014,W,1,06,1.45,158.0,M,-34.3,M,,*59
$GPRMC,235153.750,A,4307.0781,N,07726.5013,W,38.59,2.34,100823,,,A*4A
$GPGGA,235154.000,4307.0807,N,07726.5012,W,1,06,1.49,158.3,M,-34.3,M,,*5B
$GPRMC,235154.250,A,4307.0834,N,07726.5011,W,38.49,2.28,100823,,,A*47
$GPGGA,235154.500,4307.0860,N,07726.5010,W,1,06,1.45,158.5,M,-34.3,M,,*57
$GPRMC,235154.750,A,4307.0887,N,07726.5009,W,38.27,2.03,100823,,,A*42
$GPGGA,235155.000,4307.0913,N,07726.5009,W,1,06,1.45,158.5,M,-34.3,M,,*5E
$GPRMC,235155.250,A,4307.0940,N,07726.5008,W,38.20,1.42,100823,,,A*4C
$GPGGA,235155.500,4307.0966,N,07726.5007,W,1,06,1.45,158.7,M,-34.3,M,,*55
$GPRMC,235155.750,A,4307.0992,N,07726.5007,W,38.18,1.52,100823,,,A*43
$GPGGA,235156.000,4307.1019,N,07726.5006,W,1,06,1.49,158.9,M,-34.3,M,,*50
$GPRMC,235156.250,A,4307.1045,N,07726.5005,W,38.13,1.45,100823,,,A*48
$GPGGA,235156.500,4307.1072,N,07726.5004,W,1,06,1.45,158.9,M,-34.3,M,,*56
$GPRMC,235156.750,A,4307.1098,N,07726.5003,W,38.06,1.64,100823,,,A*4C
$GPGGA,235157.000,4307.1125,N,07726.5002,W,1,06,1.49,159.1,M,-34.3,M,,*52
$GPRMC,235157.250,A,4307.1151,N,07726.5001,W,38.05,1.52,100823,,,A*48
$GPGGA,235157.500,4307.1178,N,07726.5000,W,1,06,1.45,159.4,M,-34.3,M,,*54
$GPRMC,235157.750,A,4307.1204,N,07726.5000,W,38.11,1.65,100823,,,A*4E
$GPGGA,235158.000,4307.1230,N,07726.4999,W,1,06,1.49,159.7,M,-34.3,M,,*56
$GPRMC,235158.250,A,4307.1257,N,07726.4998,W,37.94,1.69,100823,,,A*45
$GPGGA,235158.500,4307.1284,N,07726.4996,W,1,06,1.45,159.9,M,-34.3,M,,*51
$GPRMC,235158.750,A,4307.1311,N,07726.4996,W,38.22,1.79,100823,,,A*4E
$GPGGA,235159.000,4307.1337,N,07726.4995,W,1,05,1.65,160.3,M,-34.3,M,,*5E
$GPRMC,235159.250,A,4307.1364,N,07726.4995,W,38.39,1.34,100823,,,A*48
$GPGGA,235159.500,4307.1391,N,07726.4994,W,1,06,1.45,160.6,M,-34.3,M,,*52
$GPRMC,235159.750,A,4307.1418,N,07726.4993,W,38.35,1.52,100823,,,A*4B
$GPGGA,235200.000,4307.1445,N,07726.4992,W,1,06,1.49,161.0,M,-34.3,M,,*5B
$GPRMC,235200.250,A,4307.1472,N,07726.4991,W,38.26,1.65,100823,,,A*49
$GPGGA,235200.500,4307.1499,N,07726.4990,W,1,06,1.45,161.5,M,-34.3,M,,*54
$GPRMC,235200.750,A,4307.1525,N,07726.4990,W,38.18,1.46,100823,,,A*42
$GPGGA,235201.000,4307.1552,N,07726.4989,W,1,06,1.49,161.9,M,-34.3,M,,*5E
