Vers 81
USE_SERIAL_FEEDBACK=true
DEVELOPMENT_MODE=false
USE_RMC_ONLY=false

$GPRMC,143703.500,A,4308.3039,N,07726.2714,W,0.02,64.23,090923,,,A*49
$GPGGA,143703.750,4308.3039,N,07726.2715,W,1,06,1.24,165.4,M,-34.4,M,,*54
$GPRMC,143704.000,A,4308.3038,N,07726.2716,W,0.04,106.98,090923,,,A*7B
$GPGGA,143704.250,4308.3037,N,07726.2717,W,1,06,1.24,165.9,M,-34.4,M,,*57
$GPRMC,143704.500,A,4308.3037,N,07726.2718,W,0.05,281.59,090923,,,A*7F
$GPGGA,143704.750,4308.3037,N,07726.2719,W,1,06,1.24,166.5,M,-34.4,M,,*53
$GPRMC,143705.000,A,4308.3037,N,07726.2720,W,0.06,319.09,090923,,,A*76
$GPGGA,143705.250,4308.3036,N,07726.2721,W,1,06,1.24,167.1,M,-34.4,M,,*58
$GPRMC,143705.500,A,4308.3036,N,07726.2721,W,0.08,321.17,090923,,,A*79
$GPGGA,143705.750,4308.3036,N,07726.2721,W,1,06,1.24,167.3,M,-34.4,M,,*5F
$GPRMC,143706.000,A,4308.3036,N,07726.2722,W,0.06,319.44,090923,,,A*7F
$GPGGA,143706.250,4308.3036,N,07726.2722,W,1,06,1.24,167.6,M,-34.4,M,,*5F
$GPRMC,143706.500,A,4308.3036,N,07726.2722,W,0.10,307.45,090923,,,A*73
$GPGGA,143706.750,4308.3036,N,07726.2722,W,1,06,1.24,167.5,M,-34.4,M,,*59
$GPRMC,143707.000,A,4308.3036,N,07726.2722,W,0.11,283.11,090923,,,A*7A
$GPGGA,143707.250,4308.3035,N,07726.2722,W,1,06,1.24,167.6,M,-34.4,M,,*5D
$GPRMC,143707.500,A,4308.3034,N,07726.2722,W,0.04,193.41,090923,,,A*7E
$GPGGA,143707.750,4308.3034,N,07726.2721,W,1,06,1.24,167.4,M,-34.4,M,,*58
$GPRMC,143708.000,A,4308.3033,N,07726.2720,W,0.18,82.99,090923,,,A*48
$GPGGA,143708.250,4308.3033,N,07726.2719,W,1,06,1.24,167.5,M,-34.4,M,,*5F
$GPRMC,143708.500,A,4308.3033,N,07726.2719,W,0.14,116.27,090923,,,A*72
$GPGGA,143708.750,4308.3032,N,07726.2719,W,1,06,1.24,167.5,M,-34.4,M,,*5B
$GPRMC,143709.000,A,4308.3032,N,07726.2719,W,0.09,140.48,090923,,,A*71
$GPGGA,143709.250,4308.3031,N,07726.2719,W,1,06,1.24,167.7,M,-34.4,M,,*5E
$GPRMC,143709.500,A,4308.3031,N,07726.2718,W,0.10,155.60,090923,,,A*70
$GPGGA,143709.750,4308.3030,N,07726.2718,W,1,06,1.24,167.9,M,-34.4,M,,*55
$GPRMC,143710.000,A,4308.3030,N,07726.2717,W,0.16,127.86,090923,,,A*78
$GPGGA,143710.250,4308.3030,N,07726.2717,W,1,06,1.24,168.1,M,-34.4,M,,*50
$GPRMC,143710.500,A,4308.3029,N,07726.2716,W,0.19,118.91,090923,,,A*71
$GPGGA,143710.750,4308.3029,N,07726.2716,W,1,06,1.24,168.5,M,-34.4,M,,*58
$GPRMC,143711.000,A,4308.3029,N,07726.2716,W,0.18,103.98,090923,,,A*77
$GPGGA,143711.250,4308.3029,N,07726.2715,W,1,06,1.24,168.7,M,-34.4,M,,*5D
$GPRMC,143711.500,A,4308.3029,N,07726.2715,W,0.18,115.70,090923,,,A*70
$GPGGA,143711.750,4308.3029,N,07726.2715,W,1,06,1.24,168.9,M,-34.4,M,,*56
$GPRMC,143712.000,A,4308.3028,N,07726.2714,W,0.20,129.51,090923,,,A*71
$GPGGA,143712.250,4308.3028,N,07726.2714,W,1,06,1.24,169.2,M,-34.4,M,,*5A
$GPRMC,143712.500,A,4308.3028,N,07726.2714,W,0.06,115.21,090923,,,A*78
$GPGGA,143712.750,4308.3028,N,07726.2713,W,1,06,1.24,169.6,M,-34.4,M,,*5C
$GPRMC,143713.000,A,4308.3028,N,07726.2712,W,0.15,80.83,090923,,,A*4D
$GPGGA,143713.250,4308.3028,N,07726.2712,W,1,06,1.24,170.0,M,-34.4,M,,*57
$GPRMC,143713.500,A,4308.3027,N,07726.2712,W,0.24,109.75,090923,,,A*7C
$GPGGA,143713.750,4308.3027,N,07726.2712,W,1,06,1.24,170.4,M,-34.4,M,,*59
$GPRMC,143714.000,A,4308.3027,N,07726.2712,W,0.19,117.67,090923,,,A*7C
$GPGGA,143714.250,4308.3027,N,07726.2712,W,1,06,1.24,170.5,M,-34.4,M,,*5A
$GPRMC,143714.500,A,4308.3027,N,07726.2712,W,0.06,81.74,090923,,,A*4B
$GPGGA,143714.750,4308.3027,N,07726.2712,W,1,06,1.24,170.6,M,-34.4,M,,*5C
$GPRMC,143715.000,A,4308.3027,N,07726.2711,W,0.14,75.35,090923,,,A*41
$GPGGA,143715.250,4308.3027,N,07726.2711,W,1,06,1.24,170.7,M,-34.4,M,,*5A
$GPRMC,143715.500,A,4308.3027,N,07726.2711,W,0.14,103.23,090923,,,A*73
$GPGGA,143715.750,4308.3027,N,07726.2711,W,1,06,1.24,170.8,M,-34.4,M,,*50
$GPRMC,143716.000,A,4308.3027,N,07726.2712,W,0.07,37.71,090923,,,A*45
$GPGGA,143716.250,4308.3027,N,07726.2712,W,1,06,1.24,171.0,M,-34.4,M,,*5C
$GPRMC,143716.500,A,4308.3027,N,07726.2713,W,0.07,324.38,090923,,,A*7D
$GPGGA,143716.750,4308.3027,N,07726.2713,W,1,06,1.24,171.1,M,-34.4,M,,*59
$GPRMC,143717.000,A,4308.3027,N,07726.2713,W,0.18,340.10,090923,,,A*7F
$GPGGA,143717.250,4308.3027,N,07726.2713,W,1,06,1.24,171.3,M,-34.4,M,,*5F
$GPRMC,143717.500,A,4308.3027,N,07726.2713,W,0.09,330.96,090923,,,A*73
$GPGGA,143717.750,4308.3026,N,07726.2713,W,1,06,1.24,171.3,M,-34.4,M,,*5B
$GPRMC,143718.000,A,4308.3026,N,07726.2713,W,0.12,265.33,090923,,,A*7C
$GPGGA,143718.250,4308.3026,N,07726.2713,W,1,06,1.24,171.3,M,-34.4,M,,*51
$GPRMC,143718.500,A,4308.3026,N,07726.2713,W,0.15,244.54,090923,,,A*7C
$GPGGA,143718.750,4308.3026,N,07726.2712,W,1,06,1.24,171.3,M,-34.4,M,,*55
$GPRMC,143719.000,A,4308.3026,N,07726.2712,W,0.06,264.19,090923,,,A*70
$GPGGA,143719.250,4308.3026,N,07726.2712,W,1,06,1.24,171.3,M,-34.4,M,,*51
$GPRMC,143719.500,A,4308.3026,N,07726.2712,W,0.12,261.96,090923,,,A*72
$GPGGA,143719.750,4308.3026,N,07726.2712,W,1,06,1.24,171.3,M,-34.4,M,,*54
$GPRMC,143720.000,A,4308.3026,N,07726.2712,W,0.08,247.52,090923,,,A*7A
$GPGGA,143720.250,4308.3026,N,07726.2712,W,1,06,1.24,171.4,M,-34.4,M,,*5C
$GPRMC,143720.500,A,4308.3026,N,07726.2712,W,0.04,230.83,090923,,,A*7F
$GPGGA,143720.750,4308.3026,N,07726.2712,W,1,06,1.24,171.4,M,-34.4,M,,*59
$GPRMC,143721.000,A,4308.3026,N,07726.2712,W,0.07,253.78,090923,,,A*79
$GPGGA,143721.250,4308.3025,N,07726.2713,W,1,06,1.24,171.4,M,-34.4,M,,*5F
$GPRMC,143721.500,A,4308.3025,N,07726.2712,W,0.05,199.58,090923,,,A*7A
$GPGGA,143721.750,4308.3025,N,07726.2712,W,1,06,1.24,171.4,M,-34.4,M,,*5B
$GPRMC,143722.000,A,4308.3025,N,07726.2712,W,0.02,12.63,090923,,,A*41
$GPGGA,143722.250,4308.3025,N,07726.2712,W,1,06,1.32,171.4,M,-34.4,M,,*5A
$GPRMC,143722.500,A,4308.3024,N,07726.2712,W,0.07,63.60,090923,,,A*45
$GPGGA,143722.750,4308.3024,N,07726.2712,W,1,06,1.24,171.5,M,-34.4,M,,*58
$GPRMC,143723.000,A,4308.3024,N,07726.2712,W,0.07,60.52,090923,,,A*43
$GPGGA,143723.250,4308.3024,N,07726.2712,W,1,06,1.24,171.4,M,-34.4,M,,*5D
$GPRMC,143723.500,A,4308.3024,N,07726.2713,W,0.00,81.59,090923,,,A*44
$GPGGA,143723.750,4308.3024,N,07726.2713,W,1,06,1.24,171.3,M,-34.4,M,,*5E
$GPRMC,143724.000,A,4308.3023,N,07726.2714,W,0.17,229.46,090923,,,A*7E
$GPGGA,143724.250,4308.3023,N,07726.2714,W,1,06,1.24,171.3,M,-34.4,M,,*5C
$GPRMC,143724.500,A,4308.3023,N,07726.2714,W,0.24,216.03,090923,,,A*76
$GPGGA,143724.750,4308.3023,N,07726.2714,W,1,06,1.24,171.2,M,-34.4,M,,*58
$GPRMC,143725.000,A,4308.3023,N,07726.2714,W,0.21,219.88,090923,,,A*7B
$GPGGA,143725.250,4308.3023,N,07726.2715,W,1,06,1.24,171.1,M,-34.4,M,,*5E
$GPRMC,143725.500,A,4308.3023,N,07726.2714,W,0.13,238.33,090923,,,A*7C
$GPGGA,143725.750,4308.3024,N,07726.2714,W,1,06,1.24,171.1,M,-34.4,M,,*5D
$GPRMC,143726.000,A,4308.3024,N,07726.2713,W,0.12,198.09,090923,,,A*7B
$GPGGA,143726.250,4308.3023,N,07726.2713,W,1,07,1.13,170.9,M,-34.4,M,,*57
$GPRMC,143726.500,A,4308.3024,N,07726.2713,W,0.14,221.42,090923,,,A*76
$GPGGA,143726.750,4308.3024,N,07726.2713,W,1,07,1.13,170.8,M,-34.4,M,,*54
$GPRMC,143727.000,A,4308.3024,N,07726.2712,W,0.13,245.67,090923,,,A*71
$GPGGA,143727.250,4308.3025,N,07726.2712,W,1,07,1.13,170.6,M,-34.4,M,,*5E
$GPRMC,143727.500,A,4308.3025,N,07726.2711,W,0.07,217.73,090923,,,A*71
$GPGGA,143727.750,4308.3025,N,07726.2711,W,1,07,1.13,170.6,M,-34.4,M,,*58
$GPRMC,143728.000,A,4308.3025,N,07726.2711,W,0.07,271.71,090923,,,A*79
$GPGGA,143728.250,4308.3026,N,07726.2710,W,1,07,1.13,170.5,M,-34.4,M,,*53
$GPRMC,143728.500,A,4308.3026,N,07726.2709,W,0.06,349.36,090923,,,A*7E
$GPGGA,143728.750,4308.3026,N,07726.2709,W,1,07,1.15,170.4,M,-34.4,M,,*59
$GPRMC,143729.000,A,4308.3026,N,07726.2708,W,0.08,24.77,090923,,,A*48
$GPGGA,143729.250,4308.3026,N,07726.2708,W,1,07,1.13,170.3,M,-34.4,M,,*5D
$GPRMC,143729.500,A,4308.3026,N,07726.2708,W,0.07,308.37,090923,,,A*7B
$GPGGA,143729.750,4308.3026,N,07726.2709,W,1,07,1.13,170.3,M,-34.4,M,,*59
$GPRMC,143730.000,A,4308.3026,N,07726.2709,W,0.21,266.78,090923,,,A*71
$GPGGA,143730.250,4308.3026,N,07726.2709,W,1,07,1.13,170.2,M,-34.4,M,,*55
$GPRMC,143730.500,A,4308.3026,N,07726.2709,W,0.16,277.29,090923,,,A*74
$GPGGA,143730.750,4308.3026,N,07726.2709,W,1,07,1.13,170.1,M,-34.4,M,,*53
$GPRMC,143731.000,A,4308.3026,N,07726.2708,W,0.16,295.81,090923,,,A*7F
$GPGGA,143731.250,4308.3026,N,07726.2708,W,1,07,1.13,170.0,M,-34.4,M,,*57
$GPRMC,143731.500,A,4308.3026,N,07726.2707,W,0.12,289.62,090923,,,A*71
$GPGGA,143731.750,4308.3026,N,07726.2707,W,1,07,1.13,169.9,M,-34.4,M,,*5C
$GPRMC,143732.000,A,4308.3026,N,07726.2707,W,0.07,271.44,090923,,,A*70
$GPGGA,143732.250,4308.3026,N,07726.2706,W,1,07,1.13,169.8,M,-34.4,M,,*5A
$GPRMC,143732.500,A,4308.3026,N,07726.2706,W,0.03,221.50,090923,,,A*70
$GPGGA,143732.750,4308.3026,N,07726.2705,W,1,07,1.13,169.8,M,-34.4,M,,*5C
$GPRMC,143733.000,A,4308.3026,N,07726.2705,W,0.11,24.31,090923,,,A*44
$GPGGA,143733.250,4308.3026,N,07726.2705,W,1,07,1.13,169.7,M,-34.4,M,,*57
$GPRMC,143733.500,A,4308.3026,N,07726.2705,W,0.08,15.62,090923,,,A*4D
$GPGGA,143733.750,4308.3026,N,07726.2704,W,1,07,1.13,169.7,M,-34.4,M,,*53
$GPRMC,143734.000,A,4308.3026,N,07726.2704,W,0.07,41.95,090923,,,A*48
$GPGGA,143734.250,4308.3026,N,07726.2703,W,1,07,1.13,169.6,M,-34.4,M,,*57
$GPRMC,143734.500,A,4308.3026,N,07726.2703,W,0.05,111.01,090923,,,A*71
$GPGGA,143734.750,4308.3026,N,07726.2704,W,1,07,1.13,169.5,M,-34.4,M,,*56
$GPRMC,143735.000,A,4308.3025,N,07726.2704,W,0.12,184.53,090923,,,A*7C
$GPGGA,143735.250,4308.3025,N,07726.2704,W,1,07,1.13,169.5,M,-34.4,M,,*51
$GPRMC,143735.500,A,4308.3025,N,07726.2704,W,0.14,238.33,090923,,,A*7D
$GPGGA,143735.750,4308.3025,N,07726.2704,W,1,07,1.13,169.5,M,-34.4,M,,*54
$GPRMC,143736.000,A,4308.3025,N,07726.2704,W,0.12,290.32,090923,,,A*7E
$GPGGA,143736.250,4308.3025,N,07726.2704,W,1,07,1.13,169.5,M,-34.4,M,,*52
$GPRMC,143736.500,A,4308.3025,N,07726.2704,W,0.03,275.40,090923,,,A*75
$GPGGA,143736.750,4308.3025,N,07726.2704,W,1,07,1.13,169.5,M,-34.4,M,,*57
$GPRMC,143737.000,A,4308.3025,N,07726.2704,W,0.11,316.99,090923,,,A*72
$GPGGA,143737.250,4308.3025,N,07726.2704,W,1,07,1.13,169.5,M,-34.4,M,,*53
$GPRMC,143737.500,A,4308.3025,N,07726.2704,W,0.12,353.36,090923,,,A*70
$GPGGA,143737.750,4308.3025,N,07726.2704,W,1,07,1.15,169.5,M,-34.4,M,,*50
$GPRMC,143738.000,A,4308.3025,N,07726.2704,W,0.09,49.54,090923,,,A*4C
$GPGGA,143738.250,4308.3026,N,07726.2704,W,1,07,1.13,169.5,M,-34.4,M,,*5F
$GPRMC,143738.500,A,4308.3026,N,07726.2704,W,0.12,8.98,090923,,,A*75
$GPGGA,143738.750,4308.3026,N,07726.2704,W,1,07,1.15,169.5,M,-34.4,M,,*5C
$GPRMC,143739.000,A,4308.3026,N,07726.2704,W,0.09,99.53,090923,,,A*44
$GPGGA,143739.250,4308.3026,N,07726.2704,W,1,07,1.13,169.5,M,-34.4,M,,*5E
$GPRMC,143739.500,A,4308.3026,N,07726.2704,W,0.16,123.66,090923,,,A*79
$GPGGA,143739.750,4308.3026,N,07726.2704,W,1,07,1.13,169.5,M,-34.4,M,,*5B
$GPRMC,143740.000,A,4308.3026,N,07726.2704,W,0.16,107.29,090923,,,A*7F
$GPGGA,143740.250,4308.3026,N,07726.2703,W,1,07,1.13,169.5,M,-34.4,M,,*57
$GPRMC,143740.500,A,4308.3025,N,07726.2703,W,0.12,98.90,090923,,,A*4F
$GPGGA,143740.750,4308.3025,N,07726.2703,W,1,07,1.13,169.5,M,-34.4,M,,*51
$GPRMC,143741.000,A,4308.3025,N,07726.2703,W,0.10,125.46,090923,,,A*75
$GPGGA,143741.250,4308.3025,N,07726.2703,W,1,07,1.13,169.5,M,-34.4,M,,*55
$GPRMC,143741.500,A,4308.3025,N,07726.2703,W,0.03,46.78,090923,,,A*4B
$GPGGA,143741.750,4308.3025,N,07726.2703,W,1,07,1.13,169.5,M,-34.4,M,,*50
$GPRMC,143742.000,A,4308.3025,N,07726.2703,W,0.06,38.87,090923,,,A*41
$GPGGA,143742.250,4308.3025,N,07726.2703,W,1,07,1.13,169.5,M,-34.4,M,,*56
$GPRMC,143742.500,A,4308.3025,N,07726.2703,W,0.10,70.62,090923,,,A*44
$GPGGA,143742.750,4308.3026,N,07726.2703,W,1,07,1.13,169.5,M,-34.4,M,,*50
$GPRMC,143743.000,A,4308.3026,N,07726.2703,W,0.11,53.08,090923,,,A*4F
$GPGGA,143743.250,4308.3026,N,07726.2702,W,1,07,1.13,169.5,M,-34.4,M,,*55
$GPRMC,143743.500,A,4308.3026,N,07726.2702,W,0.04,110.15,090923,,,A*75
$GPGGA,143743.750,4308.3026,N,07726.2702,W,1,07,1.13,169.5,M,-34.4,M,,*50
$GPRMC,143744.000,A,4308.3026,N,07726.2702,W,0.12,40.32,090923,,,A*41
$GPGGA,143744.250,4308.3026,N,07726.2702,W,1,07,1.13,169.5,M,-34.4,M,,*52
$GPRMC,143744.500,A,4308.3026,N,07726.2702,W,0.15,40.18,090923,,,A*4B
$GPGGA,143744.750,4308.3026,N,07726.2702,W,1,07,1.13,169.5,M,-34.4,M,,*57
$GPRMC,143745.000,A,4308.3026,N,07726.2702,W,0.14,101.09,090923,,,A*7A
$GPGGA,143745.250,4308.3026,N,07726.2702,W,1,07,1.13,169.5,M,-34.4,M,,*53
$GPRMC,143745.500,A,4308.3026,N,07726.2702,W,0.06,167.80,090923,,,A*7D
$GPGGA,143745.750,4308.3026,N,07726.2702,W,1,07,1.13,169.5,M,-34.4,M,,*56
$GPRMC,143746.000,A,4308.3026,N,07726.2702,W,0.15,154.87,090923,,,A*7E
$GPGGA,143746.250,4308.3026,N,07726.2702,W,1,07,1.13,169.5,M,-34.4,M,,*50
$GPRMC,143746.500,A,4308.3026,N,07726.2702,W,0.08,119.33,090923,,,A*71
$GPGGA,143746.750,4308.3025,N,07726.2701,W,1,07,1.13,169.5,M,-34.4,M,,*55
$GPRMC,143747.000,A,4308.3026,N,07726.2701,W,0.09,348.84,090923,,,A*7D
$GPGGA,143747.250,4308.3026,N,07726.2701,W,1,07,1.15,169.5,M,-34.4,M,,*54
$GPRMC,143747.500,A,4308.3026,N,07726.2701,W,0.08,353.94,090923,,,A*72
$GPGGA,143747.750,4308.3026,N,07726.2701,W,1,07,1.15,169.5,M,-34.4,M,,*51
$GPRMC,143748.000,A,4308.3026,N,07726.2701,W,0.10,73.67,090923,,,A*4C
$GPGGA,143748.250,4308.3026,N,07726.2701,W,1,07,1.13,169.5,M,-34.4,M,,*5D
$GPRMC,143748.500,A,4308.3026,N,07726.2701,W,0.06,130.67,090923,,,A*78
$GPGGA,143748.750,4308.3026,N,07726.2701,W,1,07,1.13,169.5,M,-34.4,M,,*58
$GPRMC,143749.000,A,4308.3026,N,07726.2701,W,0.14,235.17,090923,,,A*7E
$GPGGA,143749.250,4308.3026,N,07726.2701,W,1,07,1.14,169.5,M,-34.4,M,,*5B
$GPRMC,143749.500,A,4308.3026,N,07726.2702,W,0.12,207.44,090923,,,A*79
$GPGGA,143749.750,4308.3025,N,07726.2702,W,1,07,1.13,169.5,M,-34.4,M,,*59
$GPRMC,143750.000,A,4308.3025,N,07726.2702,W,0.19,178.47,090923,,,A*74
$GPGGA,143750.250,4308.3025,N,07726.2702,W,1,07,1.13,169.5,M,-34.4,M,,*54
$GPRMC,143750.500,A,4308.3025,N,07726.2702,W,0.16,195.42,090923,,,A*78
$GPGGA,143750.750,4308.3025,N,07726.2702,W,1,07,1.13,169.5,M,-34.4,M,,*51
$GPRMC,143751.000,A,4308.3025,N,07726.2702,W,0.14,253.04,090923,,,A*75
$GPGGA,143751.250,4308.3025,N,07726.2702,W,1,07,1.13,169.5,M,-34.4,M,,*55
$GPRMC,143751.500,A,4308.3025,N,07726.2702,W,0.10,233.62,090923,,,A*72
$GPGGA,143751.750,4308.3025,N,07726.2702,W,1,07,1.13,169.5,M,-34.4,M,,*50
$GPRMC,143752.000,A,4308.3025,N,07726.2702,W,0.12,195.31,090923,,,A*7F
$GPGGA,143752.250,4308.3025,N,07726.2702,W,1,07,1.15,169.5,M,-34.4,M,,*50
$GPRMC,143752.500,A,4308.3025,N,07726.2702,W,0.01,11.45,090923,,,A*46
$GPGGA,143752.750,4308.3025,N,07726.2702,W,1,07,1.15,169.5,M,-34.4,M,,*55
$GPRMC,143753.000,A,4308.3025,N,07726.2702,W,0.07,345.75,090923,,,A*75
$GPGGA,143753.250,4308.3025,N,07726.2702,W,1,07,1.15,169.5,M,-34.4,M,,*51
$GPRMC,143753.500,A,4308.3025,N,07726.2702,W,0.03,33.12,090923,,,A*47
$GPGGA,143753.750,4308.3025,N,07726.2702,W,1,07,1.15,169.5,M,-34.4,M,,*54
$GPRMC,143754.000,A,4308.3025,N,07726.2702,W,0.03,73.63,090923,,,A*47
$GPGGA,143754.250,4308.3025,N,07726.2702,W,1,07,1.15,169.5,M,-34.4,M,,*56
$GPRMC,143754.500,A,4308.3025,N,07726.2702,W,0.02,136.06,090923,,,A*70
$GPGGA,143754.750,4308.3025,N,07726.2702,W,1,07,1.15,169.5,M,-34.4,M,,*53
$GPRMC,143755.000,A,4308.3025,N,07726.2702,W,0.02,323.14,090923,,,A*71
$GPGGA,143755.250,4308.3025,N,07726.2702,W,1,07,1.15,169.5,M,-34.4,M,,*57
$GPRMC,143755.500,A,4308.3025,N,07726.2702,W,0.01,154.36,090923,,,A*75
$GPGGA,143755.750,4308.3025,N,07726.2702,W,1,07,1.15,169.5,M,-34.4,M,,*52
$GPRMC,143756.000,A,4308.3025,N,07726.2702,W,0.01,149.19,090923,,,A*72
$GPGGA,143756.250,4308.3025,N,07726.2702,W,1,07,1.15,169.5,M,-34.4,M,,*54
$GPRMC,143756.500,A,4308.3025,N,07726.2702,W,0.01,57.68,090923,,,A*4F
$GPGGA,143756.750,4308.3025,N,07726.2702,W,1,07,1.15,169.5,M,-34.4,M,,*51
$GPRMC,143757.000,A,4308.3025,N,07726.2702,W,0.02,154.89,090923,,,A*75
$GPGGA,143757.250,4308.3025,N,07726.2702,W,1,07,1.15,169.4,M,-34.4,M,,*54
$GPRMC,143757.500,A,4308.3025,N,07726.2702,W,0.02,54.34,090923,,,A*47
$GPGGA,143757.750,4308.3025,N,07726.2702,W,1,07,1.15,169.4,M,-34.4,M,,*51
$GPRMC,143758.000,A,4308.3025,N,07726.2702,W,0.01,50.58,090923,,,A*40
$GPGGA,143758.250,4308.3025,N,07726.2702,W,1,07,1.15,169.4,M,-34.4,M,,*5B
$GPRMC,143758.500,A,4308.3025,N,07726.2702,W,0.00,102.71,090923,,,A*79
$GPGGA,143758.750,4308.3025,N,07726.2702,W,1,07,1.15,169.4,M,-34.4,M,,*5E
$GPRMC,143759.000,A,4308.3025,N,07726.2702,W,0.01,75.71,090923,,,A*4D
$GPGGA,143759.250,4308.3025,N,07726.2702,W,1,07,1.15,169.4,M,-34.4,M,,*5A
$GPRMC,143759.500,A,4308.3025,N,07726.2702,W,0.01,144.04,090923,,,A*79
$GPGGA,143759.750,4308.3025,N,07726.2702,W,1,07,1.15,169.4,M,-34.4,M,,*5F
$GPRMC,143800.000,A,4308.3025,N,07726.2702,W,0.00,307.46,090923,,,A*7D
$GPGGA,143800.250,4308.3025,N,07726.2702,W,1,07,1.15,169.4,M,-34.4,M,,*59
$GPRMC,143800.500,A,4308.3025,N,07726.2702,W,0.00,280.61,090923,,,A*73
$GPGGA,143800.750,4308.3025,N,07726.2702,W,1,07,1.15,169.4,M,-34.4,M,,*5C
$GPRMC,143801.000,A,4308.3025,N,07726.2702,W,0.01,357.53,090923,,,A*7C
$GPGGA,143801.250,4308.3025,N,07726.2702,W,1,07,1.15,169.4,M,-34.4,M,,*58
$GPRMC,143801.500,A,4308.3025,N,07726.2702,W,0.00,0.00,090923,,,A*7F
$GPGGA,143801.750,4308.3025,N,07726.2702,W,1,07,1.15,169.4,M,-34.4,M,,*5D
$GPRMC,143802.000,A,4308.3025,N,07726.2702,W,0.00,43.08,090923,,,A*46
$GPGGA,143802.250,4308.3025,N,07726.2702,W,1,07,1.15,169.4,M,-34.4,M,,*5B
$GPRMC,143802.500,A,4308.3025,N,07726.2702,W,0.02,50.51,090923,,,A*4F
$GPGGA,143802.750,4308.3025,N,07726.2702,W,1,07,1.15,169.4,M,-34.4,M,,*5E
$GPRMC,143803.000,A,4308.3025,N,07726.2702,W,0.01,211.93,090923,,,A*71
$GPGGA,143803.250,4308.3025,N,07726.2702,W,1,07,1.15,169.4,M,-34.4,M,,*5A
$GPRMC,143803.500,A,4308.3025,N,07726.2702,W,0.01,323.37,090923,,,A*7A
$GPGGA,143803.750,4308.3025,N,07726.2702,W,1,07,1.15,169.4,M,-34.4,M,,*5F
$GPRMC,143804.000,A,4308.3025,N,07726.2702,W,0.00,49.61,090923,,,A*45
$GPGGA,143804.250,4308.3025,N,07726.2702,W,1,07,1.15,169.4,M,-34.4,M,,*5D
$GPRMC,143804.500,A,4308.3025,N,07726.2702,W,0.00,107.81,090923,,,A*75
$GPGGA,143804.750,4308.3025,N,07726.2702,W,1,07,1.15,169.4,M,-34.4,M,,*58
$GPRMC,143805.000,A,4308.3025,N,07726.2702,W,0.01,79.32,090923,,,A*40
$GPGGA,143805.250,4308.3025,N,07726.2702,W,1,07,1.15,169.4,M,-34.4,M,,*5C
$GPRMC,143805.500,A,4308.3025,N,07726.2702,W,0.00,78.50,090923,,,A*41
$GPGGA,143805.750,4308.3025,N,07726.2702,W,1,07,1.15,169.4,M,-34.4,M,,*59
$GPRMC,143806.000,A,4308.3025,N,07726.2702,W,0.02,67.19,090923,,,A*46
$GPGGA,143806.250,4308.3025,N,07726.2702,W,1,07,1.15,169.4,M,-34.4,M,,*5F
$GPRMC,143806.500,A,4308.3025,N,07726.2702,W,0.01,91.11,090923,,,A*41
$GPGGA,143806.750,4308.3025,N,07726.2702,W,1,07,1.15,169.4,M,-34.4,M,,*5A
$GPRMC,143807.000,A,4308.3025,N,07726.2702,W,0.01,70.90,090923,,,A*43
$GPGGA,143807.250,4308.3025,N,07726.2702,W,1,07,1.15,169.4,M,-34.4,M,,*5E
$GPRMC,143807.500,A,4308.3025,N,07726.2702,W,0.01,42.45,090923,,,A*4F
$GPGGA,143807.750,4308.3025,N,07726.2701,W,1,07,1.15,169.4,M,-34.4,M,,*58
$GPRMC,143808.000,A,4308.3025,N,07726.2701,W,0.01,70.96,090923,,,A*49
$GPGGA,143808.250,4308.3025,N,07726.2701,W,1,07,1.15,169.4,M,-34.4,M,,*52
$GPRMC,143808.500,A,4308.3025,N,07726.2701,W,0.01,130.98,090923,,,A*77
$GPGGA,143808.750,4308.3025,N,07726.2701,W,1,07,1.15,169.4,M,-34.4,M,,*57
$GPRMC,143809.000,A,4308.3025,N,07726.2701,W,0.01,91.35,090923,,,A*4E
$GPGGA,143809.250,4308.3025,N,07726.2701,W,1,07,1.15,169.4,M,-34.4,M,,*53
$GPRMC,143809.500,A,4308.3025,N,07726.2701,W,0.01,45.80,090923,,,A*4C
$GPGGA,143809.750,4308.3025,N,07726.2701,W,1,07,1.15,169.4,M,-34.4,M,,*56
$GPRMC,143810.000,A,4308.3025,N,07726.2701,W,0.01,99.92,090923,,,A*43
$GPGGA,143810.250,4308.3025,N,07726.2701,W,1,07,1.15,169.4,M,-34.4,M,,*5B
$GPRMC,143810.500,A,4308.3025,N,07726.2701,W,0.01,48.69,090923,,,A*4E
$GPGGA,143810.750,4308.3025,N,07726.2701,W,1,07,1.15,169.4,M,-34.4,M,,*5E
$GPRMC,143811.000,A,4308.3025,N,07726.2701,W,0.01,116.77,090923,,,A*7F
$GPGGA,143811.250,4308.3025,N,07726.2701,W,1,07,1.15,169.4,M,-34.4,M,,*5A
$GPRMC,143811.500,A,4308.3025,N,07726.2701,W,0.01,85.12,090923,,,A*42
$GPGGA,143811.750,4308.3025,N,07726.2701,W,1,07,1.15,169.4,M,-34.4,M,,*5F
$GPRMC,143812.000,A,4308.3025,N,07726.2701,W,0.01,201.94,090923,,,A*74
$GPGGA,143812.250,4308.3025,N,07726.2701,W,1,07,1.15,169.4,M,-34.4,M,,*59
$GPRMC,143812.500,A,4308.3025,N,07726.2701,W,0.01,16.71,090923,,,A*4E
$GPGGA,143812.750,4308.3025,N,07726.2701,W,1,07,1.15,169.4,M,-34.4,M,,*5C
$GPRMC,143813.000,A,4308.3025,N,07726.2701,W,0.01,67.09,090923,,,A*43
$GPGGA,143813.250,4308.3025,N,07726.2701,W,1,07,1.15,169.4,M,-34.4,M,,*58
$GPRMC,143813.500,A,4308.3025,N,07726.2701,W,0.01,37.55,090923,,,A*4A
$GPGGA,143813.750,4308.3025,N,07726.2701,W,1,07,1.15,169.4,M,-34.4,M,,*5D
$GPRMC,143814.000,A,4308.3025,N,07726.2700,W,0.01,38.51,090923,,,A*42
$GPGGA,143814.250,4308.3025,N,07726.2700,W,1,07,1.15,169.3,M,-34.4,M,,*59
$GPRMC,143814.500,A,4308.3025,N,07726.2699,W,0.00,79.03,090923,,,A*45
$GPGGA,143814.750,4308.3026,N,07726.2699,W,1,07,1.15,169.3,M,-34.4,M,,*5E
$GPRMC,143815.000,A,4308.3026,N,07726.2698,W,0.02,41.69,090923,,,A*46
$GPGGA,143815.250,4308.3026,N,07726.2697,W,1,07,1.15,169.3,M,-34.4,M,,*54
$GPRMC,143815.500,A,4308.3026,N,07726.2697,W,0.00,51.88,090923,,,A*40
$GPGGA,143815.750,4308.3027,N,07726.2696,W,1,07,1.15,169.2,M,-34.4,M,,*50
$GPRMC,143816.000,A,4308.3027,N,07726.2696,W,0.00,273.80,090923,,,A*7C
$GPGGA,143816.250,4308.3027,N,07726.2695,W,1,07,1.15,169.1,M,-34.4,M,,*56
$GPRMC,143816.500,A,4308.3027,N,07726.2694,W,0.01,133.68,090923,,,A*7B
$GPGGA,143816.750,4308.3027,N,07726.2694,W,1,07,1.15,169.0,M,-34.4,M,,*53
$GPRMC,143817.000,A,4308.3027,N,07726.2693,W,0.01,62.09,090923,,,A*4A
$GPGGA,143817.250,4308.3028,N,07726.2692,W,1,07,1.15,169.0,M,-34.4,M,,*5E
$GPRMC,143817.500,A,4308.3028,N,07726.2692,W,0.01,66.88,090923,,,A*4C
$GPGGA,143817.750,4308.3028,N,07726.2691,W,1,07,1.15,168.9,M,-34.4,M,,*50
$GPRMC,143818.000,A,4308.3028,N,07726.2690,W,0.01,76.82,090923,,,A*4F
$GPGGA,143818.250,4308.3028,N,07726.2689,W,1,07,1.15,168.8,M,-34.4,M,,*52
$GPRMC,143818.500,A,4308.3028,N,07726.2689,W,0.01,62.47,090923,,,A*4E
$GPGGA,143818.750,4308.3029,N,07726.2688,W,1,07,1.15,168.8,M,-34.4,M,,*57
$GPRMC,143819.000,A,4308.3029,N,07726.2687,W,0.01,75.55,090923,,,A*40
$GPGGA,143819.250,4308.3029,N,07726.2686,W,1,07,1.15,168.7,M,-34.4,M,,*52
$GPRMC,143819.500,A,4308.3029,N,07726.2686,W,0.01,64.68,090923,,,A*4A
$GPGGA,143819.750,4308.3029,N,07726.2685,W,1,07,1.15,168.6,M,-34.4,M,,*55
$GPRMC,143820.000,A,4308.3030,N,07726.2684,W,0.01,51.21,090923,,,A*44
$GPGGA,143820.250,4308.3030,N,07726.2683,W,1,07,1.15,168.6,M,-34.4,M,,*54
$GPRMC,143820.500,A,4308.3030,N,07726.2683,W,0.01,66.78,090923,,,A*4E
$GPGGA,143820.750,4308.3030,N,07726.2682,W,1,07,1.15,168.5,M,-34.4,M,,*53
$GPRMC,143821.000,A,4308.3030,N,07726.2681,W,0.02,143.09,090923,,,A*7B
$GPGGA,143821.250,4308.3030,N,07726.2681,W,1,07,1.15,168.5,M,-34.4,M,,*54
$GPRMC,143821.500,A,4308.3030,N,07726.2681,W,0.02,23.29,090923,,,A*4B
$GPGGA,143821.750,4308.3030,N,07726.2681,W,1,07,1.15,168.5,M,-34.4,M,,*51
$GPRMC,143822.000,A,4308.3030,N,07726.2681,W,0.05,7.14,090923,,,A*72
$GPGGA,143822.250,4308.3030,N,07726.2681,W,1,07,1.15,168.5,M,-34.4,M,,*57
$GPRMC,143822.500,A,4308.3030,N,07726.2681,W,0.14,12.76,090923,,,A*47
$GPGGA,143822.750,4308.3030,N,07726.2681,W,1,07,1.15,168.5,M,-34.4,M,,*52
$GPRMC,143823.000,A,4308.3031,N,07726.2681,W,0.52,2.00,090923,,,A*70
$GPGGA,143823.250,4308.3031,N,07726.2681,W,1,07,1.15,168.5,M,-34.4,M,,*57
$GPRMC,143823.500,A,4308.3033,N,07726.2681,W,0.90,354.03,090923,,,A*7A
$GPGGA,143823.750,4308.3035,N,07726.2680,W,1,07,1.15,168.2,M,-34.4,M,,*50
$GPRMC,143824.000,A,4308.3037,N,07726.2679,W,2.08,359.09,090923,,,A*7F
$GPGGA,143824.250,4308.3040,N,07726.2678,W,1,07,1.15,167.9,M,-34.4,M,,*53
$GPRMC,143824.500,A,4308.3044,N,07726.2678,W,3.99,356.61,090923,,,A*77
$GPGGA,143824.750,4308.3048,N,07726.2677,W,1,07,1.15,167.7,M,-34.4,M,,*5F
$GPRMC,143825.000,A,4308.3053,N,07726.2677,W,5.25,354.14,090923,,,A*7B
$GPGGA,143825.250,4308.3057,N,07726.2677,W,1,07,1.15,167.5,M,-34.4,M,,*57
$GPRMC,143825.500,A,4308.3061,N,07726.2677,W,5.31,355.63,090923,,,A*7B
$GPGGA,143825.750,4308.3065,N,07726.2677,W,1,07,1.15,167.3,M,-34.4,M,,*55
$GPRMC,143826.000,A,4308.3069,N,07726.2676,W,5.42,358.27,090923,,,A*7D
$GPGGA,143826.250,4308.3073,N,07726.2676,W,1,07,1.15,167.2,M,-34.4,M,,*54
$GPRMC,143826.500,A,4308.3076,N,07726.2675,W,5.22,1.77,090923,,,A*79
$GPGGA,143826.750,4308.3080,N,07726.2675,W,1,07,1.15,167.1,M,-34.4,M,,*5D
$GPRMC,143827.000,A,4308.3083,N,07726.2674,W,4.84,1.20,090923,,,A*79
$GPGGA,143827.250,4308.3087,N,07726.2674,W,1,07,1.15,167.1,M,-34.4,M,,*5F
$GPRMC,143827.500,A,4308.3090,N,07726.2674,W,4.67,1.13,090923,,,A*73
$GPGGA,143827.750,4308.3092,N,07726.2673,W,1,07,1.15,166.9,M,-34.4,M,,*50
$GPRMC,143828.000,A,4308.3095,N,07726.2673,W,3.98,1.72,090923,,,A*7B
$GPGGA,143828.250,4308.3097,N,07726.2672,W,1,07,1.15,166.8,M,-34.4,M,,*5F
$GPRMC,143828.500,A,4308.3099,N,07726.2672,W,3.51,2.11,090923,,,A*70
$GPGGA,143828.750,4308.3101,N,07726.2672,W,1,07,1.15,166.8,M,-34.4,M,,*54
$GPRMC,143829.000,A,4308.3103,N,07726.2671,W,3.06,2.54,090923,,,A*76
$GPGGA,143829.250,4308.3105,N,07726.2671,W,1,07,1.15,166.7,M,-34.4,M,,*58
$GPRMC,143829.500,A,4308.3107,N,07726.2671,W,2.50,359.84,090923,,,A*75
$GPGGA,143829.750,4308.3108,N,07726.2671,W,1,06,1.25,166.6,M,-34.4,M,,*53
$GPRMC,143830.000,A,4308.3110,N,07726.2671,W,2.33,355.89,090923,,,A*7A
$GPGGA,143830.250,4308.3112,N,07726.2670,W,1,07,1.15,166.5,M,-34.4,M,,*55
$GPRMC,143830.500,A,4308.3114,N,07726.2669,W,2.97,3.45,090923,,,A*7C
$GPGGA,143830.750,4308.3117,N,07726.2667,W,1,07,1.15,166.3,M,-34.4,M,,*55
$GPRMC,143831.000,A,4308.3119,N,07726.2666,W,3.35,22.70,090923,,,A*46
$GPGGA,143831.250,4308.3122,N,07726.2663,W,1,07,1.13,166.2,M,-34.4,M,,*54
$GPRMC,143831.500,A,4308.3124,N,07726.2662,W,3.54,24.06,090923,,,A*49
$GPGGA,143831.750,4308.3126,N,07726.2661,W,1,07,1.13,166.2,M,-34.4,M,,*57
$GPRMC,143832.000,A,4308.3127,N,07726.2659,W,2.75,33.72,090923,,,A*43
$GPGGA,143832.250,4308.3129,N,07726.2657,W,1,07,1.13,166.1,M,-34.4,M,,*58
$GPRMC,143832.500,A,4308.3131,N,07726.2654,W,3.27,47.28,090923,,,A*46
$GPGGA,143832.750,4308.3132,N,07726.2651,W,1,07,1.13,166.0,M,-34.4,M,,*50
$GPRMC,143833.000,A,4308.3134,N,07726.2648,W,3.21,51.84,090923,,,A*4D
$GPGGA,143833.250,4308.3135,N,07726.2645,W,1,07,1.13,165.9,M,-34.4,M,,*5C
$GPRMC,143833.500,A,4308.3136,N,07726.2642,W,2.80,60.52,090923,,,A*43
$GPGGA,143833.750,4308.3138,N,07726.2639,W,1,07,1.14,165.8,M,-34.4,M,,*59
$GPRMC,143834.000,A,4308.3138,N,07726.2637,W,2.06,64.42,090923,,,A*46
$GPGGA,143834.250,4308.3139,N,07726.2635,W,1,07,1.14,165.8,M,-34.4,M,,*56
$GPRMC,143834.500,A,4308.3140,N,07726.2634,W,0.68,86.71,090923,,,A*49
$GPGGA,143834.750,4308.3140,N,07726.2634,W,1,07,1.14,165.7,M,-34.4,M,,*53
$GPRMC,143835.000,A,4308.3139,N,07726.2634,W,0.53,192.82,090923,,,A*73
$GPGGA,143835.250,4308.3139,N,07726.2635,W,1,07,1.13,165.7,M,-34.4,M,,*5F
$GPRMC,143835.500,A,4308.3139,N,07726.2638,W,1.24,238.15,090923,,,A*76
$GPGGA,143835.750,4308.3139,N,07726.2641,W,1,07,1.14,165.6,M,-34.4,M,,*5F
$GPRMC,143836.000,A,4308.3139,N,07726.2645,W,3.12,257.65,090923,,,A*73
$GPGGA,143836.250,4308.3139,N,07726.2649,W,1,07,1.14,165.6,M,-34.4,M,,*51
$GPRMC,143836.500,A,4308.3139,N,07726.2654,W,5.56,263.62,090923,,,A*70
$GPGGA,143836.750,4308.3139,N,07726.2661,W,1,07,1.15,165.6,M,-34.4,M,,*5F
$GPRMC,143837.000,A,4308.3139,N,07726.2668,W,7.28,267.50,090923,,,A*75
$GPGGA,143837.250,4308.3139,N,07726.2674,W,1,07,1.15,165.6,M,-34.4,M,,*5F
$GPRMC,143837.500,A,4308.3140,N,07726.2682,W,7.98,271.73,090923,,,A*77
$GPGGA,143837.750,4308.3141,N,07726.2690,W,1,07,1.15,165.6,M,-34.4,M,,*5F
$GPRMC,143838.000,A,4308.3142,N,07726.2698,W,8.76,276.82,090923,,,A*72
$GPGGA,143838.250,4308.3143,N,07726.2706,W,1,07,1.15,165.5,M,-34.4,M,,*5A
$GPRMC,143838.500,A,4308.3145,N,07726.2715,W,9.36,281.73,090923,,,A*77
$GPGGA,143838.750,4308.3146,N,07726.2724,W,1,07,1.15,165.5,M,-34.4,M,,*5A
$GPRMC,143839.000,A,4308.3148,N,07726.2734,W,11.21,283.19,090923,,,A*4C
$GPGGA,143839.250,4308.3151,N,07726.2743,W,1,07,1.14,165.4,M,-34.4,M,,*59
$GPRMC,143839.500,A,4308.3154,N,07726.2752,W,12.14,286.33,090923,,,A*4C
$GPGGA,143839.750,4308.3157,N,07726.2762,W,1,07,1.15,165.2,M,-34.4,M,,*5E
$GPRMC,143840.000,A,4308.3162,N,07726.2772,W,12.99,289.54,090923,,,A*4B
$GPGGA,143840.250,4308.3167,N,07726.2782,W,1,07,1.15,165.1,M,-34.4,M,,*5B
$GPRMC,143840.500,A,4308.3172,N,07726.2793,W,13.48,289.60,090923,,,A*4A
$GPGGA,143840.750,4308.3177,N,07726.2804,W,1,07,1.15,165.0,M,-34.4,M,,*5F
$GPRMC,143841.000,A,4308.3182,N,07726.2815,W,14.01,291.00,090923,,,A*45
$GPGGA,143841.250,4308.3187,N,07726.2827,W,1,07,1.13,164.9,M,-34.4,M,,*5B
$GPRMC,143841.500,A,4308.3192,N,07726.2839,W,14.38,291.90,090923,,,A*4C
$GPGGA,143841.750,4308.3196,N,07726.2851,W,1,07,1.15,164.8,M,-34.4,M,,*58
$GPRMC,143842.000,A,4308.3201,N,07726.2863,W,14.77,292.57,090923,,,A*4F
$GPGGA,143842.250,4308.3206,N,07726.2876,W,1,07,1.15,164.8,M,-34.4,M,,*51
$GPRMC,143842.500,A,4308.3211,N,07726.2889,W,15.30,293.23,090923,,,A*4F
$GPGGA,143842.750,4308.3215,N,07726.2903,W,1,07,1.15,164.8,M,-34.4,M,,*55
$GPRMC,143843.000,A,4308.3220,N,07726.2916,W,15.91,294.34,090923,,,A*44
$GPGGA,143843.250,4308.3225,N,07726.2929,W,1,07,1.14,164.8,M,-34.4,M,,*5B
$GPRMC,143843.500,A,4308.3230,N,07726.2943,W,16.46,295.94,090923,,,A*42
$GPGGA,143843.750,4308.3236,N,07726.2957,W,1,07,1.15,164.9,M,-34.4,M,,*55
$GPRMC,143844.000,A,4308.3241,N,07726.2971,W,16.83,297.86,090923,,,A*4F
$GPGGA,143844.250,4308.3247,N,07726.2985,W,1,07,1.13,164.9,M,-34.4,M,,*58
$GPRMC,143844.500,A,4308.3253,N,07726.2999,W,17.07,298.50,090923,,,A*46
$GPGGA,143844.750,4308.3258,N,07726.3014,W,1,07,1.15,165.0,M,-34.4,M,,*5D
$GPRMC,143845.000,A,4308.3264,N,07726.3028,W,17.50,299.33,090923,,,A*42
$GPGGA,143845.250,4308.3270,N,07726.3042,W,1,07,1.14,165.0,M,-34.4,M,,*51
$GPRMC,143845.500,A,4308.3277,N,07726.3057,W,17.82,299.70,090923,,,A*45
$GPGGA,143845.750,4308.3283,N,07726.3072,W,1,07,1.15,165.1,M,-34.4,M,,*5B
$GPRMC,143846.000,A,4308.3290,N,07726.3088,W,18.36,301.34,090923,,,A*48
$GPGGA,143846.250,4308.3297,N,07726.3103,W,1,07,1.14,165.2,M,-34.4,M,,*5D
$GPRMC,143846.500,A,4308.3304,N,07726.3119,W,19.02,302.11,090923,,,A*4A
$GPGGA,143846.750,4308.3311,N,07726.3135,W,1,07,1.15,165.3,M,-34.4,M,,*52
$GPRMC,143847.000,A,4308.3319,N,07726.3152,W,19.77,303.41,090923,,,A*4B
$GPGGA,143847.250,4308.3326,N,07726.3168,W,1,07,1.14,165.4,M,-34.4,M,,*5C
$GPRMC,143847.500,A,4308.3334,N,07726.3184,W,20.11,303.87,090923,,,A*4A
$GPGGA,143847.750,4308.3342,N,07726.3201,W,1,07,1.15,165.6,M,-34.4,M,,*54
$GPRMC,143848.000,A,4308.3350,N,07726.3217,W,20.23,303.91,090923,,,A*4D
$GPGGA,143848.250,4308.3357,N,07726.3234,W,1,07,1.14,165.7,M,-34.4,M,,*5C
$GPRMC,143848.500,A,4308.3365,N,07726.3251,W,20.45,303.65,090923,,,A*47
$GPGGA,143848.750,4308.3373,N,07726.3268,W,1,07,1.15,165.8,M,-34.4,M,,*58
$GPRMC,143849.000,A,4308.3381,N,07726.3284,W,20.55,303.31,090923,,,A*41
$GPGGA,143849.250,4308.3389,N,07726.3301,W,1,07,1.14,166.0,M,-34.4,M,,*5D
$GPRMC,143849.500,A,4308.3397,N,07726.3318,W,20.66,302.80,090923,,,A*4C
$GPGGA,143849.750,4308.3405,N,07726.3335,W,1,07,1.15,166.1,M,-34.4,M,,*5C
$GPRMC,143850.000,A,4308.3413,N,07726.3352,W,20.73,303.33,090923,,,A*49
$GPGGA,143850.250,4308.3421,N,07726.3369,W,1,07,1.14,166.2,M,-34.4,M,,*5C
$GPRMC,143850.500,A,4308.3429,N,07726.3385,W,20.79,303.67,090923,,,A*44
$GPGGA,143850.750,4308.3437,N,07726.3403,W,1,07,1.15,166.4,M,-34.4,M,,*52
$GPRMC,143851.000,A,4308.3444,N,07726.3420,W,20.84,304.26,090923,,,A*43
$GPGGA,143851.250,4308.3452,N,07726.3436,W,1,07,1.13,166.6,M,-34.4,M,,*57
$GPRMC,143851.500,A,4308.3460,N,07726.3453,W,20.87,304.45,090923,,,A*42
$GPGGA,143851.750,4308.3468,N,07726.3470,W,1,07,1.15,166.7,M,-34.4,M,,*5E
$GPRMC,143852.000,A,4308.3476,N,07726.3487,W,20.94,305.28,090923,,,A*42
$GPGGA,143852.250,4308.3484,N,07726.3503,W,1,07,1.14,166.9,M,-34.4,M,,*50
$GPRMC,143852.500,A,4308.3493,N,07726.3519,W,21.04,305.81,090923,,,A*41
$GPGGA,143852.750,4308.3501,N,07726.3536,W,1,07,1.15,167.1,M,-34.4,M,,*57
$GPRMC,143853.000,A,4308.3510,N,07726.3551,W,21.10,306.71,090923,,,A*4A
$GPGGA,143853.250,4308.3519,N,07726.3567,W,1,07,1.14,167.2,M,-34.4,M,,*5C
$GPRMC,143853.500,A,4308.3528,N,07726.3582,W,20.90,308.44,090923,,,A*4B
$GPGGA,143853.750,4308.3538,N,07726.3598,W,1,07,1.15,167.4,M,-34.4,M,,*5D
$GPRMC,143854.000,A,4308.3548,N,07726.3612,W,20.96,311.51,090923,,,A*4F
$GPGGA,143854.250,4308.3557,N,07726.3627,W,1,07,1.14,167.6,M,-34.4,M,,*52
$GPRMC,143854.500,A,4308.3568,N,07726.3641,W,21.12,315.13,090923,,,A*41
$GPGGA,143854.750,4308.3579,N,07726.3655,W,1,07,1.13,167.8,M,-34.4,M,,*57
$GPRMC,143855.000,A,4308.3590,N,07726.3667,W,21.21,320.62,090923,,,A*46
$GPGGA,143855.250,4308.3601,N,07726.3680,W,1,07,1.14,168.1,M,-34.4,M,,*56
$GPRMC,143855.500,A,4308.3613,N,07726.3692,W,20.63,323.44,090923,,,A*41
$GPGGA,143855.750,4308.3625,N,07726.3703,W,1,07,1.15,168.2,M,-34.4,M,,*5D
$GPRMC,143856.000,A,4308.3637,N,07726.3713,W,20.68,328.17,090923,,,A*4F
$GPGGA,143856.250,4308.3650,N,07726.3723,W,1,07,1.14,168.1,M,-34.4,M,,*59
$GPRMC,143856.500,A,4308.3663,N,07726.3732,W,20.54,331.59,090923,,,A*45
$GPGGA,143856.750,4308.3677,N,07726.3740,W,1,07,1.15,168.4,M,-34.4,M,,*58
$GPRMC,143857.000,A,4308.3690,N,07726.3748,W,20.61,335.12,090923,,,A*4D
$GPGGA,143857.250,4308.3704,N,07726.3755,W,1,07,1.14,168.7,M,-34.4,M,,*5F
$GPRMC,143857.500,A,4308.3718,N,07726.3762,W,20.94,338.65,090923,,,A*46
$GPGGA,143857.750,4308.3733,N,07726.3767,W,1,07,1.15,169.0,M,-34.4,M,,*58
$GPRMC,143858.000,A,4308.3747,N,07726.3773,W,21.02,341.43,090923,,,A*42
$GPGGA,143858.250,4308.3761,N,07726.3779,W,1,07,1.14,169.3,M,-34.4,M,,*58
$GPRMC,143858.500,A,4308.3776,N,07726.3784,W,21.42,344.85,090923,,,A*46
$GPGGA,143858.750,4308.3792,N,07726.3787,W,1,07,1.15,169.6,M,-34.4,M,,*54
$GPRMC,143859.000,A,4308.3807,N,07726.3791,W,22.19,348.53,090923,,,A*45
$GPGGA,143859.250,4308.3823,N,07726.3795,W,1,07,1.15,169.9,M,-34.4,M,,*59
$GPRMC,143859.500,A,4308.3839,N,07726.3797,W,22.78,351.52,090923,,,A*45
$GPGGA,143859.750,4308.3855,N,07726.3798,W,1,07,1.15,170.3,M,-34.4,M,,*52
$GPRMC,143900.000,A,4308.3872,N,07726.3798,W,23.01,356.08,090923,,,A*4A
$GPGGA,143900.250,4308.3888,N,07726.3799,W,1,07,1.15,170.6,M,-34.4,M,,*5E
$GPRMC,143900.500,A,4308.3904,N,07726.3798,W,23.01,359.59,090923,,,A*44
$GPGGA,143900.750,4308.3920,N,07726.3796,W,1,06,1.93,170.9,M,-34.4,M,,*57
$GPRMC,143901.000,A,4308.3936,N,07726.3793,W,23.00,4.18,090923,,,A*45
$GPGGA,143901.250,4308.3952,N,07726.3790,W,1,07,1.15,171.3,M,-34.4,M,,*54
$GPRMC,143901.500,A,4308.3968,N,07726.3787,W,23.24,7.25,090923,,,A*45
$GPGGA,143901.750,4308.3985,N,07726.3783,W,1,07,1.15,171.5,M,-34.4,M,,*5F
$GPRMC,143902.000,A,4308.4001,N,07726.3779,W,23.57,9.80,090923,,,A*46
$GPGGA,143902.250,4308.4018,N,07726.3775,W,1,07,1.15,171.8,M,-34.4,M,,*57
$GPRMC,143902.500,A,4308.4034,N,07726.3770,W,23.60,11.68,090923,,,A*77
$GPGGA,143902.750,4308.4050,N,07726.3765,W,1,07,1.15,172.1,M,-34.4,M,,*55
$GPRMC,143903.000,A,4308.4067,N,07726.3759,W,23.63,13.17,090923,,,A*77
$GPGGA,143903.250,4308.4083,N,07726.3754,W,1,07,1.15,172.4,M,-34.4,M,,*58
$GPRMC,143903.500,A,4308.4100,N,07726.3748,W,23.85,13.13,090923,,,A*7E
$GPGGA,143903.750,4308.4117,N,07726.3743,W,1,07,1.15,172.5,M,-34.4,M,,*56
$GPRMC,143904.000,A,4308.4133,N,07726.3738,W,24.12,12.99,090923,,,A*71
$GPGGA,143904.250,4308.4150,N,07726.3733,W,1,07,1.15,172.7,M,-34.4,M,,*52
$GPRMC,143904.500,A,4308.4166,N,07726.3728,W,24.15,12.40,090923,,,A*76
$GPGGA,143904.750,4308.4183,N,07726.3723,W,1,07,1.15,172.8,M,-34.4,M,,*57
$GPRMC,143905.000,A,4308.4199,N,07726.3719,W,23.57,10.61,090923,,,A*70
$GPGGA,143905.250,4308.4215,N,07726.3715,W,1,07,1.15,173.0,M,-34.4,M,,*53
$GPRMC,143905.500,A,4308.4231,N,07726.3711,W,22.89,9.15,090923,,,A*45
$GPGGA,143905.750,4308.4247,N,07726.3708,W,1,07,1.15,173.1,M,-34.4,M,,*5C
$GPRMC,143906.000,A,4308.4262,N,07726.3704,W,22.32,8.54,090923,,,A*45
$GPGGA,143906.250,4308.4277,N,07726.3701,W,1,07,1.15,173.3,M,-34.4,M,,*52
$GPRMC,143906.500,A,4308.4292,N,07726.3697,W,21.68,9.07,090923,,,A*4F
$GPGGA,143906.750,4308.4307,N,07726.3694,W,1,07,1.15,173.6,M,-34.4,M,,*59
$GPRMC,143907.000,A,4308.4321,N,07726.3691,W,21.21,8.87,090923,,,A*40
$GPGGA,143907.250,4308.4335,N,07726.3687,W,1,07,1.15,173.8,M,-34.4,M,,*50
$GPRMC,143907.500,A,4308.4350,N,07726.3684,W,20.67,10.08,090923,,,A*7A
$GPGGA,143907.750,4308.4364,N,07726.3681,W,1,07,1.15,174.2,M,-34.4,M,,*5A
$GPRMC,143908.000,A,4308.4378,N,07726.3677,W,20.16,8.05,090923,,,A*44
$GPGGA,143908.250,4308.4392,N,07726.3674,W,1,07,1.15,174.3,M,-34.4,M,,*52
$GPRMC,143908.500,A,4308.4406,N,07726.3671,W,19.45,8.71,090923,,,A*46
$GPGGA,143908.750,4308.4419,N,07726.3668,W,1,07,1.15,174.2,M,-34.4,M,,*5F
$GPRMC,143909.000,A,4308.4432,N,07726.3665,W,18.01,8.63,090923,,,A*42
$GPGGA,143909.250,4308.4444,N,07726.3662,W,1,07,1.15,174.3,M,-34.4,M,,*58
$GPRMC,143909.500,A,4308.4455,N,07726.3659,W,15.81,8.52,090923,,,A*4E
$GPGGA,143909.750,4308.4466,N,07726.3655,W,1,07,1.15,174.4,M,-34.4,M,,*5E
$GPRMC,143910.000,A,4308.4475,N,07726.3651,W,14.03,8.53,090923,,,A*43
$GPGGA,143910.250,4308.4485,N,07726.3647,W,1,07,1.15,174.6,M,-34.4,M,,*5F
$GPRMC,143910.500,A,4308.4494,N,07726.3644,W,13.42,8.77,090923,,,A*49
$GPGGA,143910.750,4308.4502,N,07726.3640,W,1,07,1.15,174.8,M,-34.4,M,,*5D
$GPRMC,143911.000,A,4308.4510,N,07726.3637,W,12.16,8.83,090923,,,A*4F
$GPGGA,143911.250,4308.4518,N,07726.3635,W,1,07,1.15,175.0,M,-34.4,M,,*59
$GPRMC,143911.500,A,4308.4525,N,07726.3632,W,10.59,8.01,090923,,,A*4A
$GPGGA,143911.750,4308.4531,N,07726.3630,W,1,07,1.15,175.1,M,-34.4,M,,*53
$GPRMC,143912.000,A,4308.4537,N,07726.3628,W,8.17,7.74,090923,,,A*7A
$GPGGA,143912.250,4308.4542,N,07726.3627,W,1,07,1.15,175.2,M,-34.4,M,,*54
$GPRMC,143912.500,A,4308.4545,N,07726.3625,W,5.99,6.95,090923,,,A*72
$GPGGA,143912.750,4308.4548,N,07726.3625,W,1,07,1.15,175.1,M,-34.4,M,,*5A
$GPRMC,143913.000,A,4308.4550,N,07726.3624,W,3.73,4.51,090923,,,A*7B
$GPGGA,143913.250,4308.4552,N,07726.3624,W,1,07,1.15,175.1,M,-34.4,M,,*54
$GPRMC,143913.500,A,4308.4553,N,07726.3623,W,2.52,4.29,090923,,,A*77
$GPGGA,143913.750,4308.4554,N,07726.3623,W,1,07,1.15,175.1,M,-34.4,M,,*50
$GPRMC,143914.000,A,4308.4555,N,07726.3623,W,2.20,4.29,090923,,,A*76
$GPGGA,143914.250,4308.4556,N,07726.3623,W,1,07,1.15,175.0,M,-34.4,M,,*51
$GPRMC,143914.500,A,4308.4558,N,07726.3622,W,2.73,4.29,090923,,,A*79
$GPGGA,143914.750,4308.4560,N,07726.3621,W,1,07,1.15,175.1,M,-34.4,M,,*52
$GPRMC,143915.000,A,4308.4562,N,07726.3621,W,4.06,347.45,090923,,,A*7D
$GPGGA,143915.250,4308.4565,N,07726.3621,W,1,07,1.15,175.3,M,-34.4,M,,*51
$GPRMC,143915.500,A,4308.4569,N,07726.3623,W,5.71,338.97,090923,,,A*77
$GPGGA,143915.750,4308.4574,N,07726.3626,W,1,07,1.15,175.5,M,-34.4,M,,*55
$GPRMC,143916.000,A,4308.4578,N,07726.3629,W,7.22,334.33,090923,,,A*7D
$GPGGA,143916.250,4308.4583,N,07726.3633,W,1,07,1.14,175.6,M,-34.4,M,,*5D
$GPRMC,143916.500,A,4308.4588,N,07726.3638,W,8.81,322.80,090923,,,A*7E
$GPGGA,143916.750,4308.4593,N,07726.3646,W,1,07,1.15,175.8,M,-34.4,M,,*54
$GPRMC,143917.000,A,4308.4597,N,07726.3654,W,10.26,310.67,090923,,,A*42
$GPGGA,143917.250,4308.4601,N,07726.3663,W,1,07,1.14,175.9,M,-34.4,M,,*5F
$GPRMC,143917.500,A,4308.4605,N,07726.3674,W,11.71,300.81,090923,,,A*47
$GPGGA,143917.750,4308.4610,N,07726.3688,W,1,07,1.15,176.0,M,-34.4,M,,*54
$GPRMC,143918.000,A,4308.4614,N,07726.3701,W,14.67,291.97,090923,,,A*42
$GPGGA,143918.250,4308.4619,N,07726.3717,W,1,07,1.15,176.0,M,-34.4,M,,*50
$GPRMC,143918.500,A,4308.4622,N,07726.3734,W,16.79,283.62,090923,,,A*40
$GPGGA,143918.750,4308.4626,N,07726.3752,W,1,07,1.15,175.7,M,-34.4,M,,*5C
$GPRMC,143919.000,A,4308.4628,N,07726.3771,W,19.21,277.28,090923,,,A*48
$GPGGA,143919.250,4308.4629,N,07726.3790,W,1,07,1.14,175.6,M,-34.4,M,,*59
$GPRMC,143919.500,A,4308.4631,N,07726.3810,W,20.61,274.85,090923,,,A*47
$GPGGA,143919.750,4308.4631,N,07726.3832,W,1,07,1.15,175.6,M,-34.4,M,,*53
$GPRMC,143920.000,A,4308.4631,N,07726.3854,W,22.77,271.28,090923,,,A*4F
$GPGGA,143920.250,4308.4631,N,07726.3877,W,1,07,1.14,175.7,M,-34.4,M,,*5D
$GPRMC,143920.500,A,4308.4631,N,07726.3901,W,24.04,270.53,090923,,,A*44
$GPGGA,143920.750,4308.4631,N,07726.3926,W,1,07,1.14,175.8,M,-34.4,M,,*52
$GPRMC,143921.000,A,4308.4632,N,07726.3951,W,25.29,270.73,090923,,,A*4A
$GPGGA,143921.250,4308.4633,N,07726.3977,W,1,07,1.14,175.6,M,-34.4,M,,*5E
$GPRMC,143921.500,A,4308.4634,N,07726.4003,W,26.32,272.77,090923,,,A*4F
$GPGGA,143921.750,4308.4637,N,07726.4030,W,1,07,1.15,175.4,M,-34.4,M,,*51
$GPRMC,143922.000,A,4308.4639,N,07726.4058,W,27.40,274.77,090923,,,A*48
$GPGGA,143922.250,4308.4641,N,07726.4085,W,1,07,1.14,175.1,M,-34.4,M,,*5C
$GPRMC,143922.500,A,4308.4643,N,07726.4113,W,28.02,275.36,090923,,,A*43
$GPGGA,143922.750,4308.4645,N,07726.4140,W,1,07,1.15,174.9,M,-34.4,M,,*5D
$GPRMC,143923.000,A,4308.4647,N,07726.4168,W,28.77,276.24,090923,,,A*4D
$GPGGA,143923.250,4308.4650,N,07726.4196,W,1,07,1.14,174.6,M,-34.4,M,,*58
$GPRMC,143923.500,A,4308.4653,N,07726.4225,W,29.43,277.40,090923,,,A*42
$GPGGA,143923.750,4308.4656,N,07726.4253,W,1,07,1.15,174.5,M,-34.4,M,,*53
$GPRMC,143924.000,A,4308.4659,N,07726.4282,W,29.78,278.57,090923,,,A*46
$GPGGA,143924.250,4308.4663,N,07726.4311,W,1,07,1.14,174.3,M,-34.4,M,,*57
$GPRMC,143924.500,A,4308.4666,N,07726.4339,W,30.33,279.25,090923,,,A*4D
$GPGGA,143924.750,4308.4670,N,07726.4368,W,1,07,1.15,174.2,M,-34.4,M,,*5E
$GPRMC,143925.000,A,4308.4673,N,07726.4398,W,30.81,279.66,090923,,,A*48
$GPGGA,143925.250,4308.4677,N,07726.4427,W,1,07,1.15,174.1,M,-34.4,M,,*52
$GPRMC,143925.500,A,4308.4680,N,07726.4456,W,30.94,279.63,090923,,,A*45
$GPGGA,143925.750,4308.4683,N,07726.4485,W,1,07,1.14,174.2,M,-34.4,M,,*56
$GPRMC,143926.000,A,4308.4686,N,07726.4514,W,31.08,279.61,090923,,,A*44
$GPGGA,143926.250,4308.4689,N,07726.4543,W,1,07,1.14,174.4,M,-34.4,M,,*57
$GPRMC,143926.500,A,4308.4692,N,07726.4572,W,31.08,277.72,090923,,,A*48
$GPGGA,143926.750,4308.4694,N,07726.4603,W,1,07,1.14,174.6,M,-34.4,M,,*5B
$GPRMC,143927.000,A,4308.4697,N,07726.4633,W,31.22,276.30,090923,,,A*40
$GPGGA,143927.250,4308.4700,N,07726.4664,W,1,07,1.14,174.8,M,-34.4,M,,*5C
$GPRMC,143927.500,A,4308.4703,N,07726.4695,W,32.36,277.22,090923,,,A*41
$GPGGA,143927.750,4308.4705,N,07726.4726,W,1,07,1.15,174.9,M,-34.4,M,,*5B
$GPRMC,143928.000,A,4308.4708,N,07726.4757,W,32.44,278.19,090923,,,A*4D
$GPGGA,143928.250,4308.4712,N,07726.4789,W,1,07,1.14,175.0,M,-34.4,M,,*5B
$GPRMC,143928.500,A,4308.4715,N,07726.4821,W,33.11,278.91,090923,,,A*4B
$GPGGA,143928.750,4308.4718,N,07726.4853,W,1,07,1.15,175.1,M,-34.4,M,,*5C
$GPRMC,143929.000,A,4308.4722,N,07726.4886,W,33.16,279.28,090923,,,A*42
$GPGGA,143929.250,4308.4725,N,07726.4919,W,1,07,1.14,175.3,M,-34.4,M,,*5A
$GPRMC,143929.500,A,4308.4729,N,07726.4951,W,34.06,278.86,090923,,,A*44
$GPGGA,143929.750,4308.4732,N,07726.4984,W,1,07,1.15,175.2,M,-34.4,M,,*5D
$GPRMC,143930.000,A,4308.4735,N,07726.5018,W,34.43,277.61,090923,,,A*46
$GPGGA,143930.250,4308.4738,N,07726.5051,W,1,07,1.14,175.5,M,-34.4,M,,*5C
$GPRMC,143930.500,A,4308.4741,N,07726.5084,W,34.65,276.89,090923,,,A*46
$GPGGA,143930.750,4308.4744,N,07726.5117,W,1,07,1.14,175.6,M,-34.4,M,,*52
$GPRMC,143931.000,A,4308.4747,N,07726.5150,W,35.21,276.01,090923,,,A*4D
$GPGGA,143931.250,4308.4749,N,07726.5184,W,1,07,1.14,175.9,M,-34.4,M,,*5E
$GPRMC,143931.500,A,4308.4751,N,07726.5217,W,35.49,275.09,090923,,,A*4A
$GPGGA,143931.750,4308.4753,N,07726.5252,W,1,07,1.14,176.3,M,-34.4,M,,*51
$GPRMC,143932.000,A,4308.4755,N,07726.5286,W,36.61,273.84,090923,,,A*4A
$GPGGA,143932.250,4308.4757,N,07726.5321,W,1,06,1.41,176.4,M,-34.4,M,,*50
$GPRMC,143932.500,A,4308.4758,N,07726.5355,W,36.75,273.55,090923,,,A*44
$GPGGA,143932.750,4308.4760,N,07726.5390,W,1,06,1.41,176.4,M,-34.4,M,,*5B
$GPRMC,143933.000,A,4308.4761,N,07726.5425,W,37.19,273.60,090923,,,A*47
$GPGGA,143933.250,4308.4763,N,07726.5460,W,1,06,1.41,176.4,M,-34.4,M,,*54
$GPRMC,143933.500,A,4308.4764,N,07726.5496,W,37.49,273.27,090923,,,A*49
$GPGGA,143933.750,4308.4766,N,07726.5532,W,1,07,1.14,176.4,M,-34.4,M,,*53
$GPRMC,143934.000,A,4308.4767,N,07726.5568,W,37.83,273.03,090923,,,A*48
$GPGGA,143934.250,4308.4768,N,07726.5604,W,1,07,1.14,176.3,M,-34.4,M,,*5E
$GPRMC,143934.500,A,4308.4770,N,07726.5641,W,38.46,273.43,090923,,,A*41
$GPGGA,143934.750,4308.4772,N,07726.5677,W,1,06,1.41,176.3,M,-34.4,M,,*55
$GPRMC,143935.000,A,4308.4773,N,07726.5714,W,38.69,273.57,090923,,,A*4F
$GPGGA,143935.250,4308.4775,N,07726.5751,W,1,06,1.41,176.3,M,-34.4,M,,*53
$GPRMC,143935.500,A,4308.4776,N,07726.5788,W,38.79,273.65,090923,,,A*4A
$GPGGA,143935.750,4308.4778,N,07726.5825,W,1,06,1.41,176.3,M,-34.4,M,,*57
$GPRMC,143936.000,A,4308.4779,N,07726.5862,W,39.00,273.92,090923,,,A*4F
$GPGGA,143936.250,4308.4780,N,07726.5899,W,1,06,1.41,176.4,M,-34.4,M,,*56
$GPRMC,143936.500,A,4308.4782,N,07726.5937,W,39.08,273.63,090923,,,A*49
$GPGGA,143936.750,4308.4783,N,07726.5974,W,1,06,1.41,176.4,M,-34.4,M,,*52
$GPRMC,143937.000,A,4308.4784,N,07726.6012,W,39.48,273.10,090923,,,A*46
$GPGGA,143937.250,4308.4784,N,07726.6049,W,1,06,1.41,176.5,M,-34.4,M,,*54
$GPRMC,143937.500,A,4308.4785,N,07726.6087,W,39.71,272.47,090923,,,A*47
$GPGGA,143937.750,4308.4786,N,07726.6125,W,1,07,1.14,176.5,M,-34.4,M,,*59
$GPRMC,143938.000,A,4308.4786,N,07726.6163,W,39.86,271.60,090923,,,A*4B
$GPGGA,143938.250,4308.4786,N,07726.6201,W,1,07,1.14,176.6,M,-34.4,M,,*55
$GPRMC,143938.500,A,4308.4786,N,07726.6239,W,39.69,270.57,090923,,,A*46
$GPGGA,143938.750,4308.4786,N,07726.6276,W,1,07,1.15,176.7,M,-34.4,M,,*50
$GPRMC,143939.000,A,4308.4787,N,07726.6314,W,39.39,269.81,090923,,,A*4B
$GPGGA,143939.250,4308.4787,N,07726.6352,W,1,07,1.14,176.7,M,-34.4,M,,*53
$GPRMC,143939.500,A,4308.4787,N,07726.6389,W,38.94,269.42,090923,,,A*43
$GPGGA,143939.750,4308.4786,N,07726.6426,W,1,07,1.15,176.7,M,-34.4,M,,*52
$GPRMC,143940.000,A,4308.4786,N,07726.6464,W,38.92,269.18,090923,,,A*44
$GPGGA,143940.250,4308.4786,N,07726.6501,W,1,07,1.14,176.6,M,-34.4,M,,*5D
$GPRMC,143940.500,A,4308.4786,N,07726.6539,W,38.87,268.76,090923,,,A*45
$GPGGA,143940.750,4308.4786,N,07726.6577,W,1,07,1.15,176.3,M,-34.4,M,,*5D
$GPRMC,143941.000,A,4308.4785,N,07726.6614,W,38.78,268.26,090923,,,A*4B
$GPGGA,143941.250,4308.4784,N,07726.6651,W,1,07,1.14,176.3,M,-34.4,M,,*5D
$GPRMC,143941.500,A,4308.4783,N,07726.6688,W,38.57,267.80,090923,,,A*43
$GPGGA,143941.750,4308.4783,N,07726.6726,W,1,07,1.14,176.1,M,-34.4,M,,*5C
$GPRMC,143942.000,A,4308.4782,N,07726.6763,W,38.60,267.95,090923,,,A*40
$GPGGA,143942.250,4308.4780,N,07726.6800,W,1,07,1.14,176.0,M,-34.4,M,,*53
$GPRMC,143942.500,A,4308.4779,N,07726.6838,W,38.67,267.23,090923,,,A*4A
$GPGGA,143942.750,4308.4778,N,07726.6874,W,1,07,1.14,175.9,M,-34.4,M,,*58
$GPRMC,143943.000,A,4308.4776,N,07726.6911,W,38.68,266.67,090923,,,A*45
$GPGGA,143943.250,4308.4774,N,07726.6947,W,1,07,1.14,176.0,M,-34.4,M,,*5B
$GPRMC,143943.500,A,4308.4772,N,07726.6983,W,38.23,266.64,090923,,,A*43
$GPGGA,143943.750,4308.4770,N,07726.7019,W,1,06,1.41,176.1,M,-34.4,M,,*59
$GPRMC,143944.000,A,4308.4768,N,07726.7054,W,37.97,266.84,090923,,,A*46
$GPGGA,143944.250,4308.4766,N,07726.7090,W,1,06,1.41,176.3,M,-34.4,M,,*5F
$GPRMC,143944.500,A,4308.4764,N,07726.7126,W,37.87,266.84,090923,,,A*4A
$GPGGA,143944.750,4308.4762,N,07726.7161,W,1,06,1.41,176.5,M,-34.4,M,,*57
$GPRMC,143945.000,A,4308.4760,N,07726.7197,W,37.71,266.80,090923,,,A*4D
$GPGGA,143945.250,4308.4758,N,07726.7233,W,1,06,1.41,176.7,M,-34.4,M,,*5C
$GPRMC,143945.500,A,4308.4756,N,07726.7268,W,37.64,265.90,090923,,,A*48
$GPGGA,143945.750,4308.4754,N,07726.7304,W,1,06,1.41,177.0,M,-34.4,M,,*56
$GPRMC,143946.000,A,4308.4752,N,07726.7339,W,37.49,266.19,090923,,,A*42
$GPGGA,143946.250,4308.4750,N,07726.7375,W,1,06,1.41,177.3,M,-34.4,M,,*51
$GPRMC,143946.500,A,4308.4749,N,07726.7411,W,37.70,266.48,090923,,,A*4E
$GPGGA,143946.750,4308.4747,N,07726.7447,W,1,06,1.41,177.3,M,-34.4,M,,*54
$GPRMC,143947.000,A,4308.4745,N,07726.7483,W,37.85,266.25,090923,,,A*4C
$GPGGA,143947.250,4308.4743,N,07726.7520,W,1,06,1.41,177.5,M,-34.4,M,,*52
$GPRMC,143947.500,A,4308.4741,N,07726.7556,W,38.19,265.97,090923,,,A*44
$GPGGA,143947.750,4308.4739,N,07726.7592,W,1,06,1.93,177.6,M,-34.4,M,,*5F
$GPRMC,143948.000,A,4308.4737,N,07726.7629,W,37.92,265.72,090923,,,A*43
$GPGGA,143948.250,4308.4735,N,07726.7664,W,1,06,1.41,177.7,M,-34.4,M,,*5D
$GPRMC,143948.500,A,4308.4733,N,07726.7701,W,37.86,265.48,090923,,,A*45
$GPGGA,143948.750,4308.4731,N,07726.7737,W,1,07,1.14,177.9,M,-34.4,M,,*54
$GPRMC,143949.000,A,4308.4729,N,07726.7773,W,37.62,264.23,090923,,,A*49
$GPGGA,143949.250,4308.4726,N,07726.7809,W,1,07,1.14,178.0,M,-34.4,M,,*52
$GPRMC,143949.500,A,4308.4724,N,07726.7845,W,37.91,264.86,090923,,,A*48
$GPGGA,143949.750,4308.4722,N,07726.7882,W,1,07,1.15,178.1,M,-34.4,M,,*50
$GPRMC,143950.000,A,4308.4721,N,07726.7920,W,38.34,265.22,090923,,,A*4D
$GPGGA,143950.250,4308.4720,N,07726.7958,W,1,07,1.14,177.6,M,-34.4,M,,*50
$GPRMC,143950.500,A,4308.4719,N,07726.7995,W,38.43,265.22,090923,,,A*4D
$GPGGA,143950.750,4308.4716,N,07726.8032,W,1,07,1.15,177.3,M,-34.4,M,,*5E
$GPRMC,143951.000,A,4308.4714,N,07726.8069,W,38.42,264.61,090923,,,A*46
$GPGGA,143951.250,4308.4711,N,07726.8105,W,1,07,1.14,177.4,M,-34.4,M,,*5E
$GPRMC,143951.500,A,4308.4709,N,07726.8142,W,38.64,264.55,090923,,,A*44
$GPGGA,143951.750,4308.4707,N,07726.8178,W,1,06,1.41,177.4,M,-34.4,M,,*57
$GPRMC,143952.000,A,4308.4705,N,07726.8215,W,38.88,264.81,090923,,,A*44
$GPGGA,143952.250,4308.4703,N,07726.8252,W,1,07,1.14,177.3,M,-34.4,M,,*58
$GPRMC,143952.500,A,4308.4702,N,07726.8290,W,39.30,265.36,090923,,,A*44
$GPGGA,143952.750,4308.4701,N,07726.8328,W,1,07,1.15,176.9,M,-34.4,M,,*59
$GPRMC,143953.000,A,4308.4699,N,07726.8366,W,39.33,265.01,090923,,,A*4C
$GPGGA,143953.250,4308.4697,N,07726.8403,W,1,07,1.14,176.7,M,-34.4,M,,*52
$GPRMC,143953.500,A,4308.4695,N,07726.8441,W,39.30,265.11,090923,,,A*45
$GPGGA,143953.750,4308.4693,N,07726.8479,W,1,07,1.15,176.4,M,-34.4,M,,*5C
$GPRMC,143954.000,A,4308.4691,N,07726.8516,W,39.32,264.97,090923,,,A*4D
$GPGGA,143954.250,4308.4689,N,07726.8553,W,1,07,1.14,176.3,M,-34.4,M,,*5A
$GPRMC,143954.500,A,4308.4687,N,07726.8590,W,39.53,264.51,090923,,,A*4C
$GPGGA,143954.750,4308.4684,N,07726.8628,W,1,07,1.15,176.1,M,-34.4,M,,*5E
$GPRMC,143955.000,A,4308.4682,N,07726.8665,W,39.50,264.51,090923,,,A*47
$GPGGA,143955.250,4308.4680,N,07726.8702,W,1,07,1.14,176.0,M,-34.4,M,,*57
$GPRMC,143955.500,A,4308.4677,N,07726.8740,W,39.42,264.64,090923,,,A*4B
$GPGGA,143955.750,4308.4674,N,07726.8777,W,1,07,1.14,175.9,M,-34.4,M,,*51
$GPRMC,143956.000,A,4308.4672,N,07726.8814,W,39.34,264.70,090923,,,A*42
$GPGGA,143956.250,4308.4670,N,07726.8851,W,1,07,1.14,175.8,M,-34.4,M,,*59
$GPRMC,143956.500,A,4308.4668,N,07726.8889,W,39.28,265.03,090923,,,A*40
$GPGGA,143956.750,4308.4666,N,07726.8926,W,1,07,1.15,175.7,M,-34.4,M,,*54
$GPRMC,143957.000,A,4308.4664,N,07726.8963,W,39.23,265.15,090923,,,A*41
$GPGGA,143957.250,4308.4662,N,07726.9000,W,1,07,1.14,175.6,M,-34.4,M,,*58
$GPRMC,143957.500,A,4308.4660,N,07726.9037,W,39.40,265.24,090923,,,A*4E
$GPGGA,143957.750,4308.4658,N,07726.9074,W,1,07,1.15,175.5,M,-34.4,M,,*55
$GPRMC,143958.000,A,4308.4656,N,07726.9112,W,39.44,265.60,090923,,,A*43
$GPGGA,143958.250,4308.4654,N,07726.9149,W,1,07,1.14,175.5,M,-34.4,M,,*5D
$GPRMC,143958.500,A,4308.4653,N,07726.9186,W,39.37,265.63,090923,,,A*49
$GPGGA,143958.750,4308.4651,N,07726.9223,W,1,07,1.15,175.4,M,-34.4,M,,*52
$GPRMC,143959.000,A,4308.4649,N,07726.9261,W,39.37,265.71,090923,,,A*4F
$GPGGA,143959.250,4308.4647,N,07726.9298,W,1,07,1.14,175.4,M,-34.4,M,,*50
$GPRMC,143959.500,A,4308.4645,N,07726.9335,W,39.38,265.81,090923,,,A*46
$GPGGA,143959.750,4308.4643,N,07726.9372,W,1,07,1.15,175.4,M,-34.4,M,,*55
$GPRMC,144000.000,A,4308.4642,N,07726.9410,W,39.37,266.06,090923,,,A*45
$GPGGA,144000.250,4308.4640,N,07726.9448,W,1,07,1.14,175.4,M,-34.4,M,,*5E
$GPRMC,144000.500,A,4308.4639,N,07726.9485,W,39.36,266.30,090923,,,A*44
$GPGGA,144000.750,4308.4638,N,07726.9522,W,1,07,1.15,175.3,M,-34.4,M,,*5F
$GPRMC,144001.000,A,4308.4636,N,07726.9559,W,39.18,266.31,090923,,,A*42
$GPGGA,144001.250,4308.4634,N,07726.9596,W,1,07,1.14,175.3,M,-34.4,M,,*59
$GPRMC,144001.500,A,4308.4633,N,07726.9633,W,39.25,265.83,090923,,,A*49
$GPGGA,144001.750,4308.4631,N,07726.9671,W,1,07,1.15,175.1,M,-34.4,M,,*50
$GPRMC,144002.000,A,4308.4629,N,07726.9709,W,39.23,265.25,090923,,,A*46
$GPGGA,144002.250,4308.4627,N,07726.9747,W,1,07,1.14,174.8,M,-34.4,M,,*5C
$GPRMC,144002.500,A,4308.4625,N,07726.9785,W,39.36,265.28,090923,,,A*42
$GPGGA,144002.750,4308.4624,N,07726.9823,W,1,07,1.15,174.6,M,-34.4,M,,*58
$GPRMC,144003.000,A,4308.4622,N,07726.9861,W,40.21,265.58,090923,,,A*4B
$GPGGA,144003.250,4308.4619,N,07726.9898,W,1,07,1.15,174.4,M,-34.4,M,,*50
$GPRMC,144003.500,A,4308.4617,N,07726.9936,W,40.16,265.93,090923,,,A*48
$GPGGA,144003.750,4308.4616,N,07726.9974,W,1,07,1.15,174.3,M,-34.4,M,,*5E
$GPRMC,144004.000,A,4308.4614,N,07727.0011,W,40.13,266.44,090923,,,A*41
$GPGGA,144004.250,4308.4612,N,07727.0049,W,1,07,1.14,174.3,M,-34.4,M,,*56
$GPRMC,144004.500,A,4308.4611,N,07727.0087,W,40.23,266.95,090923,,,A*41
$GPGGA,144004.750,4308.4610,N,07727.0125,W,1,07,1.14,174.3,M,-34.4,M,,*5A
$GPRMC,144005.000,A,4308.4609,N,07727.0163,W,40.30,267.47,090923,,,A*4B
$GPGGA,144005.250,4308.4608,N,07727.0201,W,1,07,1.14,174.3,M,-34.4,M,,*52
$GPRMC,144005.500,A,4308.4606,N,07727.0239,W,40.00,267.36,090923,,,A*48
$GPGGA,144005.750,4308.4605,N,07727.0276,W,1,07,1.14,174.4,M,-34.4,M,,*5D
$GPRMC,144006.000,A,4308.4603,N,07727.0314,W,39.91,266.90,090923,,,A*4E
$GPGGA,144006.250,4308.4602,N,07727.0351,W,1,07,1.14,174.5,M,-34.4,M,,*59
$GPRMC,144006.500,A,4308.4600,N,07727.0389,W,39.83,266.96,090923,,,A*49
$GPGGA,144006.750,4308.4598,N,07727.0426,W,1,06,1.42,174.6,M,-34.4,M,,*5A
$GPRMC,144007.000,A,4308.4597,N,07727.0463,W,39.55,267.60,090923,,,A*40
$GPGGA,144007.250,4308.4596,N,07727.0500,W,1,06,1.42,174.7,M,-34.4,M,,*54
$GPRMC,144007.500,A,4308.4595,N,07727.0538,W,39.33,268.31,090923,,,A*43
$GPGGA,144007.750,4308.4593,N,07727.0575,W,1,07,1.15,174.8,M,-34.4,M,,*5A
$GPRMC,144008.000,A,4308.4593,N,07727.0612,W,39.28,269.11,090923,,,A*4D
$GPGGA,144008.250,4308.4592,N,07727.0649,W,1,07,1.14,175.0,M,-34.4,M,,*55
$GPRMC,144008.500,A,4308.4592,N,07727.0686,W,39.32,269.58,090923,,,A*42
$GPGGA,144008.750,4308.4592,N,07727.0723,W,1,06,1.42,175.1,M,-34.4,M,,*5E
$GPRMC,144009.000,A,4308.4593,N,07727.0760,W,39.00,271.63,090923,,,A*4E
$GPGGA,144009.250,4308.4594,N,07727.0797,W,1,07,1.14,175.3,M,-34.4,M,,*53
$GPRMC,144009.500,A,4308.4596,N,07727.0834,W,39.12,273.07,090923,,,A*43
$GPGGA,144009.750,4308.4597,N,07727.0871,W,1,07,1.15,175.4,M,-34.4,M,,*54
$GPRMC,144010.000,A,4308.4600,N,07727.0907,W,39.05,275.30,090923,,,A*47
$GPGGA,144010.250,4308.4602,N,07727.0944,W,1,07,1.14,175.5,M,-34.4,M,,*51
$GPRMC,144010.500,A,4308.4605,N,07727.0981,W,38.88,276.12,090923,,,A*4E
$GPGGA,144010.750,4308.4609,N,07727.1018,W,1,07,1.15,175.4,M,-34.4,M,,*5E
$GPRMC,144011.000,A,4308.4612,N,07727.1055,W,38.83,277.69,090923,,,A*4B
$GPGGA,144011.250,4308.4616,N,07727.1091,W,1,07,1.14,175.4,M,-34.4,M,,*54
$GPRMC,144011.500,A,4308.4619,N,07727.1127,W,38.56,278.05,090923,,,A*4C
$GPGGA,144011.750,4308.4623,N,07727.1163,W,1,07,1.15,175.3,M,-34.4,M,,*5D
$GPRMC,144012.000,A,4308.4627,N,07727.1198,W,38.01,278.48,090923,,,A*48
$GPGGA,144012.250,4308.4631,N,07727.1234,W,1,07,1.14,175.3,M,-34.4,M,,*58
$GPRMC,144012.500,A,4308.4635,N,07727.1270,W,38.06,278.94,090923,,,A*4D
$GPGGA,144012.750,4308.4639,N,07727.1305,W,1,07,1.15,175.3,M,-34.4,M,,*57
$GPRMC,144013.000,A,4308.4643,N,07727.1340,W,37.82,278.97,090923,,,A*4A
$GPGGA,144013.250,4308.4647,N,07727.1375,W,1,07,1.14,175.3,M,-34.4,M,,*5C
$GPRMC,144013.500,A,4308.4651,N,07727.1409,W,37.41,279.20,090923,,,A*44
$GPGGA,144013.750,4308.4654,N,07727.1444,W,1,07,1.15,175.6,M,-34.4,M,,*5A
$GPRMC,144014.000,A,4308.4657,N,07727.1478,W,37.33,278.42,090923,,,A*46
$GPGGA,144014.250,4308.4661,N,07727.1512,W,1,06,1.42,175.6,M,-34.4,M,,*5F
$GPRMC,144014.500,A,4308.4665,N,07727.1546,W,36.81,278.93,090923,,,A*4A
$GPGGA,144014.750,4308.4668,N,07727.1580,W,1,07,1.15,175.8,M,-34.4,M,,*55
$GPRMC,144015.000,A,4308.4671,N,07727.1614,W,36.56,278.40,090923,,,A*4B
$GPGGA,144015.250,4308.4675,N,07727.1648,W,1,07,1.14,175.9,M,-34.4,M,,*5A
$GPRMC,144015.500,A,4308.4679,N,07727.1682,W,36.66,278.37,090923,,,A*4A
$GPGGA,144015.750,4308.4683,N,07727.1716,W,1,07,1.15,176.0,M,-34.4,M,,*57
$GPRMC,144016.000,A,4308.4686,N,07727.1750,W,36.46,278.24,090923,,,A*42
$GPGGA,144016.250,4308.4689,N,07727.1784,W,1,06,1.42,176.2,M,-34.4,M,,*51
$GPRMC,144016.500,A,4308.4693,N,07727.1817,W,35.96,278.87,090923,,,A*48
$GPGGA,144016.750,4308.4697,N,07727.1850,W,1,06,1.42,176.5,M,-34.4,M,,*5A
$GPRMC,144017.000,A,4308.4699,N,07727.1883,W,35.90,278.78,090923,,,A*4D
$GPGGA,144017.250,4308.4704,N,07727.1917,W,1,06,1.42,176.4,M,-34.4,M,,*56
$GPRMC,144017.500,A,4308.4707,N,07727.1951,W,35.85,278.71,090923,,,A*4D
$GPGGA,144017.750,4308.4710,N,07727.1986,W,1,07,1.15,176.6,M,-34.4,M,,*5F
$GPRMC,144018.000,A,4308.4714,N,07727.2020,W,36.48,278.27,090923,,,A*48
$GPGGA,144018.250,4308.4718,N,07727.2055,W,1,07,1.14,176.8,M,-34.4,M,,*56
$GPRMC,144018.500,A,4308.4721,N,07727.2090,W,37.86,278.11,090923,,,A*46
$GPGGA,144018.750,4308.4726,N,07727.2126,W,1,07,1.15,177.0,M,-34.4,M,,*53
$GPRMC,144019.000,A,4308.4730,N,07727.2163,W,38.16,278.23,090923,,,A*48
$GPGGA,144019.250,4308.4734,N,07727.2199,W,1,07,1.14,176.9,M,-34.4,M,,*59
$GPRMC,144019.500,A,4308.4739,N,07727.2236,W,38.57,278.76,090923,,,A*42
$GPGGA,144019.750,4308.4744,N,07727.2273,W,1,07,1.15,176.9,M,-34.4,M,,*5D
$GPRMC,144020.000,A,4308.4749,N,07727.2311,W,38.79,279.32,090923,,,A*43
$GPGGA,144020.250,4308.4754,N,07727.2348,W,1,07,1.14,176.9,M,-34.4,M,,*5B
$GPRMC,144020.500,A,4308.4758,N,07727.2386,W,40.31,279.24,090923,,,A*4C
$GPGGA,144020.750,4308.4762,N,07727.2424,W,1,07,1.14,177.1,M,-34.4,M,,*5F
$GPRMC,144021.000,A,4308.4767,N,07727.2461,W,40.53,278.95,090923,,,A*45
$GPGGA,144021.250,4308.4772,N,07727.2499,W,1,07,1.15,177.2,M,-34.4,M,,*5E
$GPRMC,144021.500,A,4308.4777,N,07727.2538,W,40.95,279.33,090923,,,A*4B
$GPGGA,144021.750,4308.4783,N,07727.2577,W,1,07,1.15,177.1,M,-34.4,M,,*57
$GPRMC,144022.000,A,4308.4788,N,07727.2615,W,41.16,279.62,090923,,,A*4F
$GPGGA,144022.250,4308.4793,N,07727.2654,W,1,07,1.15,176.8,M,-34.4,M,,*5A
$GPRMC,144022.500,A,4308.4799,N,07727.2693,W,41.59,280.04,090923,,,A*49
$GPGGA,144022.750,4308.4804,N,07727.2732,W,1,07,1.15,176.6,M,-34.4,M,,*51
$GPRMC,144023.000,A,4308.4810,N,07727.2772,W,42.06,279.97,090923,,,A*48
$GPGGA,144023.250,4308.4815,N,07727.2811,W,1,07,1.14,176.3,M,-34.4,M,,*5F
$GPRMC,144023.500,A,4308.4820,N,07727.2850,W,42.29,280.14,090923,,,A*41
$GPGGA,144023.750,4308.4825,N,07727.2890,W,1,07,1.15,176.1,M,-34.4,M,,*53
$GPRMC,144024.000,A,4308.4830,N,07727.2930,W,42.42,280.01,090923,,,A*4C
$GPGGA,144024.250,4308.4836,N,07727.2971,W,1,07,1.15,175.9,M,-34.4,M,,*56
$GPRMC,144024.500,A,4308.4841,N,07727.3011,W,42.57,280.14,090923,,,A*44
$GPGGA,144024.750,4308.4846,N,07727.3051,W,1,07,1.15,175.7,M,-34.4,M,,*50
$GPRMC,144025.000,A,4308.4852,N,07727.3092,W,42.99,280.08,090923,,,A*46
$GPGGA,144025.250,4308.4856,N,07727.3132,W,1,07,1.15,175.6,M,-34.4,M,,*50
$GPRMC,144025.500,A,4308.4861,N,07727.3172,W,42.76,279.45,090923,,,A*42
$GPGGA,144025.750,4308.4865,N,07727.3212,W,1,07,1.14,175.7,M,-34.4,M,,*54
$GPRMC,144026.000,A,4308.4870,N,07727.3252,W,42.69,279.14,090923,,,A*4F
$GPGGA,144026.250,4308.4874,N,07727.3292,W,1,07,1.14,175.8,M,-34.4,M,,*55
$GPRMC,144026.500,A,4308.4879,N,07727.3332,W,42.74,279.27,090923,,,A*48
$GPGGA,144026.750,4308.4883,N,07727.3371,W,1,07,1.15,175.9,M,-34.4,M,,*54
$GPRMC,144027.000,A,4308.4888,N,07727.3411,W,42.81,279.06,090923,,,A*4D
$GPGGA,144027.250,4308.4892,N,07727.3452,W,1,07,1.15,176.0,M,-34.4,M,,*5C
$GPRMC,144027.500,A,4308.4896,N,07727.3492,W,42.85,278.57,090923,,,A*4D
$GPGGA,144027.750,4308.4900,N,07727.3532,W,1,07,1.15,176.1,M,-34.4,M,,*55
$GPRMC,144028.000,A,4308.4904,N,07727.3572,W,43.05,278.17,090923,,,A*4F
$GPGGA,144028.250,4308.4908,N,07727.3612,W,1,07,1.14,176.2,M,-34.4,M,,*54
$GPRMC,144028.500,A,4308.4912,N,07727.3653,W,43.43,278.33,090923,,,A*49
$GPGGA,144028.750,4308.4917,N,07727.3694,W,1,07,1.15,176.2,M,-34.4,M,,*50
$GPRMC,144029.000,A,4308.4921,N,07727.3735,W,43.55,278.80,090923,,,A*43
$GPGGA,144029.250,4308.4926,N,07727.3776,W,1,07,1.15,176.1,M,-34.4,M,,*58
$GPRMC,144029.500,A,4308.4931,N,07727.3817,W,43.61,278.97,090923,,,A*49
