Vers 81
USE_SERIAL_FEEDBACK=true
DEVELOPMENT_MODE=false
USE_RMC_ONLY=false

$GPRMC,172107.000,A,4308.2784,N,07726.2630,W,0.18,191.11,290823,,,A*79
$GPGGA,172107.250,4308.2786,N,07726.2632,W,1,04,3.04,124.6,M,-34.4,M,,*52
$GPRMC,172107.500,A,4308.2789,N,07726.2634,W,0.19,201.22,290823,,,A*7E
$GPGGA,172107.750,4308.2792,N,07726.2635,W,1,04,3.04,126.2,M,-34.4,M,,*53
$GPRMC,172108.000,A,4308.2794,N,07726.2637,W,0.24,201.58,290823,,,A*78
$GPGGA,172106.250,4308.2796,N,07726.2636,W,1,04,3.04,126.6,M,-34.4,M,,*54
$GPRMC,172106.500,A,4308.2799,N,07726.2637,W,0.15,217.08,290823,,,A*7E
$GPGGA,172106.750,4308.2799,N,07726.2639,W,1,04,3.04,126.9,M,-34.4,M,,*5E
$GPRMC,172107.000,A,4308.2803,N,07726.2640,W,0.14,186.46,290823,,,A*76
$GPGGA,172107.250,4308.2807,N,07726.2641,W,1,04,3.04,127.7,M,-34.4,M,,*52
$GPRMC,172107.500,A,4308.2812,N,07726.2642,W,0.16,201.82,290823,,,A*77
$GPGGA,172107.750,4308.2816,N,07726.2644,W,1,04,3.04,128.7,M,-34.4,M,,*5D
$GPRMC,172108.000,A,4308.2820,N,07726.2645,W,0.14,211.09,290823,,,A*7B
$GPGGA,172108.250,4308.2825,N,07726.2646,W,1,04,3.04,129.8,M,-34.4,M,,*5B
$GPRMC,172108.500,A,4308.2827,N,07726.2648,W,0.11,220.76,290823,,,A*7B
$GPGGA,172108.750,4308.2830,N,07726.2648,W,1,04,3.04,130.7,M,-34.4,M,,*53
$GPRMC,172109.000,A,4308.2833,N,07726.2649,W,0.16,226.87,290823,,,A*74
$GPGGA,172109.250,4308.2836,N,07726.2648,W,1,04,3.05,131.3,M,-34.4,M,,*55
$GPRMC,172109.500,A,4308.2836,N,07726.2648,W,0.02,223.57,290823,,,A*78
$GPGGA,172109.750,4308.2840,N,07726.2648,W,1,04,3.04,131.9,M,-34.4,M,,*5A
$GPRMC,172110.000,A,4308.2842,N,07726.2649,W,0.08,355.75,290823,,,A*7D
$GPGGA,172110.250,4308.2846,N,07726.2650,W,1,04,8.12,132.8,M,-34.4,M,,*56
$GPRMC,172110.500,A,4308.2849,N,07726.2651,W,0.18,342.22,290823,,,A*7F
$GPGGA,172110.750,4308.2852,N,07726.2652,W,1,04,3.04,134.1,M,-34.4,M,,*57
$GPRMC,172111.000,A,4308.2855,N,07726.2653,W,0.21,343.58,290823,,,A*72
$GPGGA,172111.250,4308.2859,N,07726.2654,W,1,04,3.05,135.3,M,-34.4,M,,*5C
$GPRMC,172111.500,A,4308.2861,N,07726.2654,W,0.25,9.47,290823,,,A*70
$GPGGA,172111.750,4308.2862,N,07726.2654,W,1,04,8.14,136.1,M,-34.4,M,,*5B
$GPRMC,172112.000,A,4308.2863,N,07726.2654,W,0.21,355.73,290823,,,A*7D
$GPGGA,172112.250,4308.2864,N,07726.2654,W,1,04,8.14,136.5,M,-34.4,M,,*5F
$GPRMC,172112.500,A,4308.2865,N,07726.2654,W,0.21,0.47,290823,,,A*7A
$GPGGA,172112.750,4308.2866,N,07726.2654,W,1,04,8.14,136.9,M,-34.4,M,,*54
$GPRMC,172113.000,A,4308.2868,N,07726.2654,W,0.21,355.72,290823,,,A*76
$GPGGA,172113.250,4308.2869,N,07726.2654,W,1,04,8.15,137.3,M,-34.4,M,,*55
$GPRMC,172113.500,A,4308.2870,N,07726.2654,W,0.27,341.07,290823,,,A*7B
$GPGGA,172113.750,4308.2871,N,07726.2654,W,1,04,3.05,137.6,M,-34.4,M,,*56
$GPRMC,172114.000,A,4308.2872,N,07726.2654,W,0.26,353.03,290823,,,A*7D
$GPGGA,172114.250,4308.2872,N,07726.2653,W,1,04,8.15,137.9,M,-34.4,M,,*55
$GPRMC,172114.500,A,4308.2873,N,07726.2653,W,0.23,5.23,290823,,,A*79
$GPGGA,172114.750,4308.2873,N,07726.2653,W,1,04,8.16,138.1,M,-34.4,M,,*55
$GPRMC,172115.000,A,4308.2873,N,07726.2653,W,0.21,345.55,290823,,,A*79
$GPGGA,172115.250,4308.2872,N,07726.2652,W,1,04,8.17,138.0,M,-34.4,M,,*51
$GPRMC,172115.500,A,4308.2872,N,07726.2652,W,0.19,336.41,290823,,,A*76
$GPGGA,172115.750,4308.2873,N,07726.2652,W,1,04,3.05,138.0,M,-34.4,M,,*5D
$GPRMC,172116.000,A,4308.2873,N,07726.2652,W,0.17,347.03,290823,,,A*7F
$GPGGA,172116.250,4308.2872,N,07726.2651,W,1,04,8.18,138.0,M,-34.4,M,,*5E
$GPRMC,172116.500,A,4308.2872,N,07726.2651,W,0.17,350.15,290823,,,A*79
$GPGGA,172116.750,4308.2872,N,07726.2651,W,1,04,8.18,137.8,M,-34.4,M,,*5C
$GPRMC,172117.000,A,4308.2872,N,07726.2650,W,0.18,349.56,290823,,,A*7C
$GPGGA,172117.250,4308.2871,N,07726.2650,W,1,04,8.19,137.6,M,-34.4,M,,*55
$GPRMC,172117.500,A,4308.2871,N,07726.2649,W,0.19,349.47,290823,,,A*73
$GPGGA,172117.750,4308.2871,N,07726.2649,W,1,04,8.19,137.5,M,-34.4,M,,*5B
$GPRMC,172118.000,A,4308.2870,N,07726.2648,W,0.17,8.31,290823,,,A*70
$GPGGA,172118.250,4308.2869,N,07726.2647,W,1,04,8.19,137.3,M,-34.4,M,,*50
$GPRMC,172118.500,A,4308.2869,N,07726.2646,W,0.17,6.85,290823,,,A*72
$GPGGA,172118.750,4308.2868,N,07726.2645,W,1,04,8.20,137.0,M,-34.4,M,,*5F
$GPRMC,172119.000,A,4308.2868,N,07726.2645,W,0.19,352.67,290823,,,A*74
$GPGGA,172119.250,4308.2868,N,07726.2644,W,1,04,8.20,137.0,M,-34.4,M,,*5A
$GPRMC,172119.500,A,4308.2868,N,07726.2643,W,0.19,37.85,290823,,,A*4B
$GPGGA,172119.750,4308.2868,N,07726.2643,W,1,04,3.05,136.8,M,-34.4,M,,*5D
$GPRMC,172120.000,A,4308.2868,N,07726.2643,W,0.25,35.62,290823,,,A*40
$GPGGA,172120.250,4308.2868,N,07726.2642,W,1,04,3.05,136.7,M,-34.4,M,,*5C
$GPRMC,172120.500,A,4308.2867,N,07726.2642,W,0.24,24.98,290823,,,A*4F
$GPGGA,172120.750,4308.2867,N,07726.2641,W,1,04,3.05,136.4,M,-34.4,M,,*56
$GPRMC,172121.000,A,4308.2866,N,07726.2641,W,0.22,24.64,290823,,,A*4C
$GPGGA,172121.250,4308.2866,N,07726.2640,W,1,04,3.05,136.2,M,-34.4,M,,*54
$GPRMC,172121.500,A,4308.2866,N,07726.2640,W,0.26,18.61,290823,,,A*46
$GPGGA,172121.750,4308.2867,N,07726.2639,W,1,04,3.05,136.2,M,-34.4,M,,*5E
$GPRMC,172122.000,A,4308.2867,N,07726.2639,W,0.28,8.89,290823,,,A*76
$GPGGA,172122.250,4308.2868,N,07726.2640,W,1,04,8.23,136.3,M,-34.4,M,,*57
$GPRMC,172122.500,A,4308.2869,N,07726.2640,W,0.31,359.92,290823,,,A*76
$GPGGA,172122.750,4308.2870,N,07726.2639,W,1,04,8.24,136.5,M,-34.4,M,,*54
$GPRMC,172123.000,A,4308.2871,N,07726.2639,W,0.35,0.92,290823,,,A*7E
$GPGGA,172123.250,4308.2872,N,07726.2639,W,1,04,8.24,136.7,M,-34.4,M,,*50
$GPRMC,172123.500,A,4308.2872,N,07726.2638,W,0.31,23.88,290823,,,A*47
$GPGGA,172123.750,4308.2873,N,07726.2638,W,1,04,3.05,137.0,M,-34.4,M,,*5B
$GPRMC,172124.000,A,4308.2873,N,07726.2637,W,0.33,21.17,290823,,,A*4D
$GPGGA,172124.250,4308.2874,N,07726.2636,W,1,05,2.24,137.0,M,-34.4,M,,*53
$GPRMC,172124.500,A,4308.2876,N,07726.2634,W,0.30,15.20,290823,,,A*4E
$GPGGA,172124.750,4308.2879,N,07726.2633,W,1,05,2.24,137.2,M,-34.4,M,,*5C
$GPRMC,172125.000,A,4308.2881,N,07726.2632,W,0.32,16.83,290823,,,A*4C
$GPGGA,172125.250,4308.2883,N,07726.2631,W,1,05,2.24,137.5,M,-34.4,M,,*58
$GPRMC,172125.500,A,4308.2886,N,07726.2630,W,0.35,17.93,290823,,,A*4B
$GPGGA,172125.750,4308.2881,N,07726.2631,W,1,05,2.24,137.9,M,-34.4,M,,*53
$GPRMC,172126.000,A,4308.2885,N,07726.2630,W,0.09,26.43,290823,,,A*4E
$GPGGA,172126.250,4308.2886,N,07726.2630,W,1,05,2.24,138.2,M,-34.4,M,,*57
$GPRMC,172126.500,A,4308.2887,N,07726.2629,W,0.08,320.50,290823,,,A*77
$GPGGA,172126.750,4308.2888,N,07726.2628,W,1,05,2.24,138.6,M,-34.4,M,,*51
$GPRMC,172127.000,A,4308.2890,N,07726.2628,W,0.03,44.07,290823,,,A*4C
$GPGGA,172127.250,4308.2892,N,07726.2627,W,1,05,2.24,139.0,M,-34.4,M,,*56
$GPRMC,172127.500,A,4308.2893,N,07726.2627,W,0.04,183.22,290823,,,A*7F
$GPGGA,172127.750,4308.2896,N,07726.2627,W,1,05,2.24,139.6,M,-34.4,M,,*51
$GPRMC,172128.000,A,4308.2897,N,07726.2627,W,0.06,182.19,290823,,,A*7A
$GPGGA,172128.250,4308.2899,N,07726.2627,W,1,05,2.24,140.2,M,-34.4,M,,*5E
$GPRMC,172128.500,A,4308.2901,N,07726.2627,W,0.04,353.49,290823,,,A*78
$GPGGA,172128.750,4308.2903,N,07726.2627,W,1,05,8.01,140.8,M,-34.4,M,,*5E
$GPRMC,172129.000,A,4308.2905,N,07726.2627,W,0.04,166.92,290823,,,A*7A
$GPGGA,172129.250,4308.2906,N,07726.2627,W,1,05,2.24,141.3,M,-34.4,M,,*58
$GPRMC,172129.500,A,4308.2907,N,07726.2627,W,0.03,131.81,290823,,,A*7A
$GPGGA,172129.750,4308.2908,N,07726.2627,W,1,05,2.24,141.8,M,-34.4,M,,*58
$GPRMC,172130.000,A,4308.2910,N,07726.2627,W,0.05,128.34,290823,,,A*71
$GPGGA,172130.250,4308.2911,N,07726.2626,W,1,05,2.24,142.3,M,-34.4,M,,*54
$GPRMC,172130.500,A,4308.2912,N,07726.2626,W,0.03,278.34,290823,,,A*77
$GPGGA,172130.750,4308.2913,N,07726.2626,W,1,05,2.24,142.8,M,-34.4,M,,*58
$GPRMC,172131.000,A,4308.2915,N,07726.2627,W,0.02,33.29,290823,,,A*45
$GPGGA,172131.250,4308.2916,N,07726.2627,W,1,05,2.24,143.3,M,-34.4,M,,*52
$GPRMC,172131.500,A,4308.2918,N,07726.2627,W,0.03,130.21,290823,,,A*76
$GPGGA,172131.750,4308.2919,N,07726.2627,W,1,05,2.24,143.7,M,-34.4,M,,*5C
$GPRMC,172132.000,A,4308.2920,N,07726.2627,W,0.02,138.25,290823,,,A*76
$GPGGA,172132.250,4308.2921,N,07726.2627,W,1,05,2.24,144.1,M,-34.4,M,,*50
$GPRMC,172132.500,A,4308.2922,N,07726.2627,W,0.01,52.48,290823,,,A*44
$GPGGA,172132.750,4308.2922,N,07726.2627,W,1,05,2.24,144.5,M,-34.4,M,,*52
$GPRMC,172133.000,A,4308.2923,N,07726.2627,W,0.02,75.79,290823,,,A*45
$GPGGA,172133.250,4308.2924,N,07726.2627,W,1,05,2.24,144.8,M,-34.4,M,,*5D
$GPRMC,172133.500,A,4308.2924,N,07726.2627,W,0.03,24.39,290823,,,A*46
$GPGGA,172133.750,4308.2925,N,07726.2627,W,1,05,2.24,145.1,M,-34.4,M,,*51
$GPRMC,172134.000,A,4308.2926,N,07726.2627,W,0.01,22.12,290823,,,A*4B
$GPGGA,172134.250,4308.2926,N,07726.2628,W,1,05,2.24,145.5,M,-34.4,M,,*5B
$GPRMC,172134.500,A,4308.2927,N,07726.2628,W,0.02,119.04,290823,,,A*7D
$GPGGA,172134.750,4308.2928,N,07726.2628,W,1,05,2.24,145.9,M,-34.4,M,,*5C
$GPRMC,172135.000,A,4308.2928,N,07726.2628,W,0.03,342.55,290823,,,A*7F
$GPGGA,172135.250,4308.2928,N,07726.2628,W,1,05,2.24,145.9,M,-34.4,M,,*58
$GPRMC,172135.500,A,4308.2928,N,07726.2628,W,0.01,10.12,290823,,,A*4F
$GPGGA,172135.750,4308.2928,N,07726.2628,W,1,05,8.07,145.9,M,-34.4,M,,*56
$GPRMC,172136.000,A,4308.2928,N,07726.2628,W,0.02,189.62,290823,,,A*7C
$GPGGA,172136.250,4308.2928,N,07726.2628,W,1,05,2.24,145.9,M,-34.4,M,,*5B
$GPRMC,172136.500,A,4308.2928,N,07726.2628,W,0.05,8.11,290823,,,A*72
$GPGGA,172136.750,4308.2928,N,07726.2628,W,1,05,8.09,145.9,M,-34.4,M,,*5B
$GPRMC,172137.000,A,4308.2928,N,07726.2628,W,0.03,96.73,290823,,,A*43
$GPGGA,172137.250,4308.2928,N,07726.2628,W,1,05,2.24,145.9,M,-34.4,M,,*5A
$GPRMC,172137.500,A,4308.2928,N,07726.2628,W,0.03,164.43,290823,,,A*79
$GPGGA,172137.750,4308.2928,N,07726.2628,W,1,05,2.24,145.9,M,-34.4,M,,*5F
$GPRMC,172138.000,A,4308.2928,N,07726.2628,W,0.02,44.59,290823,,,A*4A
$GPGGA,172138.250,4308.2928,N,07726.2628,W,1,05,2.24,145.9,M,-34.4,M,,*55
$GPRMC,172138.500,A,4308.2928,N,07726.2628,W,0.02,293.74,290823,,,A*78
$GPGGA,172138.750,4308.2928,N,07726.2628,W,1,05,2.24,145.9,M,-34.4,M,,*50
$GPRMC,172139.000,A,4308.2928,N,07726.2628,W,0.01,123.83,290823,,,A*7F
$GPGGA,172139.250,4308.2928,N,07726.2628,W,1,05,2.24,145.9,M,-34.4,M,,*54
$GPRMC,172139.500,A,4308.2928,N,07726.2628,W,0.01,191.96,290823,,,A*77
$GPGGA,172139.750,4308.2928,N,07726.2628,W,1,05,2.24,145.9,M,-34.4,M,,*51
$GPRMC,172140.000,A,4308.2928,N,07726.2628,W,0.03,261.17,290823,,,A*7B
$GPGGA,172140.250,4308.2928,N,07726.2628,W,1,05,2.24,145.9,M,-34.4,M,,*5A
$GPRMC,172140.500,A,4308.2928,N,07726.2628,W,0.01,122.14,290823,,,A*7B
$GPGGA,172140.750,4308.2928,N,07726.2628,W,1,05,2.24,145.9,M,-34.4,M,,*5F
$GPRMC,172141.000,A,4308.2928,N,07726.2628,W,0.04,181.21,290823,,,A*75
$GPGGA,172141.250,4308.2928,N,07726.2628,W,1,05,2.24,145.9,M,-34.4,M,,*5B
$GPRMC,172141.500,A,4308.2928,N,07726.2628,W,0.05,199.17,290823,,,A*7D
$GPGGA,172141.750,4308.2928,N,07726.2628,W,1,05,2.24,145.9,M,-34.4,M,,*5E
$GPRMC,172142.000,A,4308.2928,N,07726.2628,W,0.03,6.47,290823,,,A*7F
$GPGGA,172142.250,4308.2928,N,07726.2628,W,1,05,8.13,145.9,M,-34.4,M,,*56
$GPRMC,172142.500,A,4308.2928,N,07726.2628,W,0.05,169.59,290823,,,A*7B
$GPGGA,172142.750,4308.2928,N,07726.2628,W,1,05,2.24,145.9,M,-34.4,M,,*5D
$GPRMC,172143.000,A,4308.2928,N,07726.2628,W,0.04,39.02,290823,,,A*44
$GPGGA,172143.250,4308.2928,N,07726.2628,W,1,05,2.24,145.9,M,-34.4,M,,*59
$GPRMC,172143.500,A,4308.2928,N,07726.2628,W,0.02,27.97,290823,,,A*44
$GPGGA,172143.750,4308.2928,N,07726.2628,W,1,05,2.24,145.9,M,-34.4,M,,*5C
$GPRMC,172144.000,A,4308.2928,N,07726.2628,W,0.02,53.33,290823,,,A*4B
$GPGGA,172144.250,4308.2928,N,07726.2628,W,1,05,2.24,145.9,M,-34.4,M,,*5E
$GPRMC,172144.500,A,4308.2928,N,07726.2628,W,0.06,62.06,290823,,,A*4E
$GPGGA,172144.750,4308.2928,N,07726.2628,W,1,05,2.24,145.9,M,-34.4,M,,*5B
$GPRMC,172145.000,A,4308.2928,N,07726.2628,W,0.06,72.07,290823,,,A*4A
$GPGGA,172145.250,4308.2928,N,07726.2627,W,1,05,2.24,145.9,M,-34.4,M,,*50
$GPRMC,172145.500,A,4308.2928,N,07726.2627,W,0.08,31.57,290823,,,A*4C
$GPGGA,172145.750,4308.2928,N,07726.2627,W,1,05,2.24,145.9,M,-34.4,M,,*55
$GPRMC,172146.000,A,4308.2928,N,07726.2627,W,0.06,38.03,290823,,,A*4C
$GPGGA,172146.250,4308.2928,N,07726.2627,W,1,05,2.24,145.9,M,-34.4,M,,*53
$GPRMC,172146.500,A,4308.2928,N,07726.2627,W,0.08,72.14,290823,,,A*4F
$GPGGA,172146.750,4308.2928,N,07726.2627,W,1,05,2.24,145.9,M,-34.4,M,,*56
$GPRMC,172147.000,A,4308.2928,N,07726.2627,W,0.08,33.30,290823,,,A*48
$GPGGA,172147.250,4308.2928,N,07726.2627,W,1,05,2.24,145.9,M,-34.4,M,,*52
$GPRMC,172147.500,A,4308.2929,N,07726.2627,W,0.09,1.20,290823,,,A*7D
$GPGGA,172147.750,4308.2929,N,07726.2627,W,1,05,8.19,145.9,M,-34.4,M,,*52
$GPRMC,172148.000,A,4308.2929,N,07726.2627,W,0.13,29.96,290823,,,A*4B
$GPGGA,172148.250,4308.2929,N,07726.2627,W,1,06,1.28,145.9,M,-34.4,M,,*50
$GPRMC,172148.500,A,4308.2930,N,07726.2628,W,0.17,338.11,290823,,,A*71
$GPGGA,172148.750,4308.2932,N,07726.2628,W,1,06,1.28,146.3,M,-34.4,M,,*59
$GPRMC,172149.000,A,4308.2933,N,07726.2629,W,0.19,317.66,290823,,,A*74
$GPGGA,172149.250,4308.2934,N,07726.2629,W,1,06,1.28,146.6,M,-34.4,M,,*5F
$GPRMC,172149.500,A,4308.2934,N,07726.2629,W,0.09,308.66,290823,,,A*79
$GPGGA,172149.750,4308.2934,N,07726.2629,W,1,06,1.28,146.7,M,-34.4,M,,*5B
$GPRMC,172150.000,A,4308.2934,N,07726.2629,W,0.08,7.73,290823,,,A*7D
$GPGGA,172150.250,4308.2934,N,07726.2629,W,1,06,1.35,146.7,M,-34.4,M,,*5A
$GPRMC,172150.500,A,4308.2934,N,07726.2629,W,0.15,353.67,290823,,,A*73
$GPGGA,172150.750,4308.2934,N,07726.2629,W,1,06,1.35,146.7,M,-34.4,M,,*5F
$GPRMC,172151.000,A,4308.2934,N,07726.2629,W,0.11,352.05,290823,,,A*76
$GPGGA,172151.250,4308.2935,N,07726.2629,W,1,06,1.35,146.7,M,-34.4,M,,*5A
$GPRMC,172151.500,A,4308.2935,N,07726.2629,W,0.04,337.73,290823,,,A*74
$GPGGA,172151.750,4308.2935,N,07726.2629,W,1,06,1.28,146.7,M,-34.4,M,,*53
$GPRMC,172152.000,A,4308.2935,N,07726.2630,W,0.03,303.81,290823,,,A*77
$GPGGA,172152.250,4308.2935,N,07726.2630,W,1,06,1.28,146.7,M,-34.4,M,,*5D
$GPRMC,172152.500,A,4308.2935,N,07726.2630,W,0.04,344.91,290823,,,A*77
$GPGGA,172152.750,4308.2935,N,07726.2630,W,1,06,1.28,146.7,M,-34.4,M,,*58
$GPRMC,172153.000,A,4308.2935,N,07726.2630,W,0.06,11.10,290823,,,A*4B
$GPGGA,172153.250,4308.2935,N,07726.2630,W,1,06,1.35,146.8,M,-34.4,M,,*5F
$GPRMC,172153.500,A,4308.2935,N,07726.2630,W,0.07,80.67,290823,,,A*47
$GPGGA,172153.750,4308.2935,N,07726.2630,W,1,06,1.28,146.8,M,-34.4,M,,*56
$GPRMC,172154.000,A,4308.2935,N,07726.2629,W,0.07,26.28,290823,,,A*4A
$GPGGA,172154.250,4308.2935,N,07726.2629,W,1,07,1.07,146.8,M,-34.4,M,,*50
$GPRMC,172154.500,A,4308.2936,N,07726.2629,W,0.46,11.62,290823,,,A*43
$GPGGA,172154.750,4308.2936,N,07726.2629,W,1,07,1.08,146.8,M,-34.4,M,,*59
$GPRMC,172155.000,A,4308.2937,N,07726.2629,W,0.74,6.82,290823,,,A*7F
$GPGGA,172155.250,4308.2947,N,07726.2631,W,1,07,1.08,148.3,M,-34.4,M,,*57
$GPRMC,172155.500,A,4308.2956,N,07726.2632,W,0.98,356.80,290823,,,A*71
$GPGGA,172155.750,4308.2959,N,07726.2633,W,1,07,1.08,149.8,M,-34.4,M,,*55
$GPRMC,172156.000,A,4308.2966,N,07726.2634,W,1.45,2.51,290823,,,A*7D
$GPGGA,172156.250,4308.2973,N,07726.2635,W,1,07,1.08,151.4,M,-34.4,M,,*58
$GPRMC,172156.500,A,4308.2979,N,07726.2635,W,1.98,0.77,290823,,,A*71
$GPGGA,172156.750,4308.2985,N,07726.2636,W,1,07,1.08,152.4,M,-34.4,M,,*54
$GPRMC,172157.000,A,4308.2990,N,07726.2637,W,2.48,0.51,290823,,,A*7A
$GPGGA,172157.250,4308.2994,N,07726.2637,W,1,07,1.08,153.0,M,-34.4,M,,*54
$GPRMC,172157.500,A,4308.2999,N,07726.2638,W,2.77,1.28,290823,,,A*7A
$GPGGA,172157.750,4308.3002,N,07726.2638,W,1,07,1.08,153.3,M,-34.4,M,,*5A
$GPRMC,172158.000,A,4308.3006,N,07726.2638,W,2.66,358.21,290823,,,A*78
$GPGGA,172158.250,4308.3008,N,07726.2638,W,1,07,1.08,153.6,M,-34.4,M,,*5F
$GPRMC,172158.500,A,4308.3011,N,07726.2638,W,1.96,357.71,290823,,,A*7D
$GPGGA,172158.750,4308.3013,N,07726.2638,W,1,07,1.08,153.8,M,-34.4,M,,*5E
$GPRMC,172159.000,A,4308.3016,N,07726.2638,W,1.27,0.33,290823,,,A*73
$GPGGA,172159.250,4308.3017,N,07726.2639,W,1,07,1.08,154.0,M,-34.4,M,,*50
$GPRMC,172159.500,A,4308.3019,N,07726.2638,W,0.97,356.38,290823,,,A*78
$GPGGA,172159.750,4308.3020,N,07726.2638,W,1,07,1.08,154.1,M,-34.4,M,,*51
$GPRMC,172200.000,A,4308.3023,N,07726.2638,W,1.39,352.50,290823,,,A*74
$GPGGA,172200.250,4308.3025,N,07726.2638,W,1,07,1.08,154.1,M,-34.4,M,,*5E
$GPRMC,172200.500,A,4308.3028,N,07726.2639,W,2.92,353.13,290823,,,A*7F
$GPGGA,172200.750,4308.3030,N,07726.2639,W,1,07,1.08,153.9,M,-34.4,M,,*51
$GPRMC,172201.000,A,4308.3033,N,07726.2640,W,3.31,348.94,290823,,,A*72
$GPGGA,172201.250,4308.3036,N,07726.2640,W,1,07,1.08,153.8,M,-34.4,M,,*5C
$GPRMC,172201.500,A,4308.3038,N,07726.2641,W,3.51,349.25,290823,,,A*70
$GPGGA,172201.750,4308.3041,N,07726.2641,W,1,07,1.08,153.7,M,-34.4,M,,*57
$GPRMC,172202.000,A,4308.3044,N,07726.2642,W,3.90,352.33,290823,,,A*7E
$GPGGA,172202.250,4308.3048,N,07726.2642,W,1,07,1.08,153.6,M,-34.4,M,,*5A
$GPRMC,172202.500,A,4308.3053,N,07726.2641,W,4.53,359.56,290823,,,A*7E
$GPGGA,172202.750,4308.3057,N,07726.2641,W,1,07,1.08,153.5,M,-34.4,M,,*51
$GPRMC,172203.000,A,4308.3061,N,07726.2641,W,4.89,2.86,290823,,,A*7C
$GPGGA,172203.250,4308.3065,N,07726.2641,W,1,07,1.08,153.3,M,-34.4,M,,*52
$GPRMC,172203.500,A,4308.3069,N,07726.2640,W,4.93,7.72,290823,,,A*75
$GPGGA,172203.750,4308.3073,N,07726.2640,W,1,07,1.08,153.1,M,-34.4,M,,*53
$GPRMC,172204.000,A,4308.3076,N,07726.2639,W,4.36,14.38,290823,,,A*44
$GPGGA,172204.250,4308.3079,N,07726.2639,W,1,07,1.08,152.9,M,-34.4,M,,*5C
$GPRMC,172204.500,A,4308.3083,N,07726.2638,W,4.25,15.08,290823,,,A*4A
$GPGGA,172204.750,4308.3086,N,07726.2637,W,1,07,1.08,152.7,M,-34.4,M,,*59
$GPRMC,172205.000,A,4308.3089,N,07726.2636,W,4.12,16.86,290823,,,A*4B
$GPGGA,172205.250,4308.3092,N,07726.2635,W,1,07,1.08,152.5,M,-34.4,M,,*58
$GPRMC,172205.500,A,4308.3093,N,07726.2634,W,3.53,16.11,290823,,,A*4B
$GPGGA,172205.750,4308.3096,N,07726.2633,W,1,07,1.07,152.4,M,-34.4,M,,*51
$GPRMC,172206.000,A,4308.3098,N,07726.2632,W,3.53,16.79,290823,,,A*4E
$GPGGA,172206.250,4308.3100,N,07726.2631,W,1,07,1.07,152.4,M,-34.4,M,,*5B
$GPRMC,172206.500,A,4308.3102,N,07726.2630,W,2.97,20.26,290823,,,A*4D
$GPGGA,172206.750,4308.3104,N,07726.2629,W,1,07,1.07,152.3,M,-34.4,M,,*54
$GPRMC,172207.000,A,4308.3106,N,07726.2627,W,3.18,29.33,290823,,,A*40
$GPGGA,172207.250,4308.3107,N,07726.2626,W,1,07,1.07,152.2,M,-34.4,M,,*5D
$GPRMC,172207.500,A,4308.3109,N,07726.2624,W,3.10,38.26,290823,,,A*45
$GPGGA,172207.750,4308.3111,N,07726.2622,W,1,07,1.07,152.2,M,-34.4,M,,*5B
$GPRMC,172208.000,A,4308.3114,N,07726.2619,W,3.47,40.78,290823,,,A*4B
$GPGGA,172208.250,4308.3116,N,07726.2616,W,1,07,1.07,152.1,M,-34.4,M,,*52
$GPRMC,172208.500,A,4308.3118,N,07726.2613,W,3.89,51.88,290823,,,A*45
$GPGGA,172208.750,4308.3120,N,07726.2610,W,1,07,1.07,152.1,M,-34.4,M,,*54
$GPRMC,172209.000,A,4308.3122,N,07726.2606,W,3.67,53.93,290823,,,A*44
$GPGGA,172209.250,4308.3124,N,07726.2603,W,1,07,1.07,152.2,M,-34.4,M,,*55
$GPRMC,172209.500,A,4308.3125,N,07726.2600,W,2.88,71.07,290823,,,A*4D
$GPGGA,172209.750,4308.3126,N,07726.2598,W,1,07,1.07,152.3,M,-34.4,M,,*52
$GPRMC,172210.000,A,4308.3127,N,07726.2596,W,1.73,74.27,290823,,,A*4E
$GPGGA,172210.250,4308.3129,N,07726.2595,W,1,06,1.16,152.4,M,-34.4,M,,*5B
$GPRMC,172210.500,A,4308.3130,N,07726.2596,W,0.79,353.53,290823,,,A*73
$GPGGA,172210.750,4308.3131,N,07726.2596,W,1,07,1.08,152.4,M,-34.4,M,,*5A
$GPRMC,172211.000,A,4308.3132,N,07726.2598,W,1.05,300.76,290823,,,A*70
$GPGGA,172211.250,4308.3133,N,07726.2600,W,1,07,1.07,152.3,M,-34.4,M,,*58
$GPRMC,172211.500,A,4308.3134,N,07726.2603,W,1.86,282.98,290823,,,A*72
$GPGGA,172211.750,4308.3135,N,07726.2606,W,1,07,1.07,152.2,M,-34.4,M,,*5C
$GPRMC,172212.000,A,4308.3135,N,07726.2611,W,5.58,267.37,290823,,,A*7F
$GPGGA,172212.250,4308.3136,N,07726.2617,W,1,07,1.08,152.0,M,-34.4,M,,*54
$GPRMC,172212.500,A,4308.3137,N,07726.2623,W,7.31,269.56,290823,,,A*7D
$GPGGA,172212.750,4308.3138,N,07726.2630,W,1,07,1.07,151.9,M,-34.4,M,,*5F
$GPRMC,172213.000,A,4308.3138,N,07726.2637,W,8.59,270.47,290823,,,A*7A
$GPGGA,172213.250,4308.3139,N,07726.2646,W,1,06,3.11,151.8,M,-34.4,M,,*5E
$GPRMC,172213.500,A,4308.3139,N,07726.2655,W,9.96,272.76,290823,,,A*78
$GPGGA,172213.750,4308.3140,N,07726.2664,W,1,06,2.10,151.7,M,-34.4,M,,*5A
$GPRMC,172214.000,A,4308.3143,N,07726.2672,W,10.17,275.02,290823,,,A*47
$GPGGA,172214.250,4308.3146,N,07726.2681,W,1,06,2.10,151.6,M,-34.4,M,,*54
$GPRMC,172214.500,A,4308.3150,N,07726.2691,W,11.13,280.71,290823,,,A*46
$GPGGA,172214.750,4308.3153,N,07726.2701,W,1,07,1.07,151.5,M,-34.4,M,,*5B
$GPRMC,172215.000,A,4308.3156,N,07726.2712,W,12.42,281.79,290823,,,A*40
$GPGGA,172215.250,4308.3159,N,07726.2724,W,1,07,1.08,151.4,M,-34.4,M,,*5C
$GPRMC,172215.500,A,4308.3162,N,07726.2737,W,13.78,281.48,290823,,,A*4F
$GPGGA,172215.750,4308.3165,N,07726.2750,W,1,07,1.07,151.3,M,-34.4,M,,*5D
$GPRMC,172216.000,A,4308.3168,N,07726.2764,W,14.81,281.67,290823,,,A*49
$GPGGA,172216.250,4308.3172,N,07726.2779,W,1,07,1.08,151.3,M,-34.4,M,,*59
$GPRMC,172216.500,A,4308.3175,N,07726.2794,W,15.62,281.86,290823,,,A*4C
$GPGGA,172216.750,4308.3179,N,07726.2809,W,1,07,1.07,151.4,M,-34.4,M,,*57
$GPRMC,172217.000,A,4308.3184,N,07726.2824,W,16.70,285.96,290823,,,A*47
$GPGGA,172217.250,4308.3188,N,07726.2840,W,1,07,1.08,151.6,M,-34.4,M,,*5D
$GPRMC,172217.500,A,4308.3193,N,07726.2857,W,17.95,288.91,290823,,,A*40
$GPGGA,172217.750,4308.3198,N,07726.2873,W,1,07,1.07,151.8,M,-34.4,M,,*58
$GPRMC,172218.000,A,4308.3203,N,07726.2890,W,18.92,292.72,290823,,,A*45
$GPGGA,172218.250,4308.3210,N,07726.2908,W,1,07,1.08,151.9,M,-34.4,M,,*52
$GPRMC,172218.500,A,4308.3217,N,07726.2926,W,20.05,295.96,290823,,,A*41
$GPGGA,172218.750,4308.3224,N,07726.2943,W,1,07,1.07,151.9,M,-34.4,M,,*50
$GPRMC,172219.000,A,4308.3231,N,07726.2962,W,21.06,298.18,290823,,,A*48
$GPGGA,172219.250,4308.3239,N,07726.2981,W,1,07,1.08,151.9,M,-34.4,M,,*59
$GPRMC,172219.500,A,4308.3248,N,07726.2999,W,22.16,300.78,290823,,,A*43
$GPGGA,172219.750,4308.3257,N,07726.3019,W,1,07,1.07,151.9,M,-34.4,M,,*52
$GPRMC,172220.000,A,4308.3267,N,07726.3038,W,23.11,301.51,290823,,,A*4E
$GPGGA,172220.250,4308.3276,N,07726.3058,W,1,07,1.08,152.0,M,-34.4,M,,*5E
$GPRMC,172220.500,A,4308.3286,N,07726.3078,W,23.82,302.34,290823,,,A*4A
$GPGGA,172220.750,4308.3295,N,07726.3098,W,1,07,1.08,152.1,M,-34.4,M,,*5B
$GPRMC,172221.000,A,4308.3305,N,07726.3118,W,24.06,302.21,290823,,,A*4C
$GPGGA,172221.250,4308.3314,N,07726.3138,W,1,07,1.08,152.2,M,-34.4,M,,*5F
$GPRMC,172221.500,A,4308.3324,N,07726.3158,W,24.68,302.01,290823,,,A*44
$GPGGA,172221.750,4308.3334,N,07726.3179,W,1,07,1.07,152.2,M,-34.4,M,,*52
$GPRMC,172222.000,A,4308.3344,N,07726.3200,W,25.40,302.25,290823,,,A*47
$GPGGA,172222.250,4308.3354,N,07726.3221,W,1,07,1.08,152.2,M,-34.4,M,,*53
$GPRMC,172222.500,A,4308.3364,N,07726.3242,W,26.05,302.57,290823,,,A*41
$GPGGA,172222.750,4308.3374,N,07726.3263,W,1,07,1.07,152.3,M,-34.4,M,,*5C
$GPRMC,172223.000,A,4308.3384,N,07726.3284,W,26.24,302.98,290823,,,A*41
$GPGGA,172223.250,4308.3395,N,07726.3305,W,1,07,1.08,152.3,M,-34.4,M,,*59
$GPRMC,172223.500,A,4308.3405,N,07726.3326,W,26.12,303.72,290823,,,A*43
$GPGGA,172223.750,4308.3415,N,07726.3346,W,1,07,1.07,152.4,M,-34.4,M,,*5C
$GPRMC,172224.000,A,4308.3425,N,07726.3366,W,25.50,304.30,290823,,,A*43
$GPGGA,172224.250,4308.3435,N,07726.3385,W,1,07,1.08,152.6,M,-34.4,M,,*5E
$GPRMC,172224.500,A,4308.3445,N,07726.3404,W,24.63,306.00,290823,,,A*43
$GPGGA,172224.750,4308.3455,N,07726.3423,W,1,07,1.07,152.7,M,-34.4,M,,*58
$GPRMC,172225.000,A,4308.3465,N,07726.3442,W,24.22,306.78,290823,,,A*4D
$GPGGA,172225.250,4308.3476,N,07726.3460,W,1,07,1.08,152.9,M,-34.4,M,,*5B
$GPRMC,172225.500,A,4308.3486,N,07726.3477,W,24.25,309.19,290823,,,A*4C
$GPGGA,172225.750,4308.3497,N,07726.3495,W,1,07,1.07,153.1,M,-34.4,M,,*5D
$GPRMC,172226.000,A,4308.3508,N,07726.3512,W,24.31,311.93,290823,,,A*41
$GPGGA,172226.250,4308.3520,N,07726.3530,W,1,07,1.08,153.3,M,-34.4,M,,*55
$GPRMC,172226.500,A,4308.3532,N,07726.3547,W,24.55,314.12,290823,,,A*43
$GPGGA,172226.750,4308.3544,N,07726.3564,W,1,07,1.07,153.4,M,-34.4,M,,*5B
$GPRMC,172227.000,A,4308.3556,N,07726.3581,W,24.49,314.74,290823,,,A*42
$GPGGA,172227.250,4308.3568,N,07726.3597,W,1,07,1.07,153.6,M,-34.4,M,,*5F
$GPRMC,172227.500,A,4308.3581,N,07726.3613,W,24.44,317.39,290823,,,A*42
$GPGGA,172227.750,4308.3594,N,07726.3629,W,1,07,1.07,153.7,M,-34.4,M,,*5E
$GPRMC,172228.000,A,4308.3607,N,07726.3643,W,24.21,320.80,290823,,,A*45
$GPGGA,172228.250,4308.3621,N,07726.3657,W,1,07,1.07,153.9,M,-34.4,M,,*5E
$GPRMC,172228.500,A,4308.3635,N,07726.3670,W,24.14,325.24,290823,,,A*4C
$GPGGA,172228.750,4308.3649,N,07726.3682,W,1,07,1.07,154.0,M,-34.4,M,,*53
$GPRMC,172229.000,A,4308.3664,N,07726.3694,W,24.04,328.68,290823,,,A*42
$GPGGA,172229.250,4308.3678,N,07726.3705,W,1,07,1.07,154.3,M,-34.4,M,,*58
$GPRMC,172229.500,A,4308.3694,N,07726.3715,W,24.11,331.66,290823,,,A*42
$GPGGA,172229.750,4308.3710,N,07726.3726,W,1,07,1.07,154.5,M,-34.4,M,,*55
$GPRMC,172230.000,A,4308.3726,N,07726.3735,W,24.75,335.24,290823,,,A*45
$GPGGA,172230.250,4308.3743,N,07726.3742,W,1,07,1.07,154.8,M,-34.4,M,,*51
$GPRMC,172230.500,A,4308.3759,N,07726.3748,W,24.62,340.94,290823,,,A*4D
$GPGGA,172230.750,4308.3776,N,07726.3754,W,1,07,1.07,155.0,M,-34.4,M,,*5C
$GPRMC,172231.000,A,4308.3792,N,07726.3758,W,24.27,345.04,290823,,,A*42
$GPGGA,172231.250,4308.3808,N,07726.3763,W,1,07,1.08,155.2,M,-34.4,M,,*57
$GPRMC,172231.500,A,4308.3826,N,07726.3767,W,24.43,347.90,290823,,,A*46
$GPGGA,172231.750,4308.3843,N,07726.3770,W,1,07,1.08,155.4,M,-34.4,M,,*59
$GPRMC,172232.000,A,4308.3859,N,07726.3773,W,24.40,351.38,290823,,,A*4B
$GPGGA,172232.250,4308.3877,N,07726.3774,W,1,07,1.08,155.6,M,-34.4,M,,*5E
$GPRMC,172232.500,A,4308.3894,N,07726.3774,W,24.45,355.39,290823,,,A*48
$GPGGA,172232.750,4308.3912,N,07726.3773,W,1,07,1.08,155.8,M,-34.4,M,,*50
$GPRMC,172233.000,A,4308.3930,N,07726.3769,W,25.15,2.23,290823,,,A*41
$GPGGA,172233.250,4308.3948,N,07726.3767,W,1,07,1.08,156.0,M,-34.4,M,,*55
$GPRMC,172233.500,A,4308.3967,N,07726.3764,W,25.92,5.39,290823,,,A*48
$GPGGA,172233.750,4308.3985,N,07726.3760,W,1,07,1.07,156.2,M,-34.4,M,,*5B
$GPRMC,172234.000,A,4308.4004,N,07726.3756,W,26.39,8.14,290823,,,A*40
$GPGGA,172234.250,4308.4022,N,07726.3751,W,1,07,1.07,156.4,M,-34.4,M,,*5E
$GPRMC,172234.500,A,4308.4042,N,07726.3746,W,26.18,9.56,290823,,,A*42
$GPGGA,172234.750,4308.4061,N,07726.3741,W,1,07,1.07,156.8,M,-34.4,M,,*51
$GPRMC,172235.000,A,4308.4081,N,07726.3735,W,26.57,11.22,290823,,,A*7C
$GPGGA,172235.250,4308.4101,N,07726.3729,W,1,07,1.07,157.1,M,-34.4,M,,*54
$GPRMC,172235.500,A,4308.4121,N,07726.3724,W,26.71,11.01,290823,,,A*77
$GPGGA,172235.750,4308.4141,N,07726.3718,W,1,07,1.07,157.4,M,-34.4,M,,*52
$GPRMC,172236.000,A,4308.4161,N,07726.3712,W,26.77,11.39,290823,,,A*7D
$GPGGA,172236.250,4308.4180,N,07726.3707,W,1,07,1.07,157.6,M,-34.4,M,,*55
$GPRMC,172236.500,A,4308.4200,N,07726.3701,W,26.12,11.28,290823,,,A*7D
$GPGGA,172236.750,4308.4219,N,07726.3695,W,1,07,1.07,157.8,M,-34.4,M,,*57
$GPRMC,172237.000,A,4308.4237,N,07726.3690,W,25.45,11.21,290823,,,A*7C
$GPGGA,172237.250,4308.4255,N,07726.3684,W,1,07,1.08,158.0,M,-34.4,M,,*53
$GPRMC,172237.500,A,4308.4273,N,07726.3679,W,25.01,11.05,290823,,,A*78
$GPGGA,172237.750,4308.4291,N,07726.3674,W,1,07,1.08,158.2,M,-34.4,M,,*53
$GPRMC,172238.000,A,4308.4308,N,07726.3669,W,24.26,11.40,290823,,,A*7B
$GPGGA,172238.250,4308.4325,N,07726.3664,W,1,07,1.08,158.3,M,-34.4,M,,*57
$GPRMC,172238.500,A,4308.4342,N,07726.3658,W,24.23,11.72,290823,,,A*76
$GPGGA,172238.750,4308.4358,N,07726.3653,W,1,07,1.08,158.5,M,-34.4,M,,*5A
$GPRMC,172239.000,A,4308.4375,N,07726.3648,W,23.86,12.16,290823,,,A*7E
$GPGGA,172239.250,4308.4391,N,07726.3644,W,1,07,1.08,158.6,M,-34.4,M,,*5E
$GPRMC,172239.500,A,4308.4406,N,07726.3640,W,22.77,9.96,290823,,,A*4D
$GPGGA,172239.750,4308.4422,N,07726.3636,W,1,07,1.08,158.5,M,-34.4,M,,*52
$GPRMC,172240.000,A,4308.4436,N,07726.3632,W,21.28,9.81,290823,,,A*4F
$GPGGA,172240.250,4308.4450,N,07726.3629,W,1,07,1.08,158.5,M,-34.4,M,,*52
$GPRMC,172240.500,A,4308.4463,N,07726.3625,W,19.11,10.02,290823,,,A*7E
$GPGGA,172240.750,4308.4476,N,07726.3621,W,1,07,1.08,158.6,M,-34.4,M,,*58
$GPRMC,172241.000,A,4308.4487,N,07726.3618,W,16.76,10.73,290823,,,A*76
$GPGGA,172241.250,4308.4497,N,07726.3615,W,1,07,1.08,158.7,M,-34.4,M,,*55
$GPRMC,172241.500,A,4308.4508,N,07726.3611,W,14.08,10.10,290823,,,A*72
$GPGGA,172241.750,4308.4517,N,07726.3608,W,1,07,1.08,158.8,M,-34.4,M,,*5A
$GPRMC,172242.000,A,4308.4526,N,07726.3605,W,11.62,8.82,290823,,,A*46
$GPGGA,172242.250,4308.4533,N,07726.3602,W,1,07,1.08,159.0,M,-34.4,M,,*59
$GPRMC,172242.500,A,4308.4539,N,07726.3600,W,9.40,10.41,290823,,,A*47
$GPGGA,172242.750,4308.4544,N,07726.3598,W,1,07,1.08,159.1,M,-34.4,M,,*5D
$GPRMC,172243.000,A,4308.4548,N,07726.3596,W,6.56,11.15,290823,,,A*41
$GPGGA,172243.250,4308.4552,N,07726.3595,W,1,07,1.08,159.2,M,-34.4,M,,*50
$GPRMC,172243.500,A,4308.4555,N,07726.3594,W,5.04,5.79,290823,,,A*71
$GPGGA,172243.750,4308.4558,N,07726.3593,W,1,07,1.08,159.2,M,-34.4,M,,*59
$GPRMC,172244.000,A,4308.4561,N,07726.3592,W,4.56,7.83,290823,,,A*73
$GPGGA,172244.250,4308.4564,N,07726.3592,W,1,07,1.08,159.2,M,-34.4,M,,*55
$GPRMC,172244.500,A,4308.4568,N,07726.3591,W,4.93,8.02,290823,,,A*73
$GPGGA,172244.750,4308.4572,N,07726.3591,W,1,07,1.08,159.2,M,-34.4,M,,*54
$GPRMC,172245.000,A,4308.4576,N,07726.3594,W,5.43,348.67,290823,,,A*75
$GPGGA,172245.250,4308.4580,N,07726.3596,W,1,07,1.08,159.2,M,-34.4,M,,*5A
$GPRMC,172245.500,A,4308.4585,N,07726.3597,W,6.35,348.87,290823,,,A*73
$GPGGA,172245.750,4308.4589,N,07726.3599,W,1,07,1.08,158.9,M,-34.4,M,,*53
$GPRMC,172246.000,A,4308.4594,N,07726.3602,W,6.94,341.80,290823,,,A*7F
$GPGGA,172246.250,4308.4600,N,07726.3607,W,1,07,1.07,158.8,M,-34.4,M,,*5D
$GPRMC,172246.500,A,4308.4605,N,07726.3612,W,8.65,323.63,290823,,,A*79
$GPGGA,172246.750,4308.4610,N,07726.3618,W,1,07,1.07,159.0,M,-34.4,M,,*5E
$GPRMC,172247.000,A,4308.4614,N,07726.3626,W,10.63,309.41,290823,,,A*4D
$GPGGA,172247.250,4308.4619,N,07726.3636,W,1,07,1.07,159.2,M,-34.4,M,,*5D
$GPRMC,172247.500,A,4308.4622,N,07726.3647,W,12.90,295.75,290823,,,A*47
$GPGGA,172247.750,4308.4626,N,07726.3658,W,1,07,1.07,159.4,M,-34.4,M,,*5A
$GPRMC,172248.000,A,4308.4629,N,07726.3671,W,14.68,292.02,290823,,,A*45
$GPGGA,172248.250,4308.4632,N,07726.3686,W,1,07,1.07,159.5,M,-34.4,M,,*57
$GPRMC,172248.500,A,4308.4634,N,07726.3702,W,17.43,281.80,290823,,,A*4B
$GPGGA,172248.750,4308.4636,N,07726.3718,W,1,07,1.07,159.5,M,-34.4,M,,*50
$GPRMC,172249.000,A,4308.4638,N,07726.3736,W,19.25,278.21,290823,,,A*47
$GPGGA,172249.250,4308.4640,N,07726.3756,W,1,07,1.07,159.5,M,-34.4,M,,*5F
$GPRMC,172249.500,A,4308.4642,N,07726.3776,W,21.43,275.94,290823,,,A*43
$GPGGA,172249.750,4308.4644,N,07726.3796,W,1,07,1.07,159.2,M,-34.4,M,,*55
$GPRMC,172250.000,A,4308.4646,N,07726.3818,W,22.38,275.08,290823,,,A*47
$GPGGA,172250.250,4308.4648,N,07726.3840,W,1,07,1.07,159.0,M,-34.4,M,,*52
$GPRMC,172250.500,A,4308.4649,N,07726.3862,W,23.29,274.25,290823,,,A*4F
$GPGGA,172250.750,4308.4651,N,07726.3885,W,1,07,1.07,158.7,M,-34.4,M,,*50
$GPRMC,172251.000,A,4308.4652,N,07726.3908,W,23.89,274.23,290823,,,A*40
$GPGGA,172251.250,4308.4654,N,07726.3931,W,1,07,1.07,158.4,M,-34.4,M,,*5C
$GPRMC,172251.500,A,4308.4656,N,07726.3954,W,24.37,274.36,290823,,,A*4E
$GPGGA,172251.750,4308.4657,N,07726.3977,W,1,07,1.07,158.2,M,-34.4,M,,*5E
$GPRMC,172252.000,A,4308.4659,N,07726.4000,W,24.33,273.81,290823,,,A*47
$GPGGA,172252.250,4308.4661,N,07726.4023,W,1,07,1.07,158.0,M,-34.4,M,,*50
$GPRMC,172252.500,A,4308.4662,N,07726.4046,W,24.07,274.34,290823,,,A*46
$GPGGA,172252.750,4308.4663,N,07726.4069,W,1,07,1.07,157.8,M,-34.4,M,,*5E
$GPRMC,172253.000,A,4308.4665,N,07726.4091,W,23.72,275.05,290823,,,A*49
$GPGGA,172253.250,4308.4667,N,07726.4113,W,1,07,1.08,157.8,M,-34.4,M,,*5D
$GPRMC,172253.500,A,4308.4669,N,07726.4134,W,23.20,276.39,290823,,,A*45
$GPGGA,172253.750,4308.4671,N,07726.4156,W,1,07,1.07,157.6,M,-34.4,M,,*5F
$GPRMC,172254.000,A,4308.4673,N,07726.4177,W,22.76,277.75,290823,,,A*40
$GPGGA,172254.250,4308.4675,N,07726.4198,W,1,07,1.08,157.5,M,-34.4,M,,*57
$GPRMC,172254.500,A,4308.4677,N,07726.4219,W,22.13,279.13,290823,,,A*47
$GPGGA,172254.750,4308.4680,N,07726.4239,W,1,07,1.07,157.3,M,-34.4,M,,*59
$GPRMC,172255.000,A,4308.4682,N,07726.4260,W,21.69,279.33,290823,,,A*4B
$GPGGA,172255.250,4308.4684,N,07726.4280,W,1,07,1.07,157.1,M,-34.4,M,,*59
$GPRMC,172255.500,A,4308.4686,N,07726.4301,W,21.45,278.85,290823,,,A*4E
$GPGGA,172255.750,4308.4689,N,07726.4321,W,1,07,1.07,156.9,M,-34.4,M,,*52
$GPRMC,172256.000,A,4308.4692,N,07726.4341,W,21.19,279.40,290823,,,A*48
$GPGGA,172256.250,4308.4695,N,07726.4362,W,1,07,1.08,156.6,M,-34.4,M,,*5E
$GPRMC,172256.500,A,4308.4697,N,07726.4382,W,20.90,279.60,290823,,,A*45
$GPGGA,172256.750,4308.4700,N,07726.4402,W,1,07,1.07,156.5,M,-34.4,M,,*5B
$GPRMC,172257.000,A,4308.4704,N,07726.4424,W,20.85,279.89,290823,,,A*42
$GPGGA,172257.250,4308.4707,N,07726.4445,W,1,07,1.08,156.2,M,-34.4,M,,*53
$GPRMC,172257.500,A,4308.4711,N,07726.4467,W,20.33,282.02,290823,,,A*4E
$GPGGA,172257.750,4308.4715,N,07726.4487,W,1,07,1.07,156.0,M,-34.4,M,,*56
$GPRMC,172258.000,A,4308.4718,N,07726.4507,W,20.32,282.47,290823,,,A*4A
$GPGGA,172258.250,4308.4721,N,07726.4526,W,1,07,1.07,155.9,M,-34.4,M,,*5B
$GPRMC,172258.500,A,4308.4724,N,07726.4545,W,19.78,281.11,290823,,,A*42
$GPGGA,172258.750,4308.4727,N,07726.4564,W,1,07,1.07,156.0,M,-34.4,M,,*54
$GPRMC,172259.000,A,4308.4729,N,07726.4582,W,19.70,280.54,290823,,,A*48
$GPGGA,172259.250,4308.4732,N,07726.4600,W,1,07,1.08,156.1,M,-34.4,M,,*5B
$GPRMC,172259.500,A,4308.4735,N,07726.4617,W,19.42,281.41,290823,,,A*4B
$GPGGA,172259.750,4308.4737,N,07726.4635,W,1,07,1.07,156.3,M,-34.4,M,,*50
$GPRMC,172300.000,A,4308.4740,N,07726.4652,W,19.20,280.56,290823,,,A*43
$GPGGA,172300.250,4308.4742,N,07726.4670,W,1,06,2.11,156.3,M,-34.4,M,,*5E
$GPRMC,172300.500,A,4308.4744,N,07726.4688,W,18.89,279.78,290823,,,A*4D
$GPGGA,172300.750,4308.4746,N,07726.4705,W,1,06,2.11,156.4,M,-34.4,M,,*5B
$GPRMC,172301.000,A,4308.4749,N,07726.4722,W,18.51,279.99,290823,,,A*4F
$GPGGA,172301.250,4308.4750,N,07726.4738,W,1,06,2.11,156.4,M,-34.4,M,,*56
$GPRMC,172301.500,A,4308.4752,N,07726.4754,W,17.77,279.00,290823,,,A*4A
$GPGGA,172301.750,4308.4754,N,07726.4770,W,1,06,2.11,156.4,M,-34.4,M,,*5B
$GPRMC,172302.000,A,4308.4755,N,07726.4786,W,17.32,278.62,290823,,,A*40
$GPGGA,172302.250,4308.4757,N,07726.4802,W,1,06,2.11,156.4,M,-34.4,M,,*54
$GPRMC,172302.500,A,4308.4759,N,07726.4817,W,16.99,278.48,290823,,,A*46
$GPGGA,172302.750,4308.4761,N,07726.4831,W,1,06,2.11,156.4,M,-34.4,M,,*54
$GPRMC,172303.000,A,4308.4762,N,07726.4846,W,16.53,278.12,290823,,,A*47
$GPGGA,172303.250,4308.4764,N,07726.4861,W,1,06,2.11,156.3,M,-34.4,M,,*57
$GPRMC,172303.500,A,4308.4766,N,07726.4875,W,15.86,277.69,290823,,,A*4E
$GPGGA,172303.750,4308.4768,N,07726.4888,W,1,06,2.11,156.3,M,-34.4,M,,*59
$GPRMC,172304.000,A,4308.4769,N,07726.4901,W,14.64,277.58,290823,,,A*4E
$GPGGA,172304.250,4308.4770,N,07726.4912,W,1,06,2.11,156.4,M,-34.4,M,,*57
$GPRMC,172304.500,A,4308.4771,N,07726.4923,W,13.03,278.23,290823,,,A*47
$GPGGA,172304.750,4308.4771,N,07726.4933,W,1,07,1.07,156.4,M,-34.4,M,,*55
$GPRMC,172305.000,A,4308.4771,N,07726.4943,W,11.43,277.84,290823,,,A*41
$GPGGA,172305.250,4308.4772,N,07726.4951,W,1,07,1.07,156.5,M,-34.4,M,,*57
$GPRMC,172305.500,A,4308.4773,N,07726.4959,W,9.76,279.15,290823,,,A*74
$GPGGA,172305.750,4308.4773,N,07726.4967,W,1,07,1.07,156.5,M,-34.4,M,,*56
$GPRMC,172306.000,A,4308.4774,N,07726.4974,W,8.44,278.96,290823,,,A*70
$GPGGA,172306.250,4308.4774,N,07726.4980,W,1,07,1.07,156.5,M,-34.4,M,,*5E
$GPRMC,172306.500,A,4308.4775,N,07726.4986,W,7.01,277.40,290823,,,A*73
$GPGGA,172306.750,4308.4775,N,07726.4992,W,1,07,1.07,156.4,M,-34.4,M,,*58
$GPRMC,172307.000,A,4308.4776,N,07726.4998,W,6.46,276.22,290823,,,A*7C
$GPGGA,172307.250,4308.4777,N,07726.5004,W,1,07,1.08,156.3,M,-34.4,M,,*51
$GPRMC,172307.500,A,4308.4778,N,07726.5010,W,6.25,272.88,290823,,,A*7E
$GPGGA,172307.750,4308.4778,N,07726.5016,W,1,07,1.07,156.1,M,-34.4,M,,*55
$GPRMC,172308.000,A,4308.4778,N,07726.5022,W,6.81,266.94,290823,,,A*73
$GPGGA,172308.250,4308.4779,N,07726.5029,W,1,07,1.07,155.9,M,-34.4,M,,*59
$GPRMC,172308.500,A,4308.4780,N,07726.5037,W,8.17,265.69,290823,,,A*75
$GPGGA,172308.750,4308.4780,N,07726.5046,W,1,07,1.07,155.7,M,-34.4,M,,*5D
$GPRMC,172309.000,A,4308.4781,N,07726.5056,W,9.81,266.74,290823,,,A*76
$GPGGA,172309.250,4308.4781,N,07726.5067,W,1,07,1.08,155.4,M,-34.4,M,,*57
$GPRMC,172309.500,A,4308.4782,N,07726.5079,W,12.22,268.58,290823,,,A*4E
$GPGGA,172309.750,4308.4782,N,07726.5092,W,1,07,1.07,155.2,M,-34.4,M,,*52
$GPRMC,172310.000,A,4308.4782,N,07726.5107,W,14.67,268.84,290823,,,A*4D
$GPGGA,172310.250,4308.4785,N,07726.5128,W,1,07,1.08,155.0,M,-34.4,M,,*55
$GPRMC,172310.500,A,4308.4786,N,07726.5147,W,18.04,275.63,290823,,,A*44
$GPGGA,172310.750,4308.4787,N,07726.5167,W,1,07,1.07,154.9,M,-34.4,M,,*5E
$GPRMC,172311.000,A,4308.4788,N,07726.5186,W,18.61,275.39,290823,,,A*4F
$GPGGA,172311.250,4308.4789,N,07726.5204,W,1,06,3.10,154.9,M,-34.4,M,,*57
$GPRMC,172311.500,A,4308.4790,N,07726.5222,W,18.34,275.73,290823,,,A*40
$GPGGA,172311.750,4308.4791,N,07726.5240,W,1,07,1.07,155.0,M,-34.4,M,,*56
$GPRMC,172312.000,A,4308.4791,N,07726.5257,W,18.13,274.23,290823,,,A*44
$GPGGA,172312.250,4308.4792,N,07726.5275,W,1,07,1.07,155.2,M,-34.4,M,,*57
$GPRMC,172312.500,A,4308.4793,N,07726.5292,W,17.64,273.21,290823,,,A*40
$GPGGA,172312.750,4308.4793,N,07726.5309,W,1,07,1.07,155.2,M,-34.4,M,,*59
$GPRMC,172313.000,A,4308.4794,N,07726.5326,W,17.43,272.88,290823,,,A*4A
$GPGGA,172313.250,4308.4795,N,07726.5343,W,1,07,1.07,155.3,M,-34.4,M,,*54
$GPRMC,172313.500,A,4308.4797,N,07726.5360,W,16.95,273.17,290823,,,A*43
$GPGGA,172313.750,4308.4797,N,07726.5377,W,1,07,1.08,155.2,M,-34.4,M,,*5A
$GPRMC,172314.000,A,4308.4799,N,07726.5393,W,16.87,273.45,290823,,,A*47
$GPGGA,172314.250,4308.4800,N,07726.5410,W,1,07,1.08,155.1,M,-34.4,M,,*5C
$GPRMC,172314.500,A,4308.4801,N,07726.5427,W,17.33,273.58,290823,,,A*46
$GPGGA,172314.750,4308.4802,N,07726.5444,W,1,07,1.08,155.1,M,-34.4,M,,*5A
$GPRMC,172315.000,A,4308.4804,N,07726.5461,W,17.29,272.16,290823,,,A*45
$GPGGA,172315.250,4308.4805,N,07726.5477,W,1,06,3.10,154.9,M,-34.4,M,,*5A
$GPRMC,172315.500,A,4308.4806,N,07726.5494,W,16.94,271.45,290823,,,A*4A
$GPGGA,172315.750,4308.4807,N,07726.5510,W,1,07,1.08,154.7,M,-34.4,M,,*59
$GPRMC,172316.000,A,4308.4808,N,07726.5526,W,16.44,272.77,290823,,,A*45
$GPGGA,172316.250,4308.4809,N,07726.5542,W,1,07,1.08,154.5,M,-34.4,M,,*54
$GPRMC,172316.500,A,4308.4810,N,07726.5558,W,16.21,273.12,290823,,,A*41
$GPGGA,172316.750,4308.4811,N,07726.5574,W,1,06,3.10,154.4,M,-34.4,M,,*56
$GPRMC,172317.000,A,4308.4811,N,07726.5589,W,16.16,273.56,290823,,,A*4C
$GPGGA,172317.250,4308.4812,N,07726.5604,W,1,07,1.08,154.3,M,-34.4,M,,*58
$GPRMC,172317.500,A,4308.4812,N,07726.5619,W,15.92,275.38,290823,,,A*41
$GPGGA,172317.750,4308.4813,N,07726.5634,W,1,07,1.08,154.3,M,-34.4,M,,*5F
$GPRMC,172318.000,A,4308.4809,N,07726.5649,W,15.51,275.36,290823,,,A*45
$GPGGA,172318.250,4308.4808,N,07726.5664,W,1,07,1.08,154.3,M,-34.4,M,,*5A
$GPRMC,172318.500,A,4308.4807,N,07726.5678,W,15.34,274.26,290823,,,A*4F
$GPGGA,172318.750,4308.4807,N,07726.5693,W,1,07,1.07,154.3,M,-34.4,M,,*57
$GPRMC,172319.000,A,4308.4808,N,07726.5707,W,15.04,275.23,290823,,,A*4A
$GPGGA,172319.250,4308.4808,N,07726.5721,W,1,06,2.11,154.4,M,-34.4,M,,*56
$GPRMC,172319.500,A,4308.4809,N,07726.5734,W,14.61,274.69,290823,,,A*43
$GPGGA,172319.750,4308.4809,N,07726.5748,W,1,07,1.07,154.4,M,-34.4,M,,*58
$GPRMC,172320.000,A,4308.4809,N,07726.5761,W,14.39,275.56,290823,,,A*4C
$GPGGA,172320.250,4308.4810,N,07726.5774,W,1,06,3.10,154.4,M,-34.4,M,,*55
$GPRMC,172320.500,A,4308.4811,N,07726.5788,W,13.79,274.86,290823,,,A*48
$GPGGA,172320.750,4308.4812,N,07726.5801,W,1,06,2.11,154.3,M,-34.4,M,,*58
$GPRMC,172321.000,A,4308.4813,N,07726.5814,W,13.59,270.30,290823,,,A*4F
$GPGGA,172321.250,4308.4814,N,07726.5826,W,1,07,1.08,154.1,M,-34.4,M,,*57
$GPRMC,172321.500,A,4308.4815,N,07726.5839,W,13.39,273.80,290823,,,A*4D
$GPGGA,172321.750,4308.4817,N,07726.5852,W,1,07,1.07,153.9,M,-34.4,M,,*52
$GPRMC,172322.000,A,4308.4819,N,07726.5865,W,13.21,273.89,290823,,,A*4E
$GPGGA,172322.250,4308.4821,N,07726.5878,W,1,07,1.08,153.7,M,-34.4,M,,*58
$GPRMC,172322.500,A,4308.4822,N,07726.5890,W,12.95,271.19,290823,,,A*4C
$GPGGA,172322.750,4308.4823,N,07726.5903,W,1,06,2.11,153.6,M,-34.4,M,,*59
$GPRMC,172323.000,A,4308.4823,N,07726.5916,W,13.16,269.74,290823,,,A*4E
$GPGGA,172323.250,4308.4823,N,07726.5928,W,1,06,3.10,153.5,M,-34.4,M,,*57
$GPRMC,172323.500,A,4308.4823,N,07726.5942,W,13.65,269.58,290823,,,A*40
$GPGGA,172323.750,4308.4823,N,07726.5955,W,1,06,2.11,153.3,M,-34.4,M,,*5E
$GPRMC,172324.000,A,4308.4824,N,07726.5969,W,14.31,270.23,290823,,,A*4E
$GPGGA,172324.250,4308.4824,N,07726.5983,W,1,06,3.10,153.2,M,-34.4,M,,*51
$GPRMC,172324.500,A,4308.4823,N,07726.5997,W,15.31,268.77,290823,,,A*44
$GPGGA,172324.750,4308.4823,N,07726.6013,W,1,07,1.07,153.2,M,-34.4,M,,*55
$GPRMC,172325.000,A,4308.4823,N,07726.6029,W,16.82,268.68,290823,,,A*4A
$GPGGA,172325.250,4308.4822,N,07726.6046,W,1,06,3.10,153.2,M,-34.4,M,,*55
$GPRMC,172325.500,A,4308.4822,N,07726.6065,W,19.24,268.87,290823,,,A*44
$GPGGA,172325.750,4308.4822,N,07726.6084,W,1,07,1.07,153.1,M,-34.4,M,,*58
$GPRMC,172326.000,A,4308.4822,N,07726.6103,W,20.53,269.95,290823,,,A*4B
$GPGGA,172326.250,4308.4822,N,07726.6124,W,1,07,1.08,153.2,M,-34.4,M,,*59
$GPRMC,172326.500,A,4308.4823,N,07726.6144,W,21.87,270.63,290823,,,A*45
$GPGGA,172326.750,4308.4823,N,07726.6166,W,1,07,1.07,153.3,M,-34.4,M,,*55
$GPRMC,172327.000,A,4308.4822,N,07726.6187,W,22.88,270.19,290823,,,A*4E
$GPGGA,172327.250,4308.4823,N,07726.6210,W,1,07,1.07,153.4,M,-34.4,M,,*54
$GPRMC,172327.500,A,4308.4823,N,07726.6232,W,24.11,269.21,290823,,,A*42
$GPGGA,172327.750,4308.4822,N,07726.6256,W,1,07,1.07,153.7,M,-34.4,M,,*51
$GPRMC,172328.000,A,4308.4822,N,07726.6279,W,25.14,268.27,290823,,,A*45
$GPGGA,172328.250,4308.4821,N,07726.6303,W,1,07,1.07,153.9,M,-34.4,M,,*57
$GPRMC,172328.500,A,4308.4821,N,07726.6328,W,25.89,268.40,290823,,,A*43
$GPGGA,172328.750,4308.4820,N,07726.6353,W,1,07,1.07,154.0,M,-34.4,M,,*58
$GPRMC,172329.000,A,4308.4820,N,07726.6377,W,26.29,269.26,290823,,,A*44
$GPGGA,172329.250,4308.4821,N,07726.6403,W,1,07,1.07,154.1,M,-34.4,M,,*5E
$GPRMC,172329.500,A,4308.4821,N,07726.6428,W,26.85,270.27,290823,,,A*42
$GPGGA,172329.750,4308.4821,N,07726.6454,W,1,07,1.07,154.1,M,-34.4,M,,*59
$GPRMC,172330.000,A,4308.4821,N,07726.6480,W,27.09,269.85,290823,,,A*48
$GPGGA,172330.250,4308.4822,N,07726.6507,W,1,07,1.08,154.0,M,-34.4,M,,*5E
$GPRMC,172330.500,A,4308.4821,N,07726.6534,W,28.27,268.95,290823,,,A*40
$GPGGA,172330.750,4308.4821,N,07726.6561,W,1,07,1.07,153.9,M,-34.4,M,,*59
$GPRMC,172331.000,A,4308.4820,N,07726.6588,W,28.34,268.35,290823,,,A*4A
$GPGGA,172331.250,4308.4819,N,07726.6615,W,1,07,1.08,153.8,M,-34.4,M,,*58
$GPRMC,172331.500,A,4308.4818,N,07726.6643,W,28.79,267.08,290823,,,A*48
$GPGGA,172331.750,4308.4817,N,07726.6671,W,1,07,1.07,153.7,M,-34.4,M,,*51
$GPRMC,172332.000,A,4308.4817,N,07726.6699,W,28.93,266.68,290823,,,A*45
$GPGGA,172332.250,4308.4816,N,07726.6727,W,1,07,1.08,153.6,M,-34.4,M,,*5A
$GPRMC,172332.500,A,4308.4815,N,07726.6754,W,29.28,265.16,290823,,,A*49
$GPGGA,172332.750,4308.4814,N,07726.6782,W,1,07,1.07,153.5,M,-34.4,M,,*5E
$GPRMC,172333.000,A,4308.4813,N,07726.6810,W,29.20,265.50,290823,,,A*4E
$GPGGA,172333.250,4308.4811,N,07726.6837,W,1,07,1.08,153.5,M,-34.4,M,,*51
$GPRMC,172333.500,A,4308.4809,N,07726.6865,W,29.19,265.33,290823,,,A*4D
$GPGGA,172333.750,4308.4807,N,07726.6893,W,1,07,1.07,153.6,M,-34.4,M,,*51
$GPRMC,172334.000,A,4308.4806,N,07726.6921,W,29.61,266.26,290823,,,A*49
$GPGGA,172334.250,4308.4805,N,07726.6949,W,1,07,1.07,153.6,M,-34.4,M,,*57
$GPRMC,172334.500,A,4308.4803,N,07726.6977,W,29.58,266.61,290823,,,A*43
$GPGGA,172334.750,4308.4802,N,07726.7005,W,1,07,1.08,153.8,M,-34.4,M,,*54
$GPRMC,172335.000,A,4308.4801,N,07726.7033,W,29.79,266.12,290823,,,A*4A
$GPGGA,172335.250,4308.4800,N,07726.7061,W,1,07,1.07,154.0,M,-34.4,M,,*50
$GPRMC,172335.500,A,4308.4798,N,07726.7090,W,29.84,266.49,290823,,,A*45
$GPGGA,172335.750,4308.4797,N,07726.7118,W,1,06,2.11,154.2,M,-34.4,M,,*5C
$GPRMC,172336.000,A,4308.4796,N,07726.7146,W,29.95,266.34,290823,,,A*4D
$GPGGA,172336.250,4308.4795,N,07726.7175,W,1,07,1.08,154.5,M,-34.4,M,,*5E
$GPRMC,172336.500,A,4308.4793,N,07726.7203,W,30.19,266.17,290823,,,A*42
$GPGGA,172336.750,4308.4792,N,07726.7232,W,1,07,1.08,154.8,M,-34.4,M,,*51
$GPRMC,172337.000,A,4308.4790,N,07726.7260,W,30.15,265.63,290823,,,A*4C
$GPGGA,172337.250,4308.4789,N,07726.7289,W,1,07,1.08,155.2,M,-34.4,M,,*54
$GPRMC,172337.500,A,4308.4787,N,07726.7317,W,30.14,266.18,290823,,,A*40
$GPGGA,172337.750,4308.4786,N,07726.7346,W,1,07,1.08,155.6,M,-34.4,M,,*58
$GPRMC,172338.000,A,4308.4784,N,07726.7374,W,30.31,266.39,290823,,,A*48
$GPGGA,172338.250,4308.4783,N,07726.7403,W,1,07,1.08,155.9,M,-34.4,M,,*5E
$GPRMC,172338.500,A,4308.4781,N,07726.7432,W,30.30,265.81,290823,,,A*4C
$GPGGA,172338.750,4308.4779,N,07726.7460,W,1,07,1.08,156.3,M,-34.4,M,,*52
$GPRMC,172339.000,A,4308.4778,N,07726.7489,W,30.36,265.51,290823,,,A*45
$GPGGA,172339.250,4308.4776,N,07726.7518,W,1,07,1.08,156.6,M,-34.4,M,,*52
$GPRMC,172339.500,A,4308.4774,N,07726.7547,W,30.35,264.85,290823,,,A*44
$GPGGA,172339.750,4308.4772,N,07726.7576,W,1,07,1.08,156.9,M,-34.4,M,,*54
$GPRMC,172340.000,A,4308.4771,N,07726.7605,W,30.19,265.21,290823,,,A*4E
$GPGGA,172340.250,4308.4769,N,07726.7634,W,1,07,1.08,157.1,M,-34.4,M,,*59
$GPRMC,172340.500,A,4308.4767,N,07726.7663,W,30.36,264.70,290823,,,A*44
$GPGGA,172340.750,4308.4765,N,07726.7692,W,1,07,1.08,157.1,M,-34.4,M,,*5C
$GPRMC,172341.000,A,4308.4763,N,07726.7721,W,30.77,264.30,290823,,,A*42
$GPGGA,172341.250,4308.4762,N,07726.7751,W,1,07,1.08,157.0,M,-34.4,M,,*50
$GPRMC,172341.500,A,4308.4760,N,07726.7780,W,31.07,265.03,290823,,,A*48
$GPGGA,172341.750,4308.4758,N,07726.7810,W,1,07,1.08,156.9,M,-34.4,M,,*5E
$GPRMC,172342.000,A,4308.4756,N,07726.7840,W,31.41,264.77,290823,,,A*48
$GPGGA,172342.250,4308.4754,N,07726.7870,W,1,07,1.08,156.8,M,-34.4,M,,*53
$GPRMC,172342.500,A,4308.4753,N,07726.7900,W,31.63,265.43,290823,,,A*4B
$GPGGA,172342.750,4308.4751,N,07726.7930,W,1,07,1.07,156.6,M,-34.4,M,,*57
$GPRMC,172343.000,A,4308.4749,N,07726.7960,W,31.75,265.44,290823,,,A*42
$GPGGA,172343.250,4308.4747,N,07726.7991,W,1,07,1.08,156.4,M,-34.4,M,,*52
$GPRMC,172343.500,A,4308.4745,N,07726.8022,W,31.88,265.33,290823,,,A*49
$GPGGA,172343.750,4308.4744,N,07726.8053,W,1,07,1.07,156.1,M,-34.4,M,,*56
$GPRMC,172344.000,A,4308.4742,N,07726.8084,W,32.79,265.48,290823,,,A*41
$GPGGA,172344.250,4308.4740,N,07726.8115,W,1,07,1.08,155.8,M,-34.4,M,,*56
$GPRMC,172344.500,A,4308.4738,N,07726.8147,W,33.04,264.90,290823,,,A*48
$GPGGA,172344.750,4308.4736,N,07726.8179,W,1,07,1.07,155.5,M,-34.4,M,,*5A
$GPRMC,172345.000,A,4308.4734,N,07726.8211,W,33.51,265.21,290823,,,A*4B
$GPGGA,172345.250,4308.4732,N,07726.8243,W,1,07,1.08,155.2,M,-34.4,M,,*58
$GPRMC,172345.500,A,4308.4730,N,07726.8275,W,33.60,264.97,290823,,,A*46
$GPGGA,172345.750,4308.4728,N,07726.8307,W,1,07,1.07,154.8,M,-34.4,M,,*53
$GPRMC,172346.000,A,4308.4726,N,07726.8339,W,33.58,264.69,290823,,,A*44
$GPGGA,172346.250,4308.4724,N,07726.8371,W,1,07,1.08,154.6,M,-34.4,M,,*59
$GPRMC,172346.500,A,4308.4721,N,07726.8403,W,32.83,263.56,290823,,,A*44
$GPGGA,172346.750,4308.4719,N,07726.8434,W,1,07,1.07,154.3,M,-34.4,M,,*5E
$GPRMC,172347.000,A,4308.4716,N,07726.8465,W,33.08,264.07,290823,,,A*45
$GPGGA,172347.250,4308.4714,N,07726.8497,W,1,07,1.08,154.0,M,-34.4,M,,*52
$GPRMC,172347.500,A,4308.4712,N,07726.8528,W,33.08,265.01,290823,,,A*4B
$GPGGA,172347.750,4308.4710,N,07726.8560,W,1,07,1.07,153.7,M,-34.4,M,,*55
$GPRMC,172348.000,A,4308.4708,N,07726.8591,W,33.33,265.51,290823,,,A*45
$GPGGA,172348.250,4308.4706,N,07726.8623,W,1,07,1.07,153.5,M,-34.4,M,,*5E
$GPRMC,172348.500,A,4308.4703,N,07726.8655,W,33.54,265.37,290823,,,A*41
$GPGGA,172348.750,4308.4701,N,07726.8686,W,1,07,1.07,153.3,M,-34.4,M,,*55
$GPRMC,172349.000,A,4308.4699,N,07726.8718,W,33.59,264.99,290823,,,A*47
$GPGGA,172349.250,4308.4696,N,07726.8750,W,1,07,1.08,153.2,M,-34.4,M,,*5A
$GPRMC,172349.500,A,4308.4694,N,07726.8782,W,33.66,264.86,290823,,,A*4E
$GPGGA,172349.750,4308.4692,N,07726.8814,W,1,07,1.07,153.0,M,-34.4,M,,*59
$GPRMC,172350.000,A,4308.4690,N,07726.8845,W,33.69,265.62,290823,,,A*47
$GPGGA,172350.250,4308.4687,N,07726.8877,W,1,07,1.08,153.0,M,-34.4,M,,*5A
$GPRMC,172350.500,A,4308.4685,N,07726.8909,W,34.12,264.68,290823,,,A*4F
$GPGGA,172350.750,4308.4682,N,07726.8942,W,1,07,1.08,152.9,M,-34.4,M,,*55
$GPRMC,172351.000,A,4308.4680,N,07726.8974,W,34.20,264.76,290823,,,A*4A
$GPGGA,172351.250,4308.4677,N,07726.9006,W,1,07,1.08,152.8,M,-34.4,M,,*52
$GPRMC,172351.500,A,4308.4675,N,07726.9039,W,34.32,264.41,290823,,,A*43
$GPGGA,172351.750,4308.4673,N,07726.9071,W,1,06,3.09,152.8,M,-34.4,M,,*51
$GPRMC,172352.000,A,4308.4670,N,07726.9103,W,34.34,264.61,290823,,,A*4C
$GPGGA,172352.250,4308.4668,N,07726.9135,W,1,07,1.08,152.7,M,-34.4,M,,*51
$GPRMC,172352.500,A,4308.4666,N,07726.9167,W,33.98,264.77,290823,,,A*4A
$GPGGA,172352.750,4308.4664,N,07726.9199,W,1,07,1.08,152.6,M,-34.4,M,,*5F
$GPRMC,172353.000,A,4308.4662,N,07726.9231,W,34.05,264.49,290823,,,A*44
$GPGGA,172353.250,4308.4660,N,07726.9263,W,1,07,1.08,152.6,M,-34.4,M,,*59
$GPRMC,172353.500,A,4308.4657,N,07726.9296,W,34.46,264.90,290823,,,A*49
$GPGGA,172353.750,4308.4655,N,07726.9328,W,1,07,1.08,152.5,M,-34.4,M,,*57
$GPRMC,172354.000,A,4308.4653,N,07726.9361,W,35.00,265.09,290823,,,A*44
$GPGGA,172354.250,4308.4651,N,07726.9394,W,1,07,1.08,152.5,M,-34.4,M,,*56
$GPRMC,172354.500,A,4308.4649,N,07726.9427,W,35.18,264.77,290823,,,A*4E
$GPGGA,172354.750,4308.4646,N,07726.9460,W,1,07,1.08,152.4,M,-34.4,M,,*58
$GPRMC,172355.000,A,4308.4644,N,07726.9494,W,35.75,264.85,290823,,,A*49
$GPGGA,172355.250,4308.4642,N,07726.9528,W,1,07,1.08,152.3,M,-34.4,M,,*52
$GPRMC,172355.500,A,4308.4640,N,07726.9561,W,35.98,264.95,290823,,,A*41
$GPGGA,172355.750,4308.4638,N,07726.9595,W,1,07,1.08,152.1,M,-34.4,M,,*5E
$GPRMC,172356.000,A,4308.4636,N,07726.9630,W,36.12,265.47,290823,,,A*4E
$GPGGA,172356.250,4308.4634,N,07726.9664,W,1,07,1.08,152.0,M,-34.4,M,,*58
$GPRMC,172356.500,A,4308.4632,N,07726.9698,W,36.52,265.65,290823,,,A*49
$GPGGA,172356.750,4308.4630,N,07726.9733,W,1,07,1.08,152.0,M,-34.4,M,,*5A
$GPRMC,172357.000,A,4308.4628,N,07726.9767,W,36.81,265.78,290823,,,A*45
$GPGGA,172357.250,4308.4626,N,07726.9802,W,1,07,1.08,151.9,M,-34.4,M,,*5E
$GPRMC,172357.500,A,4308.4624,N,07726.9837,W,37.01,265.54,290823,,,A*41
$GPGGA,172357.750,4308.4622,N,07726.9872,W,1,07,1.08,151.9,M,-34.4,M,,*58
$GPRMC,172358.000,A,4308.4619,N,07726.9907,W,37.27,265.33,290823,,,A*42
$GPGGA,172358.250,4308.4617,N,07726.9942,W,1,07,1.08,151.9,M,-34.4,M,,*56
$GPRMC,172358.500,A,4308.4615,N,07726.9978,W,37.59,265.42,290823,,,A*4C
$GPGGA,172358.750,4308.4613,N,07727.0014,W,1,07,1.08,152.0,M,-34.4,M,,*5F
$GPRMC,172359.000,A,4308.4611,N,07727.0049,W,38.06,265.89,290823,,,A*4D
$GPGGA,172359.250,4308.4608,N,07727.0085,W,1,07,1.08,151.8,M,-34.4,M,,*52
$GPRMC,172359.500,A,4308.4607,N,07727.0121,W,38.21,266.06,290823,,,A*41
$GPGGA,172359.750,4308.4605,N,07727.0157,W,1,07,1.08,151.8,M,-34.4,M,,*54
$GPRMC,172400.000,A,4308.4603,N,07727.0194,W,38.49,266.68,290823,,,A*43
$GPGGA,172400.250,4308.4601,N,07727.0230,W,1,07,1.08,151.7,M,-34.4,M,,*53
$GPRMC,172400.500,A,4308.4600,N,07727.0267,W,38.51,266.97,290823,,,A*43
$GPGGA,172400.750,4308.4599,N,07727.0303,W,1,07,1.08,151.6,M,-34.4,M,,*54
$GPRMC,172401.000,A,4308.4597,N,07727.0340,W,38.29,267.99,290823,,,A*4E
$GPGGA,172401.250,4308.4596,N,07727.0376,W,1,07,1.08,151.4,M,-34.4,M,,*5F
$GPRMC,172401.500,A,4308.4596,N,07727.0412,W,37.83,268.67,290823,,,A*4B
$GPGGA,172401.750,4308.4595,N,07727.0448,W,1,06,2.12,151.3,M,-34.4,M,,*5D
$GPRMC,172402.000,A,4308.4595,N,07727.0485,W,38.06,269.45,290823,,,A*43
$GPGGA,172402.250,4308.4595,N,07727.0521,W,1,07,1.08,151.1,M,-34.4,M,,*5E
$GPRMC,172402.500,A,4308.4595,N,07727.0557,W,38.09,270.69,290823,,,A*41
$GPGGA,172402.750,4308.4595,N,07727.0594,W,1,06,2.12,150.9,M,-34.4,M,,*55
$GPRMC,172403.000,A,4308.4596,N,07727.0630,W,38.21,270.94,290823,,,A*4C
$GPGGA,172403.250,4308.4597,N,07727.0666,W,1,06,3.09,150.8,M,-34.4,M,,*57
$GPRMC,172403.500,A,4308.4598,N,07727.0702,W,38.20,273.57,290823,,,A*4A
$GPGGA,172403.750,4308.4599,N,07727.0738,W,1,06,2.12,150.6,M,-34.4,M,,*53
$GPRMC,172404.000,A,4308.4601,N,07727.0774,W,37.62,273.75,290823,,,A*43
$GPGGA,172404.250,4308.4603,N,07727.0810,W,1,06,3.09,150.4,M,-34.4,M,,*5D
$GPRMC,172404.500,A,4308.4606,N,07727.0845,W,37.29,275.83,290823,,,A*4C
$GPGGA,172404.750,4308.4609,N,07727.0881,W,1,06,2.12,150.3,M,-34.4,M,,*56
$GPRMC,172405.000,A,4308.4612,N,07727.0916,W,37.12,276.48,290823,,,A*46
$GPGGA,172405.250,4308.4614,N,07727.0951,W,1,06,3.09,150.1,M,-34.4,M,,*5B
$GPRMC,172405.500,A,4308.4617,N,07727.0987,W,37.11,276.04,290823,,,A*45
$GPGGA,172405.750,4308.4620,N,07727.1022,W,1,06,2.12,150.0,M,-34.4,M,,*5F
$GPRMC,172406.000,A,4308.4623,N,07727.1057,W,36.81,277.03,290823,,,A*4F
$GPGGA,172406.250,4308.4627,N,07727.1091,W,1,06,2.12,149.8,M,-34.4,M,,*56
$GPRMC,172406.500,A,4308.4630,N,07727.1126,W,36.37,277.83,290823,,,A*4A
$GPGGA,172406.750,4308.4634,N,07727.1160,W,1,07,1.07,149.7,M,-34.4,M,,*57
$GPRMC,172407.000,A,4308.4638,N,07727.1194,W,36.14,278.70,290823,,,A*4D
$GPGGA,172407.250,4308.4642,N,07727.1228,W,1,07,1.07,149.5,M,-34.4,M,,*5F
$GPRMC,172407.500,A,4308.4646,N,07727.1262,W,35.70,279.55,290823,,,A*4C
$GPGGA,172407.750,4308.4651,N,07727.1295,W,1,07,1.07,149.4,M,-34.4,M,,*5F
$GPRMC,172408.000,A,4308.4655,N,07727.1328,W,35.37,279.81,290823,,,A*41
$GPGGA,172408.250,4308.4659,N,07727.1361,W,1,07,1.08,149.2,M,-34.4,M,,*5E
$GPRMC,172408.500,A,4308.4663,N,07727.1394,W,35.28,279.63,290823,,,A*44
$GPGGA,172408.750,4308.4668,N,07727.1427,W,1,06,2.12,149.0,M,-34.4,M,,*57
$GPRMC,172409.000,A,4308.4672,N,07727.1460,W,35.05,279.27,290823,,,A*43
$GPGGA,172409.250,4308.4676,N,07727.1493,W,1,07,1.07,148.9,M,-34.4,M,,*5D
$GPRMC,172409.500,A,4308.4680,N,07727.1526,W,34.83,279.34,290823,,,A*45
$GPGGA,172409.750,4308.4685,N,07727.1558,W,1,06,2.12,148.7,M,-34.4,M,,*5A
$GPRMC,172410.000,A,4308.4689,N,07727.1591,W,34.84,279.21,290823,,,A*4E
$GPGGA,172410.250,4308.4693,N,07727.1624,W,1,06,3.08,148.6,M,-34.4,M,,*53
$GPRMC,172410.500,A,4308.4697,N,07727.1656,W,34.94,279.31,290823,,,A*4C
$GPGGA,172410.750,4308.4701,N,07727.1689,W,1,06,2.12,148.5,M,-34.4,M,,*52
$GPRMC,172411.000,A,4308.4706,N,07727.1722,W,34.94,279.43,290823,,,A*46
$GPGGA,172411.250,4308.4711,N,07727.1754,W,1,07,1.07,148.3,M,-34.4,M,,*56
$GPRMC,172411.500,A,4308.4716,N,07727.1787,W,34.98,279.77,290823,,,A*46
$GPGGA,172411.750,4308.4720,N,07727.1820,W,1,06,2.12,148.1,M,-34.4,M,,*59
$GPRMC,172412.000,A,4308.4726,N,07727.1852,W,34.98,280.41,290823,,,A*47
$GPGGA,172412.250,4308.4731,N,07727.1885,W,1,07,1.07,147.9,M,-34.4,M,,*51
$GPRMC,172412.500,A,4308.4737,N,07727.1918,W,35.04,280.80,290823,,,A*44
$GPGGA,172412.750,4308.4741,N,07727.1951,W,1,07,1.07,147.7,M,-34.4,M,,*55
$GPRMC,172413.000,A,4308.4746,N,07727.1983,W,34.88,280.26,290823,,,A*4D
$GPGGA,172413.250,4308.4750,N,07727.2015,W,1,06,3.08,147.5,M,-34.4,M,,*55
$GPRMC,172413.500,A,4308.4754,N,07727.2047,W,34.76,279.04,290823,,,A*4E
$GPGGA,172413.750,4308.4758,N,07727.2079,W,1,07,1.07,147.3,M,-34.4,M,,*58
$GPRMC,172414.000,A,4308.4763,N,07727.2112,W,34.25,279.23,290823,,,A*4A
$GPGGA,172414.250,4308.4767,N,07727.2144,W,1,07,1.07,147.1,M,-34.4,M,,*5B
$GPRMC,172414.500,A,4308.4771,N,07727.2176,W,33.97,278.89,290823,,,A*41
$GPGGA,172414.750,4308.4776,N,07727.2208,W,1,07,1.07,147.0,M,-34.4,M,,*54
$GPRMC,172415.000,A,4308.4780,N,07727.2240,W,33.93,278.80,290823,,,A*40
$GPGGA,172415.250,4308.4784,N,07727.2272,W,1,07,1.07,146.8,M,-34.4,M,,*59
$GPRMC,172415.500,A,4308.4788,N,07727.2304,W,33.87,278.61,290823,,,A*46
$GPGGA,172415.750,4308.4792,N,07727.2336,W,1,06,2.12,146.7,M,-34.4,M,,*53
$GPRMC,172416.000,A,4308.4796,N,07727.2368,W,33.64,278.99,290823,,,A*4F
$GPGGA,172416.250,4308.4800,N,07727.2399,W,1,07,1.07,146.5,M,-34.4,M,,*50
$GPRMC,172416.500,A,4308.4805,N,07727.2430,W,33.31,279.49,290823,,,A*49
$GPGGA,172416.750,4308.4809,N,07727.2461,W,1,06,2.12,146.4,M,-34.4,M,,*5B
$GPRMC,172417.000,A,4308.4814,N,07727.2492,W,33.09,279.82,290823,,,A*49
$GPGGA,172417.250,4308.4818,N,07727.2523,W,1,06,2.12,146.2,M,-34.4,M,,*5E
$GPRMC,172417.500,A,4308.4822,N,07727.2553,W,33.11,279.87,290823,,,A*49
$GPGGA,172417.750,4308.4826,N,07727.2584,W,1,06,2.12,146.2,M,-34.4,M,,*5B
$GPRMC,172418.000,A,4308.4830,N,07727.2615,W,33.16,279.75,290823,,,A*4B
$GPGGA,172418.250,4308.4834,N,07727.2645,W,1,06,3.08,146.1,M,-34.4,M,,*55
$GPRMC,172418.500,A,4308.4838,N,07727.2676,W,32.86,279.40,290823,,,A*4D
$GPGGA,172418.750,4308.4842,N,07727.2707,W,1,06,2.12,146.1,M,-34.4,M,,*5C
$GPRMC,172419.000,A,4308.4845,N,07727.2737,W,32.78,279.01,290823,,,A*43
$GPGGA,172419.250,4308.4849,N,07727.2767,W,1,06,3.08,146.0,M,-34.4,M,,*5E
$GPRMC,172419.500,A,4308.4853,N,07727.2798,W,32.45,279.04,290823,,,A*4F
$GPGGA,172419.750,4308.4857,N,07727.2828,W,1,06,2.12,145.9,M,-34.4,M,,*50
$GPRMC,172420.000,A,4308.4861,N,07727.2859,W,32.48,279.61,290823,,,A*4D
$GPGGA,172420.250,4308.4866,N,07727.2889,W,1,06,2.12,145.9,M,-34.4,M,,*56
$GPRMC,172420.500,A,4308.4870,N,07727.2919,W,32.33,279.90,290823,,,A*4F
$GPGGA,172420.750,4308.4874,N,07727.2949,W,1,06,2.12,145.8,M,-34.4,M,,*5C
$GPRMC,172421.000,A,4308.4878,N,07727.2979,W,32.13,279.65,290823,,,A*4D
$GPGGA,172421.250,4308.4882,N,07727.3009,W,1,06,2.12,145.8,M,-34.4,M,,*5D
$GPRMC,172421.500,A,4308.4885,N,07727.3039,W,32.03,279.47,290823,,,A*47
$GPGGA,172421.750,4308.4889,N,07727.3068,W,1,06,2.12,145.7,M,-34.4,M,,*5B
$GPRMC,172422.000,A,4308.4893,N,07727.3098,W,31.91,279.67,290823,,,A*47
$GPGGA,172422.250,4308.4898,N,07727.3127,W,1,06,2.12,145.7,M,-34.4,M,,*57
$GPRMC,172422.500,A,4308.4902,N,07727.3156,W,31.49,279.64,290823,,,A*4E
$GPGGA,172422.750,4308.4906,N,07727.3186,W,1,07,1.07,145.7,M,-34.4,M,,*59
$GPRMC,172423.000,A,4308.4911,N,07727.3215,W,31.69,280.08,290823,,,A*42
$GPGGA,172423.250,4308.4916,N,07727.3245,W,1,07,1.08,145.7,M,-34.4,M,,*5F
$GPRMC,172423.500,A,4308.4921,N,07727.3275,W,31.92,280.47,290823,,,A*4D
$GPGGA,172423.750,4308.4925,N,07727.3305,W,1,06,2.12,145.6,M,-34.4,M,,*57
$GPRMC,172424.000,A,4308.4929,N,07727.3335,W,31.90,279.89,290823,,,A*44
$GPGGA,172424.250,4308.4934,N,07727.3365,W,1,07,1.08,145.5,M,-34.4,M,,*59
$GPRMC,172424.500,A,4308.4938,N,07727.3394,W,31.68,279.45,290823,,,A*4D
$GPGGA,172424.750,4308.4942,N,07727.3424,W,1,07,1.07,145.3,M,-34.4,M,,*56
$GPRMC,172425.000,A,4308.4946,N,07727.3454,W,31.44,279.42,290823,,,A*42
$GPGGA,172425.250,4308.4950,N,07727.3483,W,1,07,1.07,145.1,M,-34.4,M,,*5E
$GPRMC,172425.500,A,4308.4954,N,07727.3513,W,31.50,279.70,290823,,,A*42
$GPGGA,172425.750,4308.4958,N,07727.3543,W,1,07,1.07,144.9,M,-34.4,M,,*57
$GPRMC,172426.000,A,4308.4962,N,07727.3572,W,31.28,279.98,290823,,,A*4F
$GPGGA,172426.250,4308.4965,N,07727.3601,W,1,06,2.12,144.7,M,-34.4,M,,*52
$GPRMC,172426.500,A,4308.4969,N,07727.3630,W,30.80,279.70,290823,,,A*41
$GPGGA,172426.750,4308.4972,N,07727.3658,W,1,07,1.07,144.5,M,-34.4,M,,*59
$GPRMC,172427.000,A,4308.4975,N,07727.3687,W,30.50,278.80,290823,,,A*47
$GPGGA,172427.250,4308.4979,N,07727.3715,W,1,07,1.07,144.3,M,-34.4,M,,*58
$GPRMC,172427.500,A,4308.4983,N,07727.3743,W,30.00,279.85,290823,,,A*43
$GPGGA,172427.750,4308.4987,N,07727.3771,W,1,06,2.12,144.1,M,-34.4,M,,*5A
$GPRMC,172428.000,A,4308.4991,N,07727.3800,W,30.09,280.10,290823,,,A*41
$GPGGA,172428.250,4308.4994,N,07727.3828,W,1,06,2.12,143.9,M,-34.4,M,,*5E
$GPRMC,172428.500,A,4308.4998,N,07727.3856,W,30.17,279.98,290823,,,A*47
$GPGGA,172428.750,4308.5002,N,07727.3884,W,1,07,1.07,143.7,M,-34.4,M,,*52
$GPRMC,172429.000,A,4308.5006,N,07727.3913,W,30.27,279.76,290823,,,A*4F
$GPGGA,172429.250,4308.5010,N,07727.3941,W,1,07,1.07,143.5,M,-34.4,M,,*5F
$GPRMC,172429.500,A,4308.5013,N,07727.3970,W,30.45,279.12,290823,,,A*4D
$GPGGA,172429.750,4308.5017,N,07727.3998,W,1,06,2.12,143.3,M,-34.4,M,,*59
$GPRMC,172430.000,A,4308.5020,N,07727.4027,W,30.77,278.05,290823,,,A*4A
$GPGGA,172430.250,4308.5023,N,07727.4056,W,1,06,2.12,143.1,M,-34.4,M,,*5D
$GPRMC,172430.500,A,4308.5027,N,07727.4086,W,31.04,277.40,290823,,,A*48
$GPGGA,172430.750,4308.5030,N,07727.4115,W,1,07,1.07,143.0,M,-34.4,M,,*5B
