Vers 81
USE_SERIAL_FEEDBACK=true
DEVELOPMENT_MODE=false
USE_RMC_ONLY=false

$GPRMC,171034.000,A,4308.3050,N,07726.2589,W,0.58,32.99,260923,,,A*47
$GPGGA,171034.250,4308.3048,N,07726.2595,W,1,04,2.18,154.4,M,-34.4,M,,*53
$GPRMC,171034.500,A,4308.3046,N,07726.2602,W,0.41,32.43,260923,,,A*4A
$GPGGA,171034.750,4308.3045,N,07726.2607,W,1,04,2.18,155.9,M,-34.4,M,,*5F
$GPRMC,171035.000,A,4308.3044,N,07726.2610,W,0.27,31.28,260923,,,A*41
$GPGGA,171035.250,4308.3043,N,07726.2615,W,1,04,2.18,156.6,M,-34.4,M,,*52
$GPRMC,171035.500,A,4308.3041,N,07726.2620,W,0.07,352.15,260923,,,A*78
$GPGGA,171035.750,4308.3040,N,07726.2626,W,1,04,7.09,157.5,M,-34.4,M,,*53
$GPRMC,171036.000,A,4308.3038,N,07726.2629,W,0.15,271.99,260923,,,A*7E
$GPGGA,171036.250,4308.3038,N,07726.2632,W,1,04,2.18,158.0,M,-34.4,M,,*50
$GPRMC,171036.500,A,4308.3037,N,07726.2635,W,0.10,319.80,260923,,,A*7B
$GPGGA,171036.750,4308.3036,N,07726.2639,W,1,04,2.18,158.9,M,-34.4,M,,*59
$GPRMC,171037.000,A,4308.3035,N,07726.2644,W,0.06,279.89,260923,,,A*72
$GPGGA,171037.250,4308.3034,N,07726.2647,W,1,04,2.18,159.9,M,-34.4,M,,*57
$GPRMC,171037.500,A,4308.3035,N,07726.2649,W,0.12,22.62,260923,,,A*46
$GPGGA,171037.750,4308.3035,N,07726.2650,W,1,04,2.18,160.1,M,-34.4,M,,*57
$GPRMC,171038.000,A,4308.3036,N,07726.2650,W,0.24,15.49,260923,,,A*4F
$GPGGA,171038.250,4308.3036,N,07726.2652,W,1,04,2.18,160.5,M,-34.4,M,,*58
$GPRMC,171038.500,A,4308.3036,N,07726.2653,W,0.27,19.29,260923,,,A*40
$GPGGA,171038.750,4308.3037,N,07726.2653,W,1,04,2.17,160.6,M,-34.4,M,,*51
$GPRMC,171039.000,A,4308.3037,N,07726.2653,W,0.26,29.51,260923,,,A*48
$GPGGA,171039.250,4308.3038,N,07726.2652,W,1,04,2.18,160.4,M,-34.4,M,,*56
$GPRMC,171039.500,A,4308.3038,N,07726.2652,W,0.23,40.92,260923,,,A*46
$GPGGA,171039.750,4308.3038,N,07726.2652,W,1,04,2.18,160.2,M,-34.4,M,,*55
$GPRMC,171040.000,A,4308.3039,N,07726.2651,W,0.21,58.20,260923,,,A*4D
$GPGGA,171040.250,4308.3039,N,07726.2652,W,1,04,2.17,160.1,M,-34.4,M,,*53
$GPRMC,171040.500,A,4308.3039,N,07726.2653,W,0.20,43.59,260923,,,A*4F
$GPGGA,171040.750,4308.3039,N,07726.2655,W,1,04,2.18,160.5,M,-34.4,M,,*5A
$GPRMC,171041.000,A,4308.3039,N,07726.2656,W,0.15,45.89,260923,,,A*43
$GPGGA,171041.250,4308.3040,N,07726.2656,W,1,04,2.17,160.9,M,-34.4,M,,*50
$GPRMC,171041.500,A,4308.3040,N,07726.2657,W,0.17,62.65,260923,,,A*4C
$GPGGA,171041.750,4308.3040,N,07726.2657,W,1,04,2.17,161.1,M,-34.4,M,,*5D
$GPRMC,171042.000,A,4308.3041,N,07726.2656,W,0.21,68.17,260923,,,A*40
$GPGGA,171042.250,4308.3042,N,07726.2655,W,1,04,2.17,161.3,M,-34.4,M,,*59
$GPRMC,171042.500,A,4308.3042,N,07726.2656,W,0.19,70.45,260923,,,A*43
$GPGGA,171042.750,4308.3042,N,07726.2658,W,1,04,2.17,161.7,M,-34.4,M,,*55
$GPRMC,171043.000,A,4308.3042,N,07726.2660,W,0.04,355.15,260923,,,A*7F
$GPGGA,171043.250,4308.3043,N,07726.2659,W,1,04,7.08,162.0,M,-34.4,M,,*5E
$GPRMC,171043.500,A,4308.3043,N,07726.2658,W,0.09,61.81,260923,,,A*44
$GPGGA,171043.750,4308.3044,N,07726.2657,W,1,04,2.17,162.1,M,-34.4,M,,*58
$GPRMC,171044.000,A,4308.3045,N,07726.2656,W,0.21,36.21,260923,,,A*4C
$GPGGA,171044.250,4308.3045,N,07726.2655,W,1,04,2.18,162.2,M,-34.4,M,,*55
$GPRMC,171044.500,A,4308.3046,N,07726.2655,W,0.20,49.16,260923,,,A*44
$GPGGA,171044.750,4308.3046,N,07726.2655,W,1,04,2.17,162.2,M,-34.4,M,,*5C
$GPRMC,171045.000,A,4308.3045,N,07726.2655,W,0.01,189.03,260923,,,A*79
$GPGGA,171045.250,4308.3045,N,07726.2655,W,1,04,2.17,162.0,M,-34.4,M,,*59
$GPRMC,171045.500,A,4308.3045,N,07726.2655,W,0.14,222.55,260923,,,A*79
$GPGGA,171045.750,4308.3045,N,07726.2654,W,1,04,2.17,161.7,M,-34.4,M,,*59
$GPRMC,171046.000,A,4308.3045,N,07726.2653,W,0.19,202.60,260923,,,A*70
$GPGGA,171046.250,4308.3045,N,07726.2652,W,1,04,2.17,161.5,M,-34.4,M,,*5B
$GPRMC,171046.500,A,4308.3045,N,07726.2652,W,0.24,219.99,260923,,,A*76
$GPGGA,171046.750,4308.3045,N,07726.2652,W,1,04,2.17,161.1,M,-34.4,M,,*5A
$GPRMC,171047.000,A,4308.3045,N,07726.2651,W,0.20,232.56,260923,,,A*7F
$GPGGA,171047.250,4308.3045,N,07726.2650,W,1,04,2.17,160.8,M,-34.4,M,,*54
$GPRMC,171047.500,A,4308.3046,N,07726.2648,W,0.20,231.61,260923,,,A*76
$GPGGA,171047.750,4308.3046,N,07726.2645,W,1,04,2.17,160.0,M,-34.4,M,,*5E
$GPRMC,171048.000,A,4308.3046,N,07726.2644,W,0.24,213.73,260923,,,A*77
$GPGGA,171048.250,4308.3046,N,07726.2642,W,1,04,2.17,159.5,M,-34.4,M,,*5C
$GPRMC,171048.500,A,4308.3047,N,07726.2640,W,0.27,204.24,260923,,,A*70
$GPGGA,171048.750,4308.3047,N,07726.2637,W,1,04,2.17,158.8,M,-34.4,M,,*56
$GPRMC,171049.000,A,4308.3048,N,07726.2635,W,0.24,205.52,260923,,,A*7A
$GPGGA,171049.250,4308.3049,N,07726.2632,W,1,04,2.17,158.1,M,-34.4,M,,*50
$GPRMC,171049.500,A,4308.3050,N,07726.2629,W,0.24,197.02,260923,,,A*76
$GPGGA,171049.750,4308.3050,N,07726.2625,W,1,04,2.17,157.2,M,-34.4,M,,*57
$GPRMC,171050.000,A,4308.3051,N,07726.2622,W,0.18,198.37,260923,,,A*77
$GPGGA,171050.250,4308.3052,N,07726.2619,W,1,04,2.17,156.4,M,-34.4,M,,*50
$GPRMC,171050.500,A,4308.3054,N,07726.2615,W,0.08,150.85,260923,,,A*7F
$GPGGA,171050.750,4308.3055,N,07726.2612,W,1,04,2.17,155.8,M,-34.4,M,,*56
$GPRMC,171051.000,A,4308.3056,N,07726.2610,W,0.10,1.03,260923,,,A*7E
$GPGGA,171051.250,4308.3057,N,07726.2607,W,1,04,7.08,155.2,M,-34.4,M,,*55
$GPRMC,171051.500,A,4308.3058,N,07726.2604,W,0.11,16.32,260923,,,A*45
$GPGGA,171051.750,4308.3058,N,07726.2602,W,1,04,2.17,154.4,M,-34.4,M,,*56
$GPRMC,171052.000,A,4308.3059,N,07726.2598,W,0.13,44.09,260923,,,A*49
$GPGGA,171052.250,4308.3060,N,07726.2595,W,1,04,2.17,153.6,M,-34.4,M,,*53
$GPRMC,171052.500,A,4308.3061,N,07726.2593,W,0.15,55.56,260923,,,A*40
$GPGGA,171052.750,4308.3061,N,07726.2591,W,1,04,2.17,152.9,M,-34.4,M,,*5D
$GPRMC,171053.000,A,4308.3062,N,07726.2590,W,0.09,52.04,260923,,,A*49
$GPGGA,171053.250,4308.3062,N,07726.2587,W,1,04,2.17,152.3,M,-34.4,M,,*57
$GPRMC,171053.500,A,4308.3063,N,07726.2585,W,0.15,41.45,260923,,,A*43
$GPGGA,171053.750,4308.3064,N,07726.2582,W,1,04,2.17,151.6,M,-34.4,M,,*57
$GPRMC,171054.000,A,4308.3064,N,07726.2580,W,0.16,43.65,260923,,,A*40
$GPGGA,171054.250,4308.3064,N,07726.2579,W,1,04,2.17,151.1,M,-34.4,M,,*56
$GPRMC,171054.500,A,4308.3065,N,07726.2577,W,0.13,37.95,260923,,,A*45
$GPGGA,171054.750,4308.3065,N,07726.2575,W,1,04,2.17,150.6,M,-34.4,M,,*58
$GPRMC,171055.000,A,4308.3065,N,07726.2573,W,0.20,96.67,260923,,,A*43
$GPGGA,171055.250,4308.3065,N,07726.2571,W,1,04,2.17,150.3,M,-34.4,M,,*5D
$GPRMC,171055.500,A,4308.3066,N,07726.2569,W,0.29,82.87,260923,,,A*4C
$GPGGA,171055.750,4308.3066,N,07726.2568,W,1,04,2.17,150.1,M,-34.4,M,,*51
$GPRMC,171056.000,A,4308.3067,N,07726.2568,W,0.31,55.03,260923,,,A*45
$GPGGA,171056.250,4308.3060,N,07726.2594,W,1,06,1.31,154.5,M,-34.4,M,,*57
$GPRMC,171056.500,A,4308.3057,N,07726.2602,W,0.18,38.40,260923,,,A*4B
$GPGGA,171056.750,4308.3056,N,07726.2606,W,1,06,1.31,156.4,M,-34.4,M,,*5C
$GPRMC,171057.000,A,4308.3055,N,07726.2609,W,0.14,19.78,260923,,,A*42
$GPGGA,171057.250,4308.3055,N,07726.2611,W,1,06,1.31,157.1,M,-34.4,M,,*59
$GPRMC,171057.500,A,4308.3054,N,07726.2612,W,0.18,5.97,260923,,,A*7C
$GPGGA,171057.750,4308.3054,N,07726.2613,W,1,06,1.39,157.4,M,-34.4,M,,*52
$GPRMC,171058.000,A,4308.3053,N,07726.2614,W,0.11,16.03,260923,,,A*41
$GPGGA,171058.250,4308.3053,N,07726.2614,W,1,06,1.31,157.6,M,-34.4,M,,*52
$GPRMC,171058.500,A,4308.3053,N,07726.2615,W,0.13,4.89,260923,,,A*76
$GPGGA,171058.750,4308.3053,N,07726.2615,W,1,06,1.39,157.7,M,-34.4,M,,*5F
$GPRMC,171059.000,A,4308.3053,N,07726.2615,W,0.17,340.91,260923,,,A*7C
$GPGGA,171059.250,4308.3053,N,07726.2615,W,1,06,1.31,157.9,M,-34.4,M,,*5D
$GPRMC,171059.500,A,4308.3053,N,07726.2615,W,0.12,2.26,260923,,,A*75
$GPGGA,171059.750,4308.3052,N,07726.2615,W,1,06,1.39,158.0,M,-34.4,M,,*57
$GPRMC,171100.000,A,4308.3052,N,07726.2615,W,0.01,359.94,260923,,,A*7A
$GPGGA,171100.250,4308.3052,N,07726.2615,W,1,06,1.39,158.0,M,-34.4,M,,*5F
$GPRMC,171100.500,A,4308.3052,N,07726.2615,W,0.07,16.85,260923,,,A*41
$GPGGA,171100.750,4308.3052,N,07726.2615,W,1,06,1.31,158.0,M,-34.4,M,,*52
$GPRMC,171101.000,A,4308.3052,N,07726.2615,W,0.02,31.90,260923,,,A*41
$GPGGA,171101.250,4308.3051,N,07726.2615,W,1,06,1.31,158.0,M,-34.4,M,,*55
$GPRMC,171101.500,A,4308.3051,N,07726.2615,W,0.11,209.02,260923,,,A*77
$GPGGA,171101.750,4308.3051,N,07726.2615,W,1,06,1.31,158.0,M,-34.4,M,,*50
$GPRMC,171102.000,A,4308.3051,N,07726.2615,W,0.12,227.83,260923,,,A*77
$GPGGA,171102.250,4308.3051,N,07726.2615,W,1,06,1.31,157.9,M,-34.4,M,,*50
$GPRMC,171102.500,A,4308.3051,N,07726.2614,W,0.08,260.40,260923,,,A*74
$GPGGA,171102.750,4308.3051,N,07726.2614,W,1,06,1.31,157.9,M,-34.4,M,,*54
$GPRMC,171103.000,A,4308.3051,N,07726.2614,W,0.14,260.69,260923,,,A*76
$GPGGA,171103.250,4308.3051,N,07726.2614,W,1,06,1.31,157.9,M,-34.4,M,,*50
$GPRMC,171103.500,A,4308.3052,N,07726.2614,W,0.15,279.29,260923,,,A*7D
$GPGGA,171103.750,4308.3052,N,07726.2614,W,1,06,1.31,157.8,M,-34.4,M,,*57
$GPRMC,171104.000,A,4308.3052,N,07726.2614,W,0.12,308.47,260923,,,A*77
$GPGGA,171104.250,4308.3053,N,07726.2613,W,1,05,1.44,157.6,M,-34.4,M,,*5C
$GPRMC,171104.500,A,4308.3053,N,07726.2613,W,0.33,348.24,260923,,,A*76
$GPGGA,171104.750,4308.3054,N,07726.2613,W,1,06,1.39,157.5,M,-34.4,M,,*54
$GPRMC,171105.000,A,4308.3056,N,07726.2613,W,0.70,354.68,260923,,,A*75
$GPGGA,171105.250,4308.3058,N,07726.2612,W,1,06,1.39,157.4,M,-34.4,M,,*5C
$GPRMC,171105.500,A,4308.3060,N,07726.2612,W,1.28,2.31,260923,,,A*74
$GPGGA,171105.750,4308.3062,N,07726.2611,W,1,06,1.39,157.3,M,-34.4,M,,*54
$GPRMC,171106.000,A,4308.3065,N,07726.2611,W,3.45,2.39,260923,,,A*75
$GPGGA,171106.250,4308.3068,N,07726.2611,W,1,06,1.39,157.2,M,-34.4,M,,*59
$GPRMC,171106.500,A,4308.3071,N,07726.2611,W,4.02,358.31,260923,,,A*75
$GPGGA,171106.750,4308.3074,N,07726.2610,W,1,06,1.39,157.2,M,-34.4,M,,*50
$GPRMC,171107.000,A,4308.3077,N,07726.2610,W,4.12,1.59,260923,,,A*76
$GPGGA,171107.250,4308.3080,N,07726.2610,W,1,06,1.39,157.1,M,-34.4,M,,*5C
$GPRMC,171107.500,A,4308.3083,N,07726.2610,W,4.25,1.41,260923,,,A*75
$GPGGA,171107.750,4308.3086,N,07726.2610,W,1,06,1.39,157.0,M,-34.4,M,,*5E
$GPRMC,171108.000,A,4308.3088,N,07726.2610,W,3.96,358.80,260923,,,A*79
$GPGGA,171108.250,4308.3091,N,07726.2610,W,1,06,1.39,157.0,M,-34.4,M,,*52
$GPRMC,171108.500,A,4308.3094,N,07726.2610,W,4.53,0.90,260923,,,A*70
$GPGGA,171108.750,4308.3098,N,07726.2609,W,1,06,1.39,156.9,M,-34.4,M,,*5E
$GPRMC,171109.000,A,4308.3101,N,07726.2609,W,4.80,0.94,260923,,,A*7B
$GPGGA,171109.250,4308.3104,N,07726.2609,W,1,06,1.39,156.7,M,-34.4,M,,*50
$GPRMC,171109.500,A,4308.3107,N,07726.2609,W,4.68,1.28,260923,,,A*78
$GPGGA,171109.750,4308.3110,N,07726.2609,W,1,06,1.39,156.6,M,-34.4,M,,*51
$GPRMC,171110.000,A,4308.3113,N,07726.2609,W,4.22,2.18,260923,,,A*7E
$GPGGA,171110.250,4308.3115,N,07726.2609,W,1,06,1.39,156.6,M,-34.4,M,,*59
$GPRMC,171110.500,A,4308.3118,N,07726.2609,W,4.03,359.75,260923,,,A*75
$GPGGA,171110.750,4308.3121,N,07726.2609,W,1,06,1.39,156.5,M,-34.4,M,,*58
$GPRMC,171111.000,A,4308.3123,N,07726.2608,W,4.02,2.86,260923,,,A*78
$GPGGA,171111.250,4308.3126,N,07726.2608,W,1,06,1.39,156.5,M,-34.4,M,,*5A
$GPRMC,171111.500,A,4308.3129,N,07726.2608,W,4.14,4.26,260923,,,A*7C
$GPGGA,171111.750,4308.3132,N,07726.2608,W,1,06,1.39,156.4,M,-34.4,M,,*5B
$GPRMC,171112.000,A,4308.3135,N,07726.2608,W,4.56,2.08,260923,,,A*7B
$GPGGA,171112.250,4308.3138,N,07726.2607,W,1,06,1.39,156.4,M,-34.4,M,,*58
$GPRMC,171112.500,A,4308.3140,N,07726.2607,W,3.95,6.33,260923,,,A*77
$GPGGA,171112.750,4308.3143,N,07726.2606,W,1,06,1.39,156.4,M,-34.4,M,,*50
$GPRMC,171113.000,A,4308.3144,N,07726.2606,W,3.33,13.88,260923,,,A*4E
$GPGGA,171113.250,4308.3146,N,07726.2605,W,1,06,1.39,156.4,M,-34.4,M,,*52
$GPRMC,171113.500,A,4308.3148,N,07726.2604,W,2.94,13.83,260923,,,A*42
$GPGGA,171113.750,4308.3150,N,07726.2603,W,1,06,1.39,156.4,M,-34.4,M,,*56
$GPRMC,171114.000,A,4308.3151,N,07726.2602,W,2.40,21.87,260923,,,A*42
$GPGGA,171114.250,4308.3153,N,07726.2601,W,1,06,1.31,156.4,M,-34.4,M,,*5D
$GPRMC,171114.500,A,4308.3154,N,07726.2600,W,2.37,32.18,260923,,,A*44
$GPGGA,171114.750,4308.3155,N,07726.2598,W,1,06,1.31,156.4,M,-34.4,M,,*5D
$GPRMC,171115.000,A,4308.3156,N,07726.2596,W,2.27,48.35,260923,,,A*4D
$GPGGA,171115.250,4308.3157,N,07726.2594,W,1,06,1.31,156.4,M,-34.4,M,,*57
$GPRMC,171115.500,A,4308.3158,N,07726.2592,W,2.78,51.15,260923,,,A*42
$GPGGA,171115.750,4308.3157,N,07726.2588,W,1,06,1.31,156.4,M,-34.4,M,,*5F
$GPRMC,171116.000,A,4308.3158,N,07726.2586,W,2.46,71.20,260923,,,A*48
$GPGGA,171116.250,4308.3159,N,07726.2584,W,1,06,1.31,156.4,M,-34.4,M,,*5B
$GPRMC,171116.500,A,4308.3160,N,07726.2583,W,2.36,49.44,260923,,,A*4D
$GPGGA,171116.750,4308.3161,N,07726.2580,W,1,06,1.31,156.4,M,-34.4,M,,*51
$GPRMC,171117.000,A,4308.3160,N,07726.2578,W,1.96,75.20,260923,,,A*49
$GPGGA,171117.250,4308.3160,N,07726.2576,W,1,06,1.31,156.4,M,-34.4,M,,*5D
$GPRMC,171117.500,A,4308.3159,N,07726.2575,W,1.54,97.93,260923,,,A*41
$GPGGA,171117.750,4308.3159,N,07726.2573,W,1,06,1.31,156.5,M,-34.4,M,,*56
$GPRMC,171118.000,A,4308.3159,N,07726.2573,W,0.73,106.17,260923,,,A*7C
$GPGGA,171118.250,4308.3159,N,07726.2573,W,1,06,1.31,156.4,M,-34.4,M,,*5D
$GPRMC,171118.500,A,4308.3159,N,07726.2573,W,0.10,133.67,260923,,,A*7D
$GPGGA,171118.750,4308.3159,N,07726.2575,W,1,06,1.31,156.4,M,-34.4,M,,*5E
$GPRMC,171119.000,A,4308.3159,N,07726.2577,W,1.10,265.10,260923,,,A*7C
$GPGGA,171119.250,4308.3158,N,07726.2581,W,1,06,1.31,156.4,M,-34.4,M,,*50
$GPRMC,171119.500,A,4308.3158,N,07726.2583,W,2.51,268.13,260923,,,A*7B
$GPGGA,171119.750,4308.3158,N,07726.2587,W,1,06,1.31,156.4,M,-34.4,M,,*53
$GPRMC,171120.000,A,4308.3158,N,07726.2591,W,4.58,269.61,260923,,,A*7C
$GPGGA,171120.250,4308.3158,N,07726.2596,W,1,06,1.39,156.4,M,-34.4,M,,*54
$GPRMC,171120.500,A,4308.3158,N,07726.2602,W,5.60,272.34,260923,,,A*70
$GPGGA,171120.750,4308.3159,N,07726.2608,W,1,06,1.39,156.4,M,-34.4,M,,*54
$GPRMC,171121.000,A,4308.3159,N,07726.2615,W,7.12,275.11,260923,,,A*74
$GPGGA,171121.250,4308.3159,N,07726.2622,W,1,06,1.39,156.5,M,-34.4,M,,*59
$GPRMC,171121.500,A,4308.3160,N,07726.2630,W,7.92,277.08,260923,,,A*7E
$GPGGA,171121.750,4308.3161,N,07726.2638,W,1,06,1.39,156.5,M,-34.4,M,,*5C
$GPRMC,171122.000,A,4308.3162,N,07726.2646,W,8.41,278.97,260923,,,A*73
$GPGGA,171122.250,4308.3163,N,07726.2654,W,1,06,1.39,156.6,M,-34.4,M,,*51
$GPRMC,171122.500,A,4308.3164,N,07726.2662,W,8.86,280.87,260923,,,A*7B
$GPGGA,171122.750,4308.3166,N,07726.2671,W,1,06,1.39,156.8,M,-34.4,M,,*58
$GPRMC,171123.000,A,4308.3167,N,07726.2680,W,10.00,279.15,260923,,,A*4A
$GPGGA,171123.250,4308.3168,N,07726.2690,W,1,06,1.39,156.9,M,-34.4,M,,*5C
$GPRMC,171123.500,A,4308.3169,N,07726.2700,W,10.79,277.71,260923,,,A*4A
$GPGGA,171123.750,4308.3170,N,07726.2710,W,1,06,1.31,157.0,M,-34.4,M,,*59
$GPRMC,171124.000,A,4308.3171,N,07726.2721,W,11.42,275.97,260923,,,A*41
$GPGGA,171124.250,4308.3172,N,07726.2732,W,1,06,1.31,157.0,M,-34.4,M,,*59
$GPRMC,171124.500,A,4308.3174,N,07726.2743,W,11.78,277.60,260923,,,A*46
$GPGGA,171124.750,4308.3176,N,07726.2756,W,1,06,1.31,157.1,M,-34.4,M,,*5B
$GPRMC,171125.000,A,4308.3179,N,07726.2768,W,12.63,282.04,260923,,,A*47
$GPGGA,171125.250,4308.3183,N,07726.2781,W,1,06,1.31,157.0,M,-34.4,M,,*5E
$GPRMC,171125.500,A,4308.3186,N,07726.2793,W,13.33,285.25,260923,,,A*46
$GPGGA,171125.750,4308.3189,N,07726.2806,W,1,06,1.31,157.0,M,-34.4,M,,*51
$GPRMC,171126.000,A,4308.3192,N,07726.2818,W,13.82,287.27,260923,,,A*43
$GPGGA,171126.250,4308.3195,N,07726.2831,W,1,06,1.31,157.0,M,-34.4,M,,*5E
$GPRMC,171126.500,A,4308.3199,N,07726.2844,W,14.22,288.73,260923,,,A*47
$GPGGA,171126.750,4308.3203,N,07726.2857,W,1,06,1.31,157.1,M,-34.4,M,,*56
$GPRMC,171127.000,A,4308.3206,N,07726.2870,W,14.49,290.51,260923,,,A*45
$GPGGA,171127.250,4308.3210,N,07726.2883,W,1,06,1.39,157.2,M,-34.4,M,,*52
$GPRMC,171127.500,A,4308.3215,N,07726.2897,W,15.08,292.03,260923,,,A*4A
$GPGGA,171127.750,4308.3220,N,07726.2910,W,1,06,1.30,157.2,M,-34.4,M,,*56
$GPRMC,171128.000,A,4308.3226,N,07726.2924,W,15.62,294.76,260923,,,A*41
$GPGGA,171128.250,4308.3232,N,07726.2938,W,1,06,1.39,157.3,M,-34.4,M,,*5D
$GPRMC,171128.500,A,4308.3238,N,07726.2952,W,16.07,297.24,260923,,,A*4E
$GPGGA,171128.750,4308.3244,N,07726.2965,W,1,06,1.31,157.4,M,-34.4,M,,*5E
$GPRMC,171129.000,A,4308.3250,N,07726.2979,W,16.62,299.11,260923,,,A*46
$GPGGA,171129.250,4308.3256,N,07726.2993,W,1,06,1.39,157.4,M,-34.4,M,,*58
$GPRMC,171129.500,A,4308.3263,N,07726.3008,W,17.10,299.65,260923,,,A*4A
$GPGGA,171129.750,4308.3269,N,07726.3023,W,1,06,1.31,157.5,M,-34.4,M,,*5B
$GPRMC,171130.000,A,4308.3276,N,07726.3038,W,17.97,299.08,260923,,,A*44
$GPGGA,171130.250,4308.3283,N,07726.3053,W,1,06,1.39,157.5,M,-34.4,M,,*5D
$GPRMC,171130.500,A,4308.3290,N,07726.3068,W,18.33,300.41,260923,,,A*41
$GPGGA,171130.750,4308.3296,N,07726.3083,W,1,06,1.31,157.6,M,-34.4,M,,*5A
$GPRMC,171131.000,A,4308.3303,N,07726.3098,W,18.55,300.95,260923,,,A*48
$GPGGA,171131.250,4308.3309,N,07726.3114,W,1,06,1.39,157.7,M,-34.4,M,,*5F
$GPRMC,171131.500,A,4308.3316,N,07726.3129,W,18.77,301.75,260923,,,A*4D
$GPGGA,171131.750,4308.3324,N,07726.3144,W,1,06,1.30,157.7,M,-34.4,M,,*59
$GPRMC,171132.000,A,4308.3331,N,07726.3160,W,19.19,302.19,260923,,,A*43
$GPGGA,171132.250,4308.3342,N,07726.3178,W,1,07,1.34,157.8,M,-34.4,M,,*5A
$GPRMC,171132.500,A,4308.3350,N,07726.3195,W,20.27,303.34,260923,,,A*42
$GPGGA,171132.750,4308.3359,N,07726.3212,W,1,07,1.25,157.8,M,-34.4,M,,*5A
$GPRMC,171133.000,A,4308.3368,N,07726.3229,W,20.55,303.72,260923,,,A*4E
$GPGGA,171133.250,4308.3377,N,07726.3246,W,1,07,1.34,157.8,M,-34.4,M,,*53
$GPRMC,171133.500,A,4308.3386,N,07726.3263,W,20.98,303.41,260923,,,A*44
$GPGGA,171133.750,4308.3395,N,07726.3280,W,1,07,1.25,157.8,M,-34.4,M,,*50
$GPRMC,171134.000,A,4308.3404,N,07726.3298,W,21.22,303.56,260923,,,A*49
$GPGGA,171134.250,4308.3413,N,07726.3315,W,1,07,1.33,157.8,M,-34.4,M,,*51
$GPRMC,171134.500,A,4308.3421,N,07726.3332,W,21.28,303.47,260923,,,A*40
$GPGGA,171134.750,4308.3429,N,07726.3349,W,1,07,1.24,157.8,M,-34.4,M,,*52
$GPRMC,171135.000,A,4308.3437,N,07726.3366,W,21.06,302.65,260923,,,A*4F
$GPGGA,171135.250,4308.3445,N,07726.3383,W,1,07,1.34,157.9,M,-34.4,M,,*5A
$GPRMC,171135.500,A,4308.3453,N,07726.3400,W,20.68,301.86,260923,,,A*48
$GPGGA,171135.750,4308.3460,N,07726.3417,W,1,07,1.25,158.1,M,-34.4,M,,*55
$GPRMC,171136.000,A,4308.3466,N,07726.3433,W,19.88,300.29,260923,,,A*48
$GPGGA,171136.250,4308.3473,N,07726.3449,W,1,07,1.33,158.2,M,-34.4,M,,*5E
$GPRMC,171136.500,A,4308.3479,N,07726.3465,W,19.16,299.25,260923,,,A*4A
$GPGGA,171136.750,4308.3485,N,07726.3480,W,1,07,1.25,158.3,M,-34.4,M,,*51
$GPRMC,171137.000,A,4308.3492,N,07726.3495,W,18.13,298.97,260923,,,A*48
$GPGGA,171137.250,4308.3498,N,07726.3510,W,1,07,1.34,158.4,M,-34.4,M,,*56
$GPRMC,171137.500,A,4308.3505,N,07726.3525,W,17.69,300.42,260923,,,A*42
$GPGGA,171137.750,4308.3512,N,07726.3539,W,1,07,1.25,158.5,M,-34.4,M,,*5A
$GPRMC,171138.000,A,4308.3519,N,07726.3553,W,17.13,303.68,260923,,,A*42
$GPGGA,171138.250,4308.3527,N,07726.3566,W,1,07,1.34,158.6,M,-34.4,M,,*5F
$GPRMC,171138.500,A,4308.3535,N,07726.3580,W,16.35,307.19,260923,,,A*40
$GPGGA,171138.750,4308.3544,N,07726.3593,W,1,07,1.25,158.6,M,-34.4,M,,*55
$GPRMC,171139.000,A,4308.3551,N,07726.3604,W,15.71,311.77,260923,,,A*45
$GPGGA,171139.250,4308.3560,N,07726.3615,W,1,07,1.33,158.7,M,-34.4,M,,*5C
$GPRMC,171139.500,A,4308.3568,N,07726.3625,W,15.28,316.30,260923,,,A*41
$GPGGA,171139.750,4308.3578,N,07726.3634,W,1,07,1.25,158.7,M,-34.4,M,,*54
$GPRMC,171140.000,A,4308.3587,N,07726.3643,W,14.72,321.36,260923,,,A*47
$GPGGA,171140.250,4308.3597,N,07726.3651,W,1,07,1.34,158.7,M,-34.4,M,,*5D
$GPRMC,171140.500,A,4308.3606,N,07726.3659,W,14.59,325.43,260923,,,A*4C
$GPGGA,171140.750,4308.3615,N,07726.3666,W,1,07,1.25,158.8,M,-34.4,M,,*5A
$GPRMC,171141.000,A,4308.3624,N,07726.3673,W,14.18,329.28,260923,,,A*44
$GPGGA,171141.250,4308.3634,N,07726.3679,W,1,07,1.25,158.8,M,-34.4,M,,*53
$GPRMC,171141.500,A,4308.3643,N,07726.3685,W,14.14,332.83,260923,,,A*4E
$GPGGA,171141.750,4308.3653,N,07726.3691,W,1,07,1.25,158.9,M,-34.4,M,,*50
$GPRMC,171142.000,A,4308.3663,N,07726.3696,W,14.49,336.52,260923,,,A*48
$GPGGA,171142.250,4308.3673,N,07726.3701,W,1,07,1.34,159.0,M,-34.4,M,,*54
$GPRMC,171142.500,A,4308.3684,N,07726.3705,W,15.32,340.62,260923,,,A*40
$GPGGA,171142.750,4308.3695,N,07726.3710,W,1,07,1.33,159.1,M,-34.4,M,,*5F
$GPRMC,171143.000,A,4308.3707,N,07726.3713,W,16.19,345.27,260923,,,A*47
$GPGGA,171143.250,4308.3718,N,07726.3717,W,1,07,1.33,159.1,M,-34.4,M,,*58
$GPRMC,171143.500,A,4308.3730,N,07726.3721,W,16.61,347.20,260923,,,A*4D
$GPGGA,171143.750,4308.3741,N,07726.3724,W,1,07,1.33,159.2,M,-34.4,M,,*52
$GPRMC,171144.000,A,4308.3753,N,07726.3727,W,16.81,347.84,260923,,,A*4C
$GPGGA,171144.250,4308.3764,N,07726.3730,W,1,07,1.33,159.3,M,-34.4,M,,*53
$GPRMC,171144.500,A,4308.3776,N,07726.3733,W,16.87,349.11,260923,,,A*4F
$GPGGA,171144.750,4308.3788,N,07726.3736,W,1,07,1.33,159.4,M,-34.4,M,,*55
$GPRMC,171145.000,A,4308.3801,N,07726.3738,W,17.31,351.55,260923,,,A*4A
$GPGGA,171145.250,4308.3814,N,07726.3741,W,1,07,1.33,159.5,M,-34.4,M,,*5A
$GPRMC,171145.500,A,4308.3826,N,07726.3744,W,17.54,352.34,260923,,,A*46
$GPGGA,171145.750,4308.3839,N,07726.3746,W,1,07,1.33,159.6,M,-34.4,M,,*54
$GPRMC,171146.000,A,4308.3852,N,07726.3748,W,18.10,353.75,260923,,,A*44
$GPGGA,171146.250,4308.3865,N,07726.3749,W,1,07,1.33,159.8,M,-34.4,M,,*5A
$GPRMC,171146.500,A,4308.3879,N,07726.3749,W,18.64,357.99,260923,,,A*4C
$GPGGA,171146.750,4308.3894,N,07726.3748,W,1,07,1.33,160.0,M,-34.4,M,,*52
$GPRMC,171147.000,A,4308.3908,N,07726.3748,W,19.17,0.73,260923,,,A*4E
$GPGGA,171147.250,4308.3922,N,07726.3747,W,1,07,1.34,160.1,M,-34.4,M,,*53
$GPRMC,171147.500,A,4308.3937,N,07726.3745,W,19.79,2.99,260923,,,A*44
$GPGGA,171147.750,4308.3951,N,07726.3743,W,1,07,1.33,160.2,M,-34.4,M,,*52
$GPRMC,171148.000,A,4308.3966,N,07726.3741,W,20.30,5.06,260923,,,A*48
$GPGGA,171148.250,4308.3981,N,07726.3739,W,1,07,1.34,160.3,M,-34.4,M,,*5E
$GPRMC,171148.500,A,4308.3995,N,07726.3736,W,20.71,6.40,260923,,,A*45
$GPGGA,171148.750,4308.4011,N,07726.3733,W,1,07,1.33,160.5,M,-34.4,M,,*57
$GPRMC,171149.000,A,4308.4027,N,07726.3729,W,21.37,8.48,260923,,,A*4D
$GPGGA,171149.250,4308.4043,N,07726.3725,W,1,07,1.33,160.7,M,-34.4,M,,*51
$GPRMC,171149.500,A,4308.4060,N,07726.3721,W,22.08,10.19,260923,,,A*71
$GPGGA,171149.750,4308.4076,N,07726.3717,W,1,07,1.33,160.8,M,-34.4,M,,*5C
$GPRMC,171150.000,A,4308.4093,N,07726.3713,W,22.50,10.54,260923,,,A*75
$GPGGA,171150.250,4308.4109,N,07726.3710,W,1,07,1.33,161.0,M,-34.4,M,,*56
$GPRMC,171150.500,A,4308.4125,N,07726.3706,W,22.62,10.57,260923,,,A*7A
$GPGGA,171150.750,4308.4141,N,07726.3702,W,1,07,1.33,161.2,M,-34.4,M,,*5E
$GPRMC,171151.000,A,4308.4157,N,07726.3699,W,22.64,10.31,260923,,,A*7A
$GPGGA,171151.250,4308.4173,N,07726.3695,W,1,07,1.33,161.4,M,-34.4,M,,*52
$GPRMC,171151.500,A,4308.4188,N,07726.3692,W,22.55,9.81,260923,,,A*47
$GPGGA,171151.750,4308.4204,N,07726.3689,W,1,07,1.33,161.6,M,-34.4,M,,*5B
$GPRMC,171152.000,A,4308.4219,N,07726.3685,W,22.27,9.59,260923,,,A*4C
$GPGGA,171152.250,4308.4234,N,07726.3682,W,1,07,1.33,161.9,M,-34.4,M,,*5A
$GPRMC,171152.500,A,4308.4250,N,07726.3678,W,21.94,9.43,260923,,,A*46
$GPGGA,171152.750,4308.4265,N,07726.3675,W,1,07,1.33,162.1,M,-34.4,M,,*58
$GPRMC,171153.000,A,4308.4280,N,07726.3672,W,21.72,9.39,260923,,,A*40
$GPGGA,171153.250,4308.4295,N,07726.3669,W,1,07,1.33,162.3,M,-34.4,M,,*5C
$GPRMC,171153.500,A,4308.4310,N,07726.3666,W,21.42,9.38,260923,,,A*4A
$GPGGA,171153.750,4308.4324,N,07726.3662,W,1,07,1.34,162.6,M,-34.4,M,,*5B
$GPRMC,171154.000,A,4308.4338,N,07726.3660,W,20.89,8.92,260923,,,A*43
$GPGGA,171154.250,4308.4352,N,07726.3657,W,1,07,1.33,162.8,M,-34.4,M,,*57
$GPRMC,171154.500,A,4308.4365,N,07726.3653,W,20.39,8.89,260923,,,A*4F
$GPGGA,171154.750,4308.4378,N,07726.3651,W,1,07,1.33,163.0,M,-34.4,M,,*55
$GPRMC,171155.000,A,4308.4391,N,07726.3648,W,19.81,9.03,260923,,,A*40
$GPGGA,171155.250,4308.4404,N,07726.3645,W,1,07,1.33,163.3,M,-34.4,M,,*5B
$GPRMC,171155.500,A,4308.4417,N,07726.3642,W,19.32,8.86,260923,,,A*42
$GPGGA,171155.750,4308.4429,N,07726.3639,W,1,07,1.33,163.6,M,-34.4,M,,*5F
$GPRMC,171156.000,A,4308.4441,N,07726.3637,W,18.76,8.65,260923,,,A*49
$GPGGA,171156.250,4308.4454,N,07726.3634,W,1,07,1.33,163.9,M,-34.4,M,,*51
$GPRMC,171156.500,A,4308.4466,N,07726.3632,W,18.30,8.23,260923,,,A*4C
$GPGGA,171156.750,4308.4478,N,07726.3629,W,1,07,1.33,164.3,M,-34.4,M,,*5B
$GPRMC,171157.000,A,4308.4490,N,07726.3626,W,17.86,8.52,260923,,,A*40
$GPGGA,171157.250,4308.4501,N,07726.3624,W,1,07,1.33,164.7,M,-34.4,M,,*59
$GPRMC,171157.500,A,4308.4512,N,07726.3621,W,17.28,8.72,260923,,,A*4F
$GPGGA,171157.750,4308.4523,N,07726.3618,W,1,07,1.33,165.1,M,-34.4,M,,*54
$GPRMC,171158.000,A,4308.4534,N,07726.3614,W,16.06,8.29,260923,,,A*44
$GPGGA,171158.250,4308.4544,N,07726.3610,W,1,07,1.33,165.6,M,-34.4,M,,*50
$GPRMC,171158.500,A,4308.4553,N,07726.3606,W,14.54,6.95,260923,,,A*4F
$GPGGA,171158.750,4308.4562,N,07726.3603,W,1,07,1.33,166.0,M,-34.4,M,,*56
$GPRMC,171159.000,A,4308.4569,N,07726.3600,W,13.08,5.51,260923,,,A*41
$GPGGA,171159.250,4308.4575,N,07726.3599,W,1,07,1.33,166.4,M,-34.4,M,,*50
$GPRMC,171159.500,A,4308.4581,N,07726.3598,W,11.53,4.64,260923,,,A*4B
$GPGGA,171159.750,4308.4585,N,07726.3598,W,1,07,1.33,166.8,M,-34.4,M,,*57
$GPRMC,171200.000,A,4308.4586,N,07726.3597,W,9.33,1.49,260923,,,A*7C
$GPGGA,171200.250,4308.4588,N,07726.3596,W,1,07,1.33,167.3,M,-34.4,M,,*54
$GPRMC,171200.500,A,4308.4590,N,07726.3595,W,7.63,3.75,260923,,,A*7A
$GPGGA,171200.750,4308.4591,N,07726.3594,W,1,07,1.33,167.8,M,-34.4,M,,*50
$GPRMC,171201.000,A,4308.4593,N,07726.3593,W,6.09,3.64,260923,,,A*76
$GPGGA,171201.250,4308.4596,N,07726.3593,W,1,07,1.33,168.3,M,-34.4,M,,*50
$GPRMC,171201.500,A,4308.4600,N,07726.3593,W,5.80,2.91,260923,,,A*73
$GPGGA,171201.750,4308.4604,N,07726.3594,W,1,07,1.33,168.7,M,-34.4,M,,*5E
$GPRMC,171202.000,A,4308.4608,N,07726.3595,W,6.17,350.68,260923,,,A*74
$GPGGA,171202.250,4308.4612,N,07726.3597,W,1,07,1.33,169.5,M,-34.4,M,,*5F
$GPRMC,171202.500,A,4308.4616,N,07726.3599,W,7.31,341.09,260923,,,A*70
$GPGGA,171202.750,4308.4621,N,07726.3602,W,1,07,1.25,169.9,M,-34.4,M,,*5E
$GPRMC,171203.000,A,4308.4627,N,07726.3607,W,9.57,329.49,260923,,,A*76
$GPGGA,171203.250,4308.4632,N,07726.3614,W,1,07,1.25,170.0,M,-34.4,M,,*5E
$GPRMC,171203.500,A,4308.4636,N,07726.3621,W,11.22,317.66,260923,,,A*4C
$GPGGA,171203.750,4308.4641,N,07726.3629,W,1,07,1.33,170.1,M,-34.4,M,,*57
$GPRMC,171204.000,A,4308.4646,N,07726.3639,W,12.52,301.57,260923,,,A*41
$GPGGA,171204.250,4308.4649,N,07726.3651,W,1,07,1.33,170.3,M,-34.4,M,,*50
$GPRMC,171204.500,A,4308.4653,N,07726.3663,W,14.19,292.91,260923,,,A*47
$GPGGA,171204.750,4308.4656,N,07726.3677,W,1,07,1.33,170.5,M,-34.4,M,,*59
$GPRMC,171205.000,A,4308.4659,N,07726.3693,W,16.86,282.62,260923,,,A*4F
$GPGGA,171205.250,4308.4661,N,07726.3710,W,1,07,1.25,170.7,M,-34.4,M,,*5C
$GPRMC,171205.500,A,4308.4662,N,07726.3727,W,18.37,278.63,260923,,,A*4C
$GPGGA,171205.750,4308.4664,N,07726.3745,W,1,07,1.25,171.0,M,-34.4,M,,*5A
$GPRMC,171206.000,A,4308.4665,N,07726.3765,W,20.46,274.89,260923,,,A*4E
$GPGGA,171206.250,4308.4665,N,07726.3785,W,1,07,1.25,171.2,M,-34.4,M,,*53
$GPRMC,171206.500,A,4308.4666,N,07726.3805,W,21.30,273.54,260923,,,A*46
$GPGGA,171206.750,4308.4666,N,07726.3826,W,1,07,1.25,171.3,M,-34.4,M,,*52
$GPRMC,171207.000,A,4308.4667,N,07726.3847,W,22.41,272.47,260923,,,A*43
$GPGGA,171207.250,4308.4667,N,07726.3869,W,1,07,1.25,171.4,M,-34.4,M,,*5B
$GPRMC,171207.500,A,4308.4668,N,07726.3891,W,23.33,272.30,260923,,,A*46
$GPGGA,171207.750,4308.4668,N,07726.3915,W,1,07,1.25,171.5,M,-34.4,M,,*5A
$GPRMC,171208.000,A,4308.4669,N,07726.3940,W,25.17,272.02,260923,,,A*41
$GPGGA,171208.250,4308.4670,N,07726.3966,W,1,07,1.33,171.6,M,-34.4,M,,*59
$GPRMC,171208.500,A,4308.4670,N,07726.3992,W,27.07,271.75,260923,,,A*43
$GPGGA,171208.750,4308.4670,N,07726.4020,W,1,07,1.25,171.5,M,-34.4,M,,*54
$GPRMC,171209.000,A,4308.4671,N,07726.4049,W,29.73,271.46,260923,,,A*43
$GPGGA,171209.250,4308.4671,N,07726.4079,W,1,07,1.25,171.5,M,-34.4,M,,*5D
$GPRMC,171209.500,A,4308.4672,N,07726.4110,W,31.63,271.96,260923,,,A*4D
$GPGGA,171209.750,4308.4673,N,07726.4142,W,1,07,1.25,171.5,M,-34.4,M,,*53
$GPRMC,171210.000,A,4308.4675,N,07726.4174,W,33.12,272.94,260923,,,A*40
$GPGGA,171210.250,4308.4676,N,07726.4207,W,1,07,1.25,171.5,M,-34.4,M,,*59
$GPRMC,171210.500,A,4308.4677,N,07726.4238,W,33.33,273.99,260923,,,A*43
$GPGGA,171210.750,4308.4680,N,07726.4271,W,1,07,1.25,171.7,M,-34.4,M,,*56
$GPRMC,171211.000,A,4308.4684,N,07726.4304,W,33.68,276.93,260923,,,A*44
$GPGGA,171211.250,4308.4687,N,07726.4337,W,1,07,1.25,171.8,M,-34.4,M,,*59
$GPRMC,171211.500,A,4308.4690,N,07726.4369,W,33.52,278.34,260923,,,A*45
$GPGGA,171211.750,4308.4694,N,07726.4401,W,1,07,1.25,172.1,M,-34.4,M,,*56
$GPRMC,171212.000,A,4308.4700,N,07726.4435,W,33.30,280.88,260923,,,A*41
$GPGGA,171212.250,4308.4705,N,07726.4468,W,1,07,1.25,172.3,M,-34.4,M,,*54
$GPRMC,171212.500,A,4308.4709,N,07726.4499,W,33.21,281.85,260923,,,A*47
$GPGGA,171212.750,4308.4713,N,07726.4530,W,1,07,1.25,172.3,M,-34.4,M,,*5A
$GPRMC,171213.000,A,4308.4717,N,07726.4561,W,32.41,281.48,260923,,,A*4C
$GPGGA,171213.250,4308.4720,N,07726.4591,W,1,07,1.25,172.5,M,-34.4,M,,*53
$GPRMC,171213.500,A,4308.4723,N,07726.4621,W,31.72,280.58,260923,,,A*4A
$GPGGA,171213.750,4308.4726,N,07726.4650,W,1,07,1.25,172.6,M,-34.4,M,,*5D
$GPRMC,171214.000,A,4308.4729,N,07726.4680,W,30.85,279.44,260923,,,A*4B
$GPGGA,171214.250,4308.4732,N,07726.4710,W,1,07,1.25,172.6,M,-34.4,M,,*5F
$GPRMC,171214.500,A,4308.4736,N,07726.4741,W,31.27,279.65,260923,,,A*46
$GPGGA,171214.750,4308.4738,N,07726.4772,W,1,07,1.25,172.7,M,-34.4,M,,*55
$GPRMC,171215.000,A,4308.4742,N,07726.4803,W,31.11,278.95,260923,,,A*43
$GPGGA,171215.250,4308.4744,N,07726.4835,W,1,07,1.25,172.3,M,-34.4,M,,*52
$GPRMC,171215.500,A,4308.4746,N,07726.4866,W,31.38,276.81,260923,,,A*41
$GPGGA,171215.750,4308.4748,N,07726.4897,W,1,07,1.25,172.3,M,-34.4,M,,*53
$GPRMC,171216.000,A,4308.4750,N,07726.4928,W,31.47,275.73,260923,,,A*4D
$GPGGA,171216.250,4308.4752,N,07726.4960,W,1,07,1.25,172.5,M,-34.4,M,,*51
$GPRMC,171216.500,A,4308.4754,N,07726.4991,W,31.70,274.59,260923,,,A*43
$GPGGA,171216.750,4308.4755,N,07726.5023,W,1,07,1.25,172.6,M,-34.4,M,,*5F
$GPRMC,171217.000,A,4308.4757,N,07726.5056,W,31.95,274.09,260923,,,A*49
$GPGGA,171217.250,4308.4759,N,07726.5089,W,1,07,1.25,172.9,M,-34.4,M,,*58
$GPRMC,171217.500,A,4308.4760,N,07726.5122,W,32.28,273.85,260923,,,A*4C
$GPGGA,171217.750,4308.4762,N,07726.5154,W,1,07,1.25,173.3,M,-34.4,M,,*5F
$GPRMC,171218.000,A,4308.4763,N,07726.5187,W,32.61,273.56,260923,,,A*49
$GPGGA,171218.250,4308.4764,N,07726.5220,W,1,07,1.25,173.4,M,-34.4,M,,*54
$GPRMC,171218.500,A,4308.4766,N,07726.5254,W,32.92,273.11,260923,,,A*4B
$GPGGA,171218.750,4308.4767,N,07726.5287,W,1,07,1.25,173.6,M,-34.4,M,,*5D
$GPRMC,171219.000,A,4308.4769,N,07726.5320,W,35.50,273.31,260923,,,A*49
$GPGGA,171219.250,4308.4770,N,07726.5355,W,1,07,1.25,173.8,M,-34.4,M,,*5F
$GPRMC,171219.500,A,4308.4771,N,07726.5390,W,35.74,273.17,260923,,,A*4C
$GPGGA,171219.750,4308.4772,N,07726.5424,W,1,07,1.25,173.7,M,-34.4,M,,*56
$GPRMC,171220.000,A,4308.4774,N,07726.5459,W,35.98,273.21,260923,,,A*43
$GPGGA,171220.250,4308.4775,N,07726.5494,W,1,07,1.25,173.7,M,-34.4,M,,*55
$GPRMC,171220.500,A,4308.4777,N,07726.5529,W,36.22,273.06,260923,,,A*44
$GPGGA,171220.750,4308.4778,N,07726.5565,W,1,07,1.25,173.7,M,-34.4,M,,*52
$GPRMC,171221.000,A,4308.4779,N,07726.5599,W,36.20,273.06,260923,,,A*47
$GPGGA,171221.250,4308.4781,N,07726.5634,W,1,07,1.25,173.6,M,-34.4,M,,*56
$GPRMC,171221.500,A,4308.4782,N,07726.5668,W,35.97,272.76,260923,,,A*42
$GPGGA,171221.750,4308.4784,N,07726.5703,W,1,07,1.25,173.6,M,-34.4,M,,*53
$GPRMC,171222.000,A,4308.4785,N,07726.5738,W,35.94,272.40,260923,,,A*41
$GPGGA,171222.250,4308.4786,N,07726.5774,W,1,07,1.25,173.5,M,-34.4,M,,*54
$GPRMC,171222.500,A,4308.4788,N,07726.5809,W,35.94,272.35,260923,,,A*46
$GPGGA,171222.750,4308.4790,N,07726.5845,W,1,07,1.25,173.5,M,-34.4,M,,*5B
$GPRMC,171223.000,A,4308.4791,N,07726.5881,W,36.22,272.35,260923,,,A*44
$GPGGA,171223.250,4308.4793,N,07726.5917,W,1,07,1.25,173.4,M,-34.4,M,,*5B
$GPRMC,171223.500,A,4308.4794,N,07726.5952,W,36.04,271.83,260923,,,A*41
$GPGGA,171223.750,4308.4795,N,07726.5987,W,1,07,1.25,173.4,M,-34.4,M,,*51
$GPRMC,171224.000,A,4308.4797,N,07726.6023,W,35.77,272.17,260923,,,A*45
$GPGGA,171224.250,4308.4799,N,07726.6060,W,1,07,1.25,173.3,M,-34.4,M,,*5B
$GPRMC,171224.500,A,4308.4801,N,07726.6095,W,36.04,272.41,260923,,,A*49
$GPGGA,171224.750,4308.4802,N,07726.6130,W,1,07,1.25,173.2,M,-34.4,M,,*56
$GPRMC,171225.000,A,4308.4803,N,07726.6166,W,36.25,271.66,260923,,,A*47
$GPGGA,171225.250,4308.4804,N,07726.6202,W,1,07,1.25,173.2,M,-34.4,M,,*56
$GPRMC,171225.500,A,4308.4804,N,07726.6237,W,36.39,270.89,260923,,,A*4F
$GPGGA,171225.750,4308.4804,N,07726.6273,W,1,07,1.25,173.3,M,-34.4,M,,*54
$GPRMC,171226.000,A,4308.4804,N,07726.6309,W,36.62,270.15,260923,,,A*4E
$GPGGA,171226.250,4308.4804,N,07726.6345,W,1,07,1.25,173.3,M,-34.4,M,,*56
$GPRMC,171226.500,A,4308.4803,N,07726.6381,W,36.63,269.21,260923,,,A*42
$GPGGA,171226.750,4308.4803,N,07726.6417,W,1,07,1.25,173.3,M,-34.4,M,,*54
$GPRMC,171227.000,A,4308.4802,N,07726.6452,W,36.36,268.61,260923,,,A*4B
$GPGGA,171227.250,4308.4801,N,07726.6487,W,1,07,1.25,173.4,M,-34.4,M,,*5C
$GPRMC,171227.500,A,4308.4800,N,07726.6522,W,36.35,267.99,260923,,,A*41
$GPGGA,171227.750,4308.4799,N,07726.6558,W,1,07,1.25,173.5,M,-34.4,M,,*55
$GPRMC,171228.000,A,4308.4798,N,07726.6593,W,36.35,267.19,260923,,,A*47
$GPGGA,171228.250,4308.4797,N,07726.6629,W,1,06,1.35,173.6,M,-34.4,M,,*57
$GPRMC,171228.500,A,4308.4795,N,07726.6664,W,36.43,266.57,260923,,,A*4E
$GPGGA,171228.750,4308.4794,N,07726.6699,W,1,06,1.35,173.8,M,-34.4,M,,*54
$GPRMC,171229.000,A,4308.4792,N,07726.6735,W,36.48,266.48,260923,,,A*4D
$GPGGA,171229.250,4308.4791,N,07726.6770,W,1,06,1.35,174.0,M,-34.4,M,,*5C
$GPRMC,171229.500,A,4308.4790,N,07726.6806,W,36.78,266.77,260923,,,A*4A
$GPGGA,171229.750,4308.4788,N,07726.6842,W,1,06,1.35,174.1,M,-34.4,M,,*5E
$GPRMC,171230.000,A,4308.4786,N,07726.6879,W,37.01,266.70,260923,,,A*40
$GPGGA,171230.250,4308.4785,N,07726.6914,W,1,06,1.35,174.3,M,-34.4,M,,*5E
$GPRMC,171230.500,A,4308.4783,N,07726.6950,W,37.08,266.43,260923,,,A*43
$GPGGA,171230.750,4308.4781,N,07726.6986,W,1,06,1.35,174.5,M,-34.4,M,,*52
$GPRMC,171231.000,A,4308.4779,N,07726.7022,W,37.26,266.39,260923,,,A*4E
$GPGGA,171231.250,4308.4777,N,07726.7058,W,1,06,1.35,174.8,M,-34.4,M,,*59
$GPRMC,171231.500,A,4308.4776,N,07726.7094,W,37.38,266.52,260923,,,A*4B
$GPGGA,171231.750,4308.4774,N,07726.7130,W,1,07,1.25,175.1,M,-34.4,M,,*58
$GPRMC,171232.000,A,4308.4773,N,07726.7166,W,37.26,267.04,260923,,,A*49
$GPGGA,171232.250,4308.4771,N,07726.7202,W,1,06,1.35,175.4,M,-34.4,M,,*5C
$GPRMC,171232.500,A,4308.4770,N,07726.7238,W,37.30,267.39,260923,,,A*4E
$GPGGA,171232.750,4308.4768,N,07726.7273,W,1,06,1.36,175.5,M,-34.4,M,,*55
$GPRMC,171233.000,A,4308.4767,N,07726.7309,W,37.11,267.28,260923,,,A*4C
$GPGGA,171233.250,4308.4764,N,07726.7344,W,1,07,1.25,175.8,M,-34.4,M,,*56
$GPRMC,171233.500,A,4308.4762,N,07726.7379,W,36.92,266.74,260923,,,A*49
$GPGGA,171233.750,4308.4761,N,07726.7415,W,1,07,1.25,176.0,M,-34.4,M,,*5E
$GPRMC,171234.000,A,4308.4759,N,07726.7450,W,36.55,267.37,260923,,,A*42
$GPGGA,171234.250,4308.4758,N,07726.7485,W,1,07,1.25,176.2,M,-34.4,M,,*5D
$GPRMC,171234.500,A,4308.4756,N,07726.7520,W,36.53,267.87,260923,,,A*43
$GPGGA,171234.750,4308.4755,N,07726.7555,W,1,07,1.25,176.3,M,-34.4,M,,*58
$GPRMC,171235.000,A,4308.4753,N,07726.7590,W,36.47,267.19,260923,,,A*4B
$GPGGA,171235.250,4308.4751,N,07726.7625,W,1,07,1.25,176.4,M,-34.4,M,,*5B
$GPRMC,171235.500,A,4308.4748,N,07726.7660,W,36.70,266.33,260923,,,A*45
$GPGGA,171235.750,4308.4746,N,07726.7695,W,1,07,1.25,176.7,M,-34.4,M,,*50
$GPRMC,171236.000,A,4308.4744,N,07726.7730,W,36.85,266.66,260923,,,A*41
$GPGGA,171236.250,4308.4742,N,07726.7765,W,1,07,1.25,177.0,M,-34.4,M,,*5A
$GPRMC,171236.500,A,4308.4740,N,07726.7800,W,37.08,266.12,260923,,,A*4B
$GPGGA,171236.750,4308.4738,N,07726.7835,W,1,07,1.25,177.3,M,-34.4,M,,*5B
$GPRMC,171237.000,A,4308.4736,N,07726.7870,W,37.04,265.00,260923,,,A*45
$GPGGA,171237.250,4308.4734,N,07726.7906,W,1,07,1.33,177.4,M,-34.4,M,,*52
$GPRMC,171237.500,A,4308.4731,N,07726.7941,W,37.06,264.41,260923,,,A*42
$GPGGA,171237.750,4308.4728,N,07726.7976,W,1,07,1.25,177.6,M,-34.4,M,,*58
$GPRMC,171238.000,A,4308.4726,N,07726.8011,W,36.99,263.95,260923,,,A*44
$GPGGA,171238.250,4308.4724,N,07726.8046,W,1,07,1.33,177.8,M,-34.4,M,,*52
$GPRMC,171238.500,A,4308.4721,N,07726.8081,W,37.25,264.06,260923,,,A*44
$GPGGA,171238.750,4308.4719,N,07726.8117,W,1,07,1.33,177.9,M,-34.4,M,,*5D
$GPRMC,171239.000,A,4308.4717,N,07726.8152,W,37.60,264.42,260923,,,A*4B
$GPGGA,171239.250,4308.4714,N,07726.8189,W,1,07,1.33,177.8,M,-34.4,M,,*52
$GPRMC,171239.500,A,4308.4712,N,07726.8224,W,37.54,264.79,260923,,,A*46
$GPGGA,171239.750,4308.4709,N,07726.8260,W,1,07,1.33,177.9,M,-34.4,M,,*5E
$GPRMC,171240.000,A,4308.4707,N,07726.8297,W,37.47,264.71,260923,,,A*4B
$GPGGA,171240.250,4308.4705,N,07726.8333,W,1,07,1.33,177.8,M,-34.4,M,,*5F
$GPRMC,171240.500,A,4308.4702,N,07726.8368,W,37.04,264.95,260923,,,A*47
$GPGGA,171240.750,4308.4700,N,07726.8404,W,1,07,1.24,177.9,M,-34.4,M,,*5B
$GPRMC,171241.000,A,4308.4698,N,07726.8439,W,36.58,265.12,260923,,,A*44
$GPGGA,171241.250,4308.4695,N,07726.8474,W,1,07,1.33,177.9,M,-34.4,M,,*53
$GPRMC,171241.500,A,4308.4693,N,07726.8508,W,36.34,265.26,260923,,,A*44
$GPGGA,171241.750,4308.4691,N,07726.8543,W,1,07,1.33,178.0,M,-34.4,M,,*51
$GPRMC,171242.000,A,4308.4689,N,07726.8577,W,36.20,265.44,260923,,,A*40
$GPGGA,171242.250,4308.4687,N,07726.8611,W,1,07,1.33,178.1,M,-34.4,M,,*55
$GPRMC,171242.500,A,4308.4685,N,07726.8645,W,36.01,265.24,260923,,,A*4E
$GPGGA,171242.750,4308.4683,N,07726.8679,W,1,07,1.33,178.1,M,-34.4,M,,*5A
$GPRMC,171243.000,A,4308.4681,N,07726.8713,W,35.78,265.51,260923,,,A*43
$GPGGA,171243.250,4308.4679,N,07726.8748,W,1,07,1.33,178.0,M,-34.4,M,,*59
$GPRMC,171243.500,A,4308.4676,N,07726.8782,W,36.17,265.21,260923,,,A*4B
$GPGGA,171243.750,4308.4674,N,07726.8816,W,1,07,1.33,178.0,M,-34.4,M,,*55
$GPRMC,171244.000,A,4308.4672,N,07726.8851,W,36.44,265.12,260923,,,A*4A
$GPGGA,171244.250,4308.4670,N,07726.8885,W,1,07,1.33,177.8,M,-34.4,M,,*5E
$GPRMC,171244.500,A,4308.4668,N,07726.8920,W,36.68,265.19,260923,,,A*46
$GPGGA,171244.750,4308.4665,N,07726.8954,W,1,07,1.33,176.8,M,-34.4,M,,*53
$GPRMC,171245.000,A,4308.4663,N,07726.8989,W,36.67,265.16,260923,,,A*4A
$GPGGA,171245.250,4308.4661,N,07726.9024,W,1,07,1.33,176.6,M,-34.4,M,,*52
$GPRMC,171245.500,A,4308.4659,N,07726.9059,W,36.95,265.61,260923,,,A*4E
$GPGGA,171245.750,4308.4657,N,07726.9094,W,1,07,1.25,176.5,M,-34.4,M,,*5D
$GPRMC,171246.000,A,4308.4655,N,07726.9129,W,37.20,266.00,260923,,,A*49
$GPGGA,171246.250,4308.4654,N,07726.9165,W,1,07,1.33,176.3,M,-34.4,M,,*56
$GPRMC,171246.500,A,4308.4652,N,07726.9200,W,37.46,266.04,260923,,,A*47
$GPGGA,171246.750,4308.4651,N,07726.9236,W,1,07,1.25,176.2,M,-34.4,M,,*55
$GPRMC,171247.000,A,4308.4649,N,07726.9272,W,37.99,265.91,260923,,,A*41
$GPGGA,171247.250,4308.4647,N,07726.9308,W,1,07,1.33,176.1,M,-34.4,M,,*5E
$GPRMC,171247.500,A,4308.4645,N,07726.9344,W,38.33,265.46,260923,,,A*49
$GPGGA,171247.750,4308.4642,N,07726.9381,W,1,07,1.33,176.0,M,-34.4,M,,*5E
$GPRMC,171248.000,A,4308.4640,N,07726.9417,W,38.77,265.14,260923,,,A*40
$GPGGA,171248.250,4308.4638,N,07726.9454,W,1,07,1.33,175.9,M,-34.4,M,,*5C
$GPRMC,171248.500,A,4308.4636,N,07726.9492,W,39.13,265.14,260923,,,A*4A
$GPGGA,171248.750,4308.4633,N,07726.9529,W,1,07,1.33,175.7,M,-34.4,M,,*57
$GPRMC,171249.000,A,4308.4631,N,07726.9566,W,39.37,265.36,260923,,,A*45
$GPGGA,171249.250,4308.4629,N,07726.9604,W,1,07,1.33,175.5,M,-34.4,M,,*56
$GPRMC,171249.500,A,4308.4626,N,07726.9641,W,39.75,265.29,260923,,,A*48
$GPGGA,171249.750,4308.4624,N,07726.9679,W,1,07,1.24,175.4,M,-34.4,M,,*53
$GPRMC,171250.000,A,4308.4622,N,07726.9717,W,40.00,265.43,260923,,,A*43
$GPGGA,171250.250,4308.4620,N,07726.9755,W,1,07,1.33,175.3,M,-34.4,M,,*54
$GPRMC,171250.500,A,4308.4617,N,07726.9793,W,40.21,265.59,260923,,,A*44
$GPGGA,171250.750,4308.4615,N,07726.9831,W,1,07,1.25,175.3,M,-34.4,M,,*5D
$GPRMC,171251.000,A,4308.4613,N,07726.9869,W,40.24,265.60,260923,,,A*41
$GPGGA,171251.250,4308.4611,N,07726.9907,W,1,07,1.25,175.3,M,-34.4,M,,*59
$GPRMC,171251.500,A,4308.4608,N,07726.9945,W,40.46,265.65,260923,,,A*40
$GPGGA,171251.750,4308.4606,N,07726.9983,W,1,07,1.25,175.3,M,-34.4,M,,*56
$GPRMC,171252.000,A,4308.4604,N,07727.0021,W,40.39,265.71,260923,,,A*44
$GPGGA,171252.250,4308.4602,N,07727.0059,W,1,07,1.25,175.4,M,-34.4,M,,*55
$GPRMC,171252.500,A,4308.4600,N,07727.0097,W,40.32,265.90,260923,,,A*4C
$GPGGA,171252.750,4308.4598,N,07727.0135,W,1,07,1.24,175.4,M,-34.4,M,,*5A
$GPRMC,171253.000,A,4308.4596,N,07727.0172,W,40.27,266.14,260923,,,A*45
$GPGGA,171253.250,4308.4594,N,07727.0210,W,1,07,1.25,175.5,M,-34.4,M,,*56
$GPRMC,171253.500,A,4308.4593,N,07727.0248,W,40.06,266.94,260923,,,A*44
$GPGGA,171253.750,4308.4591,N,07727.0286,W,1,07,1.25,175.6,M,-34.4,M,,*5A
$GPRMC,171254.000,A,4308.4590,N,07727.0324,W,40.09,267.14,260923,,,A*48
$GPGGA,171254.250,4308.4589,N,07727.0362,W,1,07,1.25,175.7,M,-34.4,M,,*5B
$GPRMC,171254.500,A,4308.4588,N,07727.0400,W,39.89,267.45,260923,,,A*47
$GPGGA,171254.750,4308.4587,N,07727.0437,W,1,07,1.24,175.8,M,-34.4,M,,*59
$GPRMC,171255.000,A,4308.4586,N,07727.0475,W,39.83,268.18,260923,,,A*42
$GPGGA,171255.250,4308.4586,N,07727.0513,W,1,07,1.25,175.9,M,-34.4,M,,*5B
$GPRMC,171255.500,A,4308.4586,N,07727.0551,W,40.09,269.46,260923,,,A*46
$GPGGA,171255.750,4308.4587,N,07727.0591,W,1,07,1.24,176.1,M,-34.4,M,,*5F
$GPRMC,171256.000,A,4308.4588,N,07727.0630,W,40.64,271.21,260923,,,A*49
$GPGGA,171256.250,4308.4590,N,07727.0669,W,1,07,1.25,176.2,M,-34.4,M,,*59
$GPRMC,171256.500,A,4308.4591,N,07727.0708,W,40.70,272.68,260923,,,A*45
$GPGGA,171256.750,4308.4594,N,07727.0746,W,1,07,1.25,176.5,M,-34.4,M,,*53
$GPRMC,171257.000,A,4308.4597,N,07727.0784,W,40.24,274.74,260923,,,A*49
$GPGGA,171257.250,4308.4600,N,07727.0822,W,1,07,1.25,176.7,M,-34.4,M,,*56
$GPRMC,171257.500,A,4308.4604,N,07727.0861,W,40.42,276.39,260923,,,A*4A
$GPGGA,171257.750,4308.4608,N,07727.0899,W,1,07,1.25,176.9,M,-34.4,M,,*55
$GPRMC,171258.000,A,4308.4612,N,07727.0938,W,40.68,277.83,260923,,,A*42
$GPGGA,171258.250,4308.4616,N,07727.0977,W,1,07,1.33,177.1,M,-34.4,M,,*5F
$GPRMC,171258.500,A,4308.4619,N,07727.1015,W,40.50,277.65,260923,,,A*48
$GPGGA,171258.750,4308.4623,N,07727.1053,W,1,07,1.24,177.3,M,-34.4,M,,*56
$GPRMC,171259.000,A,4308.4628,N,07727.1091,W,40.12,278.82,260923,,,A*42
$GPGGA,171259.250,4308.4632,N,07727.1129,W,1,07,1.25,177.3,M,-34.4,M,,*5F
$GPRMC,171259.500,A,4308.4636,N,07727.1166,W,40.02,279.05,260923,,,A*4E
$GPGGA,171259.750,4308.4640,N,07727.1203,W,1,07,1.25,177.6,M,-34.4,M,,*51
$GPRMC,171300.000,A,4308.4644,N,07727.1241,W,39.96,279.18,260923,,,A*4A
$GPGGA,171300.250,4308.4649,N,07727.1279,W,1,07,1.25,177.7,M,-34.4,M,,*5C
$GPRMC,171300.500,A,4308.4653,N,07727.1317,W,40.01,279.38,260923,,,A*49
$GPGGA,171300.750,4308.4657,N,07727.1354,W,1,07,1.25,178.0,M,-34.4,M,,*50
$GPRMC,171301.000,A,4308.4662,N,07727.1392,W,40.10,279.49,260923,,,A*44
$GPGGA,171301.250,4308.4666,N,07727.1430,W,1,07,1.25,178.2,M,-34.4,M,,*51
$GPRMC,171301.500,A,4308.4671,N,07727.1467,W,40.08,279.63,260923,,,A*4F
$GPGGA,171301.750,4308.4675,N,07727.1504,W,1,07,1.25,178.4,M,-34.4,M,,*56
$GPRMC,171302.000,A,4308.4679,N,07727.1541,W,39.35,279.47,260923,,,A*42
$GPGGA,171302.250,4308.4683,N,07727.1578,W,1,07,1.25,178.5,M,-34.4,M,,*53
$GPRMC,171302.500,A,4308.4688,N,07727.1614,W,39.27,279.69,260923,,,A*45
$GPGGA,171302.750,4308.4692,N,07727.1651,W,1,07,1.25,178.7,M,-34.4,M,,*5C
$GPRMC,171303.000,A,4308.4697,N,07727.1688,W,39.19,279.80,260923,,,A*40
$GPGGA,171303.250,4308.4701,N,07727.1725,W,1,07,1.25,178.8,M,-34.4,M,,*5E
$GPRMC,171303.500,A,4308.4706,N,07727.1762,W,39.00,279.57,260923,,,A*4B
$GPGGA,171303.750,4308.4711,N,07727.1799,W,1,07,1.24,179.0,M,-34.4,M,,*55
$GPRMC,171304.000,A,4308.4716,N,07727.1837,W,38.75,280.71,260923,,,A*46
$GPGGA,171304.250,4308.4722,N,07727.1874,W,1,07,1.25,179.1,M,-34.4,M,,*5B
$GPRMC,171304.500,A,4308.4727,N,07727.1911,W,38.84,280.02,260923,,,A*4E
$GPGGA,171304.750,4308.4731,N,07727.1947,W,1,07,1.25,179.4,M,-34.4,M,,*58
$GPRMC,171305.000,A,4308.4735,N,07727.1984,W,38.95,279.08,260923,,,A*49
$GPGGA,171305.250,4308.4739,N,07727.2021,W,1,07,1.24,179.6,M,-34.4,M,,*5D
$GPRMC,171305.500,A,4308.4743,N,07727.2058,W,39.13,278.54,260923,,,A*41
$GPGGA,171305.750,4308.4747,N,07727.2095,W,1,07,1.25,179.8,M,-34.4,M,,*51
$GPRMC,171306.000,A,4308.4751,N,07727.2132,W,39.23,278.46,260923,,,A*49
$GPGGA,171306.250,4308.4755,N,07727.2170,W,1,07,1.33,180.0,M,-34.4,M,,*57
$GPRMC,171306.500,A,4308.4760,N,07727.2208,W,39.58,278.79,260923,,,A*44
$GPGGA,171306.750,4308.4764,N,07727.2246,W,1,07,1.25,180.2,M,-34.4,M,,*53
$GPRMC,171307.000,A,4308.4768,N,07727.2284,W,39.64,278.78,260923,,,A*42
$GPGGA,171307.250,4308.4773,N,07727.2321,W,1,07,1.33,180.4,M,-34.4,M,,*50
$GPRMC,171307.500,A,4308.4778,N,07727.2359,W,39.66,279.36,260923,,,A*4E
$GPGGA,171307.750,4308.4782,N,07727.2397,W,1,07,1.25,180.6,M,-34.4,M,,*53
$GPRMC,171308.000,A,4308.4786,N,07727.2435,W,39.45,279.05,260923,,,A*49
$GPGGA,171308.250,4308.4790,N,07727.2473,W,1,07,1.33,180.7,M,-34.4,M,,*51
$GPRMC,171308.500,A,4308.4794,N,07727.2510,W,39.70,279.22,260923,,,A*4A
$GPGGA,171308.750,4308.4799,N,07727.2548,W,1,07,1.25,180.9,M,-34.4,M,,*5D
$GPRMC,171309.000,A,4308.4803,N,07727.2585,W,39.70,279.44,260923,,,A*43
$GPGGA,171309.250,4308.4807,N,07727.2623,W,1,07,1.33,181.1,M,-34.4,M,,*51
$GPRMC,171309.500,A,4308.4811,N,07727.2660,W,39.77,279.56,260923,,,A*49
$GPGGA,171309.750,4308.4816,N,07727.2698,W,1,07,1.25,181.3,M,-34.4,M,,*51
$GPRMC,171310.000,A,4308.4821,N,07727.2736,W,39.97,280.00,260923,,,A*4E
$GPGGA,171310.250,4308.4826,N,07727.2774,W,1,07,1.25,181.5,M,-34.4,M,,*5A
$GPRMC,171310.500,A,4308.4831,N,07727.2811,W,40.40,280.37,260923,,,A*40
$GPGGA,171310.750,4308.4836,N,07727.2849,W,1,07,1.25,181.5,M,-34.4,M,,*5F
$GPRMC,171311.000,A,4308.4841,N,07727.2886,W,40.18,279.96,260923,,,A*4D
$GPGGA,171311.250,4308.4846,N,07727.2923,W,1,07,1.25,181.4,M,-34.4,M,,*50
$GPRMC,171311.500,A,4308.4851,N,07727.2960,W,40.06,279.99,260923,,,A*40
$GPGGA,171311.750,4308.4855,N,07727.2997,W,1,07,1.25,181.2,M,-34.4,M,,*5E
$GPRMC,171312.000,A,4308.4860,N,07727.3034,W,39.70,279.73,260923,,,A*46
$GPGGA,171312.250,4308.4864,N,07727.3070,W,1,07,1.25,181.0,M,-34.4,M,,*59
$GPRMC,171312.500,A,4308.4868,N,07727.3107,W,39.50,279.62,260923,,,A*48
$GPGGA,171312.750,4308.4873,N,07727.3144,W,1,07,1.25,180.9,M,-34.4,M,,*54
$GPRMC,171313.000,A,4308.4877,N,07727.3181,W,39.49,279.65,260923,,,A*43
$GPGGA,171313.250,4308.4882,N,07727.3217,W,1,07,1.25,180.7,M,-34.4,M,,*55
$GPRMC,171313.500,A,4308.4886,N,07727.3254,W,39.43,279.34,260923,,,A*4D
$GPGGA,171313.750,4308.4890,N,07727.3291,W,1,07,1.25,180.5,M,-34.4,M,,*5F
$GPRMC,171314.000,A,4308.4895,N,07727.3328,W,39.45,279.41,260923,,,A*43
$GPGGA,171314.250,4308.4899,N,07727.3365,W,1,07,1.25,180.4,M,-34.4,M,,*5F
$GPRMC,171314.500,A,4308.4903,N,07727.3401,W,39.44,279.28,260923,,,A*4A
$GPGGA,171314.750,4308.4907,N,07727.3438,W,1,07,1.25,180.2,M,-34.4,M,,*55
$GPRMC,171315.000,A,4308.4912,N,07727.3475,W,39.45,279.46,260923,,,A*44
$GPGGA,171315.250,4308.4916,N,07727.3513,W,1,07,1.33,180.1,M,-34.4,M,,*5D
$GPRMC,171315.500,A,4308.4920,N,07727.3550,W,39.65,279.27,260923,,,A*43
$GPGGA,171315.750,4308.4924,N,07727.3587,W,1,07,1.25,180.0,M,-34.4,M,,*52
$GPRMC,171316.000,A,4308.4929,N,07727.3624,W,39.66,279.74,260923,,,A*49
$GPGGA,171316.250,4308.4934,N,07727.3661,W,1,07,1.33,179.9,M,-34.4,M,,*56
$GPRMC,171316.500,A,4308.4938,N,07727.3699,W,39.58,279.82,260923,,,A*4E
$GPGGA,171316.750,4308.4943,N,07727.3736,W,1,07,1.25,179.9,M,-34.4,M,,*57
$GPRMC,171317.000,A,4308.4947,N,07727.3773,W,39.37,279.82,260923,,,A*4E
$GPGGA,171317.250,4308.4952,N,07727.3811,W,1,07,1.33,179.8,M,-34.4,M,,*5F
$GPRMC,171317.500,A,4308.4957,N,07727.3848,W,39.32,279.89,260923,,,A*43
$GPGGA,171317.750,4308.4962,N,07727.3885,W,1,07,1.25,179.7,M,-34.4,M,,*5C
$GPRMC,171318.000,A,4308.4967,N,07727.3923,W,39.51,279.79,260923,,,A*4C
$GPGGA,171318.250,4308.4971,N,07727.3961,W,1,07,1.24,179.6,M,-34.4,M,,*5F
$GPRMC,171318.500,A,4308.4976,N,07727.3998,W,39.50,279.38,260923,,,A*4D
$GPGGA,171318.750,4308.4980,N,07727.4035,W,1,07,1.25,179.5,M,-34.4,M,,*59
$GPRMC,171319.000,A,4308.4984,N,07727.4072,W,39.29,279.13,260923,,,A*49
$GPGGA,171319.250,4308.4988,N,07727.4110,W,1,07,1.33,179.4,M,-34.4,M,,*55
$GPRMC,171319.500,A,4308.4992,N,07727.4147,W,39.30,278.85,260923,,,A*4A
$GPGGA,171319.750,4308.4996,N,07727.4185,W,1,07,1.25,179.4,M,-34.4,M,,*54
$GPRMC,171320.000,A,4308.5000,N,07727.4222,W,39.01,278.38,260923,,,A*42
$GPGGA,171320.250,4308.5004,N,07727.4259,W,1,07,1.24,179.3,M,-34.4,M,,*5C
$GPRMC,171320.500,A,4308.5008,N,07727.4296,W,39.06,278.25,260923,,,A*4B
$GPGGA,171320.750,4308.5012,N,07727.4334,W,1,07,1.25,179.2,M,-34.4,M,,*54
$GPRMC,171321.000,A,4308.5016,N,07727.4372,W,39.01,278.27,260923,,,A*4E
$GPGGA,171321.250,4308.5020,N,07727.4409,W,1,07,1.25,179.1,M,-34.4,M,,*5B
$GPRMC,171321.500,A,4308.5024,N,07727.4446,W,38.78,278.46,260923,,,A*42
$GPGGA,171321.750,4308.5029,N,07727.4483,W,1,07,1.25,179.0,M,-34.4,M,,*54
$GPRMC,171322.000,A,4308.5034,N,07727.4521,W,38.94,278.92,260923,,,A*4E
$GPGGA,171322.250,4308.5038,N,07727.4558,W,1,07,1.25,178.9,M,-34.4,M,,*5D
$GPRMC,171322.500,A,4308.5043,N,07727.4595,W,38.95,279.54,260923,,,A*4E
$GPGGA,171322.750,4308.5048,N,07727.4632,W,1,07,1.24,178.9,M,-34.4,M,,*51
$GPRMC,171323.000,A,4308.5052,N,07727.4669,W,38.55,279.59,260923,,,A*4B
$GPGGA,171323.250,4308.5057,N,07727.4706,W,1,07,1.25,178.8,M,-34.4,M,,*5D
$GPRMC,171323.500,A,4308.5061,N,07727.4742,W,38.59,279.22,260923,,,A*46
$GPGGA,171323.750,4308.5066,N,07727.4779,W,1,07,1.25,178.8,M,-34.4,M,,*52
$GPRMC,171324.000,A,4308.5071,N,07727.4817,W,38.68,279.36,260923,,,A*4D
$GPGGA,171324.250,4308.5076,N,07727.4854,W,1,07,1.33,178.8,M,-34.4,M,,*56
$GPRMC,171324.500,A,4308.5080,N,07727.4891,W,38.72,279.31,260923,,,A*44
$GPGGA,171324.750,4308.5085,N,07727.4929,W,1,07,1.25,178.8,M,-34.4,M,,*53
$GPRMC,171325.000,A,4308.5090,N,07727.4967,W,39.15,279.39,260923,,,A*41
$GPGGA,171325.250,4308.5094,N,07727.5004,W,1,07,1.25,178.7,M,-34.4,M,,*5F
$GPRMC,171325.500,A,4308.5098,N,07727.5041,W,39.12,278.80,260923,,,A*44
$GPGGA,171325.750,4308.5103,N,07727.5079,W,1,07,1.25,178.8,M,-34.4,M,,*50
$GPRMC,171326.000,A,4308.5107,N,07727.5116,W,39.45,278.68,260923,,,A*42
$GPGGA,171326.250,4308.5112,N,07727.5154,W,1,07,1.25,178.7,M,-34.4,M,,*57
$GPRMC,171326.500,A,4308.5116,N,07727.5192,W,39.50,278.81,260923,,,A*48
$GPGGA,171326.750,4308.5121,N,07727.5229,W,1,07,1.25,178.8,M,-34.4,M,,*54
$GPRMC,171327.000,A,4308.5126,N,07727.5267,W,39.70,279.34,260923,,,A*4B
$GPGGA,171327.250,4308.5131,N,07727.5305,W,1,07,1.25,178.8,M,-34.4,M,,*5E
$GPRMC,171327.500,A,4308.5136,N,07727.5342,W,39.75,279.74,260923,,,A*48
$GPGGA,171327.750,4308.5141,N,07727.5380,W,1,07,1.25,178.9,M,-34.4,M,,*50
$GPRMC,171328.000,A,4308.5146,N,07727.5418,W,39.78,279.69,260923,,,A*4C
$GPGGA,171328.250,4308.5151,N,07727.5455,W,1,07,1.25,179.0,M,-34.4,M,,*5C
$GPRMC,171328.500,A,4308.5156,N,07727.5493,W,39.78,279.53,260923,,,A*42
$GPGGA,171328.750,4308.5161,N,07727.5531,W,1,07,1.25,179.1,M,-34.4,M,,*58
$GPRMC,171329.000,A,4308.5165,N,07727.5569,W,39.72,279.17,260923,,,A*48
$GPGGA,171329.250,4308.5169,N,07727.5606,W,1,07,1.33,179.2,M,-34.4,M,,*57
$GPRMC,171329.500,A,4308.5173,N,07727.5644,W,39.42,278.41,260923,,,A*47
$GPGGA,171329.750,4308.5178,N,07727.5681,W,1,07,1.25,179.3,M,-34.4,M,,*5B
$GPRMC,171330.000,A,4308.5182,N,07727.5718,W,38.85,279.30,260923,,,A*41
$GPGGA,171330.250,4308.5187,N,07727.5755,W,1,07,1.25,179.4,M,-34.4,M,,*59
$GPRMC,171330.500,A,4308.5191,N,07727.5792,W,39.01,279.39,260923,,,A*40
$GPGGA,171330.750,4308.5196,N,07727.5829,W,1,07,1.25,179.5,M,-34.4,M,,*59
$GPRMC,171331.000,A,4308.5201,N,07727.5867,W,39.00,279.39,260923,,,A*4A
$GPGGA,171331.250,4308.5206,N,07727.5904,W,1,07,1.33,179.6,M,-34.4,M,,*5D
$GPRMC,171331.500,A,4308.5210,N,07727.5941,W,38.96,278.63,260923,,,A*4A
$GPGGA,171331.750,4308.5214,N,07727.5978,W,1,07,1.25,179.7,M,-34.4,M,,*56
$GPRMC,171332.000,A,4308.5218,N,07727.6015,W,38.72,278.33,260923,,,A*40
$GPGGA,171332.250,4308.5222,N,07727.6052,W,1,07,1.33,179.7,M,-34.4,M,,*50
$GPRMC,171332.500,A,4308.5226,N,07727.6088,W,38.64,278.16,260923,,,A*4C
$GPGGA,171332.750,4308.5231,N,07727.6126,W,1,07,1.33,179.7,M,-34.4,M,,*55
$GPRMC,171333.000,A,4308.5234,N,07727.6163,W,38.33,278.00,260923,,,A*4A
$GPGGA,171333.250,4308.5238,N,07727.6200,W,1,07,1.33,179.7,M,-34.4,M,,*5F
$GPRMC,171333.500,A,4308.5242,N,07727.6237,W,38.36,277.80,260923,,,A*4E
$GPGGA,171333.750,4308.5246,N,07727.6273,W,1,07,1.25,179.6,M,-34.4,M,,*51
$GPRMC,171334.000,A,4308.5250,N,07727.6310,W,38.28,278.55,260923,,,A*43
$GPGGA,171334.250,4308.5255,N,07727.6348,W,1,07,1.33,179.5,M,-34.4,M,,*5C
$GPRMC,171334.500,A,4308.5259,N,07727.6384,W,38.28,278.97,260923,,,A*4C
$GPGGA,171334.750,4308.5263,N,07727.6421,W,1,07,1.33,179.4,M,-34.4,M,,*55
$GPRMC,171335.000,A,4308.5268,N,07727.6458,W,38.55,278.85,260923,,,A*45
$GPGGA,171335.250,4308.5272,N,07727.6496,W,1,07,1.33,179.2,M,-34.4,M,,*5B
$GPRMC,171335.500,A,4308.5276,N,07727.6532,W,38.42,278.37,260923,,,A*4D
$GPGGA,171335.750,4308.5279,N,07727.6568,W,1,07,1.24,179.1,M,-34.4,M,,*50
$GPRMC,171336.000,A,4308.5283,N,07727.6604,W,38.12,277.69,260923,,,A*46
$GPGGA,171336.250,4308.5286,N,07727.6640,W,1,07,1.33,179.2,M,-34.4,M,,*5A
$GPRMC,171336.500,A,4308.5288,N,07727.6676,W,37.88,276.03,260923,,,A*4C
$GPGGA,171336.750,4308.5290,N,07727.6712,W,1,07,1.33,179.2,M,-34.4,M,,*5E
$GPRMC,171337.000,A,4308.5293,N,07727.6748,W,37.76,275.38,260923,,,A*44
$GPGGA,171337.250,4308.5296,N,07727.6784,W,1,07,1.33,179.2,M,-34.4,M,,*53
$GPRMC,171337.500,A,4308.5298,N,07727.6820,W,37.29,275.12,260923,,,A*49
$GPGGA,171337.750,4308.5300,N,07727.6855,W,1,07,1.33,179.4,M,-34.4,M,,*5D
$GPRMC,171338.000,A,4308.5302,N,07727.6890,W,36.95,274.39,260923,,,A*44
$GPGGA,171338.250,4308.5303,N,07727.6925,W,1,07,1.33,179.5,M,-34.4,M,,*53
$GPRMC,171338.500,A,4308.5305,N,07727.6959,W,36.31,274.14,260923,,,A*43
$GPGGA,171338.750,4308.5307,N,07727.6993,W,1,07,1.25,179.6,M,-34.4,M,,*5B
$GPRMC,171339.000,A,4308.5309,N,07727.7026,W,36.07,274.11,260923,,,A*4B
$GPGGA,171339.250,4308.5310,N,07727.7061,W,1,07,1.33,179.8,M,-34.4,M,,*55
$GPRMC,171339.500,A,4308.5312,N,07727.7095,W,35.98,273.98,260923,,,A*4F
$GPGGA,171339.750,4308.5314,N,07727.7128,W,1,07,1.33,180.0,M,-34.4,M,,*56
$GPRMC,171340.000,A,4308.5316,N,07727.7162,W,35.58,274.71,260923,,,A*45
$GPGGA,171340.250,4308.5318,N,07727.7196,W,1,07,1.33,180.3,M,-34.4,M,,*57
$GPRMC,171340.500,A,4308.5321,N,07727.7230,W,35.46,274.71,260923,,,A*4F
$GPGGA,171340.750,4308.5323,N,07727.7264,W,1,07,1.33,180.5,M,-34.4,M,,*52
$GPRMC,171341.000,A,4308.5326,N,07727.7299,W,35.45,275.55,260923,,,A*4B
$GPGGA,171341.250,4308.5329,N,07727.7333,W,1,07,1.33,180.7,M,-34.4,M,,*5D
$GPRMC,171341.500,A,4308.5332,N,07727.7366,W,35.35,275.78,260923,,,A*42
$GPGGA,171341.750,4308.5334,N,07727.7399,W,1,07,1.33,180.9,M,-34.4,M,,*5A
$GPRMC,171342.000,A,4308.5337,N,07727.7433,W,34.72,275.27,260923,,,A*4E
$GPGGA,171342.250,4308.5340,N,07727.7466,W,1,07,1.33,181.2,M,-34.4,M,,*52
$GPRMC,171342.500,A,4308.5341,N,07727.7499,W,34.39,274.46,260923,,,A*43
$GPGGA,171342.750,4308.5343,N,07727.7532,W,1,07,1.33,181.5,M,-34.4,M,,*53
$GPRMC,171343.000,A,4308.5345,N,07727.7565,W,34.07,274.64,260923,,,A*4C
$GPGGA,171343.250,4308.5348,N,07727.7597,W,1,07,1.25,181.7,M,-34.4,M,,*56
$GPRMC,171343.500,A,4308.5349,N,07727.7628,W,33.12,274.89,260923,,,A*4F
$GPGGA,171343.750,4308.5350,N,07727.7658,W,1,07,1.25,181.5,M,-34.4,M,,*58
$GPRMC,171344.000,A,4308.5352,N,07727.7688,W,31.61,274.45,260923,,,A*4B
$GPGGA,171344.250,4308.5353,N,07727.7717,W,1,07,1.33,181.7,M,-34.4,M,,*56
$GPRMC,171344.500,A,4308.5354,N,07727.7746,W,30.57,274.34,260923,,,A*49
$GPGGA,171344.750,4308.5355,N,07727.7773,W,1,07,1.25,181.5,M,-34.4,M,,*52
$GPRMC,171345.000,A,4308.5357,N,07727.7800,W,29.44,274.94,260923,,,A*43
$GPGGA,171345.250,4308.5359,N,07727.7826,W,1,07,1.25,181.6,M,-34.4,M,,*56
$GPRMC,171345.500,A,4308.5361,N,07727.7851,W,26.93,275.33,260923,,,A*4E
$GPGGA,171345.750,4308.5361,N,07727.7875,W,1,07,1.25,181.6,M,-34.4,M,,*5E
$GPRMC,171346.000,A,4308.5362,N,07727.7897,W,23.82,274.10,260923,,,A*44
$GPGGA,171346.250,4308.5364,N,07727.7919,W,1,07,1.25,181.5,M,-34.4,M,,*55
$GPRMC,171346.500,A,4308.5365,N,07727.7940,W,22.27,275.95,260923,,,A*4F
$GPGGA,171346.750,4308.5366,N,07727.7959,W,1,07,1.24,181.3,M,-34.4,M,,*51
$GPRMC,171347.000,A,4308.5366,N,07727.7976,W,19.03,276.74,260923,,,A*4F
$GPGGA,171347.250,4308.5366,N,07727.7991,W,1,07,1.25,181.0,M,-34.4,M,,*53
$GPRMC,171347.500,A,4308.5367,N,07727.8006,W,16.38,276.46,260923,,,A*4C
$GPGGA,171347.750,4308.5368,N,07727.8017,W,1,07,1.25,180.9,M,-34.4,M,,*58
$GPRMC,171348.000,A,4308.5369,N,07727.8029,W,15.82,274.09,260923,,,A*4E
$GPGGA,171348.250,4308.5369,N,07727.8040,W,1,06,1.35,180.9,M,-34.4,M,,*51
$GPRMC,171348.500,A,4308.5371,N,07727.8051,W,14.06,273.84,260923,,,A*42
$GPGGA,171348.750,4308.5372,N,07727.8061,W,1,07,1.25,180.8,M,-34.4,M,,*5C
$GPRMC,171349.000,A,4308.5374,N,07727.8063,W,8.44,281.45,260923,,,A*79
$GPGGA,171349.250,4308.5375,N,07727.8069,W,1,06,1.35,180.4,M,-34.4,M,,*5B
$GPRMC,171349.500,A,4308.5377,N,07727.8075,W,7.48,280.96,260923,,,A*74
$GPGGA,171349.750,4308.5378,N,07727.8083,W,1,06,1.35,180.2,M,-34.4,M,,*51
$GPRMC,171350.000,A,4308.5379,N,07727.8090,W,7.64,277.77,260923,,,A*75
$GPGGA,171350.250,4308.5380,N,07727.8098,W,1,06,1.39,180.1,M,-34.4,M,,*5E
$GPRMC,171350.500,A,4308.5381,N,07727.8107,W,8.76,276.31,260923,,,A*77
$GPGGA,171350.750,4308.5382,N,07727.8118,W,1,06,1.35,179.9,M,-34.4,M,,*52
$GPRMC,171351.000,A,4308.5382,N,07727.8129,W,10.82,272.32,260923,,,A*49
$GPGGA,171351.250,4308.5382,N,07727.8141,W,1,07,1.33,179.7,M,-34.4,M,,*53
$GPRMC,171351.500,A,4308.5382,N,07727.8152,W,12.46,270.72,260923,,,A*4C
$GPGGA,171351.750,4308.5383,N,07727.8165,W,1,07,1.25,179.6,M,-34.4,M,,*57
$GPRMC,171352.000,A,4308.5383,N,07727.8179,W,14.75,269.54,260923,,,A*48
$GPGGA,171352.250,4308.5382,N,07727.8194,W,1,07,1.33,179.5,M,-34.4,M,,*5A
$GPRMC,171352.500,A,4308.5382,N,07727.8209,W,15.93,268.96,260923,,,A*4E
$GPGGA,171352.750,4308.5381,N,07727.8225,W,1,07,1.24,179.4,M,-34.4,M,,*52
$GPRMC,171353.000,A,4308.5381,N,07727.8242,W,17.58,268.80,260923,,,A*44
$GPGGA,171353.250,4308.5381,N,07727.8260,W,1,07,1.25,179.2,M,-34.4,M,,*50
$GPRMC,171353.500,A,4308.5381,N,07727.8277,W,18.68,269.15,260923,,,A*46
$GPGGA,171353.750,4308.5381,N,07727.8296,W,1,07,1.33,179.2,M,-34.4,M,,*5B
$GPRMC,171354.000,A,4308.5381,N,07727.8315,W,19.63,269.71,260923,,,A*49
$GPGGA,171354.250,4308.5381,N,07727.8335,W,1,07,1.25,179.2,M,-34.4,M,,*56
$GPRMC,171354.500,A,4308.5381,N,07727.8354,W,20.42,269.75,260923,,,A*44
$GPGGA,171354.750,4308.5381,N,07727.8375,W,1,07,1.33,179.2,M,-34.4,M,,*50
$GPRMC,171355.000,A,4308.5381,N,07727.8396,W,21.34,270.57,260923,,,A*46
$GPGGA,171355.250,4308.5381,N,07727.8417,W,1,07,1.33,179.2,M,-34.4,M,,*57
$GPRMC,171355.500,A,4308.5381,N,07727.8438,W,21.83,270.57,260923,,,A*4C
$GPGGA,171355.750,4308.5381,N,07727.8460,W,1,07,1.25,179.2,M,-34.4,M,,*55
$GPRMC,171356.000,A,4308.5382,N,07727.8482,W,22.76,270.29,260923,,,A*48
$GPGGA,171356.250,4308.5382,N,07727.8504,W,1,07,1.33,179.3,M,-34.4,M,,*55
$GPRMC,171356.500,A,4308.5382,N,07727.8527,W,23.27,270.12,260923,,,A*4E
$GPGGA,171356.750,4308.5382,N,07727.8549,W,1,07,1.25,179.5,M,-34.4,M,,*58
$GPRMC,171357.000,A,4308.5382,N,07727.8573,W,23.89,270.14,260923,,,A*49
$GPGGA,171357.250,4308.5383,N,07727.8596,W,1,07,1.33,179.6,M,-34.4,M,,*5B
$GPRMC,171357.500,A,4308.5383,N,07727.8620,W,24.44,271.20,260923,,,A*48
$GPGGA,171357.750,4308.5383,N,07727.8644,W,1,07,1.25,179.7,M,-34.4,M,,*54
$GPRMC,171358.000,A,4308.5382,N,07727.8668,W,24.96,269.93,260923,,,A*41
$GPGGA,171358.250,4308.5382,N,07727.8692,W,1,07,1.33,179.9,M,-34.4,M,,*5D
$GPRMC,171358.500,A,4308.5382,N,07727.8716,W,25.17,269.59,260923,,,A*42
$GPGGA,171358.750,4308.5382,N,07727.8741,W,1,07,1.33,180.0,M,-34.4,M,,*58
$GPRMC,171359.000,A,4308.5381,N,07727.8767,W,25.64,267.90,260923,,,A*4C
$GPGGA,171359.250,4308.5381,N,07727.8793,W,1,07,1.33,180.2,M,-34.4,M,,*52
$GPRMC,171359.500,A,4308.5381,N,07727.8818,W,26.28,268.84,260923,,,A*4F
$GPGGA,171359.750,4308.5382,N,07727.8846,W,1,07,1.24,180.3,M,-34.4,M,,*54
