Vers 81
USE_SERIAL_FEEDBACK=true
DEVELOPMENT_MODE=false
USE_RMC_ONLY=false

$GPRMC,131434.000,A,4308.3027,N,07726.2648,W,0.08,337.97,151023,,,A*7C
$GPGGA,131434.250,4308.3028,N,07726.2648,W,1,07,1.44,153.7,M,-34.4,M,,*5B
$GPRMC,131434.500,A,4308.3028,N,07726.2648,W,0.10,343.29,151023,,,A*79
$GPGGA,131434.750,4308.3029,N,07726.2648,W,1,07,1.44,153.4,M,-34.4,M,,*5C
$GPRMC,131435.000,A,4308.3028,N,07726.2649,W,0.01,355.20,151023,,,A*72
$GPGGA,131435.250,4308.3028,N,07726.2649,W,1,07,1.58,152.9,M,-34.4,M,,*59
$GPRMC,131435.500,A,4308.3028,N,07726.2649,W,0.06,11.04,151023,,,A*45
$GPGGA,131435.750,4308.3027,N,07726.2650,W,1,07,1.58,153.1,M,-34.4,M,,*52
$GPRMC,131436.000,A,4308.3026,N,07726.2651,W,0.02,32.45,151023,,,A*44
$GPGGA,131436.250,4308.3025,N,07726.2652,W,1,07,1.44,153.8,M,-34.4,M,,*50
$GPRMC,131436.500,A,4308.3025,N,07726.2653,W,0.04,15.85,151023,,,A*4F
$GPGGA,131436.750,4308.3024,N,07726.2653,W,1,07,1.44,154.2,M,-34.4,M,,*58
$GPRMC,131437.000,A,4308.3023,N,07726.2653,W,0.04,352.76,151023,,,A*71
$GPGGA,131437.250,4308.3023,N,07726.2654,W,1,07,1.58,154.3,M,-34.4,M,,*50
$GPRMC,131437.500,A,4308.3022,N,07726.2654,W,0.03,17.69,151023,,,A*49
$GPGGA,131437.750,4308.3022,N,07726.2655,W,1,07,1.44,154.4,M,-34.4,M,,*5F
$GPRMC,131438.000,A,4308.3021,N,07726.2655,W,0.03,16.34,151023,,,A*48
$GPGGA,131438.250,4308.3020,N,07726.2655,W,1,07,1.44,154.5,M,-34.4,M,,*56
$GPRMC,131438.500,A,4308.3020,N,07726.2655,W,0.04,17.76,151023,,,A*4C
$GPGGA,131438.750,4308.3020,N,07726.2656,W,1,07,1.44,154.5,M,-34.4,M,,*50
$GPRMC,131439.000,A,4308.3019,N,07726.2656,W,0.02,109.99,151023,,,A*78
$GPGGA,131439.250,4308.3019,N,07726.2656,W,1,07,1.44,154.5,M,-34.4,M,,*5E
$GPRMC,131439.500,A,4308.3019,N,07726.2656,W,0.03,337.00,151023,,,A*73
$GPGGA,131439.750,4308.3018,N,07726.2656,W,1,07,1.44,154.4,M,-34.4,M,,*5B
$GPRMC,131440.000,A,4308.3018,N,07726.2656,W,0.01,108.48,151023,,,A*79
$GPGGA,131440.250,4308.3018,N,07726.2656,W,1,07,1.44,154.5,M,-34.4,M,,*51
$GPRMC,131440.500,A,4308.3018,N,07726.2656,W,0.03,17.30,151023,,,A*4E
$GPGGA,131440.750,4308.3019,N,07726.2655,W,1,07,1.44,154.6,M,-34.4,M,,*55
$GPRMC,131441.000,A,4308.3019,N,07726.2655,W,0.02,189.93,151023,,,A*76
$GPGGA,131441.250,4308.3019,N,07726.2656,W,1,07,1.44,154.8,M,-34.4,M,,*5C
$GPRMC,131441.500,A,4308.3019,N,07726.2656,W,0.01,259.03,151023,,,A*74
$GPGGA,131441.750,4308.3019,N,07726.2656,W,1,07,1.44,154.9,M,-34.4,M,,*58
$GPRMC,131442.000,A,4308.3019,N,07726.2656,W,0.05,350.14,151023,,,A*78
$GPGGA,131442.250,4308.3019,N,07726.2656,W,1,07,1.58,155.0,M,-34.4,M,,*5B
$GPRMC,131442.500,A,4308.3019,N,07726.2656,W,0.01,76.70,151023,,,A*4C
$GPGGA,131442.750,4308.3019,N,07726.2656,W,1,07,1.44,155.2,M,-34.4,M,,*51
$GPRMC,131443.000,A,4308.3019,N,07726.2656,W,0.01,34.25,151023,,,A*4E
$GPGGA,131443.250,4308.3019,N,07726.2656,W,1,07,1.44,155.2,M,-34.4,M,,*55
$GPRMC,131443.500,A,4308.3019,N,07726.2656,W,0.02,66.87,151023,,,A*47
$GPGGA,131443.750,4308.3019,N,07726.2656,W,1,07,1.44,155.3,M,-34.4,M,,*51
$GPRMC,131444.000,A,4308.3019,N,07726.2656,W,0.05,334.72,151023,,,A*7C
$GPGGA,131444.250,4308.3019,N,07726.2657,W,1,07,1.44,155.4,M,-34.4,M,,*55
$GPRMC,131444.500,A,4308.3018,N,07726.2657,W,0.03,161.69,151023,,,A*77
$GPGGA,131444.750,4308.3018,N,07726.2657,W,1,07,1.44,155.4,M,-34.4,M,,*51
$GPRMC,131445.000,A,4308.3018,N,07726.2657,W,0.01,104.65,151023,,,A*7E
$GPGGA,131445.250,4308.3018,N,07726.2657,W,1,07,1.44,155.5,M,-34.4,M,,*54
$GPRMC,131445.500,A,4308.3018,N,07726.2657,W,0.01,109.20,151023,,,A*77
$GPGGA,131445.750,4308.3018,N,07726.2657,W,1,07,1.44,155.7,M,-34.4,M,,*53
$GPRMC,131446.000,A,4308.3018,N,07726.2657,W,0.02,179.83,151023,,,A*7C
$GPGGA,131446.250,4308.3018,N,07726.2657,W,1,07,1.44,155.7,M,-34.4,M,,*55
$GPRMC,131446.500,A,4308.3018,N,07726.2658,W,0.00,241.12,151023,,,A*74
$GPGGA,131446.750,4308.3018,N,07726.2658,W,1,07,1.44,155.7,M,-34.4,M,,*5F
$GPRMC,131447.000,A,4308.3018,N,07726.2658,W,0.02,237.88,151023,,,A*70
$GPGGA,131447.250,4308.3018,N,07726.2658,W,1,07,1.45,155.8,M,-34.4,M,,*55
$GPRMC,131447.500,A,4308.3017,N,07726.2658,W,0.01,130.60,151023,,,A*7B
$GPGGA,131447.750,4308.3017,N,07726.2658,W,1,07,1.44,155.9,M,-34.4,M,,*5F
$GPRMC,131448.000,A,4308.3017,N,07726.2658,W,0.02,218.47,151023,,,A*7E
$GPGGA,131448.250,4308.3017,N,07726.2658,W,1,07,1.45,155.9,M,-34.4,M,,*54
$GPRMC,131448.500,A,4308.3017,N,07726.2658,W,0.03,25.33,151023,,,A*45
$GPGGA,131448.750,4308.3017,N,07726.2658,W,1,07,1.44,155.9,M,-34.4,M,,*50
$GPRMC,131449.000,A,4308.3017,N,07726.2658,W,0.01,320.84,151023,,,A*79
$GPGGA,131449.250,4308.3017,N,07726.2658,W,1,07,1.45,155.8,M,-34.4,M,,*54
$GPRMC,131449.500,A,4308.3017,N,07726.2658,W,0.01,156.40,151023,,,A*77
$GPGGA,131449.750,4308.3017,N,07726.2658,W,1,07,1.45,155.9,M,-34.4,M,,*50
$GPRMC,131450.000,A,4308.3017,N,07726.2658,W,0.04,56.65,151023,,,A*49
$GPGGA,131450.250,4308.3016,N,07726.2658,W,1,07,1.45,155.9,M,-34.4,M,,*5C
$GPRMC,131450.500,A,4308.3016,N,07726.2658,W,0.03,273.59,151023,,,A*70
$GPGGA,131450.750,4308.3016,N,07726.2658,W,1,07,1.45,156.0,M,-34.4,M,,*53
$GPRMC,131451.000,A,4308.3016,N,07726.2658,W,0.02,173.21,151023,,,A*79
$GPGGA,131451.250,4308.3017,N,07726.2658,W,1,07,1.45,156.0,M,-34.4,M,,*56
$GPRMC,131451.500,A,4308.3017,N,07726.2658,W,0.03,221.90,151023,,,A*72
$GPGGA,131451.750,4308.3017,N,07726.2658,W,1,07,1.45,156.2,M,-34.4,M,,*51
$GPRMC,131452.000,A,4308.3017,N,07726.2658,W,0.02,254.35,151023,,,A*78
$GPGGA,131452.250,4308.3017,N,07726.2658,W,1,07,1.45,156.2,M,-34.4,M,,*57
$GPRMC,131452.500,A,4308.3017,N,07726.2658,W,0.02,44.03,151023,,,A*4B
$GPGGA,131452.750,4308.3017,N,07726.2658,W,1,07,1.45,156.3,M,-34.4,M,,*53
$GPRMC,131453.000,A,4308.3017,N,07726.2658,W,0.02,63.75,151023,,,A*4B
$GPGGA,131453.250,4308.3017,N,07726.2658,W,1,07,1.45,156.3,M,-34.4,M,,*57
$GPRMC,131453.500,A,4308.3017,N,07726.2658,W,0.00,75.02,151023,,,A*4B
$GPGGA,131453.750,4308.3017,N,07726.2657,W,1,07,1.45,156.4,M,-34.4,M,,*5A
$GPRMC,131454.000,A,4308.3017,N,07726.2657,W,0.03,206.71,151023,,,A*77
$GPGGA,131454.250,4308.3017,N,07726.2657,W,1,07,1.45,156.5,M,-34.4,M,,*59
$GPRMC,131454.500,A,4308.3017,N,07726.2657,W,0.01,290.49,151023,,,A*74
$GPGGA,131454.750,4308.3017,N,07726.2657,W,1,07,1.45,156.5,M,-34.4,M,,*5C
$GPRMC,131455.000,A,4308.3017,N,07726.2657,W,0.01,169.09,151023,,,A*71
$GPGGA,131455.250,4308.3017,N,07726.2657,W,1,07,1.45,156.6,M,-34.4,M,,*5B
$GPRMC,131455.500,A,4308.3017,N,07726.2657,W,0.03,7.20,151023,,,A*74
$GPGGA,131455.750,4308.3018,N,07726.2657,W,1,07,1.58,156.6,M,-34.4,M,,*5D
$GPRMC,131456.000,A,4308.3018,N,07726.2657,W,0.04,184.36,151023,,,A*77
$GPGGA,131456.250,4308.3018,N,07726.2657,W,1,07,1.45,156.7,M,-34.4,M,,*56
$GPRMC,131456.500,A,4308.3018,N,07726.2657,W,0.00,286.71,151023,,,A*74
$GPGGA,131456.750,4308.3018,N,07726.2657,W,1,07,1.45,156.8,M,-34.4,M,,*5C
$GPRMC,131457.000,A,4308.3018,N,07726.2657,W,0.00,114.78,151023,,,A*71
$GPGGA,131457.250,4308.3018,N,07726.2657,W,1,07,1.45,156.9,M,-34.4,M,,*59
$GPRMC,131457.500,A,4308.3019,N,07726.2657,W,0.03,80.05,151023,,,A*40
$GPGGA,131457.750,4308.3019,N,07726.2657,W,1,07,1.45,157.0,M,-34.4,M,,*55
$GPRMC,131458.000,A,4308.3019,N,07726.2657,W,0.02,217.08,151023,,,A*7A
$GPGGA,131458.250,4308.3019,N,07726.2657,W,1,07,1.45,157.1,M,-34.4,M,,*5E
$GPRMC,131458.500,A,4308.3020,N,07726.2657,W,0.04,118.64,151023,,,A*75
$GPGGA,131458.750,4308.3020,N,07726.2657,W,1,07,1.45,157.1,M,-34.4,M,,*51
$GPRMC,131459.000,A,4308.3020,N,07726.2657,W,0.04,16.61,151023,,,A*4B
$GPGGA,131459.250,4308.3020,N,07726.2658,W,1,07,1.45,157.2,M,-34.4,M,,*59
$GPRMC,131459.500,A,4308.3021,N,07726.2658,W,0.01,296.90,151023,,,A*71
$GPGGA,131459.750,4308.3021,N,07726.2658,W,1,07,1.45,157.2,M,-34.4,M,,*5D
$GPRMC,131500.000,A,4308.3021,N,07726.2657,W,0.05,25.73,151023,,,A*45
$GPGGA,131500.250,4308.3021,N,07726.2657,W,1,07,1.45,157.2,M,-34.4,M,,*5A
$GPRMC,131500.500,A,4308.3022,N,07726.2657,W,0.02,115.12,151023,,,A*71
$GPGGA,131500.750,4308.3022,N,07726.2657,W,1,07,1.45,157.3,M,-34.4,M,,*5D
$GPRMC,131501.000,A,4308.3022,N,07726.2657,W,0.01,327.56,151023,,,A*75
$GPGGA,131501.250,4308.3023,N,07726.2657,W,1,07,1.45,157.3,M,-34.4,M,,*58
$GPRMC,131501.500,A,4308.3023,N,07726.2657,W,0.03,60.16,151023,,,A*47
$GPGGA,131501.750,4308.3023,N,07726.2657,W,1,07,1.45,157.4,M,-34.4,M,,*5A
$GPRMC,131502.000,A,4308.3023,N,07726.2657,W,0.02,140.89,151023,,,A*75
$GPGGA,131502.250,4308.3024,N,07726.2657,W,1,08,1.25,157.4,M,-34.4,M,,*52
$GPRMC,131502.500,A,4308.3025,N,07726.2657,W,0.02,23.64,151023,,,A*41
$GPGGA,131502.750,4308.3025,N,07726.2657,W,1,08,1.25,157.6,M,-34.4,M,,*54
$GPRMC,131503.000,A,4308.3026,N,07726.2657,W,0.01,159.32,151023,,,A*7A
$GPGGA,131503.250,4308.3026,N,07726.2657,W,1,08,1.25,157.6,M,-34.4,M,,*53
$GPRMC,131503.500,A,4308.3027,N,07726.2657,W,0.01,130.04,151023,,,A*74
$GPGGA,131503.750,4308.3027,N,07726.2656,W,1,08,1.25,157.7,M,-34.4,M,,*57
$GPRMC,131504.000,A,4308.3028,N,07726.2656,W,0.02,148.93,151023,,,A*7A
$GPGGA,131504.250,4308.3028,N,07726.2656,W,1,08,1.25,157.8,M,-34.4,M,,*55
$GPRMC,131504.500,A,4308.3029,N,07726.2656,W,0.01,16.50,151023,,,A*48
$GPGGA,131504.750,4308.3029,N,07726.2656,W,1,08,1.25,157.8,M,-34.4,M,,*51
$GPRMC,131505.000,A,4308.3029,N,07726.2656,W,0.01,197.42,151023,,,A*77
$GPGGA,131505.250,4308.3030,N,07726.2656,W,1,08,1.25,157.9,M,-34.4,M,,*5C
$GPRMC,131505.500,A,4308.3030,N,07726.2656,W,0.02,173.93,151023,,,A*7F
$GPGGA,131505.750,4308.3030,N,07726.2656,W,1,08,1.25,157.9,M,-34.4,M,,*59
$GPRMC,131506.000,A,4308.3030,N,07726.2656,W,0.01,269.24,151023,,,A*7E
$GPGGA,131506.250,4308.3030,N,07726.2656,W,1,08,1.25,157.9,M,-34.4,M,,*5F
$GPRMC,131506.500,A,4308.3030,N,07726.2656,W,0.01,298.66,151023,,,A*73
$GPGGA,131506.750,4308.3030,N,07726.2656,W,1,08,1.25,157.9,M,-34.4,M,,*5A
$GPRMC,131507.000,A,4308.3030,N,07726.2656,W,0.03,70.84,151023,,,A*4D
$GPGGA,131507.250,4308.3030,N,07726.2656,W,1,08,1.25,157.9,M,-34.4,M,,*5E
$GPRMC,131507.500,A,4308.3030,N,07726.2656,W,0.01,351.39,151023,,,A*7C
$GPGGA,131507.750,4308.3030,N,07726.2656,W,1,08,1.35,157.9,M,-34.4,M,,*5A
$GPRMC,131508.000,A,4308.3030,N,07726.2656,W,0.00,140.37,151023,,,A*7B
$GPGGA,131508.250,4308.3030,N,07726.2656,W,1,08,1.25,157.9,M,-34.4,M,,*51
$GPRMC,131508.500,A,4308.3030,N,07726.2656,W,0.02,10.54,151023,,,A*4D
$GPGGA,131508.750,4308.3030,N,07726.2656,W,1,08,1.35,157.9,M,-34.4,M,,*55
$GPRMC,131509.000,A,4308.3030,N,07726.2656,W,0.01,42.25,151023,,,A*4B
$GPGGA,131509.250,4308.3030,N,07726.2656,W,1,08,1.25,157.9,M,-34.4,M,,*50
$GPRMC,131509.500,A,4308.3030,N,07726.2656,W,0.02,224.40,151023,,,A*7C
$GPGGA,131509.750,4308.3030,N,07726.2656,W,1,08,1.25,157.9,M,-34.4,M,,*55
$GPRMC,131510.000,A,4308.3030,N,07726.2656,W,0.01,118.77,151023,,,A*7A
$GPGGA,131510.250,4308.3030,N,07726.2656,W,1,08,1.25,157.9,M,-34.4,M,,*58
$GPRMC,131510.500,A,4308.3030,N,07726.2656,W,0.01,111.24,151023,,,A*70
$GPGGA,131510.750,4308.3030,N,07726.2656,W,1,08,1.25,157.9,M,-34.4,M,,*5D
$GPRMC,131511.000,A,4308.3030,N,07726.2656,W,0.01,132.45,151023,,,A*72
$GPGGA,131511.250,4308.3030,N,07726.2656,W,1,08,1.25,157.9,M,-34.4,M,,*59
$GPRMC,131511.500,A,4308.3030,N,07726.2656,W,0.02,52.40,151023,,,A*46
$GPGGA,131511.750,4308.3030,N,07726.2656,W,1,08,1.25,157.9,M,-34.4,M,,*5C
$GPRMC,131512.000,A,4308.3030,N,07726.2656,W,0.01,145.70,151023,,,A*77
$GPGGA,131512.250,4308.3030,N,07726.2656,W,1,08,1.25,157.9,M,-34.4,M,,*5A
$GPRMC,131512.500,A,4308.3030,N,07726.2656,W,0.03,19.45,151023,,,A*4E
$GPGGA,131512.750,4308.3030,N,07726.2656,W,1,08,1.25,157.9,M,-34.4,M,,*5F
$GPRMC,131513.000,A,4308.3030,N,07726.2656,W,0.02,174.30,151023,,,A*73
$GPGGA,131513.250,4308.3030,N,07726.2656,W,1,08,1.25,157.9,M,-34.4,M,,*5B
$GPRMC,131513.500,A,4308.3030,N,07726.2656,W,0.02,157.01,151023,,,A*75
$GPGGA,131513.750,4308.3030,N,07726.2656,W,1,08,1.25,157.9,M,-34.4,M,,*5E
$GPRMC,131514.000,A,4308.3030,N,07726.2656,W,0.01,82.86,151023,,,A*42
$GPGGA,131514.250,4308.3030,N,07726.2656,W,1,08,1.25,157.9,M,-34.4,M,,*5C
$GPRMC,131514.500,A,4308.3030,N,07726.2656,W,0.01,115.62,151023,,,A*72
$GPGGA,131514.750,4308.3030,N,07726.2656,W,1,08,1.35,157.9,M,-34.4,M,,*58
$GPRMC,131515.000,A,4308.3030,N,07726.2656,W,0.00,187.15,151023,,,A*7C
$GPGGA,131515.250,4308.3030,N,07726.2656,W,1,08,1.35,157.9,M,-34.4,M,,*5C
$GPRMC,131515.500,A,4308.3030,N,07726.2656,W,0.01,12.82,151023,,,A*4B
$GPGGA,131515.750,4308.3030,N,07726.2656,W,1,08,1.35,157.9,M,-34.4,M,,*59
$GPRMC,131516.000,A,4308.3030,N,07726.2656,W,0.00,333.41,151023,,,A*73
$GPGGA,131516.250,4308.3030,N,07726.2656,W,1,08,1.35,157.9,M,-34.4,M,,*5F
$GPRMC,131516.500,A,4308.3030,N,07726.2656,W,0.00,0.00,151023,,,A*70
$GPGGA,131516.750,4308.3030,N,07726.2656,W,1,08,1.35,157.9,M,-34.4,M,,*5A
$GPRMC,131517.000,A,4308.3030,N,07726.2656,W,0.01,66.45,151023,,,A*44
$GPGGA,131517.250,4308.3030,N,07726.2656,W,1,08,1.35,157.9,M,-34.4,M,,*5E
$GPRMC,131517.500,A,4308.3030,N,07726.2656,W,0.00,167.99,151023,,,A*71
$GPGGA,131517.750,4308.3030,N,07726.2656,W,1,08,1.35,157.9,M,-34.4,M,,*5B
$GPRMC,131518.000,A,4308.3030,N,07726.2656,W,0.00,277.80,151023,,,A*71
$GPGGA,131518.250,4308.3030,N,07726.2656,W,1,08,1.35,157.9,M,-34.4,M,,*51
$GPRMC,131518.500,A,4308.3030,N,07726.2656,W,0.00,0.00,151023,,,A*7E
$GPGGA,131518.750,4308.3030,N,07726.2656,W,1,08,1.35,157.9,M,-34.4,M,,*54
$GPRMC,131519.000,A,4308.3030,N,07726.2656,W,0.00,206.27,151023,,,A*7B
$GPGGA,131519.250,4308.3030,N,07726.2656,W,1,08,1.35,157.9,M,-34.4,M,,*50
$GPRMC,131519.500,A,4308.3030,N,07726.2656,W,0.00,264.78,151023,,,A*70
$GPGGA,131519.750,4308.3030,N,07726.2656,W,1,08,1.35,157.9,M,-34.4,M,,*55
$GPRMC,131520.000,A,4308.3030,N,07726.2656,W,0.00,81.47,151023,,,A*4A
$GPGGA,131520.250,4308.3030,N,07726.2656,W,1,08,1.35,157.9,M,-34.4,M,,*5A
$GPRMC,131520.500,A,4308.3030,N,07726.2656,W,0.01,114.31,151023,,,A*72
$GPGGA,131520.750,4308.3030,N,07726.2656,W,1,08,1.35,157.9,M,-34.4,M,,*5F
$GPRMC,131521.000,A,4308.3030,N,07726.2656,W,0.01,191.21,151023,,,A*7A
$GPGGA,131521.250,4308.3030,N,07726.2656,W,1,08,1.35,157.9,M,-34.4,M,,*5B
$GPRMC,131521.500,A,4308.3030,N,07726.2656,W,0.00,25.74,151023,,,A*40
$GPGGA,131521.750,4308.3030,N,07726.2656,W,1,08,1.35,157.9,M,-34.4,M,,*5E
$GPRMC,131522.000,A,4308.3030,N,07726.2656,W,0.01,219.08,151023,,,A*71
$GPGGA,131522.250,4308.3030,N,07726.2656,W,1,08,1.35,157.9,M,-34.4,M,,*58
$GPRMC,131522.500,A,4308.3030,N,07726.2656,W,0.01,124.63,151023,,,A*74
$GPGGA,131522.750,4308.3030,N,07726.2656,W,1,08,1.35,157.9,M,-34.4,M,,*5D
$GPRMC,131523.000,A,4308.3030,N,07726.2656,W,0.00,39.78,151023,,,A*46
$GPGGA,131523.250,4308.3030,N,07726.2656,W,1,08,1.35,157.9,M,-34.4,M,,*59
$GPRMC,131523.500,A,4308.3030,N,07726.2656,W,0.01,71.69,151023,,,A*4E
$GPGGA,131523.750,4308.3030,N,07726.2656,W,1,08,1.35,157.9,M,-34.4,M,,*5C
$GPRMC,131524.000,A,4308.3030,N,07726.2656,W,0.01,125.58,151023,,,A*7E
$GPGGA,131524.250,4308.3030,N,07726.2656,W,1,08,1.35,157.9,M,-34.4,M,,*5E
$GPRMC,131524.500,A,4308.3030,N,07726.2656,W,0.00,71.10,151023,,,A*46
$GPGGA,131524.750,4308.3030,N,07726.2656,W,1,08,1.35,157.9,M,-34.4,M,,*5B
$GPRMC,131525.000,A,4308.3030,N,07726.2656,W,0.00,144.93,151023,,,A*7E
$GPGGA,131525.250,4308.3030,N,07726.2656,W,1,08,1.35,157.9,M,-34.4,M,,*5F
$GPRMC,131525.500,A,4308.3030,N,07726.2656,W,0.00,342.40,151023,,,A*71
$GPGGA,131525.750,4308.3030,N,07726.2656,W,1,08,1.35,157.9,M,-34.4,M,,*5A
$GPRMC,131526.000,A,4308.3030,N,07726.2656,W,0.00,183.09,151023,,,A*75
$GPGGA,131526.250,4308.3030,N,07726.2656,W,1,08,1.35,157.9,M,-34.4,M,,*5C
$GPRMC,131526.500,A,4308.3030,N,07726.2656,W,0.00,123.67,151023,,,A*72
$GPGGA,131526.750,4308.3030,N,07726.2656,W,1,08,1.35,157.9,M,-34.4,M,,*59
$GPRMC,131527.000,A,4308.3030,N,07726.2656,W,0.01,209.80,151023,,,A*75
$GPGGA,131527.250,4308.3030,N,07726.2656,W,1,08,1.35,157.9,M,-34.4,M,,*5D
$GPRMC,131527.500,A,4308.3030,N,07726.2656,W,0.00,278.59,151023,,,A*73
$GPGGA,131527.750,4308.3030,N,07726.2656,W,1,08,1.35,157.9,M,-34.4,M,,*58
$GPRMC,131528.000,A,4308.3030,N,07726.2656,W,0.01,220.06,151023,,,A*7F
$GPGGA,131528.250,4308.3030,N,07726.2656,W,1,08,1.35,157.9,M,-34.4,M,,*52
$GPRMC,131528.500,A,4308.3030,N,07726.2656,W,0.00,0.00,151023,,,A*7D
$GPGGA,131528.750,4308.3030,N,07726.2656,W,1,08,1.35,157.9,M,-34.4,M,,*57
$GPRMC,131529.000,A,4308.3030,N,07726.2656,W,0.00,178.49,151023,,,A*7A
$GPGGA,131529.250,4308.3030,N,07726.2656,W,1,08,1.35,157.9,M,-34.4,M,,*53
$GPRMC,131529.500,A,4308.3030,N,07726.2656,W,0.01,218.62,151023,,,A*72
$GPGGA,131529.750,4308.3030,N,07726.2656,W,1,08,1.35,157.9,M,-34.4,M,,*56
$GPRMC,131530.000,A,4308.3030,N,07726.2656,W,0.00,77.52,151023,,,A*46
$GPGGA,131530.250,4308.3030,N,07726.2656,W,1,08,1.35,157.9,M,-34.4,M,,*5B
$GPRMC,131530.500,A,4308.3030,N,07726.2656,W,0.00,18.79,151023,,,A*43
$GPGGA,131530.750,4308.3030,N,07726.2656,W,1,08,1.35,157.9,M,-34.4,M,,*5E
$GPRMC,131531.000,A,4308.3030,N,07726.2656,W,0.00,226.69,151023,,,A*79
$GPGGA,131531.250,4308.3030,N,07726.2656,W,1,08,1.35,157.9,M,-34.4,M,,*5A
$GPRMC,131531.500,A,4308.3030,N,07726.2656,W,0.01,119.64,151023,,,A*7F
$GPGGA,131531.750,4308.3030,N,07726.2656,W,1,08,1.35,157.9,M,-34.4,M,,*5F
$GPRMC,131532.000,A,4308.3030,N,07726.2656,W,0.01,54.18,151023,,,A*4A
$GPGGA,131532.250,4308.3030,N,07726.2656,W,1,08,1.35,157.9,M,-34.4,M,,*59
$GPRMC,131532.500,A,4308.3030,N,07726.2656,W,0.00,36.44,151023,,,A*43
$GPGGA,131532.750,4308.3030,N,07726.2656,W,1,08,1.35,157.9,M,-34.4,M,,*5C
$GPRMC,131533.000,A,4308.3030,N,07726.2656,W,0.00,329.08,151023,,,A*72
$GPGGA,131533.250,4308.3030,N,07726.2656,W,1,08,1.35,157.9,M,-34.4,M,,*58
$GPRMC,131533.500,A,4308.3030,N,07726.2656,W,0.01,320.91,151023,,,A*7F
$GPGGA,131533.750,4308.3030,N,07726.2656,W,1,08,1.35,157.9,M,-34.4,M,,*5D
$GPRMC,131534.000,A,4308.3030,N,07726.2656,W,0.00,325.37,151023,,,A*75
$GPGGA,131534.250,4308.3030,N,07726.2656,W,1,08,1.35,157.9,M,-34.4,M,,*5F
$GPRMC,131534.500,A,4308.3030,N,07726.2656,W,0.00,86.94,151023,,,A*43
$GPGGA,131534.750,4308.3030,N,07726.2656,W,1,08,1.35,157.9,M,-34.4,M,,*5A
$GPRMC,131535.000,A,4308.3030,N,07726.2656,W,0.01,38.51,151023,,,A*4A
$GPGGA,131535.250,4308.3030,N,07726.2656,W,1,08,1.35,157.9,M,-34.4,M,,*5E
$GPRMC,131535.500,A,4308.3030,N,07726.2656,W,0.00,96.25,151023,,,A*49
$GPGGA,131535.750,4308.3030,N,07726.2656,W,1,08,1.35,157.9,M,-34.4,M,,*5B
$GPRMC,131536.000,A,4308.3030,N,07726.2656,W,0.00,47.96,151023,,,A*4B
$GPGGA,131536.250,4308.3030,N,07726.2656,W,1,08,1.34,157.9,M,-34.4,M,,*5C
$GPRMC,131536.500,A,4308.3030,N,07726.2656,W,0.01,145.36,151023,,,A*76
$GPGGA,131536.750,4308.3030,N,07726.2656,W,1,08,1.35,157.9,M,-34.4,M,,*58
$GPRMC,131537.000,A,4308.3030,N,07726.2656,W,0.00,133.04,151023,,,A*73
$GPGGA,131537.250,4308.3030,N,07726.2656,W,1,08,1.35,157.9,M,-34.4,M,,*5C
$GPRMC,131537.500,A,4308.3030,N,07726.2656,W,0.00,79.77,151023,,,A*4D
$GPGGA,131537.750,4308.3030,N,07726.2656,W,1,08,1.34,157.9,M,-34.4,M,,*58
$GPRMC,131538.000,A,4308.3030,N,07726.2656,W,0.01,153.78,151023,,,A*70
$GPGGA,131538.250,4308.3030,N,07726.2656,W,1,08,1.35,157.9,M,-34.4,M,,*53
$GPRMC,131538.500,A,4308.3030,N,07726.2656,W,0.01,160.18,151023,,,A*73
$GPGGA,131538.750,4308.3030,N,07726.2656,W,1,08,1.35,157.9,M,-34.4,M,,*56
$GPRMC,131539.000,A,4308.3030,N,07726.2656,W,0.00,78.70,151023,,,A*40
$GPGGA,131539.250,4308.3030,N,07726.2656,W,1,08,1.35,157.9,M,-34.4,M,,*52
$GPRMC,131539.500,A,4308.3030,N,07726.2656,W,0.01,92.90,151023,,,A*4E
$GPGGA,131539.750,4308.3030,N,07726.2656,W,1,08,1.34,157.9,M,-34.4,M,,*56
$GPRMC,131540.000,A,4308.3030,N,07726.2656,W,0.00,88.20,151023,,,A*44
$GPGGA,131540.250,4308.3030,N,07726.2656,W,1,08,1.34,157.9,M,-34.4,M,,*5D
$GPRMC,131540.500,A,4308.3030,N,07726.2656,W,0.00,358.11,151023,,,A*7D
$GPGGA,131540.750,4308.3030,N,07726.2656,W,1,08,1.34,157.9,M,-34.4,M,,*58
$GPRMC,131541.000,A,4308.3030,N,07726.2656,W,0.01,89.76,151023,,,A*46
$GPGGA,131541.250,4308.3030,N,07726.2656,W,1,08,1.35,157.9,M,-34.4,M,,*5D
$GPRMC,131541.500,A,4308.3030,N,07726.2656,W,0.00,87.51,151023,,,A*49
$GPGGA,131541.750,4308.3030,N,07726.2656,W,1,08,1.34,157.9,M,-34.4,M,,*59
$GPRMC,131542.000,A,4308.3030,N,07726.2656,W,0.01,65.24,151023,,,A*40
$GPGGA,131542.250,4308.3030,N,07726.2656,W,1,08,1.34,157.9,M,-34.4,M,,*5F
$GPRMC,131542.500,A,4308.3030,N,07726.2656,W,0.01,292.94,151023,,,A*74
$GPGGA,131542.750,4308.3030,N,07726.2656,W,1,08,1.35,157.9,M,-34.4,M,,*5B
$GPRMC,131543.000,A,4308.3030,N,07726.2656,W,0.00,293.32,151023,,,A*7C
$GPGGA,131543.250,4308.3030,N,07726.2656,W,1,08,1.35,157.9,M,-34.4,M,,*5F
$GPRMC,131543.500,A,4308.3030,N,07726.2656,W,0.01,190.22,151023,,,A*79
$GPGGA,131543.750,4308.3030,N,07726.2656,W,1,08,1.34,157.9,M,-34.4,M,,*5B
$GPRMC,131544.000,A,4308.3030,N,07726.2656,W,0.00,71.07,151023,,,A*43
$GPGGA,131544.250,4308.3030,N,07726.2656,W,1,08,1.34,157.9,M,-34.4,M,,*59
$GPRMC,131544.500,A,4308.3030,N,07726.2656,W,0.00,147.88,151023,,,A*75
$GPGGA,131544.750,4308.3030,N,07726.2656,W,1,08,1.34,157.9,M,-34.4,M,,*5C
$GPRMC,131545.000,A,4308.3030,N,07726.2656,W,0.01,283.86,151023,,,A*75
$GPGGA,131545.250,4308.3030,N,07726.2656,W,1,08,1.34,157.9,M,-34.4,M,,*58
$GPRMC,131545.500,A,4308.3030,N,07726.2656,W,0.00,69.97,151023,,,A*47
$GPGGA,131545.750,4308.3030,N,07726.2656,W,1,08,1.34,157.9,M,-34.4,M,,*5D
$GPRMC,131546.000,A,4308.3030,N,07726.2656,W,0.00,0.00,151023,,,A*70
$GPGGA,131546.250,4308.3030,N,07726.2656,W,1,08,1.34,157.9,M,-34.4,M,,*5B
$GPRMC,131546.500,A,4308.3030,N,07726.2656,W,0.00,123.17,151023,,,A*73
$GPGGA,131546.750,4308.3030,N,07726.2656,W,1,08,1.34,157.9,M,-34.4,M,,*5E
$GPRMC,131547.000,A,4308.3030,N,07726.2656,W,0.01,21.11,151023,,,A*43
$GPGGA,131547.250,4308.3030,N,07726.2656,W,1,08,1.34,157.9,M,-34.4,M,,*5A
$GPRMC,131547.500,A,4308.3030,N,07726.2656,W,0.01,46.01,151023,,,A*46
$GPGGA,131547.750,4308.3030,N,07726.2656,W,1,08,1.34,157.9,M,-34.4,M,,*5F
$GPRMC,131548.000,A,4308.3030,N,07726.2656,W,0.01,331.85,151023,,,A*73
$GPGGA,131548.250,4308.3030,N,07726.2656,W,1,08,1.34,157.9,M,-34.4,M,,*55
$GPRMC,131548.500,A,4308.3030,N,07726.2656,W,0.00,228.90,151023,,,A*7A
$GPGGA,131548.750,4308.3030,N,07726.2656,W,1,08,1.34,157.9,M,-34.4,M,,*50
$GPRMC,131549.000,A,4308.3030,N,07726.2656,W,0.01,123.24,151023,,,A*78
$GPGGA,131549.250,4308.3030,N,07726.2656,W,1,08,1.34,157.9,M,-34.4,M,,*54
$GPRMC,131549.500,A,4308.3030,N,07726.2656,W,0.01,342.39,151023,,,A*74
$GPGGA,131549.750,4308.3030,N,07726.2656,W,1,08,1.34,157.9,M,-34.4,M,,*51
$GPRMC,131550.000,A,4308.3030,N,07726.2656,W,0.00,182.79,151023,,,A*72
$GPGGA,131550.250,4308.3030,N,07726.2656,W,1,08,1.34,157.9,M,-34.4,M,,*5C
$GPRMC,131550.500,A,4308.3030,N,07726.2656,W,0.00,196.37,151023,,,A*78
$GPGGA,131550.750,4308.3030,N,07726.2656,W,1,08,1.34,157.9,M,-34.4,M,,*59
$GPRMC,131551.000,A,4308.3030,N,07726.2656,W,0.01,355.75,151023,,,A*76
$GPGGA,131551.250,4308.3030,N,07726.2656,W,1,08,1.34,157.9,M,-34.4,M,,*5D
$GPRMC,131551.500,A,4308.3030,N,07726.2656,W,0.00,195.81,151023,,,A*77
$GPGGA,131551.750,4308.3030,N,07726.2656,W,1,08,1.34,157.9,M,-34.4,M,,*58
$GPRMC,131552.000,A,4308.3030,N,07726.2656,W,0.00,347.49,151023,,,A*78
$GPGGA,131552.250,4308.3030,N,07726.2656,W,1,08,1.34,157.9,M,-34.4,M,,*5E
$GPRMC,131552.500,A,4308.3030,N,07726.2656,W,0.00,310.57,151023,,,A*70
$GPGGA,131552.750,4308.3030,N,07726.2656,W,1,08,1.34,157.9,M,-34.4,M,,*5B
$GPRMC,131553.000,A,4308.3030,N,07726.2656,W,0.00,123.83,151023,,,A*7F
$GPGGA,131553.250,4308.3030,N,07726.2656,W,1,08,1.34,157.9,M,-34.4,M,,*5F
$GPRMC,131553.500,A,4308.3030,N,07726.2656,W,0.01,265.78,151023,,,A*7E
$GPGGA,131553.750,4308.3030,N,07726.2656,W,1,08,1.34,157.9,M,-34.4,M,,*5A
$GPRMC,131554.000,A,4308.3030,N,07726.2656,W,0.01,164.40,151023,,,A*75
$GPGGA,131554.250,4308.3030,N,07726.2656,W,1,08,1.34,157.9,M,-34.4,M,,*58
$GPRMC,131554.500,A,4308.3030,N,07726.2656,W,0.00,81.03,151023,,,A*4C
$GPGGA,131554.750,4308.3030,N,07726.2656,W,1,08,1.34,157.9,M,-34.4,M,,*5D
$GPRMC,131555.000,A,4308.3030,N,07726.2656,W,0.00,292.70,151023,,,A*7C
$GPGGA,131555.250,4308.3030,N,07726.2656,W,1,08,1.34,157.9,M,-34.4,M,,*59
$GPRMC,131555.500,A,4308.3030,N,07726.2656,W,0.01,103.36,151023,,,A*71
$GPGGA,131555.750,4308.3030,N,07726.2656,W,1,08,1.34,157.9,M,-34.4,M,,*5C
$GPRMC,131556.000,A,4308.3030,N,07726.2656,W,0.00,261.15,151023,,,A*70
$GPGGA,131556.250,4308.3030,N,07726.2656,W,1,08,1.34,157.9,M,-34.4,M,,*5A
$GPRMC,131556.500,A,4308.3030,N,07726.2656,W,0.00,320.64,151023,,,A*77
$GPGGA,131556.750,4308.3030,N,07726.2656,W,1,08,1.34,157.9,M,-34.4,M,,*5F
$GPRMC,131557.000,A,4308.3030,N,07726.2656,W,0.00,249.83,151023,,,A*74
$GPGGA,131557.250,4308.3030,N,07726.2656,W,1,08,1.34,157.9,M,-34.4,M,,*5B
$GPRMC,131557.500,A,4308.3030,N,07726.2656,W,0.00,281.10,151023,,,A*7F
$GPGGA,131557.750,4308.3030,N,07726.2656,W,1,08,1.34,157.9,M,-34.4,M,,*5E
$GPRMC,131558.000,A,4308.3030,N,07726.2656,W,0.01,187.84,151023,,,A*7C
$GPGGA,131558.250,4308.3030,N,07726.2656,W,1,08,1.34,157.9,M,-34.4,M,,*54
$GPRMC,131558.500,A,4308.3030,N,07726.2656,W,0.00,175.83,151023,,,A*72
$GPGGA,131558.750,4308.3030,N,07726.2656,W,1,08,1.34,157.9,M,-34.4,M,,*51
$GPRMC,131559.000,A,4308.3030,N,07726.2656,W,0.00,290.37,151023,,,A*71
$GPGGA,131559.250,4308.3030,N,07726.2656,W,1,08,1.34,157.9,M,-34.4,M,,*55
$GPRMC,131559.500,A,4308.3030,N,07726.2656,W,0.00,130.53,151023,,,A*7F
$GPGGA,131559.750,4308.3030,N,07726.2656,W,1,08,1.34,157.9,M,-34.4,M,,*50
$GPRMC,131600.000,A,4308.3030,N,07726.2656,W,0.01,266.63,151023,,,A*77
$GPGGA,131600.250,4308.3030,N,07726.2656,W,1,08,1.34,157.9,M,-34.4,M,,*5A
$GPRMC,131600.500,A,4308.3030,N,07726.2656,W,0.00,265.18,151023,,,A*7C
$GPGGA,131600.750,4308.3030,N,07726.2656,W,1,08,1.34,157.9,M,-34.4,M,,*5F
$GPRMC,131601.000,A,4308.3030,N,07726.2656,W,0.00,24.24,151023,,,A*40
$GPGGA,131601.250,4308.3030,N,07726.2656,W,1,08,1.34,157.9,M,-34.4,M,,*5B
$GPRMC,131601.500,A,4308.3030,N,07726.2656,W,0.00,258.04,151023,,,A*7E
$GPGGA,131601.750,4308.3030,N,07726.2656,W,1,08,1.34,157.9,M,-34.4,M,,*5E
$GPRMC,131602.000,A,4308.3030,N,07726.2656,W,0.00,314.33,151023,,,A*75
$GPGGA,131602.250,4308.3030,N,07726.2656,W,1,08,1.34,157.9,M,-34.4,M,,*58
$GPRMC,131602.500,A,4308.3030,N,07726.2656,W,0.01,268.72,151023,,,A*7E
$GPGGA,131602.750,4308.3030,N,07726.2656,W,1,08,1.34,157.9,M,-34.4,M,,*5D
$GPRMC,131603.000,A,4308.3030,N,07726.2656,W,0.00,91.70,151023,,,A*4D
$GPGGA,131603.250,4308.3030,N,07726.2656,W,1,08,1.34,157.9,M,-34.4,M,,*59
$GPRMC,131603.500,A,4308.3030,N,07726.2656,W,0.00,293.19,151023,,,A*77
$GPGGA,131603.750,4308.3030,N,07726.2656,W,1,08,1.34,157.9,M,-34.4,M,,*5C
$GPRMC,131604.000,A,4308.3030,N,07726.2656,W,0.01,192.26,151023,,,A*7A
$GPGGA,131604.250,4308.3030,N,07726.2656,W,1,08,1.34,157.9,M,-34.4,M,,*5E
$GPRMC,131604.500,A,4308.3030,N,07726.2656,W,0.01,164.27,151023,,,A*77
$GPGGA,131604.750,4308.3030,N,07726.2656,W,1,08,1.34,157.9,M,-34.4,M,,*5B
$GPRMC,131605.000,A,4308.3030,N,07726.2656,W,0.01,143.33,151023,,,A*73
$GPGGA,131605.250,4308.3030,N,07726.2656,W,1,08,1.34,157.9,M,-34.4,M,,*5F
$GPRMC,131605.500,A,4308.3030,N,07726.2656,W,0.00,269.96,151023,,,A*73
$GPGGA,131605.750,4308.3030,N,07726.2656,W,1,08,1.34,157.9,M,-34.4,M,,*5A
$GPRMC,131606.000,A,4308.3030,N,07726.2656,W,0.00,158.22,151023,,,A*7B
$GPGGA,131606.250,4308.3030,N,07726.2656,W,1,08,1.34,157.9,M,-34.4,M,,*5C
$GPRMC,131606.500,A,4308.3030,N,07726.2656,W,0.00,47.51,151023,,,A*45
$GPGGA,131606.750,4308.3030,N,07726.2656,W,1,08,1.34,157.9,M,-34.4,M,,*59
$GPRMC,131607.000,A,4308.3030,N,07726.2656,W,0.00,128.21,151023,,,A*7E
$GPGGA,131607.250,4308.3030,N,07726.2656,W,1,08,1.34,157.9,M,-34.4,M,,*5D
$GPRMC,131607.500,A,4308.3030,N,07726.2656,W,0.00,79.83,151023,,,A*46
$GPGGA,131607.750,4308.3030,N,07726.2656,W,1,08,1.34,157.9,M,-34.4,M,,*58
$GPRMC,131608.000,A,4308.3030,N,07726.2656,W,0.00,305.56,151023,,,A*7C
$GPGGA,131606.250,4308.3030,N,07726.2657,W,1,08,1.34,158.0,M,-34.4,M,,*5B
$GPRMC,131606.500,A,4308.3030,N,07726.2657,W,0.01,104.72,151023,,,A*72
$GPGGA,131606.750,4308.3031,N,07726.2657,W,1,08,1.34,158.1,M,-34.4,M,,*5E
$GPRMC,131607.000,A,4308.3031,N,07726.2657,W,0.00,96.40,151023,,,A*4D
$GPGGA,131607.250,4308.3031,N,07726.2658,W,1,08,1.34,158.3,M,-34.4,M,,*57
$GPRMC,131607.500,A,4308.3031,N,07726.2658,W,0.01,148.25,151023,,,A*77
$GPGGA,131607.750,4308.3031,N,07726.2658,W,1,08,1.34,158.4,M,-34.4,M,,*55
$GPRMC,131608.000,A,4308.3031,N,07726.2659,W,0.00,157.66,151023,,,A*74
$GPGGA,131608.250,4308.3031,N,07726.2659,W,1,08,1.34,158.5,M,-34.4,M,,*5F
$GPRMC,131608.500,A,4308.3032,N,07726.2659,W,0.01,51.99,151023,,,A*44
$GPGGA,131608.750,4308.3032,N,07726.2659,W,1,08,1.34,158.6,M,-34.4,M,,*5A
$GPRMC,131609.000,A,4308.3032,N,07726.2659,W,0.01,146.29,151023,,,A*7C
$GPGGA,131609.250,4308.3032,N,07726.2659,W,1,08,1.34,158.7,M,-34.4,M,,*5F
$GPRMC,131609.500,A,4308.3032,N,07726.2659,W,0.00,183.00,151023,,,A*7A
$GPGGA,131609.750,4308.3032,N,07726.2659,W,1,08,1.34,158.8,M,-34.4,M,,*55
$GPRMC,131610.000,A,4308.3033,N,07726.2659,W,0.00,160.22,151023,,,A*7B
$GPGGA,131610.250,4308.3033,N,07726.2660,W,1,08,1.34,158.8,M,-34.4,M,,*53
$GPRMC,131610.500,A,4308.3033,N,07726.2660,W,0.01,71.11,151023,,,A*44
$GPGGA,131610.750,4308.3033,N,07726.2660,W,1,08,1.34,158.9,M,-34.4,M,,*57
$GPRMC,131611.000,A,4308.3033,N,07726.2660,W,0.00,159.74,151023,,,A*79
$GPGGA,131611.250,4308.3034,N,07726.2660,W,1,08,1.34,159.0,M,-34.4,M,,*5C
$GPRMC,131611.500,A,4308.3034,N,07726.2660,W,0.01,42.21,151023,,,A*41
$GPGGA,131611.750,4308.3034,N,07726.2660,W,1,08,1.34,159.0,M,-34.4,M,,*59
$GPRMC,131612.000,A,4308.3034,N,07726.2660,W,0.00,38.91,151023,,,A*40
$GPGGA,131612.250,4308.3034,N,07726.2660,W,1,08,1.34,159.0,M,-34.4,M,,*5F
$GPRMC,131612.500,A,4308.3034,N,07726.2660,W,0.00,0.00,151023,,,A*76
$GPGGA,131612.750,4308.3035,N,07726.2660,W,1,08,1.34,159.1,M,-34.4,M,,*5A
$GPRMC,131613.000,A,4308.3035,N,07726.2660,W,0.01,95.09,151023,,,A*47
$GPGGA,131613.250,4308.3035,N,07726.2660,W,1,08,1.34,159.1,M,-34.4,M,,*5E
$GPRMC,131613.500,A,4308.3035,N,07726.2661,W,0.00,166.85,151023,,,A*7B
$GPGGA,131613.750,4308.3035,N,07726.2661,W,1,08,1.34,159.2,M,-34.4,M,,*59
$GPRMC,131614.000,A,4308.3035,N,07726.2661,W,0.02,126.38,151023,,,A*79
$GPGGA,131614.250,4308.3035,N,07726.2661,W,1,08,1.34,159.2,M,-34.4,M,,*5B
$GPRMC,131614.500,A,4308.3036,N,07726.2661,W,0.01,86.26,151023,,,A*48
$GPGGA,131614.750,4308.3036,N,07726.2661,W,1,08,1.34,159.2,M,-34.4,M,,*5D
$GPRMC,131615.000,A,4308.3036,N,07726.2661,W,0.01,104.18,151023,,,A*7A
$GPGGA,131615.250,4308.3036,N,07726.2661,W,1,08,1.34,159.3,M,-34.4,M,,*58
$GPRMC,131615.500,A,4308.3036,N,07726.2661,W,0.02,94.40,151023,,,A*49
$GPGGA,131615.750,4308.3036,N,07726.2661,W,1,08,1.34,159.3,M,-34.4,M,,*5D
$GPRMC,131616.000,A,4308.3036,N,07726.2661,W,0.01,125.84,151023,,,A*7F
$GPGGA,131616.250,4308.3036,N,07726.2661,W,1,08,1.34,159.3,M,-34.4,M,,*5B
$GPRMC,131616.500,A,4308.3036,N,07726.2661,W,0.00,130.85,151023,,,A*7E
$GPGGA,131616.750,4308.3037,N,07726.2662,W,1,08,1.34,159.3,M,-34.4,M,,*5C
$GPRMC,131617.000,A,4308.3037,N,07726.2662,W,0.00,133.38,151023,,,A*7D
$GPGGA,131617.250,4308.3037,N,07726.2662,W,1,08,1.34,159.3,M,-34.4,M,,*58
$GPRMC,131617.500,A,4308.3037,N,07726.2662,W,0.01,158.61,151023,,,A*78
$GPGGA,131617.750,4308.3037,N,07726.2662,W,1,08,1.34,159.4,M,-34.4,M,,*5A
$GPRMC,131618.000,A,4308.3037,N,07726.2662,W,0.00,192.44,151023,,,A*72
$GPGGA,131618.250,4308.3037,N,07726.2662,W,1,08,1.34,159.4,M,-34.4,M,,*50
$GPRMC,131618.500,A,4308.3037,N,07726.2663,W,0.00,244.58,151023,,,A*73
$GPGGA,131618.750,4308.3037,N,07726.2663,W,1,08,1.34,159.4,M,-34.4,M,,*54
$GPRMC,131619.000,A,4308.3037,N,07726.2663,W,0.01,187.39,151023,,,A*7D
$GPGGA,131619.250,4308.3037,N,07726.2663,W,1,08,1.34,159.4,M,-34.4,M,,*50
$GPRMC,131619.500,A,4308.3037,N,07726.2663,W,0.00,110.22,151023,,,A*7D
$GPGGA,131619.750,4308.3037,N,07726.2663,W,1,08,1.34,159.4,M,-34.4,M,,*55
$GPRMC,131620.000,A,4308.3037,N,07726.2663,W,0.00,103.87,151023,,,A*7F
$GPGGA,131620.250,4308.3037,N,07726.2663,W,1,08,1.34,159.4,M,-34.4,M,,*5A
$GPRMC,131620.500,A,4308.3037,N,07726.2663,W,0.00,1.21,151023,,,A*75
$GPGGA,131620.750,4308.3037,N,07726.2663,W,1,08,1.34,159.4,M,-34.4,M,,*5F
$GPRMC,131621.000,A,4308.3037,N,07726.2663,W,0.01,263.36,151023,,,A*70
$GPGGA,131621.250,4308.3037,N,07726.2663,W,1,08,1.34,159.4,M,-34.4,M,,*5B
$GPRMC,131621.500,A,4308.3037,N,07726.2663,W,0.01,51.02,151023,,,A*41
$GPGGA,131621.750,4308.3037,N,07726.2663,W,1,08,1.34,159.4,M,-34.4,M,,*5E
$GPRMC,131622.000,A,4308.3037,N,07726.2663,W,0.00,134.50,151023,,,A*73
$GPGGA,131622.250,4308.3037,N,07726.2663,W,1,08,1.34,159.4,M,-34.4,M,,*58
$GPRMC,131622.500,A,4308.3037,N,07726.2663,W,0.00,298.27,151023,,,A*73
$GPGGA,131622.750,4308.3037,N,07726.2663,W,1,08,1.34,159.4,M,-34.4,M,,*5D
$GPRMC,131623.000,A,4308.3037,N,07726.2663,W,0.01,347.01,151023,,,A*71
$GPGGA,131623.250,4308.3037,N,07726.2663,W,1,08,1.34,159.4,M,-34.4,M,,*59
$GPRMC,131623.500,A,4308.3037,N,07726.2663,W,0.01,105.80,151023,,,A*79
$GPGGA,131623.750,4308.3037,N,07726.2663,W,1,08,1.34,159.4,M,-34.4,M,,*5C
$GPRMC,131624.000,A,4308.3037,N,07726.2663,W,0.00,116.02,151023,,,A*72
$GPGGA,131624.250,4308.3037,N,07726.2663,W,1,08,1.34,159.4,M,-34.4,M,,*5E
$GPRMC,131624.500,A,4308.3037,N,07726.2663,W,0.01,347.88,151023,,,A*72
$GPGGA,131624.750,4308.3037,N,07726.2663,W,1,08,1.34,159.4,M,-34.4,M,,*5B
$GPRMC,131625.000,A,4308.3037,N,07726.2663,W,0.01,177.01,151023,,,A*76
$GPGGA,131625.250,4308.3037,N,07726.2663,W,1,08,1.34,159.4,M,-34.4,M,,*5F
$GPRMC,131625.500,A,4308.3037,N,07726.2663,W,0.00,275.35,151023,,,A*74
$GPGGA,131625.750,4308.3037,N,07726.2663,W,1,08,1.34,159.4,M,-34.4,M,,*5A
$GPRMC,131626.000,A,4308.3037,N,07726.2663,W,0.00,14.33,151023,,,A*41
$GPGGA,131626.250,4308.3037,N,07726.2663,W,1,08,1.34,159.4,M,-34.4,M,,*5C
$GPRMC,131626.500,A,4308.3037,N,07726.2663,W,0.00,0.00,151023,,,A*71
$GPGGA,131626.750,4308.3037,N,07726.2663,W,1,08,1.34,159.4,M,-34.4,M,,*59
$GPRMC,131627.000,A,4308.3037,N,07726.2663,W,0.01,177.74,151023,,,A*76
$GPGGA,131627.250,4308.3037,N,07726.2663,W,1,08,1.34,159.4,M,-34.4,M,,*5D
$GPRMC,131627.500,A,4308.3037,N,07726.2663,W,0.01,247.22,151023,,,A*70
$GPGGA,131627.750,4308.3037,N,07726.2663,W,1,08,1.34,159.4,M,-34.4,M,,*58
$GPRMC,131628.000,A,4308.3037,N,07726.2663,W,0.01,324.43,151023,,,A*79
$GPGGA,131628.250,4308.3037,N,07726.2663,W,1,08,1.34,159.4,M,-34.4,M,,*52
$GPRMC,131628.500,A,4308.3037,N,07726.2663,W,0.00,292.04,151023,,,A*72
$GPGGA,131628.750,4308.3037,N,07726.2663,W,1,08,1.34,159.4,M,-34.4,M,,*57
$GPRMC,131629.000,A,4308.3037,N,07726.2663,W,0.01,271.42,151023,,,A*78
$GPGGA,131629.250,4308.3037,N,07726.2663,W,1,08,1.34,159.4,M,-34.4,M,,*53
$GPRMC,131629.500,A,4308.3037,N,07726.2663,W,0.00,287.48,151023,,,A*7F
$GPGGA,131629.750,4308.3037,N,07726.2663,W,1,08,1.34,159.4,M,-34.4,M,,*56
$GPRMC,131630.000,A,4308.3037,N,07726.2663,W,0.01,297.75,151023,,,A*7C
$GPGGA,131630.250,4308.3037,N,07726.2663,W,1,08,1.34,159.4,M,-34.4,M,,*5B
$GPRMC,131630.500,A,4308.3037,N,07726.2663,W,0.01,42.05,151023,,,A*44
$GPGGA,131630.750,4308.3037,N,07726.2663,W,1,08,1.34,159.4,M,-34.4,M,,*5E
$GPRMC,131631.000,A,4308.3037,N,07726.2663,W,0.00,43.45,151023,,,A*44
$GPGGA,131631.250,4308.3037,N,07726.2663,W,1,08,1.34,159.4,M,-34.4,M,,*5A
$GPRMC,131631.500,A,4308.3037,N,07726.2663,W,0.01,329.56,151023,,,A*7D
$GPGGA,131631.750,4308.3037,N,07726.2663,W,1,08,1.34,159.4,M,-34.4,M,,*5F
$GPRMC,131632.000,A,4308.3037,N,07726.2663,W,0.01,127.88,151023,,,A*74
$GPGGA,131632.250,4308.3037,N,07726.2663,W,1,08,1.34,159.4,M,-34.4,M,,*59
$GPRMC,131632.500,A,4308.3037,N,07726.2663,W,0.00,100.63,151023,,,A*70
$GPGGA,131632.750,4308.3037,N,07726.2663,W,1,08,1.34,159.4,M,-34.4,M,,*5C
$GPRMC,131633.000,A,4308.3037,N,07726.2663,W,0.01,276.44,151023,,,A*72
$GPGGA,131633.250,4308.3037,N,07726.2663,W,1,08,1.34,159.4,M,-34.4,M,,*58
$GPRMC,131633.500,A,4308.3037,N,07726.2663,W,0.00,257.07,151023,,,A*72
$GPGGA,131633.750,4308.3037,N,07726.2663,W,1,08,1.34,159.4,M,-34.4,M,,*5D
$GPRMC,131634.000,A,4308.3037,N,07726.2663,W,0.01,238.53,151023,,,A*79
$GPGGA,131634.250,4308.3037,N,07726.2663,W,1,08,1.34,159.4,M,-34.4,M,,*5F
$GPRMC,131634.500,A,4308.3037,N,07726.2663,W,0.00,108.76,151023,,,A*7A
$GPGGA,131634.750,4308.3037,N,07726.2663,W,1,08,1.34,159.4,M,-34.4,M,,*5A
$GPRMC,131635.000,A,4308.3037,N,07726.2663,W,0.00,63.90,151023,,,A*4A
$GPGGA,131635.250,4308.3037,N,07726.2663,W,1,08,1.34,159.4,M,-34.4,M,,*5E
$GPRMC,131635.500,A,4308.3037,N,07726.2663,W,0.01,50.21,151023,,,A*44
$GPGGA,131635.750,4308.3037,N,07726.2663,W,1,08,1.34,159.4,M,-34.4,M,,*5B
$GPRMC,131636.000,A,4308.3037,N,07726.2663,W,0.00,303.42,151023,,,A*73
$GPGGA,131636.250,4308.3037,N,07726.2663,W,1,08,1.34,159.4,M,-34.4,M,,*5D
$GPRMC,131636.500,A,4308.3037,N,07726.2663,W,0.01,348.98,151023,,,A*7F
$GPGGA,131636.750,4308.3037,N,07726.2663,W,1,08,1.34,159.4,M,-34.4,M,,*58
$GPRMC,131637.000,A,4308.3037,N,07726.2663,W,0.01,106.37,151023,,,A*76
$GPGGA,131637.250,4308.3037,N,07726.2663,W,1,08,1.34,159.4,M,-34.4,M,,*5C
$GPRMC,131637.500,A,4308.3037,N,07726.2663,W,0.00,82.65,151023,,,A*48
$GPGGA,131637.750,4308.3037,N,07726.2663,W,1,08,1.34,159.4,M,-34.4,M,,*59
$GPRMC,131638.000,A,4308.3037,N,07726.2663,W,0.01,225.97,151023,,,A*71
$GPGGA,131638.250,4308.3037,N,07726.2663,W,1,08,1.34,159.4,M,-34.4,M,,*53
$GPRMC,131638.500,A,4308.3037,N,07726.2663,W,0.01,358.84,151023,,,A*7D
$GPGGA,131638.750,4308.3037,N,07726.2663,W,1,08,1.34,159.4,M,-34.4,M,,*56
$GPRMC,131639.000,A,4308.3037,N,07726.2663,W,0.00,91.50,151023,,,A*47
$GPGGA,131639.250,4308.3037,N,07726.2663,W,1,08,1.34,159.4,M,-34.4,M,,*52
$GPRMC,131639.500,A,4308.3037,N,07726.2663,W,0.01,36.01,151023,,,A*4A
$GPGGA,131639.750,4308.3037,N,07726.2663,W,1,08,1.34,159.4,M,-34.4,M,,*57
$GPRMC,131640.000,A,4308.3037,N,07726.2663,W,0.01,231.99,151023,,,A*75
$GPGGA,131640.250,4308.3037,N,07726.2663,W,1,08,1.34,159.4,M,-34.4,M,,*5C
$GPRMC,131640.500,A,4308.3037,N,07726.2663,W,0.01,189.94,151023,,,A*7D
$GPGGA,131640.750,4308.3037,N,07726.2663,W,1,08,1.34,159.4,M,-34.4,M,,*59
$GPRMC,131641.000,A,4308.3037,N,07726.2663,W,0.01,72.02,151023,,,A*43
$GPGGA,131641.250,4308.3037,N,07726.2663,W,1,08,1.34,159.4,M,-34.4,M,,*5D
$GPRMC,131641.500,A,4308.3037,N,07726.2663,W,0.00,169.73,151023,,,A*7A
$GPGGA,131641.750,4308.3038,N,07726.2663,W,1,08,1.34,159.4,M,-34.4,M,,*57
$GPRMC,131642.000,A,4308.3038,N,07726.2663,W,0.01,122.55,151023,,,A*79
$GPGGA,131642.250,4308.3038,N,07726.2663,W,1,08,1.34,159.4,M,-34.4,M,,*51
$GPRMC,131642.500,A,4308.3038,N,07726.2663,W,0.00,345.58,151023,,,A*73
$GPGGA,131642.750,4308.3038,N,07726.2663,W,1,08,1.34,159.4,M,-34.4,M,,*54
$GPRMC,131643.000,A,4308.3038,N,07726.2663,W,0.00,255.34,151023,,,A*7D
$GPGGA,131643.250,4308.3038,N,07726.2663,W,1,08,1.34,159.4,M,-34.4,M,,*50
$GPRMC,131643.500,A,4308.3038,N,07726.2663,W,0.00,243.43,151023,,,A*7F
$GPGGA,131643.750,4308.3038,N,07726.2663,W,1,08,1.34,159.4,M,-34.4,M,,*55
$GPRMC,131644.000,A,4308.3038,N,07726.2663,W,0.00,191.70,151023,,,A*71
$GPGGA,131644.250,4308.3038,N,07726.2663,W,1,08,1.34,159.4,M,-34.4,M,,*57
$GPRMC,131644.500,A,4308.3038,N,07726.2663,W,0.00,20.84,151023,,,A*44
$GPGGA,131644.750,4308.3038,N,07726.2663,W,1,08,1.34,159.4,M,-34.4,M,,*52
$GPRMC,131645.000,A,4308.3038,N,07726.2663,W,0.01,114.08,151023,,,A*73
$GPGGA,131645.250,4308.3038,N,07726.2663,W,1,08,1.34,159.4,M,-34.4,M,,*56
$GPRMC,131645.500,A,4308.3038,N,07726.2663,W,0.01,238.04,151023,,,A*77
$GPGGA,131645.750,4308.3038,N,07726.2663,W,1,08,1.34,159.4,M,-34.4,M,,*53
$GPRMC,131646.000,A,4308.3038,N,07726.2663,W,0.01,90.02,151023,,,A*47
$GPGGA,131646.250,4308.3038,N,07726.2663,W,1,08,1.34,159.4,M,-34.4,M,,*55
$GPRMC,131646.500,A,4308.3038,N,07726.2663,W,0.00,240.67,151023,,,A*7F
$GPGGA,131646.750,4308.3038,N,07726.2663,W,1,08,1.34,159.4,M,-34.4,M,,*50
$GPRMC,131647.000,A,4308.3038,N,07726.2663,W,0.00,142.86,151023,,,A*75
$GPGGA,131647.250,4308.3038,N,07726.2663,W,1,08,1.34,159.4,M,-34.4,M,,*54
$GPRMC,131647.500,A,4308.3038,N,07726.2663,W,0.01,323.97,151023,,,A*74
$GPGGA,131647.750,4308.3038,N,07726.2663,W,1,08,1.34,159.4,M,-34.4,M,,*51
$GPRMC,131648.000,A,4308.3038,N,07726.2663,W,0.01,144.61,151023,,,A*74
$GPGGA,131648.250,4308.3038,N,07726.2663,W,1,08,1.34,159.4,M,-34.4,M,,*5B
$GPRMC,131648.500,A,4308.3038,N,07726.2663,W,0.00,0.00,151023,,,A*76
$GPGGA,131648.750,4308.3038,N,07726.2663,W,1,08,1.34,159.4,M,-34.4,M,,*5E
$GPRMC,131649.000,A,4308.3038,N,07726.2663,W,0.00,244.72,151023,,,A*75
$GPGGA,131649.250,4308.3038,N,07726.2663,W,1,08,1.34,159.4,M,-34.4,M,,*5A
$GPRMC,131649.500,A,4308.3038,N,07726.2663,W,0.00,0.00,151023,,,A*77
$GPGGA,131649.750,4308.3038,N,07726.2663,W,1,08,1.34,159.4,M,-34.4,M,,*5F
$GPRMC,131650.000,A,4308.3038,N,07726.2663,W,0.01,314.75,151023,,,A*7F
$GPGGA,131650.250,4308.3038,N,07726.2663,W,1,08,1.34,159.4,M,-34.4,M,,*52
$GPRMC,131650.500,A,4308.3038,N,07726.2663,W,0.00,48.72,151023,,,A*46
$GPGGA,131650.750,4308.3038,N,07726.2663,W,1,08,1.34,159.4,M,-34.4,M,,*57
$GPRMC,131651.000,A,4308.3038,N,07726.2663,W,0.00,231.07,151023,,,A*7C
$GPGGA,131651.250,4308.3038,N,07726.2663,W,1,08,1.34,159.4,M,-34.4,M,,*53
$GPRMC,131651.500,A,4308.3038,N,07726.2663,W,0.01,23.21,151023,,,A*4D
$GPGGA,131651.750,4308.3038,N,07726.2663,W,1,08,1.34,159.4,M,-34.4,M,,*56
$GPRMC,131652.000,A,4308.3038,N,07726.2663,W,0.01,122.90,151023,,,A*71
$GPGGA,131652.250,4308.3038,N,07726.2663,W,1,08,1.34,159.4,M,-34.4,M,,*50
$GPRMC,131652.500,A,4308.3038,N,07726.2663,W,0.00,75.07,151023,,,A*48
$GPGGA,131652.750,4308.3038,N,07726.2663,W,1,08,1.34,159.4,M,-34.4,M,,*55
$GPRMC,131653.000,A,4308.3038,N,07726.2663,W,0.00,67.95,151023,,,A*44
$GPGGA,131653.250,4308.3038,N,07726.2663,W,1,08,1.34,159.4,M,-34.4,M,,*51
$GPRMC,131653.500,A,4308.3038,N,07726.2663,W,0.01,95.75,151023,,,A*43
$GPGGA,131653.750,4308.3038,N,07726.2663,W,1,08,1.34,159.4,M,-34.4,M,,*54
$GPRMC,131654.000,A,4308.3038,N,07726.2663,W,0.01,241.33,151023,,,A*78
$GPGGA,131654.250,4308.3038,N,07726.2663,W,1,08,1.34,159.4,M,-34.4,M,,*56
$GPRMC,131654.500,A,4308.3038,N,07726.2663,W,0.01,340.29,151023,,,A*76
$GPGGA,131654.750,4308.3038,N,07726.2663,W,1,08,1.34,159.4,M,-34.4,M,,*53
$GPRMC,131655.000,A,4308.3038,N,07726.2663,W,0.00,204.02,151023,,,A*7B
$GPGGA,131655.250,4308.3038,N,07726.2663,W,1,08,1.34,159.4,M,-34.4,M,,*57
$GPRMC,131655.500,A,4308.3038,N,07726.2663,W,0.00,160.38,151023,,,A*76
$GPGGA,131655.750,4308.3038,N,07726.2663,W,1,08,1.34,159.4,M,-34.4,M,,*52
$GPRMC,131656.000,A,4308.3038,N,07726.2663,W,0.01,105.24,151023,,,A*7F
$GPGGA,131656.250,4308.3038,N,07726.2663,W,1,08,1.34,159.4,M,-34.4,M,,*54
$GPRMC,131656.500,A,4308.3038,N,07726.2663,W,0.01,44.43,151023,,,A*4F
$GPGGA,131656.750,4308.3038,N,07726.2663,W,1,08,1.34,159.4,M,-34.4,M,,*51
$GPRMC,131657.000,A,4308.3038,N,07726.2663,W,0.00,148.14,151023,,,A*75
$GPGGA,131657.250,4308.3038,N,07726.2663,W,1,08,1.34,159.4,M,-34.4,M,,*55
$GPRMC,131657.500,A,4308.3038,N,07726.2663,W,0.01,222.82,151023,,,A*71
$GPGGA,131657.750,4308.3038,N,07726.2663,W,1,08,1.34,159.4,M,-34.4,M,,*50
$GPRMC,131658.000,A,4308.3038,N,07726.2663,W,0.00,5.23,151023,,,A*76
$GPGGA,131658.250,4308.3038,N,07726.2663,W,1,08,1.34,159.4,M,-34.4,M,,*5A
$GPRMC,131658.500,A,4308.3038,N,07726.2663,W,0.00,0.00,151023,,,A*77
$GPGGA,131658.750,4308.3038,N,07726.2663,W,1,08,1.34,159.4,M,-34.4,M,,*5F
$GPRMC,131659.000,A,4308.3038,N,07726.2663,W,0.00,103.30,151023,,,A*72
$GPGGA,131659.250,4308.3038,N,07726.2663,W,1,08,1.34,159.4,M,-34.4,M,,*5B
$GPRMC,131659.500,A,4308.3038,N,07726.2663,W,0.00,298.46,151023,,,A*77
$GPGGA,131659.750,4308.3038,N,07726.2663,W,1,08,1.34,159.4,M,-34.4,M,,*5E
$GPRMC,131700.000,A,4308.3038,N,07726.2663,W,0.00,139.95,151023,,,A*79
$GPGGA,131700.250,4308.3038,N,07726.2663,W,1,08,1.34,159.4,M,-34.4,M,,*56
$GPRMC,131700.500,A,4308.3038,N,07726.2663,W,0.01,280.05,151023,,,A*75
$GPGGA,131700.750,4308.3038,N,07726.2663,W,1,08,1.34,159.4,M,-34.4,M,,*53
$GPRMC,131701.000,A,4308.3038,N,07726.2663,W,0.01,176.69,151023,,,A*71
$GPGGA,131701.250,4308.3038,N,07726.2663,W,1,08,1.34,159.4,M,-34.4,M,,*57
$GPRMC,131701.500,A,4308.3038,N,07726.2663,W,0.00,282.76,151023,,,A*73
$GPGGA,131701.750,4308.3038,N,07726.2663,W,1,08,1.34,159.4,M,-34.4,M,,*52
$GPRMC,131702.000,A,4308.3038,N,07726.2663,W,0.01,278.77,151023,,,A*70
$GPGGA,131702.250,4308.3038,N,07726.2663,W,1,08,1.34,159.4,M,-34.4,M,,*54
$GPRMC,131702.500,A,4308.3038,N,07726.2663,W,0.01,188.10,151023,,,A*78
$GPGGA,131702.750,4308.3038,N,07726.2663,W,1,08,1.34,159.4,M,-34.4,M,,*51
$GPRMC,131703.000,A,4308.3038,N,07726.2663,W,0.01,353.85,151023,,,A*74
$GPGGA,131703.250,4308.3038,N,07726.2663,W,1,08,1.34,159.4,M,-34.4,M,,*55
$GPRMC,131703.500,A,4308.3038,N,07726.2663,W,0.00,345.10,151023,,,A*7B
$GPGGA,131703.750,4308.3038,N,07726.2663,W,1,08,1.34,159.4,M,-34.4,M,,*50
$GPRMC,131704.000,A,4308.3038,N,07726.2663,W,0.01,110.00,151023,,,A*7B
$GPGGA,131704.250,4308.3038,N,07726.2663,W,1,08,1.34,159.4,M,-34.4,M,,*52
$GPRMC,131704.500,A,4308.3038,N,07726.2663,W,0.01,41.95,151023,,,A*47
$GPGGA,131704.750,4308.3038,N,07726.2663,W,1,08,1.34,159.4,M,-34.4,M,,*57
$GPRMC,131705.000,A,4308.3038,N,07726.2663,W,0.01,95.80,151023,,,A*4E
$GPGGA,131705.250,4308.3038,N,07726.2663,W,1,08,1.34,159.4,M,-34.4,M,,*53
$GPRMC,131705.500,A,4308.3038,N,07726.2663,W,0.00,85.31,151023,,,A*41
$GPGGA,131705.750,4308.3038,N,07726.2663,W,1,08,1.34,159.4,M,-34.4,M,,*56
$GPRMC,131706.000,A,4308.3038,N,07726.2663,W,0.01,110.89,151023,,,A*78
$GPGGA,131706.250,4308.3038,N,07726.2663,W,1,08,1.34,159.4,M,-34.4,M,,*50
$GPRMC,131706.500,A,4308.3038,N,07726.2663,W,0.01,342.44,151023,,,A*79
$GPGGA,131706.750,4308.3038,N,07726.2663,W,1,08,1.34,159.4,M,-34.4,M,,*55
$GPRMC,131707.000,A,4308.3038,N,07726.2663,W,0.00,47.64,151023,,,A*48
$GPGGA,131707.250,4308.3038,N,07726.2663,W,1,08,1.34,159.4,M,-34.4,M,,*51
$GPRMC,131707.500,A,4308.3038,N,07726.2663,W,0.01,24.50,151023,,,A*4E
$GPGGA,131707.750,4308.3038,N,07726.2663,W,1,08,1.34,159.4,M,-34.4,M,,*54
$GPRMC,131708.000,A,4308.3038,N,07726.2663,W,0.01,124.54,151023,,,A*71
$GPGGA,131708.250,4308.3038,N,07726.2663,W,1,08,1.34,159.4,M,-34.4,M,,*5E
$GPRMC,131708.500,A,4308.3038,N,07726.2663,W,0.01,77.47,151023,,,A*41
$GPGGA,131708.750,4308.3038,N,07726.2663,W,1,08,1.34,159.4,M,-34.4,M,,*5B
$GPRMC,131709.000,A,4308.3038,N,07726.2663,W,0.01,234.00,151023,,,A*73
$GPGGA,131709.250,4308.3038,N,07726.2663,W,1,08,1.34,159.4,M,-34.4,M,,*5F
$GPRMC,131709.500,A,4308.3038,N,07726.2663,W,0.00,49.09,151023,,,A*46
$GPGGA,131709.750,4308.3038,N,07726.2663,W,1,08,1.34,159.4,M,-34.4,M,,*5A
$GPRMC,131710.000,A,4308.3038,N,07726.2663,W,0.01,263.43,151023,,,A*7E
$GPGGA,131710.250,4308.3038,N,07726.2663,W,1,08,1.34,159.4,M,-34.4,M,,*57
$GPRMC,131710.500,A,4308.3038,N,07726.2663,W,0.01,250.89,151023,,,A*7D
$GPGGA,131710.750,4308.3038,N,07726.2663,W,1,08,1.34,159.4,M,-34.4,M,,*52
$GPRMC,131711.000,A,4308.3038,N,07726.2663,W,0.01,237.10,151023,,,A*78
$GPGGA,131711.250,4308.3038,N,07726.2663,W,1,08,1.34,159.4,M,-34.4,M,,*56
$GPRMC,131711.500,A,4308.3038,N,07726.2663,W,0.01,126.00,151023,,,A*7F
$GPGGA,131711.750,4308.3038,N,07726.2663,W,1,08,1.34,159.4,M,-34.4,M,,*53
$GPRMC,131712.000,A,4308.3038,N,07726.2663,W,0.00,0.00,151023,,,A*7D
$GPGGA,131712.250,4308.3038,N,07726.2663,W,1,08,1.34,159.4,M,-34.4,M,,*55
$GPRMC,131712.500,A,4308.3038,N,07726.2663,W,0.01,33.97,151023,,,A*47
$GPGGA,131712.750,4308.3038,N,07726.2663,W,1,08,1.34,159.3,M,-34.4,M,,*57
$GPRMC,131713.000,A,4308.3038,N,07726.2663,W,0.01,97.53,151023,,,A*45
$GPGGA,131713.250,4308.3038,N,07726.2663,W,1,08,1.34,159.3,M,-34.4,M,,*53
$GPRMC,131713.500,A,4308.3038,N,07726.2663,W,0.00,342.23,151023,,,A*7D
$GPGGA,131713.750,4308.3038,N,07726.2663,W,1,08,1.34,159.3,M,-34.4,M,,*56
$GPRMC,131714.000,A,4308.3038,N,07726.2663,W,0.01,266.35,151023,,,A*7E
$GPGGA,131714.250,4308.3038,N,07726.2663,W,1,08,1.34,159.3,M,-34.4,M,,*54
$GPRMC,131714.500,A,4308.3038,N,07726.2663,W,0.00,0.00,151023,,,A*7E
$GPGGA,131714.750,4308.3038,N,07726.2663,W,1,08,1.34,159.3,M,-34.4,M,,*51
$GPRMC,131715.000,A,4308.3038,N,07726.2663,W,0.00,162.51,151023,,,A*7B
$GPGGA,131715.250,4308.3038,N,07726.2663,W,1,08,1.34,159.3,M,-34.4,M,,*55
$GPRMC,131715.500,A,4308.3038,N,07726.2663,W,0.01,235.44,151023,,,A*7A
$GPGGA,131715.750,4308.3038,N,07726.2663,W,1,08,1.34,159.3,M,-34.4,M,,*50
$GPRMC,131716.000,A,4308.3038,N,07726.2663,W,0.01,167.77,151023,,,A*78
$GPGGA,131716.250,4308.3038,N,07726.2663,W,1,08,1.34,159.3,M,-34.4,M,,*56
$GPRMC,131716.500,A,4308.3038,N,07726.2663,W,0.01,274.57,151023,,,A*7E
$GPGGA,131716.750,4308.3038,N,07726.2663,W,1,08,1.34,159.3,M,-34.4,M,,*53
$GPRMC,131717.000,A,4308.3038,N,07726.2663,W,0.01,100.64,151023,,,A*7A
$GPGGA,131717.250,4308.3038,N,07726.2663,W,1,08,1.34,159.3,M,-34.4,M,,*57
$GPRMC,131717.500,A,4308.3038,N,07726.2663,W,0.02,104.57,151023,,,A*78
$GPGGA,131717.750,4308.3038,N,07726.2663,W,1,08,1.34,159.3,M,-34.4,M,,*52
$GPRMC,131718.000,A,4308.3038,N,07726.2663,W,0.01,122.71,151023,,,A*71
$GPGGA,131718.250,4308.3038,N,07726.2663,W,1,08,1.34,159.3,M,-34.4,M,,*58
$GPRMC,131718.500,A,4308.3038,N,07726.2662,W,0.01,82.84,151023,,,A*44
$GPGGA,131718.750,4308.3038,N,07726.2662,W,1,08,1.34,159.3,M,-34.4,M,,*5C
$GPRMC,131719.000,A,4308.3038,N,07726.2662,W,0.01,175.00,151023,,,A*75
$GPGGA,131719.250,4308.3038,N,07726.2662,W,1,08,1.34,159.3,M,-34.4,M,,*58
$GPRMC,131719.500,A,4308.3038,N,07726.2662,W,0.02,331.94,151023,,,A*7C
$GPGGA,131719.750,4308.3038,N,07726.2662,W,1,08,1.34,159.3,M,-34.4,M,,*5D
$GPRMC,131720.000,A,4308.3038,N,07726.2662,W,0.01,190.37,151023,,,A*70
$GPGGA,131720.250,4308.3038,N,07726.2662,W,1,08,1.34,159.3,M,-34.4,M,,*52
$GPRMC,131720.500,A,4308.3038,N,07726.2662,W,0.00,58.05,151023,,,A*40
$GPGGA,131720.750,4308.3038,N,07726.2662,W,1,08,1.34,159.3,M,-34.4,M,,*57
$GPRMC,131721.000,A,4308.3038,N,07726.2662,W,0.00,64.51,151023,,,A*4A
$GPGGA,131721.250,4308.3038,N,07726.2662,W,1,08,1.34,159.3,M,-34.4,M,,*53
$GPRMC,131721.500,A,4308.3038,N,07726.2662,W,0.02,311.74,151023,,,A*7B
$GPGGA,131721.750,4308.3038,N,07726.2662,W,1,08,1.34,159.3,M,-34.4,M,,*56
$GPRMC,131722.000,A,4308.3038,N,07726.2662,W,0.00,76.06,151023,,,A*48
$GPGGA,131722.250,4308.3038,N,07726.2662,W,1,08,1.34,159.3,M,-34.4,M,,*50
$GPRMC,131722.500,A,4308.3038,N,07726.2662,W,0.01,216.90,151023,,,A*77
$GPGGA,131722.750,4308.3038,N,07726.2662,W,1,08,1.34,159.3,M,-34.4,M,,*55
$GPRMC,131723.000,A,4308.3038,N,07726.2662,W,0.01,54.62,151023,,,A*4A
$GPGGA,131723.250,4308.3038,N,07726.2662,W,1,08,1.34,159.3,M,-34.4,M,,*51
$GPRMC,131723.500,A,4308.3038,N,07726.2662,W,0.01,335.23,151023,,,A*7E
$GPGGA,131723.750,4308.3038,N,07726.2662,W,1,08,1.33,159.3,M,-34.4,M,,*53
$GPRMC,131724.000,A,4308.3038,N,07726.2662,W,0.01,71.60,151023,,,A*48
$GPGGA,131724.250,4308.3038,N,07726.2662,W,1,08,1.34,159.3,M,-34.4,M,,*56
$GPRMC,131724.500,A,4308.3038,N,07726.2662,W,0.01,195.28,151023,,,A*7A
$GPGGA,131724.750,4308.3038,N,07726.2662,W,1,08,1.33,159.3,M,-34.4,M,,*54
$GPRMC,131725.000,A,4308.3038,N,07726.2662,W,0.01,169.30,151023,,,A*74
$GPGGA,131725.250,4308.3038,N,07726.2662,W,1,08,1.34,159.3,M,-34.4,M,,*57
$GPRMC,131725.500,A,4308.3038,N,07726.2662,W,0.01,109.26,151023,,,A*70
$GPGGA,131725.750,4308.3038,N,07726.2662,W,1,08,1.33,159.3,M,-34.4,M,,*55
$GPRMC,131726.000,A,4308.3038,N,07726.2662,W,0.01,310.91,151023,,,A*70
$GPGGA,131726.250,4308.3038,N,07726.2662,W,1,08,1.33,159.3,M,-34.4,M,,*53
$GPRMC,131726.500,A,4308.3038,N,07726.2662,W,0.01,90.60,151023,,,A*40
$GPGGA,131726.750,4308.3038,N,07726.2662,W,1,08,1.33,159.3,M,-34.4,M,,*56
$GPRMC,131727.000,A,4308.3038,N,07726.2662,W,0.01,241.89,151023,,,A*7D
$GPGGA,131727.250,4308.3038,N,07726.2662,W,1,08,1.33,159.3,M,-34.4,M,,*52
$GPRMC,131727.500,A,4308.3038,N,07726.2662,W,0.01,247.95,151023,,,A*73
$GPGGA,131727.750,4308.3038,N,07726.2662,W,1,08,1.33,159.3,M,-34.4,M,,*57
$GPRMC,131728.000,A,4308.3038,N,07726.2662,W,0.01,112.67,151023,,,A*77
$GPGGA,131728.250,4308.3038,N,07726.2662,W,1,08,1.33,159.3,M,-34.4,M,,*5D
$GPRMC,131728.500,A,4308.3038,N,07726.2662,W,0.00,172.70,151023,,,A*73
$GPGGA,131728.750,4308.3038,N,07726.2662,W,1,08,1.33,159.3,M,-34.4,M,,*58
$GPRMC,131729.000,A,4308.3038,N,07726.2662,W,0.01,60.57,151023,,,A*41
$GPGGA,131729.250,4308.3038,N,07726.2662,W,1,08,1.33,159.3,M,-34.4,M,,*5C
$GPRMC,131729.500,A,4308.3038,N,07726.2662,W,0.01,199.49,151023,,,A*7C
$GPGGA,131729.750,4308.3038,N,07726.2662,W,1,08,1.33,159.3,M,-34.4,M,,*59
$GPRMC,131730.000,A,4308.3038,N,07726.2662,W,0.00,181.77,151023,,,A*74
$GPGGA,131730.250,4308.3038,N,07726.2662,W,1,08,1.33,159.3,M,-34.4,M,,*54
$GPRMC,131730.500,A,4308.3038,N,07726.2662,W,0.02,8.59,151023,,,A*7F
$GPGGA,131730.750,4308.3038,N,07726.2662,W,1,08,1.33,159.3,M,-34.4,M,,*51
$GPRMC,131731.000,A,4308.3038,N,07726.2662,W,0.00,296.12,151023,,,A*73
$GPGGA,131731.250,4308.3038,N,07726.2662,W,1,08,1.33,159.3,M,-34.4,M,,*55
$GPRMC,131731.500,A,4308.3038,N,07726.2662,W,0.02,308.16,151023,,,A*76
$GPGGA,131731.750,4308.3038,N,07726.2662,W,1,08,1.33,159.3,M,-34.4,M,,*50
$GPRMC,131732.000,A,4308.3038,N,07726.2662,W,0.00,104.11,151023,,,A*7B
$GPGGA,131732.250,4308.3038,N,07726.2662,W,1,08,1.33,159.3,M,-34.4,M,,*56
$GPRMC,131732.500,A,4308.3038,N,07726.2662,W,0.00,42.63,151023,,,A*48
$GPGGA,131732.750,4308.3038,N,07726.2662,W,1,08,1.33,159.3,M,-34.4,M,,*53
$GPRMC,131733.000,A,4308.3038,N,07726.2662,W,0.00,60.10,151023,,,A*48
$GPGGA,131733.250,4308.3038,N,07726.2662,W,1,08,1.33,159.3,M,-34.4,M,,*57
$GPRMC,131733.500,A,4308.3038,N,07726.2662,W,0.00,353.29,151023,,,A*74
$GPGGA,131733.750,4308.3038,N,07726.2662,W,1,08,1.33,159.3,M,-34.4,M,,*52
$GPRMC,131734.000,A,4308.3038,N,07726.2662,W,0.01,292.94,151023,,,A*7D
$GPGGA,131734.250,4308.3038,N,07726.2662,W,1,08,1.33,159.3,M,-34.4,M,,*50
$GPRMC,131734.500,A,4308.3038,N,07726.2662,W,0.01,274.51,151023,,,A*79
$GPGGA,131734.750,4308.3038,N,07726.2662,W,1,08,1.33,159.3,M,-34.4,M,,*55
$GPRMC,131735.000,A,4308.3038,N,07726.2662,W,0.00,178.69,151023,,,A*78
$GPGGA,131735.250,4308.3038,N,07726.2662,W,1,08,1.33,159.3,M,-34.4,M,,*51
$GPRMC,131735.500,A,4308.3038,N,07726.2662,W,0.00,129.56,151023,,,A*75
$GPGGA,131735.750,4308.3038,N,07726.2662,W,1,08,1.33,159.3,M,-34.4,M,,*54
$GPRMC,131736.000,A,4308.3038,N,07726.2662,W,0.01,302.67,151023,,,A*7B
$GPGGA,131736.250,4308.3038,N,07726.2662,W,1,08,1.33,159.3,M,-34.4,M,,*52
$GPRMC,131736.500,A,4308.3038,N,07726.2662,W,0.01,300.83,151023,,,A*76
$GPGGA,131736.750,4308.3038,N,07726.2662,W,1,08,1.33,159.3,M,-34.4,M,,*57
$GPRMC,131737.000,A,4308.3038,N,07726.2662,W,0.01,45.83,151023,,,A*40
$GPGGA,131737.250,4308.3038,N,07726.2662,W,1,08,1.33,159.3,M,-34.4,M,,*53
$GPRMC,131737.500,A,4308.3038,N,07726.2662,W,0.00,273.97,151023,,,A*76
$GPGGA,131737.750,4308.3038,N,07726.2662,W,1,08,1.33,159.4,M,-34.4,M,,*51
$GPRMC,131738.000,A,4308.3038,N,07726.2662,W,0.00,45.24,151023,,,A*43
$GPGGA,131738.250,4308.3038,N,07726.2662,W,1,08,1.33,159.4,M,-34.4,M,,*5B
$GPRMC,131738.500,A,4308.3038,N,07726.2662,W,0.01,71.19,151023,,,A*4E
$GPGGA,131738.750,4308.3038,N,07726.2662,W,1,08,1.33,159.4,M,-34.4,M,,*5E
$GPRMC,131739.000,A,4308.3038,N,07726.2662,W,0.00,33.02,151023,,,A*47
$GPGGA,131739.250,4308.3038,N,07726.2662,W,1,08,1.33,159.4,M,-34.4,M,,*5A
$GPRMC,131739.500,A,4308.3038,N,07726.2662,W,0.00,9.90,151023,,,A*70
$GPGGA,131739.750,4308.3038,N,07726.2662,W,1,08,1.33,159.4,M,-34.4,M,,*5F
$GPRMC,131740.000,A,4308.3038,N,07726.2662,W,0.01,17.65,151023,,,A*4F
$GPGGA,131740.250,4308.3038,N,07726.2662,W,1,08,1.33,159.4,M,-34.4,M,,*54
$GPRMC,131740.500,A,4308.3038,N,07726.2662,W,0.00,161.63,151023,,,A*7D
$GPGGA,131740.750,4308.3038,N,07726.2662,W,1,08,1.33,159.4,M,-34.4,M,,*51
$GPRMC,131741.000,A,4308.3038,N,07726.2662,W,0.01,267.55,151023,,,A*78
$GPGGA,131741.250,4308.3038,N,07726.2662,W,1,08,1.33,159.4,M,-34.4,M,,*55
$GPRMC,131741.500,A,4308.3038,N,07726.2662,W,0.00,216.59,151023,,,A*76
$GPGGA,131741.750,4308.3038,N,07726.2662,W,1,08,1.33,159.4,M,-34.4,M,,*50
$GPRMC,131742.000,A,4308.3038,N,07726.2662,W,0.01,167.25,151023,,,A*7F
$GPGGA,131742.250,4308.3038,N,07726.2662,W,1,08,1.33,159.4,M,-34.4,M,,*56
$GPRMC,131742.500,A,4308.3038,N,07726.2662,W,0.00,232.90,151023,,,A*76
$GPGGA,131742.750,4308.3038,N,07726.2662,W,1,08,1.33,159.4,M,-34.4,M,,*53
$GPRMC,131743.000,A,4308.3038,N,07726.2662,W,0.01,279.33,151023,,,A*75
$GPGGA,131743.250,4308.3038,N,07726.2662,W,1,08,1.33,159.4,M,-34.4,M,,*57
$GPRMC,131743.500,A,4308.3038,N,07726.2662,W,0.01,348.95,151023,,,A*7F
$GPGGA,131743.750,4308.3038,N,07726.2662,W,1,08,1.33,159.4,M,-34.4,M,,*52
$GPRMC,131744.000,A,4308.3038,N,07726.2662,W,0.00,164.99,151023,,,A*7C
$GPGGA,131744.250,4308.3038,N,07726.2662,W,1,08,1.33,159.4,M,-34.4,M,,*50
$GPRMC,131744.500,A,4308.3038,N,07726.2662,W,0.01,141.11,151023,,,A*7F
$GPGGA,131744.750,4308.3038,N,07726.2662,W,1,08,1.33,159.4,M,-34.4,M,,*55
$GPRMC,131745.000,A,4308.3038,N,07726.2662,W,0.00,172.67,151023,,,A*7B
$GPGGA,131745.250,4308.3038,N,07726.2662,W,1,08,1.33,159.4,M,-34.4,M,,*51
$GPRMC,131745.500,A,4308.3038,N,07726.2662,W,0.01,138.53,151023,,,A*76
$GPGGA,131745.750,4308.3038,N,07726.2662,W,1,08,1.33,159.4,M,-34.4,M,,*54
$GPRMC,131746.000,A,4308.3038,N,07726.2662,W,0.01,89.32,151023,,,A*4C
$GPGGA,131746.250,4308.3038,N,07726.2662,W,1,08,1.33,159.4,M,-34.4,M,,*52
$GPRMC,131746.500,A,4308.3038,N,07726.2662,W,0.00,336.04,151023,,,A*7A
$GPGGA,131746.750,4308.3038,N,07726.2662,W,1,08,1.33,159.4,M,-34.4,M,,*57
$GPRMC,131747.000,A,4308.3038,N,07726.2662,W,0.01,83.99,151023,,,A*46
$GPGGA,131747.250,4308.3038,N,07726.2662,W,1,08,1.33,159.4,M,-34.4,M,,*53
$GPRMC,131747.500,A,4308.3038,N,07726.2662,W,0.01,312.47,151023,,,A*7B
$GPGGA,131747.750,4308.3038,N,07726.2662,W,1,08,1.33,159.4,M,-34.4,M,,*56
$GPRMC,131748.000,A,4308.3038,N,07726.2662,W,0.00,348.96,151023,,,A*73
$GPGGA,131748.250,4308.3038,N,07726.2662,W,1,08,1.33,159.4,M,-34.4,M,,*5C
$GPRMC,131748.500,A,4308.3038,N,07726.2662,W,0.00,0.00,151023,,,A*76
$GPGGA,131748.750,4308.3038,N,07726.2662,W,1,08,1.33,159.4,M,-34.4,M,,*59
$GPRMC,131749.000,A,4308.3038,N,07726.2662,W,0.02,277.24,151023,,,A*74
$GPGGA,131749.250,4308.3038,N,07726.2662,W,1,08,1.33,159.4,M,-34.4,M,,*5D
$GPRMC,131749.500,A,4308.3038,N,07726.2662,W,0.01,280.92,151023,,,A*77
$GPGGA,131749.750,4308.3038,N,07726.2662,W,1,08,1.33,159.4,M,-34.4,M,,*58
$GPRMC,131750.000,A,4308.3038,N,07726.2662,W,0.01,215.99,151023,,,A*7D
$GPGGA,131750.250,4308.3038,N,07726.2662,W,1,08,1.33,159.4,M,-34.4,M,,*55
$GPRMC,131750.500,A,4308.3038,N,07726.2662,W,0.00,160.93,151023,,,A*72
$GPGGA,131750.750,4308.3038,N,07726.2662,W,1,08,1.33,159.4,M,-34.4,M,,*50
$GPRMC,131751.000,A,4308.3038,N,07726.2662,W,0.00,332.68,151023,,,A*77
$GPGGA,131751.250,4308.3038,N,07726.2662,W,1,08,1.33,159.4,M,-34.4,M,,*54
$GPRMC,131751.500,A,4308.3038,N,07726.2662,W,0.01,150.90,151023,,,A*72
$GPGGA,131751.750,4308.3038,N,07726.2662,W,1,08,1.33,159.4,M,-34.4,M,,*51
$GPRMC,131752.000,A,4308.3038,N,07726.2662,W,0.00,350.45,151023,,,A*7F
$GPGGA,131752.250,4308.3038,N,07726.2662,W,1,08,1.33,159.4,M,-34.4,M,,*57
$GPRMC,131752.500,A,4308.3038,N,07726.2662,W,0.01,302.30,151023,,,A*7E
$GPGGA,131752.750,4308.3038,N,07726.2662,W,1,08,1.33,159.4,M,-34.4,M,,*52
$GPRMC,131753.000,A,4308.3038,N,07726.2662,W,0.01,313.79,151023,,,A*77
$GPGGA,131753.250,4308.3038,N,07726.2662,W,1,08,1.33,159.4,M,-34.4,M,,*56
$GPRMC,131753.500,A,4308.3038,N,07726.2662,W,0.01,291.26,151023,,,A*73
$GPGGA,131753.750,4308.3038,N,07726.2662,W,1,08,1.33,159.4,M,-34.4,M,,*53
$GPRMC,131754.000,A,4308.3038,N,07726.2662,W,0.01,354.76,151023,,,A*7C
$GPGGA,131754.250,4308.3038,N,07726.2662,W,1,08,1.33,159.4,M,-34.4,M,,*51
$GPRMC,131754.500,A,4308.3038,N,07726.2662,W,0.00,165.59,151023,,,A*75
$GPGGA,131754.750,4308.3038,N,07726.2662,W,1,08,1.33,159.4,M,-34.4,M,,*54
$GPRMC,131755.000,A,4308.3038,N,07726.2662,W,0.01,187.21,151023,,,A*73
$GPGGA,131755.250,4308.3038,N,07726.2662,W,1,08,1.33,159.4,M,-34.4,M,,*50
$GPRMC,131755.500,A,4308.3038,N,07726.2662,W,0.01,177.56,151023,,,A*79
$GPGGA,131755.750,4308.3038,N,07726.2662,W,1,08,1.33,159.4,M,-34.4,M,,*55
$GPRMC,131756.000,A,4308.3038,N,07726.2662,W,0.01,122.44,151023,,,A*7C
$GPGGA,131756.250,4308.3038,N,07726.2662,W,1,08,1.33,159.4,M,-34.4,M,,*53
$GPRMC,131756.500,A,4308.3038,N,07726.2662,W,0.00,303.25,151023,,,A*7E
$GPGGA,131756.750,4308.3038,N,07726.2662,W,1,08,1.33,159.4,M,-34.4,M,,*56
$GPRMC,131757.000,A,4308.3038,N,07726.2662,W,0.00,66.76,151023,,,A*4C
$GPGGA,131757.250,4308.3038,N,07726.2662,W,1,08,1.33,159.4,M,-34.4,M,,*52
$GPRMC,131757.500,A,4308.3038,N,07726.2662,W,0.00,354.25,151023,,,A*7D
$GPGGA,131757.750,4308.3038,N,07726.2662,W,1,08,1.33,159.4,M,-34.4,M,,*57
$GPRMC,131758.000,A,4308.3038,N,07726.2662,W,0.00,278.15,151023,,,A*7B
$GPGGA,131758.250,4308.3038,N,07726.2662,W,1,08,1.33,159.4,M,-34.4,M,,*5D
$GPRMC,131758.500,A,4308.3038,N,07726.2662,W,0.01,152.09,151023,,,A*79
$GPGGA,131758.750,4308.3038,N,07726.2662,W,1,08,1.33,159.4,M,-34.4,M,,*58
