Vers 81
USE_SERIAL_FEEDBACK=true
DEVELOPMENT_MODE=false
USE_RMC_ONLY=false

$GPRMC,203434.750,A,4305.1698,N,07740.8713,W,0.09,39.26,051023,,,A*43
$GPGGA,203435.000,4305.1698,N,07740.8713,W,1,04,2.79,182.7,M,-34.4,M,,*5A
$GPRMC,203435.250,A,4305.1698,N,07740.8713,W,0.09,36.10,051023,,,A*4D
$GPGGA,203435.500,4305.1698,N,07740.8713,W,1,04,2.80,182.4,M,-34.4,M,,*5A
$GPRMC,203435.750,A,4305.1699,N,07740.8714,W,0.11,47.31,051023,,,A*42
$GPGGA,203436.000,4305.1699,N,07740.8714,W,1,04,2.80,182.0,M,-34.4,M,,*5E
$GPRMC,203436.250,A,4305.1699,N,07740.8714,W,0.17,3.54,051023,,,A*71
$GPGGA,203436.500,4305.1700,N,07740.8714,W,1,04,7.90,181.7,M,-34.4,M,,*5A
$GPRMC,203436.750,A,4305.1700,N,07740.8713,W,0.26,23.03,051023,,,A*40
$GPGGA,203437.000,4305.1700,N,07740.8713,W,1,04,2.79,181.4,M,-34.4,M,,*58
$GPRMC,203437.250,A,4305.1699,N,07740.8713,W,0.28,13.36,051023,,,A*4E
$GPGGA,203437.500,4305.1699,N,07740.8714,W,1,04,7.89,181.1,M,-34.4,M,,*54
$GPRMC,203437.750,A,4305.1698,N,07740.8713,W,0.21,8.36,051023,,,A*79
$GPGGA,203438.000,4305.1697,N,07740.8713,W,1,04,7.89,180.9,M,-34.4,M,,*5E
$GPRMC,203438.250,A,4305.1696,N,07740.8712,W,0.19,38.97,051023,,,A*4F
$GPGGA,203438.500,4305.1695,N,07740.8712,W,1,04,2.79,180.6,M,-34.4,M,,*5D
$GPRMC,203438.750,A,4305.1695,N,07740.8712,W,0.27,14.46,051023,,,A*46
$GPGGA,203439.000,4305.1695,N,07740.8713,W,1,04,7.88,180.4,M,-34.4,M,,*51
$GPRMC,203439.250,A,4305.1694,N,07740.8713,W,0.29,0.79,051023,,,A*75
$GPGGA,203439.500,4305.1693,N,07740.8713,W,1,04,7.87,180.2,M,-34.4,M,,*5B
$GPRMC,203439.750,A,4305.1692,N,07740.8713,W,0.19,12.89,051023,,,A*49
$GPGGA,203440.000,4305.1692,N,07740.8713,W,1,04,7.87,180.1,M,-34.4,M,,*52
$GPRMC,203440.250,A,4305.1691,N,07740.8713,W,0.28,13.21,051023,,,A*40
$GPGGA,203440.500,4305.1691,N,07740.8713,W,1,04,7.87,180.0,M,-34.4,M,,*55
$GPRMC,203440.750,A,4305.1690,N,07740.8713,W,0.23,18.74,051023,,,A*44
$GPGGA,203441.000,4305.1689,N,07740.8713,W,1,04,2.79,179.9,M,-34.4,M,,*53
$GPRMC,203441.250,A,4305.1689,N,07740.8713,W,0.19,29.32,051023,,,A*41
$GPGGA,203441.500,4305.1688,N,07740.8712,W,1,04,2.79,179.9,M,-34.4,M,,*56
$GPRMC,203441.750,A,4305.1687,N,07740.8713,W,0.10,80.09,051023,,,A*48
$GPGGA,203442.000,4305.1686,N,07740.8714,W,1,04,2.79,179.8,M,-34.4,M,,*59
$GPRMC,203442.250,A,4305.1685,N,07740.8714,W,0.05,145.86,051023,,,A*70
$GPGGA,203442.500,4305.1685,N,07740.8713,W,1,04,2.79,179.7,M,-34.4,M,,*57
$GPRMC,203442.750,A,4305.1685,N,07740.8714,W,0.07,73.28,051023,,,A*47
$GPGGA,203443.000,4305.1685,N,07740.8714,W,1,04,2.79,179.7,M,-34.4,M,,*54
$GPRMC,203443.250,A,4305.1684,N,07740.8714,W,0.07,357.12,051023,,,A*7E
$GPGGA,203443.500,4305.1684,N,07740.8715,W,1,04,7.84,179.6,M,-34.4,M,,*57
$GPRMC,203443.750,A,4305.1683,N,07740.8715,W,0.07,289.32,051023,,,A*7D
$GPGGA,203444.000,4305.1683,N,07740.8716,W,1,04,2.79,179.5,M,-34.4,M,,*55
$GPRMC,203444.250,A,4305.1683,N,07740.8716,W,0.08,314.62,051023,,,A*73
$GPGGA,203444.500,4305.1682,N,07740.8717,W,1,04,2.79,179.3,M,-34.4,M,,*56
$GPRMC,203444.750,A,4305.1683,N,07740.8717,W,0.15,327.74,051023,,,A*7C
$GPGGA,203445.000,4305.1682,N,07740.8718,W,1,04,2.79,179.2,M,-34.4,M,,*5C
$GPRMC,203445.250,A,4305.1682,N,07740.8718,W,0.21,327.82,051023,,,A*78
$GPGGA,203445.500,4305.1682,N,07740.8719,W,1,04,2.79,179.0,M,-34.4,M,,*5A
$GPRMC,203445.750,A,4305.1682,N,07740.8719,W,0.23,339.31,051023,,,A*79
$GPGGA,203446.000,4305.1681,N,07740.8720,W,1,04,2.79,178.8,M,-34.4,M,,*5C
$GPRMC,203446.250,A,4305.1681,N,07740.8720,W,0.19,330.95,051023,,,A*78
$GPGGA,203446.500,4305.1680,N,07740.8720,W,1,04,2.79,178.6,M,-34.4,M,,*56
$GPRMC,203446.750,A,4305.1680,N,07740.8720,W,0.16,357.74,051023,,,A*7D
$GPGGA,203447.000,4305.1680,N,07740.8720,W,1,04,7.82,178.3,M,-34.4,M,,*56
$GPRMC,203447.250,A,4305.1679,N,07740.8721,W,0.13,347.94,051023,,,A*74
$GPGGA,203447.500,4305.1678,N,07740.8721,W,1,04,7.81,178.1,M,-34.4,M,,*54
$GPRMC,203447.750,A,4305.1678,N,07740.8721,W,0.13,336.17,051023,,,A*7D
$GPGGA,203448.000,4305.1677,N,07740.8721,W,1,04,2.79,177.9,M,-34.4,M,,*54
$GPRMC,203448.250,A,4305.1677,N,07740.8722,W,0.11,332.08,051023,,,A*73
$GPGGA,203448.500,4305.1676,N,07740.8722,W,1,04,2.79,177.7,M,-34.4,M,,*5D
$GPRMC,203448.750,A,4305.1675,N,07740.8722,W,0.07,331.40,051023,,,A*7C
$GPGGA,203449.000,4305.1675,N,07740.8722,W,1,04,2.79,177.5,M,-34.4,M,,*58
$GPRMC,203449.250,A,4305.1674,N,07740.8723,W,0.07,286.29,051023,,,A*7A
$GPGGA,203449.500,4305.1673,N,07740.8723,W,1,04,2.79,177.3,M,-34.4,M,,*5C
$GPRMC,203449.750,A,4305.1672,N,07740.8723,W,0.08,170.75,051023,,,A*75
$GPGGA,203450.000,4305.1671,N,07740.8723,W,1,04,2.79,177.0,M,-34.4,M,,*50
$GPRMC,203450.250,A,4305.1670,N,07740.8723,W,0.17,169.84,051023,,,A*72
$GPGGA,203450.500,4305.1670,N,07740.8724,W,1,04,2.79,176.9,M,-34.4,M,,*5B
$GPRMC,203450.750,A,4305.1671,N,07740.8725,W,0.05,313.89,051023,,,A*71
$GPGGA,203451.000,4305.1670,N,07740.8725,W,1,04,2.79,176.7,M,-34.4,M,,*50
$GPRMC,203451.250,A,4305.1670,N,07740.8726,W,0.08,296.34,051023,,,A*70
$GPGGA,203451.500,4305.1670,N,07740.8726,W,1,04,2.79,176.6,M,-34.4,M,,*57
$GPRMC,203451.750,A,4305.1670,N,07740.8727,W,0.19,317.39,051023,,,A*71
$GPGGA,203452.000,4305.1670,N,07740.8727,W,1,04,2.79,176.5,M,-34.4,M,,*53
$GPRMC,203452.250,A,4305.1670,N,07740.8727,W,0.15,324.66,051023,,,A*71
$GPGGA,203452.500,4305.1669,N,07740.8728,W,1,04,2.79,176.3,M,-34.4,M,,*57
$GPRMC,203452.750,A,4305.1669,N,07740.8728,W,0.13,321.02,051023,,,A*72
$GPGGA,203453.000,4305.1669,N,07740.8729,W,1,04,2.79,176.2,M,-34.4,M,,*53
$GPRMC,203453.250,A,4305.1669,N,07740.8729,W,0.17,341.02,051023,,,A*75
$GPGGA,203453.500,4305.1668,N,07740.8729,W,1,04,2.79,176.1,M,-34.4,M,,*54
$GPRMC,203453.750,A,4305.1668,N,07740.8729,W,0.14,340.69,051023,,,A*7E
$GPGGA,203454.000,4305.1668,N,07740.8729,W,1,04,2.79,176.1,M,-34.4,M,,*56
$GPRMC,203454.250,A,4305.1667,N,07740.8729,W,0.16,359.42,051023,,,A*70
$GPGGA,203454.500,4305.1667,N,07740.8728,W,1,04,7.76,176.0,M,-34.4,M,,*56
$GPRMC,203454.750,A,4305.1666,N,07740.8729,W,0.12,10.38,051023,,,A*43
$GPGGA,203455.000,4305.1666,N,07740.8729,W,1,04,7.75,175.9,M,-34.4,M,,*5B
$GPRMC,203455.250,A,4305.1666,N,07740.8729,W,0.16,354.90,051023,,,A*72
$GPGGA,203455.500,4305.1666,N,07740.8729,W,1,04,7.75,175.8,M,-34.4,M,,*5F
$GPRMC,203455.750,A,4305.1666,N,07740.8728,W,0.26,24.94,051023,,,A*45
$GPGGA,203456.000,4305.1666,N,07740.8728,W,1,04,2.79,175.7,M,-34.4,M,,*5E
$GPRMC,203456.250,A,4305.1666,N,07740.8728,W,0.29,30.46,051023,,,A*46
$GPGGA,203456.500,4305.1666,N,07740.8728,W,1,04,2.79,175.6,M,-34.4,M,,*5A
$GPRMC,203456.750,A,4305.1666,N,07740.8728,W,0.37,29.78,051023,,,A*49
$GPGGA,203457.000,4305.1666,N,07740.8728,W,1,04,2.79,175.5,M,-34.4,M,,*5D
$GPRMC,203457.250,A,4305.1665,N,07740.8729,W,0.27,26.25,051023,,,A*49
$GPGGA,203457.500,4305.1664,N,07740.8729,W,1,04,2.79,175.5,M,-34.4,M,,*5B
$GPRMC,203457.750,A,4305.1664,N,07740.8730,W,0.12,3.30,051023,,,A*70
$GPGGA,203458.000,4305.1663,N,07740.8731,W,1,04,7.73,175.4,M,-34.4,M,,*51
$GPRMC,203458.250,A,4305.1663,N,07740.8731,W,0.11,330.01,051023,,,A*7E
$GPGGA,203458.500,4305.1663,N,07740.8732,W,1,04,2.79,175.3,M,-34.4,M,,*5F
$GPRMC,203458.750,A,4305.1662,N,07740.8732,W,0.08,320.47,051023,,,A*72
$GPGGA,203459.000,4305.1662,N,07740.8732,W,1,04,2.79,175.2,M,-34.4,M,,*5B
$GPRMC,203459.250,A,4305.1662,N,07740.8732,W,0.12,329.71,051023,,,A*71
$GPGGA,203459.500,4305.1662,N,07740.8733,W,1,04,2.79,175.1,M,-34.4,M,,*5C
$GPRMC,203459.750,A,4305.1662,N,07740.8733,W,0.26,339.20,051023,,,A*77
$GPGGA,203500.000,4305.1662,N,07740.8734,W,1,04,2.79,174.9,M,-34.4,M,,*5A
$GPRMC,203500.250,A,4305.1661,N,07740.8734,W,0.20,331.38,051023,,,A*7C
$GPGGA,203500.500,4305.1660,N,07740.8734,W,1,04,2.79,174.7,M,-34.4,M,,*53
$GPRMC,203500.750,A,4305.1659,N,07740.8733,W,0.11,24.50,051023,,,A*4E
$GPGGA,203501.000,4305.1658,N,07740.8733,W,1,04,2.79,174.5,M,-34.4,M,,*59
$GPRMC,203501.250,A,4305.1658,N,07740.8734,W,0.10,24.29,051023,,,A*43
$GPGGA,203501.500,4305.1657,N,07740.8734,W,1,04,2.79,174.3,M,-34.4,M,,*52
$GPRMC,203501.750,A,4305.1656,N,07740.8734,W,0.07,26.58,051023,,,A*4A
$GPGGA,203502.000,4305.1655,N,07740.8735,W,1,04,2.79,174.1,M,-34.4,M,,*55
$GPRMC,203502.250,A,4305.1656,N,07740.8734,W,0.05,338.89,051023,,,A*7E
$GPGGA,203502.500,4305.1656,N,07740.8733,W,1,06,2.24,174.5,M,-34.4,M,,*5B
$GPRMC,203502.750,A,4305.1655,N,07740.8733,W,0.07,47.36,051023,,,A*42
$GPGGA,203503.000,4305.1655,N,07740.8733,W,1,06,2.24,174.5,M,-34.4,M,,*5C
$GPRMC,203503.250,A,4305.1655,N,07740.8733,W,0.07,58.80,051023,,,A*45
$GPGGA,203503.500,4305.1655,N,07740.8731,W,1,06,2.24,174.7,M,-34.4,M,,*59
$GPRMC,203503.750,A,4305.1655,N,07740.8731,W,0.19,73.55,051023,,,A*4C
$GPGGA,203504.000,4305.1655,N,07740.8730,W,1,06,2.24,174.9,M,-34.4,M,,*54
$GPRMC,203504.250,A,4305.1655,N,07740.8730,W,0.19,75.29,051023,,,A*42
$GPGGA,203504.500,4305.1655,N,07740.8729,W,1,06,2.24,175.2,M,-34.4,M,,*53
$GPRMC,203504.750,A,4305.1655,N,07740.8729,W,0.08,74.57,051023,,,A*47
$GPGGA,203505.000,4305.1655,N,07740.8729,W,1,06,2.24,175.2,M,-34.4,M,,*57
$GPRMC,203505.250,A,4305.1655,N,07740.8729,W,0.09,54.11,051023,,,A*42
$GPGGA,203505.500,4305.1656,N,07740.8729,W,1,06,2.24,175.4,M,-34.4,M,,*57
$GPRMC,203505.750,A,4305.1655,N,07740.8728,W,0.16,63.59,051023,,,A*40
$GPGGA,203506.000,4305.1654,N,07740.8728,W,1,06,2.24,175.3,M,-34.4,M,,*55
$GPRMC,203506.250,A,4305.1655,N,07740.8728,W,0.15,89.15,051023,,,A*49
$GPGGA,203506.500,4305.1655,N,07740.8728,W,1,06,2.24,175.5,M,-34.4,M,,*57
$GPRMC,203506.750,A,4305.1655,N,07740.8728,W,0.08,83.04,051023,,,A*4A
$GPGGA,203507.000,4305.1655,N,07740.8728,W,1,06,2.24,175.5,M,-34.4,M,,*53
$GPRMC,203507.250,A,4305.1655,N,07740.8728,W,0.06,111.51,051023,,,A*7A
$GPGGA,203507.500,4305.1655,N,07740.8728,W,1,06,2.24,175.5,M,-34.4,M,,*56
$GPRMC,203507.750,A,4305.1655,N,07740.8727,W,0.19,137.63,051023,,,A*7B
$GPGGA,203508.000,4305.1655,N,07740.8727,W,1,06,2.24,175.5,M,-34.4,M,,*53
$GPRMC,203508.250,A,4305.1655,N,07740.8727,W,0.27,124.09,051023,,,A*72
$GPGGA,203508.500,4305.1655,N,07740.8727,W,1,06,2.24,175.5,M,-34.4,M,,*56
$GPRMC,203508.750,A,4305.1655,N,07740.8727,W,0.17,91.92,051023,,,A*49
$GPGGA,203509.000,4305.1655,N,07740.8727,W,1,06,2.24,175.5,M,-34.4,M,,*52
$GPRMC,203509.250,A,4305.1655,N,07740.8726,W,0.14,43.01,051023,,,A*4A
$GPGGA,203509.500,4305.1655,N,07740.8726,W,1,06,2.24,175.5,M,-34.4,M,,*56
$GPRMC,203509.750,A,4305.1655,N,07740.8726,W,0.14,355.03,051023,,,A*79
$GPGGA,203510.000,4305.1655,N,07740.8726,W,1,06,2.79,175.5,M,-34.4,M,,*53
$GPRMC,203510.250,A,4305.1655,N,07740.8726,W,0.07,346.17,051023,,,A*71
$GPGGA,203510.500,4305.1655,N,07740.8726,W,1,06,2.79,175.5,M,-34.4,M,,*56
$GPRMC,203510.750,A,4305.1655,N,07740.8726,W,0.04,62.16,051023,,,A*43
$GPGGA,203511.000,4305.1655,N,07740.8726,W,1,06,2.24,175.5,M,-34.4,M,,*5A
$GPRMC,203511.250,A,4305.1655,N,07740.8726,W,0.04,160.18,051023,,,A*7A
$GPGGA,203511.500,4305.1655,N,07740.8726,W,1,06,2.24,175.5,M,-34.4,M,,*5F
$GPRMC,203511.750,A,4305.1655,N,07740.8726,W,0.06,102.36,051023,,,A*75
$GPGGA,203512.000,4305.1655,N,07740.8726,W,1,06,2.24,175.5,M,-34.4,M,,*59
$GPRMC,203512.250,A,4305.1655,N,07740.8726,W,0.03,88.97,051023,,,A*4E
$GPGGA,203512.500,4305.1655,N,07740.8726,W,1,06,2.24,175.5,M,-34.4,M,,*5C
$GPRMC,203512.750,A,4305.1655,N,07740.8726,W,0.07,267.89,051023,,,A*73
$GPGGA,203513.000,4305.1655,N,07740.8726,W,1,06,2.24,175.5,M,-34.4,M,,*58
$GPRMC,203513.250,A,4305.1655,N,07740.8726,W,0.11,238.10,051023,,,A*7A
$GPGGA,203513.500,4305.1655,N,07740.8726,W,1,06,2.24,175.5,M,-34.4,M,,*5D
$GPRMC,203513.750,A,4305.1655,N,07740.8726,W,0.13,275.41,051023,,,A*70
$GPGGA,203514.000,4305.1655,N,07740.8727,W,1,06,2.24,175.5,M,-34.4,M,,*5E
$GPRMC,203514.250,A,4305.1655,N,07740.8727,W,0.05,13.16,051023,,,A*44
$GPGGA,203514.500,4305.1655,N,07740.8727,W,1,06,2.79,175.5,M,-34.4,M,,*53
$GPRMC,203514.750,A,4305.1655,N,07740.8727,W,0.06,344.75,051023,,,A*76
$GPGGA,203515.000,4305.1655,N,07740.8727,W,1,06,2.24,175.5,M,-34.4,M,,*5F
$GPRMC,203515.250,A,4305.1655,N,07740.8727,W,0.12,4.69,051023,,,A*7D
$GPGGA,203515.500,4305.1655,N,07740.8727,W,1,06,2.79,175.5,M,-34.4,M,,*52
$GPRMC,203515.750,A,4305.1655,N,07740.8726,W,0.17,3.31,051023,,,A*76
$GPGGA,203516.000,4305.1655,N,07740.8726,W,1,06,2.79,175.5,M,-34.4,M,,*55
$GPRMC,203516.250,A,4305.1655,N,07740.8726,W,0.07,2.42,051023,,,A*74
$GPGGA,203516.500,4305.1656,N,07740.8726,W,1,06,2.79,175.5,M,-34.4,M,,*53
$GPRMC,203516.750,A,4305.1656,N,07740.8726,W,0.12,78.21,051023,,,A*4E
$GPGGA,203517.000,4305.1656,N,07740.8726,W,1,06,2.24,175.5,M,-34.4,M,,*5F
$GPRMC,203517.250,A,4305.1656,N,07740.8726,W,0.15,89.61,051023,,,A*47
$GPGGA,203517.500,4305.1656,N,07740.8726,W,1,06,2.24,175.5,M,-34.4,M,,*5A
$GPRMC,203517.750,A,4305.1656,N,07740.8726,W,0.04,54.50,051023,,,A*40
$GPGGA,203518.000,4305.1656,N,07740.8726,W,1,06,2.24,175.5,M,-34.4,M,,*50
$GPRMC,203518.250,A,4305.1656,N,07740.8726,W,0.05,125.30,051023,,,A*7A
$GPGGA,203518.500,4305.1656,N,07740.8726,W,1,06,2.24,175.5,M,-34.4,M,,*55
$GPRMC,203518.750,A,4305.1656,N,07740.8726,W,0.05,257.64,051023,,,A*78
$GPGGA,203519.000,4305.1656,N,07740.8726,W,1,06,2.24,175.5,M,-34.4,M,,*51
$GPRMC,203519.250,A,4305.1656,N,07740.8726,W,0.04,299.17,051023,,,A*7B
$GPGGA,203519.500,4305.1656,N,07740.8726,W,1,06,2.24,175.5,M,-34.4,M,,*54
$GPRMC,203519.750,A,4305.1656,N,07740.8726,W,0.12,341.57,051023,,,A*79
$GPGGA,203520.000,4305.1656,N,07740.8726,W,1,06,2.24,175.5,M,-34.4,M,,*5B
$GPRMC,203520.250,A,4305.1656,N,07740.8726,W,0.11,357.86,051023,,,A*7E
$GPGGA,203520.500,4305.1656,N,07740.8726,W,1,06,2.78,175.5,M,-34.4,M,,*57
$GPRMC,203520.750,A,4305.1656,N,07740.8726,W,0.08,1.51,051023,,,A*79
$GPGGA,203521.000,4305.1656,N,07740.8726,W,1,06,2.78,175.5,M,-34.4,M,,*53
$GPRMC,203521.250,A,4305.1656,N,07740.8726,W,0.11,79.38,051023,,,A*45
$GPGGA,203521.500,4305.1656,N,07740.8726,W,1,06,2.24,175.5,M,-34.4,M,,*5F
$GPRMC,203521.750,A,4305.1656,N,07740.8726,W,0.09,111.40,051023,,,A*79
$GPGGA,203522.000,4305.1656,N,07740.8726,W,1,06,2.24,175.5,M,-34.4,M,,*59
$GPRMC,203522.250,A,4305.1656,N,07740.8726,W,0.07,61.87,051023,,,A*4C
$GPGGA,203522.500,4305.1656,N,07740.8726,W,1,06,2.24,175.5,M,-34.4,M,,*5C
$GPRMC,203522.750,A,4305.1656,N,07740.8726,W,0.06,253.25,051023,,,A*73
$GPGGA,203523.000,4305.1656,N,07740.8726,W,1,06,2.24,175.5,M,-34.4,M,,*58
$GPRMC,203523.250,A,4305.1656,N,07740.8726,W,0.14,238.76,051023,,,A*7F
$GPGGA,203523.500,4305.1656,N,07740.8726,W,1,06,2.24,175.5,M,-34.4,M,,*5D
$GPRMC,203523.750,A,4305.1656,N,07740.8726,W,0.11,260.84,051023,,,A*7F
$GPGGA,203524.000,4305.1656,N,07740.8726,W,1,06,2.24,175.5,M,-34.4,M,,*5F
$GPRMC,203524.250,A,4305.1656,N,07740.8726,W,0.24,255.87,051023,,,A*7E
$GPGGA,203524.500,4305.1656,N,07740.8727,W,1,06,2.24,175.5,M,-34.4,M,,*5B
$GPRMC,203524.750,A,4305.1656,N,07740.8727,W,0.22,251.96,051023,,,A*78
$GPGGA,203525.000,4305.1656,N,07740.8727,W,1,06,2.24,175.5,M,-34.4,M,,*5F
$GPRMC,203525.250,A,4305.1656,N,07740.8727,W,0.16,262.15,051023,,,A*70
$GPGGA,203525.500,4305.1656,N,07740.8727,W,1,06,2.24,175.5,M,-34.4,M,,*5A
$GPRMC,203525.750,A,4305.1656,N,07740.8727,W,0.17,266.51,051023,,,A*70
$GPGGA,203526.000,4305.1656,N,07740.8728,W,1,06,2.23,175.5,M,-34.4,M,,*54
$GPRMC,203526.250,A,4305.1656,N,07740.8728,W,0.18,264.64,051023,,,A*72
$GPGGA,203526.500,4305.1655,N,07740.8728,W,1,06,2.23,175.5,M,-34.4,M,,*52
$GPRMC,203526.750,A,4305.1655,N,07740.8728,W,0.12,249.63,051023,,,A*76
$GPGGA,203527.000,4305.1655,N,07740.8728,W,1,06,2.23,175.5,M,-34.4,M,,*56
$GPRMC,203527.250,A,4305.1655,N,07740.8728,W,0.09,231.38,051023,,,A*79
$GPGGA,203527.500,4305.1655,N,07740.8728,W,1,06,2.24,175.5,M,-34.4,M,,*54
$GPRMC,203527.750,A,4305.1655,N,07740.8728,W,0.15,179.15,051023,,,A*71
$GPGGA,203528.000,4305.1655,N,07740.8728,W,1,06,2.23,175.5,M,-34.4,M,,*59
$GPRMC,203528.250,A,4305.1655,N,07740.8728,W,0.13,141.54,051023,,,A*73
$GPGGA,203528.500,4305.1655,N,07740.8728,W,1,06,2.23,175.5,M,-34.4,M,,*5C
$GPRMC,203528.750,A,4305.1655,N,07740.8728,W,0.10,152.94,051023,,,A*7B
$GPGGA,203529.000,4305.1655,N,07740.8728,W,1,06,2.23,175.5,M,-34.4,M,,*58
$GPRMC,203529.250,A,4305.1655,N,07740.8728,W,0.03,327.15,051023,,,A*74
$GPGGA,203529.500,4305.1655,N,07740.8728,W,1,06,2.23,175.5,M,-34.4,M,,*5D
$GPRMC,203529.750,A,4305.1655,N,07740.8728,W,0.09,27.42,051023,,,A*4A
$GPGGA,203530.000,4305.1655,N,07740.8728,W,1,06,2.23,175.5,M,-34.4,M,,*50
$GPRMC,203530.250,A,4305.1655,N,07740.8728,W,0.14,8.68,051023,,,A*7E
$GPGGA,203530.500,4305.1655,N,07740.8728,W,1,06,2.77,175.5,M,-34.4,M,,*54
$GPRMC,203530.750,A,4305.1655,N,07740.8728,W,0.09,327.88,051023,,,A*77
$GPGGA,203531.000,4305.1655,N,07740.8728,W,1,06,2.23,175.5,M,-34.4,M,,*51
$GPRMC,203531.250,A,4305.1655,N,07740.8728,W,0.11,357.91,051023,,,A*75
$GPGGA,203531.500,4305.1655,N,07740.8728,W,1,06,2.77,175.5,M,-34.4,M,,*55
$GPRMC,203531.750,A,4305.1655,N,07740.8728,W,0.06,145.40,051023,,,A*7B
$GPGGA,203532.000,4305.1655,N,07740.8728,W,1,06,2.23,175.5,M,-34.4,M,,*52
$GPRMC,203532.250,A,4305.1655,N,07740.8728,W,0.10,173.42,051023,,,A*7D
$GPGGA,203532.500,4305.1655,N,07740.8728,W,1,06,2.23,175.5,M,-34.4,M,,*57
$GPRMC,203532.750,A,4305.1655,N,07740.8728,W,0.16,0.68,051023,,,A*73
$GPGGA,203533.000,4305.1655,N,07740.8728,W,1,06,2.77,175.5,M,-34.4,M,,*52
$GPRMC,203533.250,A,4305.1655,N,07740.8728,W,0.15,34.60,051023,,,A*4B
$GPGGA,203533.500,4305.1656,N,07740.8728,W,1,06,2.23,175.5,M,-34.4,M,,*55
$GPRMC,203533.750,A,4305.1656,N,07740.8728,W,0.16,47.34,051023,,,A*4B
$GPGGA,203534.000,4305.1656,N,07740.8728,W,1,06,2.23,175.5,M,-34.4,M,,*57
$GPRMC,203534.250,A,4305.1656,N,07740.8728,W,0.20,57.95,051023,,,A*46
$GPGGA,203534.500,4305.1656,N,07740.8727,W,1,06,2.23,175.5,M,-34.4,M,,*5D
$GPRMC,203534.750,A,4305.1656,N,07740.8727,W,0.09,38.92,051023,,,A*49
$GPGGA,203535.000,4305.1656,N,07740.8727,W,1,06,2.23,175.5,M,-34.4,M,,*59
$GPRMC,203535.250,A,4305.1656,N,07740.8727,W,0.04,355.47,051023,,,A*70
$GPGGA,203535.500,4305.1656,N,07740.8727,W,1,06,2.77,175.5,M,-34.4,M,,*5D
$GPRMC,203535.750,A,4305.1656,N,07740.8727,W,0.08,82.08,051023,,,A*4B
$GPGGA,203536.000,4305.1656,N,07740.8727,W,1,06,2.23,175.5,M,-34.4,M,,*5A
$GPRMC,203536.250,A,4305.1656,N,07740.8727,W,0.15,113.70,051023,,,A*77
$GPGGA,203536.500,4305.1656,N,07740.8727,W,1,06,2.23,175.5,M,-34.4,M,,*5F
$GPRMC,203536.750,A,4305.1656,N,07740.8727,W,0.12,121.97,051023,,,A*7D
$GPGGA,203537.000,4305.1656,N,07740.8727,W,1,06,2.23,175.5,M,-34.4,M,,*5B
$GPRMC,203537.250,A,4305.1656,N,07740.8727,W,0.11,127.87,051023,,,A*7D
$GPGGA,203537.500,4305.1656,N,07740.8727,W,1,06,2.23,175.5,M,-34.4,M,,*5E
$GPRMC,203537.750,A,4305.1656,N,07740.8726,W,0.13,139.71,051023,,,A*7D
$GPGGA,203538.000,4305.1656,N,07740.8726,W,1,06,2.23,175.5,M,-34.4,M,,*55
$GPRMC,203538.250,A,4305.1655,N,07740.8726,W,0.17,178.14,051023,,,A*76
$GPGGA,203538.500,4305.1655,N,07740.8726,W,1,06,2.23,175.5,M,-34.4,M,,*53
$GPRMC,203538.750,A,4305.1655,N,07740.8726,W,0.12,184.32,051023,,,A*71
$GPGGA,203539.000,4305.1655,N,07740.8726,W,1,06,2.23,175.5,M,-34.4,M,,*57
$GPRMC,203539.250,A,4305.1655,N,07740.8726,W,0.08,216.10,051023,,,A*76
$GPGGA,203539.500,4305.1655,N,07740.8726,W,1,06,2.23,175.5,M,-34.4,M,,*52
$GPRMC,203539.750,A,4305.1655,N,07740.8727,W,0.07,221.98,051023,,,A*79
$GPGGA,203540.000,4305.1655,N,07740.8727,W,1,06,2.23,175.5,M,-34.4,M,,*58
$GPRMC,203540.250,A,4305.1655,N,07740.8727,W,0.03,144.88,051023,,,A*77
$GPGGA,203540.500,4305.1655,N,07740.8727,W,1,06,2.23,175.5,M,-34.4,M,,*5D
$GPRMC,203540.750,A,4305.1655,N,07740.8727,W,0.03,279.66,051023,,,A*7F
$GPGGA,203541.000,4305.1655,N,07740.8727,W,1,06,2.23,175.5,M,-34.4,M,,*59
$GPRMC,203541.250,A,4305.1655,N,07740.8727,W,0.06,202.15,051023,,,A*76
$GPGGA,203541.500,4305.1655,N,07740.8727,W,1,06,2.23,175.5,M,-34.4,M,,*5C
$GPRMC,203541.750,A,4305.1655,N,07740.8727,W,0.08,203.92,051023,,,A*73
$GPGGA,203542.000,4305.1655,N,07740.8727,W,1,06,2.23,175.5,M,-34.4,M,,*5A
$GPRMC,203542.250,A,4305.1655,N,07740.8727,W,0.10,222.09,051023,,,A*7D
$GPGGA,203542.500,4305.1655,N,07740.8727,W,1,06,2.23,175.5,M,-34.4,M,,*5F
$GPRMC,203542.750,A,4305.1655,N,07740.8727,W,0.12,246.86,051023,,,A*7F
$GPGGA,203543.000,4305.1655,N,07740.8727,W,1,06,2.23,175.5,M,-34.4,M,,*5B
$GPRMC,203543.250,A,4305.1655,N,07740.8727,W,0.06,258.73,051023,,,A*7B
$GPGGA,203543.500,4305.1655,N,07740.8727,W,1,06,2.23,175.5,M,-34.4,M,,*5E
$GPRMC,203543.750,A,4305.1655,N,07740.8727,W,0.04,223.17,051023,,,A*72
$GPGGA,203544.000,4305.1655,N,07740.8727,W,1,06,2.23,175.5,M,-34.4,M,,*5C
$GPRMC,203544.250,A,4305.1655,N,07740.8727,W,0.05,217.04,051023,,,A*74
$GPGGA,203544.500,4305.1655,N,07740.8727,W,1,06,2.23,175.5,M,-34.4,M,,*59
$GPRMC,203544.750,A,4305.1655,N,07740.8727,W,0.04,198.32,051023,,,A*71
$GPGGA,203545.000,4305.1655,N,07740.8727,W,1,06,2.23,175.5,M,-34.4,M,,*5D
$GPRMC,203545.250,A,4305.1654,N,07740.8727,W,0.05,181.86,051023,,,A*72
$GPGGA,203545.500,4305.1654,N,07740.8727,W,1,06,2.23,175.5,M,-34.4,M,,*59
$GPRMC,203545.750,A,4305.1654,N,07740.8727,W,0.05,76.21,051023,,,A*43
$GPGGA,203546.000,4305.1654,N,07740.8727,W,1,06,2.23,175.5,M,-34.4,M,,*5F
$GPRMC,203546.250,A,4305.1654,N,07740.8727,W,0.03,256.03,051023,,,A*73
$GPGGA,203546.500,4305.1654,N,07740.8727,W,1,06,2.23,175.5,M,-34.4,M,,*5A
$GPRMC,203546.750,A,4305.1654,N,07740.8727,W,0.01,148.45,051023,,,A*7A
$GPGGA,203547.000,4305.1654,N,07740.8727,W,1,06,2.23,175.5,M,-34.4,M,,*5E
$GPRMC,203547.250,A,4305.1654,N,07740.8727,W,0.03,63.00,051023,,,A*45
$GPGGA,203547.500,4305.1654,N,07740.8727,W,1,06,2.23,175.5,M,-34.4,M,,*5B
$GPRMC,203547.750,A,4305.1654,N,07740.8727,W,0.01,235.38,051023,,,A*78
$GPGGA,203548.000,4305.1654,N,07740.8727,W,1,06,2.23,175.5,M,-34.4,M,,*51
$GPRMC,203548.250,A,4305.1654,N,07740.8727,W,0.01,241.00,051023,,,A*7A
$GPGGA,203548.500,4305.1654,N,07740.8727,W,1,06,2.23,175.5,M,-34.4,M,,*54
$GPRMC,203548.750,A,4305.1654,N,07740.8727,W,0.04,273.49,051023,,,A*76
$GPGGA,203549.000,4305.1654,N,07740.8727,W,1,06,2.23,175.5,M,-34.4,M,,*50
$GPRMC,203549.250,A,4305.1654,N,07740.8727,W,0.04,56.63,051023,,,A*4F
$GPGGA,203549.500,4305.1654,N,07740.8727,W,1,06,2.23,175.5,M,-34.4,M,,*55
$GPRMC,203549.750,A,4305.1654,N,07740.8727,W,0.09,79.40,051023,,,A*4B
$GPGGA,203550.000,4305.1654,N,07740.8727,W,1,06,2.23,175.5,M,-34.4,M,,*58
$GPRMC,203550.250,A,4305.1654,N,07740.8727,W,0.03,36.43,051023,,,A*44
$GPGGA,203550.500,4305.1654,N,07740.8727,W,1,06,2.22,175.5,M,-34.4,M,,*5C
$GPRMC,203550.750,A,4305.1654,N,07740.8727,W,0.08,281.20,051023,,,A*71
$GPGGA,203551.000,4305.1654,N,07740.8727,W,1,06,2.23,175.5,M,-34.4,M,,*59
$GPRMC,203551.250,A,4305.1654,N,07740.8727,W,0.15,270.32,051023,,,A*74
$GPGGA,203551.500,4305.1654,N,07740.8727,W,1,06,2.22,175.5,M,-34.4,M,,*5D
$GPRMC,203551.750,A,4305.1654,N,07740.8727,W,0.10,246.03,051023,,,A*73
$GPGGA,203552.000,4305.1654,N,07740.8727,W,1,06,2.22,175.5,M,-34.4,M,,*5B
$GPRMC,203552.250,A,4305.1654,N,07740.8727,W,0.16,220.76,051023,,,A*71
$GPGGA,203552.500,4305.1654,N,07740.8728,W,1,06,2.22,175.5,M,-34.4,M,,*51
$GPRMC,203552.750,A,4305.1654,N,07740.8728,W,0.12,177.92,051023,,,A*74
$GPGGA,203553.000,4305.1654,N,07740.8728,W,1,06,2.22,175.5,M,-34.4,M,,*55
$GPRMC,203553.250,A,4305.1654,N,07740.8728,W,0.13,116.39,051023,,,A*77
$GPGGA,203553.500,4305.1654,N,07740.8727,W,1,06,2.22,175.5,M,-34.4,M,,*5F
$GPRMC,203553.750,A,4305.1654,N,07740.8727,W,0.21,125.01,051023,,,A*77
$GPGGA,203554.000,4305.1654,N,07740.8727,W,1,06,2.22,175.5,M,-34.4,M,,*5D
$GPRMC,203554.250,A,4305.1654,N,07740.8727,W,0.20,117.13,051023,,,A*76
$GPGGA,203554.500,4305.1653,N,07740.8727,W,1,06,2.22,175.5,M,-34.4,M,,*5F
$GPRMC,203554.750,A,4305.1653,N,07740.8727,W,0.16,113.97,051023,,,A*79
$GPGGA,203555.000,4305.1653,N,07740.8726,W,1,06,2.22,175.5,M,-34.4,M,,*5A
$GPRMC,203555.250,A,4305.1653,N,07740.8726,W,0.08,98.08,051023,,,A*47
$GPGGA,203555.500,4305.1653,N,07740.8726,W,1,06,2.22,175.5,M,-34.4,M,,*5F
$GPRMC,203555.750,A,4305.1653,N,07740.8726,W,0.12,97.97,051023,,,A*40
$GPGGA,203556.000,4305.1653,N,07740.8726,W,1,06,2.22,175.5,M,-34.4,M,,*59
$GPRMC,203556.250,A,4305.1653,N,07740.8726,W,0.12,101.55,051023,,,A*76
$GPGGA,203556.500,4305.1653,N,07740.8726,W,1,06,2.22,175.5,M,-34.4,M,,*5C
$GPRMC,203556.750,A,4305.1653,N,07740.8726,W,0.02,118.04,051023,,,A*7E
$GPGGA,203557.000,4305.1653,N,07740.8726,W,1,06,2.22,175.5,M,-34.4,M,,*58
$GPRMC,203557.250,A,4305.1653,N,07740.8726,W,0.04,195.67,051023,,,A*7C
$GPGGA,203557.500,4305.1653,N,07740.8726,W,1,06,2.22,175.5,M,-34.4,M,,*5D
$GPRMC,203557.750,A,4305.1653,N,07740.8726,W,0.10,154.58,051023,,,A*7D
$GPGGA,203558.000,4305.1653,N,07740.8726,W,1,06,2.22,175.5,M,-34.4,M,,*57
$GPRMC,203558.250,A,4305.1653,N,07740.8726,W,0.06,110.78,051023,,,A*72
$GPGGA,203558.500,4305.1653,N,07740.8726,W,1,06,2.22,175.5,M,-34.4,M,,*52
$GPRMC,203558.750,A,4305.1653,N,07740.8726,W,0.19,110.06,051023,,,A*70
$GPGGA,203559.000,4305.1653,N,07740.8725,W,1,06,2.22,175.5,M,-34.4,M,,*55
$GPRMC,203559.250,A,4305.1653,N,07740.8725,W,0.19,114.69,051023,,,A*7A
$GPGGA,203559.500,4305.1653,N,07740.8725,W,1,06,2.22,175.5,M,-34.4,M,,*50
$GPRMC,203559.750,A,4305.1653,N,07740.8725,W,0.08,81.06,051023,,,A*4B
$GPGGA,203600.000,4305.1653,N,07740.8725,W,1,06,2.22,175.5,M,-34.4,M,,*5A
$GPRMC,203600.250,A,4305.1653,N,07740.8725,W,0.10,81.43,051023,,,A*49
$GPGGA,203600.500,4305.1653,N,07740.8725,W,1,06,2.22,175.5,M,-34.4,M,,*5F
$GPRMC,203600.750,A,4305.1653,N,07740.8725,W,0.15,182.41,051023,,,A*79
$GPGGA,203601.000,4305.1653,N,07740.8725,W,1,06,2.22,175.5,M,-34.4,M,,*5B
$GPRMC,203601.250,A,4305.1653,N,07740.8725,W,0.27,187.66,051023,,,A*7C
$GPGGA,203601.500,4305.1652,N,07740.8725,W,1,06,2.22,175.5,M,-34.4,M,,*5F
$GPRMC,203601.750,A,4305.1652,N,07740.8725,W,0.24,184.65,051023,,,A*7B
$GPGGA,203602.000,4305.1652,N,07740.8725,W,1,06,2.22,175.5,M,-34.4,M,,*59
$GPRMC,203602.250,A,4305.1652,N,07740.8725,W,0.23,186.12,051023,,,A*78
$GPGGA,203602.500,4305.1652,N,07740.8725,W,1,06,2.22,175.5,M,-34.4,M,,*5C
$GPRMC,203602.750,A,4305.1652,N,07740.8725,W,0.18,159.76,051023,,,A*75
$GPGGA,203603.000,4305.1651,N,07740.8725,W,1,06,2.22,175.5,M,-34.4,M,,*5B
$GPRMC,203603.250,A,4305.1651,N,07740.8725,W,0.16,182.62,051023,,,A*7F
$GPGGA,203603.500,4305.1651,N,07740.8725,W,1,06,2.22,175.5,M,-34.4,M,,*5E
$GPRMC,203603.750,A,4305.1651,N,07740.8725,W,0.12,173.80,051023,,,A*7C
$GPGGA,203604.000,4305.1651,N,07740.8725,W,1,06,2.22,175.5,M,-34.4,M,,*5C
$GPRMC,203604.250,A,4305.1651,N,07740.8725,W,0.13,142.95,051023,,,A*79
$GPGGA,203604.500,4305.1651,N,07740.8724,W,1,06,2.22,175.5,M,-34.4,M,,*58
$GPRMC,203604.750,A,4305.1651,N,07740.8724,W,0.05,114.64,051023,,,A*77
$GPGGA,203604.999,4305.1651,N,07740.8724,W,1,06,2.22,175.5,M,-34.4,M,,*54
$GPRMC,203605.250,A,4305.1651,N,07740.8724,W,0.13,78.10,051023,,,A*4C
$GPGGA,203605.500,4305.1651,N,07740.8724,W,1,06,2.22,175.5,M,-34.4,M,,*59
$GPRMC,203605.750,A,4305.1651,N,07740.8724,W,0.09,101.70,051023,,,A*7B
$GPGGA,203606.000,4305.1651,N,07740.8724,W,1,06,2.22,175.5,M,-34.4,M,,*5F
$GPRMC,203606.250,A,4305.1651,N,07740.8724,W,0.23,168.20,051023,,,A*7F
$GPGGA,203606.500,4305.1651,N,07740.8724,W,1,06,2.22,175.5,M,-34.4,M,,*5A
$GPRMC,203606.750,A,4305.1650,N,07740.8724,W,0.22,146.82,051023,,,A*7E
$GPGGA,203607.000,4305.1650,N,07740.8724,W,1,06,2.22,175.5,M,-34.4,M,,*5F
$GPRMC,203607.250,A,4305.1650,N,07740.8724,W,0.11,141.57,051023,,,A*75
$GPGGA,203607.500,4305.1650,N,07740.8724,W,1,06,2.22,175.5,M,-34.4,M,,*5A
$GPRMC,203607.750,A,4305.1650,N,07740.8723,W,0.05,129.80,051023,,,A*76
$GPGGA,203608.000,4305.1650,N,07740.8723,W,1,06,2.22,175.5,M,-34.4,M,,*57
$GPRMC,203606.250,A,4305.1650,N,07740.8723,W,0.03,84.41,051023,,,A*4F
$GPGGA,203606.500,4305.1650,N,07740.8723,W,1,06,2.22,175.6,M,-34.4,M,,*5F
$GPRMC,203606.750,A,4305.1650,N,07740.8723,W,0.04,48.95,051023,,,A*44
$GPGGA,203607.000,4305.1650,N,07740.8723,W,1,06,2.22,175.6,M,-34.4,M,,*5B
$GPRMC,203607.250,A,4305.1650,N,07740.8722,W,0.06,304.68,051023,,,A*7A
$GPGGA,203607.500,4305.1650,N,07740.8722,W,1,06,2.22,175.7,M,-34.4,M,,*5E
$GPRMC,203607.750,A,4305.1650,N,07740.8722,W,0.04,33.30,051023,,,A*47
$GPGGA,203608.000,4305.1650,N,07740.8721,W,1,06,2.22,175.8,M,-34.4,M,,*58
$GPRMC,203608.250,A,4305.1650,N,07740.8721,W,0.03,8.94,051023,,,A*7F
$GPGGA,203608.500,4305.1651,N,07740.8721,W,1,06,2.73,175.9,M,-34.4,M,,*59
$GPRMC,203608.750,A,4305.1651,N,07740.8721,W,0.15,353.03,051023,,,A*7F
$GPGGA,203609.000,4305.1651,N,07740.8721,W,1,06,2.73,175.9,M,-34.4,M,,*5D
$GPRMC,203609.250,A,4305.1652,N,07740.8722,W,0.20,322.20,051023,,,A*7A
$GPGGA,203609.500,4305.1652,N,07740.8722,W,1,06,2.22,176.1,M,-34.4,M,,*57
$GPRMC,203609.750,A,4305.1652,N,07740.8722,W,0.19,330.28,051023,,,A*7E
$GPGGA,203610.000,4305.1652,N,07740.8721,W,1,06,2.22,176.0,M,-34.4,M,,*58
$GPRMC,203610.250,A,4305.1653,N,07740.8721,W,0.13,314.37,051023,,,A*73
$GPGGA,203610.500,4305.1652,N,07740.8722,W,1,06,2.22,175.9,M,-34.4,M,,*54
$GPRMC,203610.750,A,4305.1654,N,07740.8722,W,0.17,304.74,051023,,,A*70
$GPGGA,203611.000,4305.1655,N,07740.8722,W,1,06,2.22,175.6,M,-34.4,M,,*58
$GPRMC,203611.250,A,4305.1657,N,07740.8723,W,0.21,325.98,051023,,,A*72
$GPGGA,203611.500,4305.1658,N,07740.8723,W,1,06,2.22,175.2,M,-34.4,M,,*55
$GPRMC,203611.750,A,4305.1659,N,07740.8723,W,0.23,352.28,051023,,,A*70
$GPGGA,203612.000,4305.1658,N,07740.8722,W,1,06,2.73,175.1,M,-34.4,M,,*55
$GPRMC,203612.250,A,4305.1658,N,07740.8722,W,0.22,3.84,051023,,,A*76
$GPGGA,203612.500,4305.1657,N,07740.8722,W,1,06,2.73,175.1,M,-34.4,M,,*5F
$GPRMC,203612.750,A,4305.1656,N,07740.8722,W,0.14,22.76,051023,,,A*46
$GPGGA,203613.000,4305.1656,N,07740.8722,W,1,06,2.22,175.0,M,-34.4,M,,*5F
$GPRMC,203613.250,A,4305.1656,N,07740.8722,W,0.15,351.45,051023,,,A*74
$GPGGA,203613.500,4305.1655,N,07740.8722,W,1,06,2.72,174.9,M,-34.4,M,,*54
$GPRMC,203613.750,A,4305.1655,N,07740.8722,W,0.09,3.68,051023,,,A*74
$GPGGA,203614.000,4305.1654,N,07740.8722,W,1,06,2.72,174.9,M,-34.4,M,,*57
$GPRMC,203614.250,A,4305.1654,N,07740.8722,W,0.12,328.71,051023,,,A*7F
$GPGGA,203614.500,4305.1654,N,07740.8722,W,1,06,2.21,174.8,M,-34.4,M,,*55
$GPRMC,203614.750,A,4305.1653,N,07740.8722,W,0.08,327.59,051023,,,A*73
$GPGGA,203615.000,4305.1652,N,07740.8721,W,1,06,2.21,174.7,M,-34.4,M,,*5B
$GPRMC,203615.250,A,4305.1651,N,07740.8721,W,0.10,104.58,051023,,,A*7D
$GPGGA,203615.500,4305.1650,N,07740.8721,W,1,06,2.21,174.6,M,-34.4,M,,*5D
$GPRMC,203615.750,A,4305.1650,N,07740.8721,W,0.12,176.13,051023,,,A*71
$GPGGA,203616.000,4305.1650,N,07740.8721,W,1,06,2.21,174.5,M,-34.4,M,,*58
$GPRMC,203616.250,A,4305.1649,N,07740.8721,W,0.08,192.71,051023,,,A*7A
$GPGGA,203616.500,4305.1649,N,07740.8721,W,1,06,2.21,174.5,M,-34.4,M,,*55
$GPRMC,203616.750,A,4305.1648,N,07740.8721,W,0.12,177.46,051023,,,A*7A
$GPGGA,203617.000,4305.1648,N,07740.8721,W,1,06,2.21,174.4,M,-34.4,M,,*51
$GPRMC,203617.250,A,4305.1649,N,07740.8721,W,0.14,132.25,051023,,,A*7D
$GPGGA,203617.500,4305.1651,N,07740.8721,W,1,06,2.21,174.0,M,-34.4,M,,*58
$GPRMC,203617.750,A,4305.1653,N,07740.8721,W,0.06,125.06,051023,,,A*77
$GPGGA,203618.000,4305.1655,N,07740.8722,W,1,06,2.21,173.7,M,-34.4,M,,*55
$GPRMC,203618.250,A,4305.1656,N,07740.8722,W,0.06,177.82,051023,,,A*70
$GPGGA,203618.500,4305.1655,N,07740.8722,W,1,06,2.21,173.5,M,-34.4,M,,*52
$GPRMC,203618.750,A,4305.1657,N,07740.8722,W,0.11,156.53,051023,,,A*7D
$GPGGA,203619.000,4305.1659,N,07740.8722,W,1,06,2.21,173.2,M,-34.4,M,,*5D
$GPRMC,203619.250,A,4305.1660,N,07740.8722,W,0.07,89.16,051023,,,A*48
$GPGGA,203619.500,4305.1660,N,07740.8722,W,1,06,2.21,173.0,M,-34.4,M,,*50
$GPRMC,203619.750,A,4305.1660,N,07740.8722,W,0.09,158.93,051023,,,A*73
$GPGGA,203620.000,4305.1660,N,07740.8722,W,1,06,2.21,173.0,M,-34.4,M,,*5F
$GPRMC,203620.250,A,4305.1660,N,07740.8722,W,0.15,184.75,051023,,,A*78
$GPGGA,203620.500,4305.1660,N,07740.8722,W,1,06,2.21,173.0,M,-34.4,M,,*5A
$GPRMC,203620.750,A,4305.1660,N,07740.8722,W,0.20,193.97,051023,,,A*71
$GPGGA,203621.000,4305.1660,N,07740.8722,W,1,06,2.21,173.0,M,-34.4,M,,*5E
$GPRMC,203621.250,A,4305.1660,N,07740.8722,W,0.13,251.50,051023,,,A*73
$GPGGA,203621.500,4305.1660,N,07740.8722,W,1,06,2.21,173.0,M,-34.4,M,,*5B
$GPRMC,203621.750,A,4305.1660,N,07740.8722,W,0.15,264.95,051023,,,A*7F
$GPGGA,203622.000,4305.1660,N,07740.8723,W,1,06,2.21,173.0,M,-34.4,M,,*5C
$GPRMC,203622.250,A,4305.1660,N,07740.8723,W,0.21,334.91,051023,,,A*7F
$GPGGA,203622.500,4305.1660,N,07740.8723,W,1,06,2.21,173.0,M,-34.4,M,,*59
$GPRMC,203622.750,A,4305.1660,N,07740.8723,W,0.16,349.03,051023,,,A*7F
$GPGGA,203623.000,4305.1660,N,07740.8723,W,1,06,2.71,173.0,M,-34.4,M,,*58
$GPRMC,203623.250,A,4305.1660,N,07740.8723,W,0.16,3.97,051023,,,A*7B
$GPGGA,203623.500,4305.1660,N,07740.8723,W,1,06,2.71,173.0,M,-34.4,M,,*5D
$GPRMC,203623.750,A,4305.1660,N,07740.8723,W,0.15,10.89,051023,,,A*40
$GPGGA,203624.000,4305.1661,N,07740.8723,W,1,06,2.71,173.0,M,-34.4,M,,*5E
$GPRMC,203624.250,A,4305.1661,N,07740.8723,W,0.15,357.25,051023,,,A*75
$GPGGA,203624.500,4305.1661,N,07740.8723,W,1,06,2.71,173.0,M,-34.4,M,,*5B
$GPRMC,203624.750,A,4305.1661,N,07740.8723,W,0.13,344.83,051023,,,A*78
$GPGGA,203625.000,4305.1661,N,07740.8723,W,1,06,2.21,173.0,M,-34.4,M,,*5A
$GPRMC,203625.250,A,4305.1661,N,07740.8723,W,0.05,331.23,051023,,,A*73
$GPGGA,203625.500,4305.1661,N,07740.8723,W,1,06,2.21,173.0,M,-34.4,M,,*5F
$GPRMC,203625.750,A,4305.1661,N,07740.8723,W,0.05,221.72,051023,,,A*72
$GPGGA,203626.000,4305.1661,N,07740.8723,W,1,06,2.21,173.0,M,-34.4,M,,*59
$GPRMC,203626.250,A,4305.1661,N,07740.8723,W,0.08,156.65,051023,,,A*7C
$GPGGA,203626.500,4305.1661,N,07740.8723,W,1,06,2.21,173.0,M,-34.4,M,,*5C
$GPRMC,203626.750,A,4305.1661,N,07740.8723,W,0.05,176.01,051023,,,A*74
$GPGGA,203627.000,4305.1661,N,07740.8723,W,1,06,2.21,173.0,M,-34.4,M,,*58
$GPRMC,203627.250,A,4305.1661,N,07740.8723,W,0.01,145.42,051023,,,A*73
$GPGGA,203627.500,4305.1661,N,07740.8723,W,1,06,2.21,172.9,M,-34.4,M,,*55
$GPRMC,203627.750,A,4305.1661,N,07740.8723,W,0.00,145.88,051023,,,A*71
$GPGGA,203628.000,4305.1661,N,07740.8723,W,1,06,2.21,172.9,M,-34.4,M,,*5F
$GPRMC,203628.250,A,4305.1661,N,07740.8723,W,0.03,222.03,051023,,,A*79
$GPGGA,203628.500,4305.1661,N,07740.8723,W,1,06,2.21,172.9,M,-34.4,M,,*5A
$GPRMC,203628.750,A,4305.1661,N,07740.8723,W,0.04,159.41,051023,,,A*72
$GPGGA,203629.000,4305.1661,N,07740.8723,W,1,06,2.21,172.9,M,-34.4,M,,*5E
$GPRMC,203629.250,A,4305.1661,N,07740.8723,W,0.04,144.25,051023,,,A*78
$GPGGA,203629.500,4305.1661,N,07740.8723,W,1,06,2.21,172.9,M,-34.4,M,,*5B
$GPRMC,203629.750,A,4305.1661,N,07740.8723,W,0.05,208.03,051023,,,A*73
$GPGGA,203630.000,4305.1661,N,07740.8723,W,1,06,2.21,172.9,M,-34.4,M,,*56
$GPRMC,203630.250,A,4305.1661,N,07740.8723,W,0.02,347.83,051023,,,A*7B
$GPGGA,203630.500,4305.1661,N,07740.8723,W,1,06,2.71,172.9,M,-34.4,M,,*56
$GPRMC,203630.750,A,4305.1661,N,07740.8723,W,0.01,48.18,051023,,,A*43
$GPGGA,203631.000,4305.1661,N,07740.8723,W,1,06,2.21,172.9,M,-34.4,M,,*57
$GPRMC,203631.250,A,4305.1661,N,07740.8723,W,0.04,198.52,051023,,,A*70
$GPGGA,203631.500,4305.1661,N,07740.8723,W,1,06,2.21,172.9,M,-34.4,M,,*52
$GPRMC,203631.750,A,4305.1661,N,07740.8723,W,0.05,114.22,051023,,,A*77
$GPGGA,203632.000,4305.1661,N,07740.8723,W,1,06,2.21,172.9,M,-34.4,M,,*54
$GPRMC,203632.250,A,4305.1661,N,07740.8723,W,0.02,64.46,051023,,,A*42
$GPGGA,203632.500,4305.1661,N,07740.8723,W,1,06,2.21,172.9,M,-34.4,M,,*51
$GPRMC,203632.750,A,4305.1661,N,07740.8723,W,0.06,80.74,051023,,,A*48
$GPGGA,203633.000,4305.1661,N,07740.8723,W,1,06,2.21,172.9,M,-34.4,M,,*55
$GPRMC,203633.250,A,4305.1661,N,07740.8723,W,0.02,9.24,051023,,,A*7C
$GPGGA,203633.500,4305.1661,N,07740.8723,W,1,06,2.70,172.9,M,-34.4,M,,*54
$GPRMC,203633.750,A,4305.1661,N,07740.8723,W,0.01,166.52,051023,,,A*73
$GPGGA,203634.000,4305.1661,N,07740.8723,W,1,06,2.21,172.9,M,-34.4,M,,*52
$GPRMC,203634.250,A,4305.1661,N,07740.8723,W,0.02,293.24,051023,,,A*7A
$GPGGA,203634.500,4305.1661,N,07740.8723,W,1,06,2.21,172.9,M,-34.4,M,,*57
$GPRMC,203634.750,A,4305.1661,N,07740.8723,W,0.04,297.74,051023,,,A*78
$GPGGA,203635.000,4305.1661,N,07740.8723,W,1,06,2.21,172.9,M,-34.4,M,,*53
$GPRMC,203635.250,A,4305.1661,N,07740.8723,W,0.02,119.12,051023,,,A*7F
$GPGGA,203635.500,4305.1661,N,07740.8723,W,1,06,2.21,172.9,M,-34.4,M,,*56
$GPRMC,203635.750,A,4305.1661,N,07740.8723,W,0.02,164.98,051023,,,A*72
$GPGGA,203636.000,4305.1661,N,07740.8723,W,1,06,2.21,172.9,M,-34.4,M,,*50
$GPRMC,203636.250,A,4305.1661,N,07740.8723,W,0.02,67.75,051023,,,A*45
$GPGGA,203636.500,4305.1661,N,07740.8723,W,1,06,2.20,172.9,M,-34.4,M,,*54
$GPRMC,203636.750,A,4305.1661,N,07740.8723,W,0.05,176.59,051023,,,A*78
$GPGGA,203637.000,4305.1661,N,07740.8723,W,1,05,2.34,172.9,M,-34.4,M,,*56
$GPRMC,203637.250,A,4305.1661,N,07740.8723,W,0.01,272.26,051023,,,A*77
$GPGGA,203637.500,4305.1661,N,07740.8723,W,1,06,2.21,172.9,M,-34.4,M,,*54
$GPRMC,203637.750,A,4305.1661,N,07740.8723,W,0.03,266.87,051023,,,A*7E
$GPGGA,203638.000,4305.1661,N,07740.8723,W,1,06,2.20,172.9,M,-34.4,M,,*5F
$GPRMC,203638.250,A,4305.1661,N,07740.8723,W,0.03,240.14,051023,,,A*7A
$GPGGA,203638.500,4305.1661,N,07740.8723,W,1,06,2.20,172.9,M,-34.4,M,,*5A
$GPRMC,203638.750,A,4305.1661,N,07740.8723,W,0.01,189.32,051023,,,A*7F
$GPGGA,203639.000,4305.1661,N,07740.8723,W,1,06,2.20,172.9,M,-34.4,M,,*5E
$GPRMC,203639.250,A,4305.1661,N,07740.8723,W,0.06,211.87,051023,,,A*70
$GPGGA,203639.500,4305.1661,N,07740.8723,W,1,06,2.20,172.9,M,-34.4,M,,*5B
$GPRMC,203639.750,A,4305.1661,N,07740.8723,W,0.02,169.17,051023,,,A*74
$GPGGA,203640.000,4305.1661,N,07740.8723,W,1,06,2.20,172.9,M,-34.4,M,,*50
$GPRMC,203640.250,A,4305.1661,N,07740.8723,W,0.01,287.69,051023,,,A*76
$GPGGA,203640.500,4305.1661,N,07740.8723,W,1,06,2.20,172.9,M,-34.4,M,,*55
$GPRMC,203640.750,A,4305.1661,N,07740.8723,W,0.05,192.63,051023,,,A*7A
$GPGGA,203641.000,4305.1661,N,07740.8723,W,1,06,2.20,172.9,M,-34.4,M,,*51
$GPRMC,203641.250,A,4305.1661,N,07740.8723,W,0.06,157.63,051023,,,A*74
$GPGGA,203641.500,4305.1661,N,07740.8723,W,1,06,2.20,172.9,M,-34.4,M,,*54
$GPRMC,203641.750,A,4305.1661,N,07740.8723,W,0.03,121.78,051023,,,A*7F
$GPGGA,203642.000,4305.1661,N,07740.8723,W,1,06,2.20,172.9,M,-34.4,M,,*52
$GPRMC,203642.250,A,4305.1661,N,07740.8723,W,0.05,63.62,051023,,,A*43
$GPGGA,203642.500,4305.1661,N,07740.8723,W,1,06,2.20,172.9,M,-34.4,M,,*57
$GPRMC,203642.750,A,4305.1661,N,07740.8723,W,0.04,219.70,051023,,,A*7B
$GPGGA,203643.000,4305.1661,N,07740.8723,W,1,06,2.20,172.9,M,-34.4,M,,*53
$GPRMC,203643.250,A,4305.1661,N,07740.8723,W,0.05,213.90,051023,,,A*7A
$GPGGA,203643.500,4305.1661,N,07740.8723,W,1,06,2.20,172.9,M,-34.4,M,,*56
$GPRMC,203643.750,A,4305.1661,N,07740.8723,W,0.05,355.04,051023,,,A*71
$GPGGA,203644.000,4305.1661,N,07740.8723,W,1,06,2.69,172.8,M,-34.4,M,,*58
$GPRMC,203644.250,A,4305.1661,N,07740.8723,W,0.03,279.99,051023,,,A*7E
$GPGGA,203644.500,4305.1661,N,07740.8723,W,1,06,2.20,172.8,M,-34.4,M,,*50
$GPRMC,203644.750,A,4305.1661,N,07740.8723,W,0.04,96.15,051023,,,A*4B
$GPGGA,203645.000,4305.1661,N,07740.8723,W,1,06,2.20,172.8,M,-34.4,M,,*54
$GPRMC,203645.250,A,4305.1661,N,07740.8723,W,0.02,344.75,051023,,,A*73
$GPGGA,203645.500,4305.1661,N,07740.8723,W,1,06,2.20,172.8,M,-34.4,M,,*51
$GPRMC,203645.750,A,4305.1661,N,07740.8723,W,0.01,269.96,051023,,,A*76
$GPGGA,203646.000,4305.1661,N,07740.8723,W,1,06,2.20,172.8,M,-34.4,M,,*57
$GPRMC,203646.250,A,4305.1661,N,07740.8723,W,0.02,265.52,051023,,,A*77
$GPGGA,203646.500,4305.1661,N,07740.8723,W,1,06,2.20,172.8,M,-34.4,M,,*52
$GPRMC,203646.750,A,4305.1661,N,07740.8723,W,0.05,147.49,051023,,,A*7C
$GPGGA,203647.000,4305.1661,N,07740.8723,W,1,06,2.20,172.8,M,-34.4,M,,*56
$GPRMC,203647.250,A,4305.1661,N,07740.8723,W,0.05,156.02,051023,,,A*77
$GPGGA,203647.500,4305.1661,N,07740.8723,W,1,06,2.20,172.8,M,-34.4,M,,*53
$GPRMC,203647.750,A,4305.1661,N,07740.8723,W,0.04,241.60,051023,,,A*72
$GPGGA,203648.000,4305.1661,N,07740.8723,W,1,06,2.20,172.8,M,-34.4,M,,*59
$GPRMC,203648.250,A,4305.1661,N,07740.8723,W,0.02,84.06,051023,,,A*45
$GPGGA,203648.500,4305.1661,N,07740.8723,W,1,06,2.20,172.8,M,-34.4,M,,*5C
$GPRMC,203648.750,A,4305.1661,N,07740.8723,W,0.02,1.58,051023,,,A*76
$GPGGA,203649.000,4305.1661,N,07740.8723,W,1,06,2.69,172.8,M,-34.4,M,,*55
$GPRMC,203649.250,A,4305.1661,N,07740.8723,W,0.03,347.08,051023,,,A*77
$GPGGA,203649.500,4305.1661,N,07740.8723,W,1,06,2.69,172.8,M,-34.4,M,,*50
$GPRMC,203649.750,A,4305.1661,N,07740.8723,W,0.02,110.37,051023,,,A*7F
$GPGGA,203650.000,4305.1661,N,07740.8723,W,1,06,2.20,172.8,M,-34.4,M,,*50
$GPRMC,203650.250,A,4305.1661,N,07740.8723,W,0.01,325.78,051023,,,A*7E
$GPGGA,203650.500,4305.1661,N,07740.8723,W,1,06,2.20,172.8,M,-34.4,M,,*55
$GPRMC,203650.750,A,4305.1661,N,07740.8723,W,0.03,157.86,051023,,,A*7F
$GPGGA,203651.000,4305.1661,N,07740.8723,W,1,06,2.20,172.8,M,-34.4,M,,*51
$GPRMC,203651.250,A,4305.1661,N,07740.8723,W,0.02,175.12,051023,,,A*77
$GPGGA,203651.500,4305.1661,N,07740.8723,W,1,06,2.20,172.8,M,-34.4,M,,*54
$GPRMC,203651.750,A,4305.1661,N,07740.8723,W,0.01,149.39,051023,,,A*77
$GPGGA,203652.000,4305.1661,N,07740.8723,W,1,06,2.20,172.8,M,-34.4,M,,*52
$GPRMC,203652.250,A,4305.1661,N,07740.8723,W,0.02,229.53,051023,,,A*7B
$GPGGA,203652.500,4305.1661,N,07740.8723,W,1,05,2.33,172.8,M,-34.4,M,,*56
$GPRMC,203652.750,A,4305.1661,N,07740.8723,W,0.04,123.84,051023,,,A*7B
$GPGGA,203653.000,4305.1661,N,07740.8723,W,1,05,2.33,172.8,M,-34.4,M,,*52
$GPRMC,203653.250,A,4305.1661,N,07740.8723,W,0.04,104.92,051023,,,A*7D
$GPGGA,203653.500,4305.1661,N,07740.8723,W,1,05,2.33,172.8,M,-34.4,M,,*57
$GPRMC,203653.750,A,4305.1661,N,07740.8723,W,0.02,183.14,051023,,,A*7F
$GPGGA,203654.000,4305.1661,N,07740.8723,W,1,05,2.33,172.8,M,-34.4,M,,*55
$GPRMC,203654.250,A,4305.1661,N,07740.8723,W,0.04,3.43,051023,,,A*70
$GPGGA,203654.500,4305.1661,N,07740.8723,W,1,06,2.68,172.8,M,-34.4,M,,*5D
$GPRMC,203654.750,A,4305.1661,N,07740.8723,W,0.06,163.23,051023,,,A*76
$GPGGA,203655.000,4305.1661,N,07740.8723,W,1,06,2.20,172.8,M,-34.4,M,,*55
$GPRMC,203655.250,A,4305.1661,N,07740.8723,W,0.02,279.20,051023,,,A*7D
$GPGGA,203655.500,4305.1661,N,07740.8723,W,1,06,2.20,172.8,M,-34.4,M,,*50
$GPRMC,203655.750,A,4305.1661,N,07740.8722,W,0.01,294.26,051023,,,A*7F
$GPGGA,203656.000,4305.1661,N,07740.8722,W,1,06,2.20,172.8,M,-34.4,M,,*57
$GPRMC,203656.250,A,4305.1661,N,07740.8722,W,0.03,229.74,051023,,,A*7A
$GPGGA,203656.500,4305.1661,N,07740.8722,W,1,06,2.20,172.8,M,-34.4,M,,*52
$GPRMC,203656.750,A,4305.1661,N,07740.8722,W,0.02,237.63,051023,,,A*77
$GPGGA,203657.000,4305.1661,N,07740.8722,W,1,06,2.20,172.8,M,-34.4,M,,*56
$GPRMC,203657.250,A,4305.1661,N,07740.8722,W,0.02,130.05,051023,,,A*77
$GPGGA,203657.500,4305.1661,N,07740.8722,W,1,06,2.20,172.8,M,-34.4,M,,*53
$GPRMC,203657.750,A,4305.1661,N,07740.8722,W,0.02,92.88,051023,,,A*4E
$GPGGA,203658.000,4305.1661,N,07740.8722,W,1,06,2.20,172.8,M,-34.4,M,,*59
$GPRMC,203658.250,A,4305.1661,N,07740.8722,W,0.03,322.69,051023,,,A*72
$GPGGA,203658.500,4305.1661,N,07740.8722,W,1,06,2.20,172.8,M,-34.4,M,,*5C
$GPRMC,203658.750,A,4305.1661,N,07740.8722,W,0.02,4.39,051023,,,A*74
$GPGGA,203659.000,4305.1661,N,07740.8722,W,1,06,2.68,172.8,M,-34.4,M,,*54
$GPRMC,203659.250,A,4305.1661,N,07740.8722,W,0.01,102.44,051023,,,A*7E
$GPGGA,203659.500,4305.1661,N,07740.8722,W,1,06,2.20,172.8,M,-34.4,M,,*5D
$GPRMC,203659.750,A,4305.1661,N,07740.8722,W,0.03,324.13,051023,,,A*7D
$GPGGA,203700.000,4305.1661,N,07740.8722,W,1,06,2.20,172.8,M,-34.4,M,,*55
$GPRMC,203700.250,A,4305.1661,N,07740.8722,W,0.03,43.34,051023,,,A*42
$GPGGA,203700.500,4305.1661,N,07740.8722,W,1,06,2.19,172.8,M,-34.4,M,,*5A
$GPRMC,203700.750,A,4305.1661,N,07740.8722,W,0.04,150.51,051023,,,A*70
$GPGGA,203701.000,4305.1661,N,07740.8722,W,1,06,2.19,172.8,M,-34.4,M,,*5E
$GPRMC,203701.250,A,4305.1661,N,07740.8722,W,0.05,76.96,051023,,,A*4B
$GPGGA,203701.500,4305.1661,N,07740.8722,W,1,06,2.20,172.8,M,-34.4,M,,*51
$GPRMC,203701.750,A,4305.1661,N,07740.8722,W,0.03,48.41,051023,,,A*4F
$GPGGA,203702.000,4305.1661,N,07740.8722,W,1,06,2.19,172.8,M,-34.4,M,,*5D
$GPRMC,203702.250,A,4305.1661,N,07740.8722,W,0.06,325.86,051023,,,A*7F
$GPGGA,203702.500,4305.1661,N,07740.8722,W,1,06,2.19,172.8,M,-34.4,M,,*58
$GPRMC,203702.750,A,4305.1661,N,07740.8722,W,0.05,337.59,051023,,,A*78
$GPGGA,203703.000,4305.1661,N,07740.8722,W,1,06,2.19,172.8,M,-34.4,M,,*5C
$GPRMC,203703.250,A,4305.1661,N,07740.8722,W,0.04,50.24,051023,,,A*45
$GPGGA,203703.500,4305.1661,N,07740.8722,W,1,06,2.19,172.7,M,-34.4,M,,*56
$GPRMC,203703.750,A,4305.1661,N,07740.8722,W,0.06,34.89,051023,,,A*47
$GPGGA,203704.000,4305.1661,N,07740.8722,W,1,06,2.19,172.7,M,-34.4,M,,*54
$GPRMC,203704.250,A,4305.1661,N,07740.8722,W,0.09,342.48,051023,,,A*75
$GPGGA,203704.500,4305.1661,N,07740.8723,W,2,06,2.19,172.7,M,-34.4,M,0000,0000*53
$GPRMC,203704.750,A,4305.1662,N,07740.8723,W,0.12,312.93,051023,,,D*7E
$GPGGA,203705.000,4305.1662,N,07740.8723,W,2,06,2.19,172.7,M,-34.4,M,0000,0000*54
$GPRMC,203705.250,A,4305.1662,N,07740.8723,W,0.19,324.93,051023,,,D*74
$GPGGA,203705.500,4305.1662,N,07740.8723,W,2,06,2.19,172.7,M,-34.4,M,0000,0000*51
$GPRMC,203705.750,A,4305.1663,N,07740.8723,W,0.25,290.54,051023,,,D*7A
$GPGGA,203706.000,4305.1663,N,07740.8724,W,2,06,2.19,172.6,M,-34.4,M,0000,0000*50
$GPRMC,203706.250,A,4305.1663,N,07740.8724,W,0.32,285.64,051023,,,D*7A
$GPGGA,203706.500,4305.1663,N,07740.8724,W,2,06,2.19,172.6,M,-34.4,M,0000,0000*55
$GPRMC,203706.750,A,4305.1664,N,07740.8724,W,0.25,285.30,051023,,,D*7F
$GPGGA,203707.000,4305.1664,N,07740.8724,W,2,06,2.19,172.5,M,-34.4,M,0000,0000*55
$GPRMC,203707.250,A,4305.1664,N,07740.8724,W,0.16,284.77,051023,,,D*79
$GPGGA,203707.500,4305.1664,N,07740.8724,W,2,06,2.19,172.4,M,-34.4,M,0000,0000*51
$GPRMC,203707.750,A,4305.1664,N,07740.8724,W,0.16,283.78,051023,,,D*74
$GPGGA,203708.000,4305.1665,N,07740.8724,W,2,06,2.19,172.4,M,-34.4,M,0000,0000*5A
$GPRMC,203708.250,A,4305.1665,N,07740.8724,W,0.12,281.78,051023,,,D*79
$GPGGA,203708.500,4305.1665,N,07740.8724,W,2,06,2.19,172.3,M,-34.4,M,0000,0000*58
$GPRMC,203708.750,A,4305.1665,N,07740.8724,W,0.08,280.40,051023,,,D*7D
$GPGGA,203709.000,4305.1666,N,07740.8724,W,2,06,2.19,172.2,M,-34.4,M,0000,0000*5E
$GPRMC,203709.250,A,4305.1666,N,07740.8724,W,0.03,280.64,051023,,,D*77
$GPGGA,203709.500,4305.1666,N,07740.8724,W,2,06,2.19,172.1,M,-34.4,M,0000,0000*58
$GPRMC,203709.750,A,4305.1667,N,07740.8724,W,0.05,281.90,051023,,,D*7F
$GPGGA,203710.000,4305.1667,N,07740.8724,W,2,06,2.19,172.1,M,-34.4,M,0000,0000*54
$GPRMC,203710.250,A,4305.1668,N,07740.8724,W,0.06,356.23,051023,,,D*7D
$GPGGA,203710.500,4305.1668,N,07740.8723,W,2,06,2.67,172.0,M,-34.4,M,0000,0000*51
$GPRMC,203710.750,A,4305.1668,N,07740.8723,W,0.11,28.35,051023,,,D*44
$GPGGA,203711.000,4305.1668,N,07740.8723,W,2,06,2.19,171.9,M,-34.4,M,0000,0000*56
$GPRMC,203711.250,A,4305.1669,N,07740.8723,W,0.10,29.60,051023,,,D*41
$GPGGA,203711.500,4305.1669,N,07740.8723,W,2,06,2.19,171.9,M,-34.4,M,0000,0000*52
$GPRMC,203711.750,A,4305.1669,N,07740.8723,W,0.11,27.82,051023,,,D*47
$GPGGA,203712.000,4305.1670,N,07740.8723,W,2,06,2.19,171.8,M,-34.4,M,0000,0000*5D
$GPRMC,203712.250,A,4305.1670,N,07740.8723,W,0.09,12.01,051023,,,D*4D
$GPGGA,203712.500,4305.1670,N,07740.8723,W,2,06,2.67,171.7,M,-34.4,M,0000,0000*5E
$GPRMC,203712.750,A,4305.1671,N,07740.8723,W,0.08,357.66,051023,,,D*7B
$GPGGA,203713.000,4305.1671,N,07740.8723,W,2,06,2.66,171.6,M,-34.4,M,0000,0000*5B
$GPRMC,203713.250,A,4305.1671,N,07740.8723,W,0.06,9.81,051023,,,D*70
$GPGGA,203713.500,4305.1671,N,07740.8723,W,2,06,2.66,171.6,M,-34.4,M,0000,0000*5E
$GPRMC,203713.750,A,4305.1671,N,07740.8723,W,0.02,32.29,051023,,,D*4B
$GPGGA,203714.000,4305.1671,N,07740.8723,W,2,06,2.19,171.5,M,-34.4,M,0000,0000*57
$GPRMC,203714.250,A,4305.1671,N,07740.8723,W,0.02,202.84,051023,,,D*7F
$GPGGA,203714.500,4305.1672,N,07740.8723,W,2,06,2.19,171.5,M,-34.4,M,0000,0000*51
$GPRMC,203714.750,A,4305.1672,N,07740.8723,W,0.04,182.26,051023,,,D*7C
$GPGGA,203715.000,4305.1672,N,07740.8723,W,2,06,2.19,171.4,M,-34.4,M,0000,0000*54
$GPRMC,203715.250,A,4305.1672,N,07740.8722,W,0.08,167.50,051023,,,D*7F
$GPGGA,203715.500,4305.1672,N,07740.8722,W,2,06,2.19,171.3,M,-34.4,M,0000,0000*57
$GPRMC,203715.750,A,4305.1672,N,07740.8723,W,0.09,192.17,051023,,,D*73
$GPGGA,203716.000,4305.1672,N,07740.8723,W,2,06,2.19,171.3,M,-34.4,M,0000,0000*50
$GPRMC,203716.250,A,4305.1672,N,07740.8723,W,0.10,176.16,051023,,,D*76
$GPGGA,203716.500,4305.1672,N,07740.8723,W,2,06,2.19,171.2,M,-34.4,M,0000,0000*54
$GPRMC,203716.750,A,4305.1672,N,07740.8723,W,0.06,191.88,051023,,,D*7A
$GPGGA,203717.000,4305.1672,N,07740.8723,W,2,06,2.19,171.2,M,-34.4,M,0000,0000*50
$GPRMC,203717.250,A,4305.1672,N,07740.8723,W,0.10,188.20,051023,,,D*73
$GPGGA,203717.500,4305.1672,N,07740.8723,W,2,06,2.19,171.1,M,-34.4,M,0000,0000*56
$GPRMC,203717.750,A,4305.1672,N,07740.8723,W,0.10,183.66,051023,,,D*7F
$GPGGA,203718.000,4305.1672,N,07740.8723,W,2,06,2.19,171.0,M,-34.4,M,0000,0000*5D
$GPRMC,203718.250,A,4305.1671,N,07740.8723,W,0.12,204.38,051023,,,D*73
$GPGGA,203718.500,4305.1672,N,07740.8723,W,2,06,2.19,171.0,M,-34.4,M,0000,0000*58
$GPRMC,203718.750,A,4305.1672,N,07740.8723,W,0.08,177.80,051023,,,D*7A
$GPGGA,203719.000,4305.1672,N,07740.8723,W,2,06,2.19,170.9,M,-34.4,M,0000,0000*54
$GPRMC,203719.250,A,4305.1672,N,07740.8723,W,0.11,186.29,051023,,,D*7B
$GPGGA,203719.500,4305.1672,N,07740.8724,W,2,06,2.19,170.8,M,-34.4,M,0000,0000*57
$GPRMC,203719.750,A,4305.1672,N,07740.8724,W,0.05,188.27,051023,,,D*7C
$GPGGA,203720.000,4305.1672,N,07740.8724,W,2,06,2.19,170.8,M,-34.4,M,0000,0000*58
$GPRMC,203720.250,A,4305.1672,N,07740.8724,W,0.03,120.82,051023,,,D*78
$GPGGA,203720.500,4305.1672,N,07740.8724,W,2,06,2.19,170.7,M,-34.4,M,0000,0000*52
$GPRMC,203720.750,A,4305.1672,N,07740.8724,W,0.06,17.00,051023,,,D*47
$GPGGA,203721.000,4305.1672,N,07740.8724,W,2,06,2.66,170.7,M,-34.4,M,0000,0000*5E
$GPRMC,203721.250,A,4305.1672,N,07740.8725,W,0.01,341.39,051023,,,D*7F
$GPGGA,203721.500,4305.1672,N,07740.8725,W,2,06,2.66,170.6,M,-34.4,M,0000,0000*5B
$GPRMC,203721.750,A,4305.1672,N,07740.8724,W,0.02,72.86,051023,,,D*4F
$GPGGA,203722.000,4305.1672,N,07740.8724,W,2,06,2.66,170.5,M,-34.4,M,0000,0000*5F
$GPRMC,203722.250,A,4305.1672,N,07740.8725,W,0.00,67.30,051023,,,D*43
$GPGGA,203722.500,4305.1672,N,07740.8725,W,2,06,2.66,170.5,M,-34.4,M,0000,0000*5B
$GPRMC,203722.750,A,4305.1673,N,07740.8725,W,0.01,311.58,051023,,,D*7A
$GPGGA,203723.000,4305.1673,N,07740.8725,W,2,06,2.65,170.4,M,-34.4,M,0000,0000*5C
$GPRMC,203723.250,A,4305.1673,N,07740.8725,W,0.01,285.11,051023,,,D*7F
$GPGGA,203723.500,4305.1673,N,07740.8725,W,2,06,2.65,170.4,M,-34.4,M,0000,0000*59
$GPRMC,203723.750,A,4305.1673,N,07740.8725,W,0.02,145.38,051023,,,D*7D
$GPGGA,203724.000,4305.1674,N,07740.8725,W,2,06,2.65,170.3,M,-34.4,M,0000,0000*5B
$GPRMC,203724.250,A,4305.1674,N,07740.8725,W,0.02,338.00,051023,,,D*7B
$GPGGA,203724.500,4305.1674,N,07740.8725,W,2,06,2.65,170.3,M,-34.4,M,0000,0000*5E
$GPRMC,203724.750,A,4305.1674,N,07740.8725,W,0.01,300.25,051023,,,D*71
$GPGGA,203725.000,4305.1674,N,07740.8725,W,2,06,2.65,170.2,M,-34.4,M,0000,0000*5B
$GPRMC,203725.250,A,4305.1673,N,07740.8724,W,0.03,123.20,051023,,,D*77
$GPGGA,203725.500,4305.1673,N,07740.8724,W,2,06,2.65,170.2,M,-34.4,M,0000,0000*58
$GPRMC,203725.750,A,4305.1673,N,07740.8724,W,0.01,61.58,051023,,,D*48
$GPGGA,203726.000,4305.1673,N,07740.8724,W,2,06,2.65,170.2,M,-34.4,M,0000,0000*5E
$GPRMC,203726.250,A,4305.1672,N,07740.8724,W,0.02,117.87,051023,,,D*7E
$GPGGA,203726.500,4305.1672,N,07740.8724,W,2,06,2.65,170.2,M,-34.4,M,0000,0000*5A
$GPRMC,203726.750,A,4305.1672,N,07740.8724,W,0.01,210.82,051023,,,D*79
$GPGGA,203727.000,4305.1672,N,07740.8724,W,2,06,2.65,170.1,M,-34.4,M,0000,0000*5D
$GPRMC,203727.250,A,4305.1672,N,07740.8724,W,0.01,139.49,051023,,,D*72
$GPGGA,203727.500,4305.1673,N,07740.8723,W,2,06,2.65,170.0,M,-34.4,M,0000,0000*5F
$GPRMC,203727.750,A,4305.1673,N,07740.8723,W,0.01,59.92,051023,,,D*40
$GPGGA,203728.000,4305.1673,N,07740.8723,W,2,06,2.65,170.0,M,-34.4,M,0000,0000*55
$GPRMC,203728.250,A,4305.1674,N,07740.8723,W,0.01,8.34,051023,,,D*75
$GPGGA,203728.500,4305.1674,N,07740.8723,W,2,06,2.65,169.8,M,-34.4,M,0000,0000*57
$GPRMC,203728.750,A,4305.1674,N,07740.8723,W,0.01,221.72,051023,,,D*7B
$GPGGA,203729.000,4305.1674,N,07740.8722,W,2,06,2.65,169.7,M,-34.4,M,0000,0000*5D
$GPRMC,203729.250,A,4305.1674,N,07740.8722,W,0.00,0.00,051023,,,D*7B
$GPGGA,203729.500,4305.1674,N,07740.8722,W,2,06,2.65,169.7,M,-34.4,M,0000,0000*58
$GPRMC,203729.750,A,4305.1674,N,07740.8722,W,0.01,293.01,051023,,,D*76
$GPGGA,203730.000,4305.1674,N,07740.8722,W,2,06,2.65,169.5,M,-34.4,M,0000,0000*57
$GPRMC,203730.250,A,4305.1674,N,07740.8722,W,0.01,181.63,051023,,,D*7F
$GPGGA,203730.500,4305.1674,N,07740.8722,W,2,06,2.65,169.5,M,-34.4,M,0000,0000*52
$GPRMC,203730.750,A,4305.1675,N,07740.8721,W,0.01,66.23,051023,,,D*44
$GPGGA,203731.000,4305.1675,N,07740.8721,W,2,06,2.65,169.4,M,-34.4,M,0000,0000*55
$GPRMC,203731.250,A,4305.1675,N,07740.8720,W,0.01,56.45,051023,,,D*42
$GPGGA,203731.500,4305.1675,N,07740.8720,W,2,06,2.65,169.4,M,-34.4,M,0000,0000*51
$GPRMC,203731.750,A,4305.1675,N,07740.8720,W,0.00,37.63,051023,,,D*45
$GPGGA,203732.000,4305.1676,N,07740.8720,W,2,06,2.65,169.3,M,-34.4,M,0000,0000*53
$GPRMC,203732.250,A,4305.1676,N,07740.8720,W,0.00,267.39,051023,,,D*78
$GPGGA,203732.500,4305.1676,N,07740.8719,W,2,06,2.65,169.2,M,-34.4,M,0000,0000*5D
$GPRMC,203732.750,A,4305.1676,N,07740.8719,W,0.01,45.35,051023,,,D*48
$GPGGA,203733.000,4305.1677,N,07740.8719,W,2,06,2.65,169.1,M,-34.4,M,0000,0000*5B
$GPRMC,203733.250,A,4305.1677,N,07740.8718,W,0.00,42.16,051023,,,D*4B
$GPGGA,203733.500,4305.1677,N,07740.8718,W,2,06,2.64,169.1,M,-34.4,M,0000,0000*5E
$GPRMC,203733.750,A,4305.1677,N,07740.8718,W,0.00,348.58,051023,,,D*7D
$GPGGA,203734.000,4305.1677,N,07740.8718,W,2,06,2.64,169.1,M,-34.4,M,0000,0000*5C
$GPRMC,203734.250,A,4305.1678,N,07740.8717,W,0.01,15.98,051023,,,D*49
$GPGGA,203734.500,4305.1678,N,07740.8717,W,2,06,2.64,169.0,M,-34.4,M,0000,0000*58
$GPRMC,203734.750,A,4305.1678,N,07740.8717,W,0.02,34.49,051023,,,D*40
$GPGGA,203735.000,4305.1678,N,07740.8716,W,2,06,2.64,169.0,M,-34.4,M,0000,0000*5D
$GPRMC,203735.250,A,4305.1678,N,07740.8716,W,0.03,1.76,051023,,,D*7E
$GPGGA,203735.500,4305.1679,N,07740.8716,W,2,06,2.64,168.9,M,-34.4,M,0000,0000*51
$GPRMC,203735.750,A,4305.1679,N,07740.8716,W,0.01,18.95,051023,,,D*4D
$GPGGA,203736.000,4305.1679,N,07740.8716,W,2,06,2.64,168.9,M,-34.4,M,0000,0000*57
$GPRMC,203736.250,A,4305.1679,N,07740.8716,W,0.01,52.24,051023,,,D*4F
$GPGGA,203736.500,4305.1679,N,07740.8715,W,2,06,2.64,168.9,M,-34.4,M,0000,0000*51
$GPRMC,203736.750,A,4305.1679,N,07740.8715,W,0.01,24.14,051023,,,D*4B
$GPGGA,203737.000,4305.1679,N,07740.8715,W,2,06,2.64,168.9,M,-34.4,M,0000,0000*55
$GPRMC,203737.250,A,4305.1679,N,07740.8715,W,0.00,62.36,051023,,,D*4C
$GPGGA,203737.500,4305.1679,N,07740.8715,W,2,06,2.64,168.8,M,-34.4,M,0000,0000*51
$GPRMC,203737.750,A,4305.1679,N,07740.8715,W,0.00,171.59,051023,,,D*73
$GPGGA,203738.000,4305.1679,N,07740.8715,W,2,06,2.64,168.8,M,-34.4,M,0000,0000*5B
$GPRMC,203738.250,A,4305.1679,N,07740.8715,W,0.01,169.84,051023,,,D*71
$GPGGA,203738.500,4305.1678,N,07740.8714,W,2,06,2.64,168.8,M,-34.4,M,0000,0000*5E
$GPRMC,203738.750,A,4305.1678,N,07740.8714,W,0.01,212.65,051023,,,D*74
$GPGGA,203739.000,4305.1678,N,07740.8714,W,2,06,2.64,168.8,M,-34.4,M,0000,0000*5A
$GPRMC,203739.250,A,4305.1677,N,07740.8714,W,0.00,222.82,051023,,,D*74
$GPGGA,203739.500,4305.1677,N,07740.8714,W,2,06,2.64,168.8,M,-34.4,M,0000,0000*50
$GPRMC,203739.750,A,4305.1677,N,07740.8714,W,0.01,204.92,051023,,,D*75
$GPGGA,203740.000,4305.1676,N,07740.8714,W,2,06,2.64,168.8,M,-34.4,M,0000,0000*5A
$GPRMC,203740.250,A,4305.1676,N,07740.8714,W,0.00,36.56,051023,,,D*45
$GPGGA,203740.500,4305.1676,N,07740.8714,W,2,06,2.64,168.8,M,-34.4,M,0000,0000*5F
$GPRMC,203740.750,A,4305.1675,N,07740.8714,W,0.01,201.05,051023,,,D*72
$GPGGA,203741.000,4305.1675,N,07740.8714,W,2,06,2.64,168.8,M,-34.4,M,0000,0000*58
$GPRMC,203741.250,A,4305.1675,N,07740.8714,W,0.01,210.20,051023,,,D*71
$GPGGA,203741.500,4305.1675,N,07740.8714,W,2,06,2.64,168.8,M,-34.4,M,0000,0000*5D
$GPRMC,203741.750,A,4305.1674,N,07740.8714,W,0.01,192.50,051023,,,D*7B
$GPGGA,203742.000,4305.1674,N,07740.8714,W,2,06,2.64,168.7,M,-34.4,M,0000,0000*55
$GPRMC,203742.250,A,4305.1674,N,07740.8714,W,0.01,205.83,051023,,,D*7E
$GPGGA,203742.500,4305.1673,N,07740.8713,W,2,06,2.64,168.7,M,-34.4,M,0000,0000*50
$GPRMC,203742.750,A,4305.1673,N,07740.8713,W,0.01,196.12,051023,,,D*7A
$GPGGA,203743.000,4305.1673,N,07740.8713,W,2,06,2.63,168.7,M,-34.4,M,0000,0000*53
$GPRMC,203743.250,A,4305.1673,N,07740.8713,W,0.00,245.20,051023,,,D*73
$GPGGA,203743.500,4305.1672,N,07740.8713,W,2,06,2.63,168.6,M,-34.4,M,0000,0000*56
$GPRMC,203743.750,A,4305.1672,N,07740.8713,W,0.00,359.44,051023,,,D*79
$GPGGA,203744.000,4305.1672,N,07740.8713,W,2,06,2.63,168.6,M,-34.4,M,0000,0000*54
$GPRMC,203744.250,A,4305.1672,N,07740.8713,W,0.00,341.85,051023,,,D*7F
$GPGGA,203744.500,4305.1672,N,07740.8713,W,2,06,2.63,168.5,M,-34.4,M,0000,0000*52
$GPRMC,203744.750,A,4305.1672,N,07740.8713,W,0.00,85.19,051023,,,D*44
$GPGGA,203745.000,4305.1672,N,07740.8714,W,2,06,2.63,168.5,M,-34.4,M,0000,0000*51
$GPRMC,203745.250,A,4305.1672,N,07740.8714,W,0.00,214.51,051023,,,D*71
$GPGGA,203745.500,4305.1672,N,07740.8714,W,2,06,2.63,168.5,M,-34.4,M,0000,0000*54
$GPRMC,203745.750,A,4305.1672,N,07740.8714,W,0.01,32.24,051023,,,D*41
$GPGGA,203746.000,4305.1672,N,07740.8714,W,2,06,2.63,168.5,M,-34.4,M,0000,0000*52
$GPRMC,203746.250,A,4305.1672,N,07740.8714,W,0.00,358.71,051023,,,D*79
$GPGGA,203746.500,4305.1672,N,07740.8714,W,2,06,2.63,168.4,M,-34.4,M,0000,0000*56
$GPRMC,203746.750,A,4305.1672,N,07740.8714,W,0.00,63.66,051023,,,D*41
$GPGGA,203747.000,4305.1672,N,07740.8714,W,2,06,2.63,168.4,M,-34.4,M,0000,0000*52
$GPRMC,203747.250,A,4305.1672,N,07740.8714,W,0.01,34.20,051023,,,D*44
$GPGGA,203747.500,4305.1672,N,07740.8714,W,2,06,2.63,168.4,M,-34.4,M,0000,0000*57
$GPRMC,203747.750,A,4305.1672,N,07740.8714,W,0.01,291.04,051023,,,D*7A
$GPGGA,203748.000,4305.1672,N,07740.8714,W,2,06,2.63,168.4,M,-34.4,M,0000,0000*5D
$GPRMC,203748.250,A,4305.1672,N,07740.8714,W,0.01,49.85,051023,,,D*4E
$GPGGA,203748.500,4305.1672,N,07740.8714,W,2,06,2.63,168.4,M,-34.4,M,0000,0000*58
$GPRMC,203748.750,A,4305.1672,N,07740.8714,W,0.00,28.77,051023,,,D*40
$GPGGA,203749.000,4305.1672,N,07740.8714,W,2,06,2.63,168.4,M,-34.4,M,0000,0000*5C
$GPRMC,203749.250,A,4305.1672,N,07740.8714,W,0.01,25.92,051023,,,D*43
$GPGGA,203749.500,4305.1672,N,07740.8714,W,2,06,2.63,168.4,M,-34.4,M,0000,0000*59
$GPRMC,203749.750,A,4305.1672,N,07740.8714,W,0.00,183.28,051023,,,D*7B
$GPGGA,203750.000,4305.1672,N,07740.8714,W,2,06,2.63,168.4,M,-34.4,M,0000,0000*54
$GPRMC,203750.250,A,4305.1672,N,07740.8714,W,0.01,85.25,051023,,,D*4D
$GPGGA,203750.500,4305.1672,N,07740.8714,W,2,06,2.63,168.4,M,-34.4,M,0000,0000*51
$GPRMC,203750.750,A,4305.1672,N,07740.8714,W,0.00,307.37,051023,,,D*73
$GPGGA,203751.000,4305.1672,N,07740.8714,W,2,06,2.63,168.4,M,-34.4,M,0000,0000*55
$GPRMC,203751.250,A,4305.1672,N,07740.8714,W,0.00,222.22,051023,,,D*75
$GPGGA,203751.500,4305.1672,N,07740.8714,W,2,06,2.63,168.4,M,-34.4,M,0000,0000*50
$GPRMC,203751.750,A,4305.1672,N,07740.8714,W,0.00,84.30,051023,,,D*4D
$GPGGA,203752.000,4305.1672,N,07740.8714,W,2,06,2.63,168.4,M,-34.4,M,0000,0000*56
$GPRMC,203752.250,A,4305.1672,N,07740.8714,W,0.00,37.33,051023,,,D*40
$GPGGA,203752.500,4305.1672,N,07740.8714,W,2,06,2.63,168.4,M,-34.4,M,0000,0000*53
$GPRMC,203752.750,A,4305.1672,N,07740.8714,W,0.00,345.58,051023,,,D*7E
$GPGGA,203753.000,4305.1672,N,07740.8714,W,2,06,2.63,168.4,M,-34.4,M,0000,0000*57
$GPRMC,203753.250,A,4305.1672,N,07740.8714,W,0.01,190.50,051023,,,D*79
$GPGGA,203753.500,4305.1672,N,07740.8714,W,2,06,2.63,168.4,M,-34.4,M,0000,0000*52
$GPRMC,203753.750,A,4305.1672,N,07740.8714,W,0.01,159.77,051023,,,D*7C
$GPGGA,203754.000,4305.1672,N,07740.8714,W,2,06,2.62,168.4,M,-34.4,M,0000,0000*51
$GPRMC,203754.250,A,4305.1672,N,07740.8714,W,0.00,161.47,051023,,,D*77
$GPGGA,203754.500,4305.1672,N,07740.8714,W,2,06,2.62,168.4,M,-34.4,M,0000,0000*54
$GPRMC,203754.750,A,4305.1672,N,07740.8714,W,0.00,224.82,051023,,,D*79
$GPGGA,203755.000,4305.1672,N,07740.8714,W,2,06,2.62,168.4,M,-34.4,M,0000,0000*50
$GPRMC,203755.250,A,4305.1672,N,07740.8714,W,0.00,207.19,051023,,,D*7E
$GPGGA,203755.500,4305.1672,N,07740.8714,W,2,06,2.62,168.4,M,-34.4,M,0000,0000*55
$GPRMC,203755.750,A,4305.1672,N,07740.8714,W,0.00,209.09,051023,,,D*74
$GPGGA,203756.000,4305.1672,N,07740.8714,W,2,06,2.62,168.4,M,-34.4,M,0000,0000*53
$GPRMC,203756.250,A,4305.1672,N,07740.8714,W,0.00,203.69,051023,,,D*7E
$GPGGA,203756.500,4305.1672,N,07740.8714,W,2,06,2.62,168.4,M,-34.4,M,0000,0000*56
$GPRMC,203756.750,A,4305.1672,N,07740.8714,W,0.01,332.77,051023,,,D*76
