Vers 81
USE_SERIAL_FEEDBACK=true
DEVELOPMENT_MODE=false
USE_RMC_ONLY=false

$GPRMC,144509.000,A,4308.3157,N,07726.2621,W,0.01,248.23,161023,,,A*74
$GPGGA,144509.250,4308.3156,N,07726.2621,W,1,07,1.28,159.5,M,-34.4,M,,*53
$GPRMC,144509.500,A,4308.3156,N,07726.2621,W,0.03,179.56,161023,,,A*71
$GPGGA,144509.750,4308.3155,N,07726.2621,W,1,07,1.28,159.3,M,-34.4,M,,*53
$GPRMC,144510.000,A,4308.3154,N,07726.2621,W,0.04,123.70,161023,,,A*72
$GPGGA,144510.250,4308.3154,N,07726.2621,W,1,07,1.28,159.3,M,-34.4,M,,*5F
$GPRMC,144510.500,A,4308.3153,N,07726.2621,W,0.02,77.67,161023,,,A*40
$GPGGA,144510.750,4308.3153,N,07726.2621,W,1,07,1.28,159.2,M,-34.4,M,,*5C
$GPRMC,144511.000,A,4308.3152,N,07726.2621,W,0.04,153.17,161023,,,A*73
$GPGGA,144511.250,4308.3152,N,07726.2620,W,1,07,1.28,159.0,M,-34.4,M,,*5A
$GPRMC,144511.500,A,4308.3152,N,07726.2620,W,0.02,135.00,161023,,,A*77
$GPGGA,144511.750,4308.3151,N,07726.2620,W,1,07,1.28,158.9,M,-34.4,M,,*54
$GPRMC,144512.000,A,4308.3151,N,07726.2620,W,0.01,85.16,161023,,,A*4C
$GPGGA,144512.250,4308.3151,N,07726.2620,W,1,07,1.28,158.8,M,-34.4,M,,*53
$GPRMC,144512.500,A,4308.3151,N,07726.2620,W,0.05,301.04,161023,,,A*71
$GPGGA,144512.750,4308.3151,N,07726.2620,W,1,07,1.29,158.7,M,-34.4,M,,*58
$GPRMC,144513.000,A,4308.3151,N,07726.2620,W,0.06,26.95,161023,,,A*48
$GPGGA,144513.250,4308.3150,N,07726.2620,W,1,07,1.28,158.7,M,-34.4,M,,*5C
$GPRMC,144513.500,A,4308.3150,N,07726.2620,W,0.02,54.29,161023,,,A*4A
$GPGGA,144513.750,4308.3150,N,07726.2620,W,1,07,1.28,158.6,M,-34.4,M,,*58
$GPRMC,144514.000,A,4308.3150,N,07726.2620,W,0.03,349.03,161023,,,A*7E
$GPGGA,144514.250,4308.3150,N,07726.2620,W,1,07,1.31,158.5,M,-34.4,M,,*51
$GPRMC,144514.500,A,4308.3150,N,07726.2620,W,0.02,80.02,161023,,,A*4D
$GPGGA,144514.750,4308.3150,N,07726.2620,W,1,07,1.28,158.5,M,-34.4,M,,*5C
$GPRMC,144515.000,A,4308.3150,N,07726.2620,W,0.03,338.21,161023,,,A*79
$GPGGA,144515.250,4308.3150,N,07726.2620,W,1,07,1.28,158.5,M,-34.4,M,,*58
$GPRMC,144515.500,A,4308.3150,N,07726.2620,W,0.02,259.32,161023,,,A*79
$GPGGA,144515.750,4308.3150,N,07726.2620,W,1,07,1.28,158.4,M,-34.4,M,,*5C
$GPRMC,144516.000,A,4308.3150,N,07726.2620,W,0.03,128.73,161023,,,A*7E
$GPGGA,144516.250,4308.3150,N,07726.2620,W,1,07,1.28,158.3,M,-34.4,M,,*5D
$GPRMC,144516.500,A,4308.3150,N,07726.2620,W,0.03,40.47,161023,,,A*43
$GPGGA,144516.750,4308.3150,N,07726.2620,W,1,07,1.28,158.2,M,-34.4,M,,*59
$GPRMC,144517.000,A,4308.3150,N,07726.2620,W,0.03,333.33,161023,,,A*73
$GPGGA,144517.250,4308.3150,N,07726.2620,W,1,07,1.28,158.1,M,-34.4,M,,*5E
$GPRMC,144517.500,A,4308.3150,N,07726.2620,W,0.03,178.88,161023,,,A*7B
$GPGGA,144517.750,4308.3150,N,07726.2620,W,1,07,1.28,158.1,M,-34.4,M,,*5B
$GPRMC,144518.000,A,4308.3150,N,07726.2620,W,0.03,31.06,161023,,,A*4B
$GPGGA,144518.250,4308.3150,N,07726.2620,W,1,07,1.28,158.1,M,-34.4,M,,*51
$GPRMC,144518.500,A,4308.3150,N,07726.2620,W,0.05,345.56,161023,,,A*7D
$GPGGA,144518.750,4308.3150,N,07726.2620,W,1,07,1.31,158.1,M,-34.4,M,,*5C
$GPRMC,144519.000,A,4308.3150,N,07726.2620,W,0.01,171.41,161023,,,A*7E
$GPGGA,144519.250,4308.3150,N,07726.2620,W,1,07,1.28,158.1,M,-34.4,M,,*50
$GPRMC,144519.500,A,4308.3150,N,07726.2620,W,0.02,355.80,161023,,,A*71
$GPGGA,144519.750,4308.3150,N,07726.2619,W,1,07,1.31,158.0,M,-34.4,M,,*56
$GPRMC,144520.000,A,4308.3150,N,07726.2619,W,0.02,41.53,161023,,,A*4C
$GPGGA,144520.250,4308.3150,N,07726.2619,W,1,07,1.28,158.0,M,-34.4,M,,*51
$GPRMC,144520.500,A,4308.3150,N,07726.2619,W,0.04,355.72,161023,,,A*7A
$GPGGA,144520.750,4308.3150,N,07726.2619,W,1,07,1.31,157.9,M,-34.4,M,,*5A
$GPRMC,144521.000,A,4308.3150,N,07726.2619,W,0.05,292.44,161023,,,A*70
$GPGGA,144521.250,4308.3150,N,07726.2619,W,1,07,1.28,158.0,M,-34.4,M,,*50
$GPRMC,144521.500,A,4308.3150,N,07726.2619,W,0.03,79.10,161023,,,A*45
$GPGGA,144521.750,4308.3150,N,07726.2619,W,1,07,1.28,158.0,M,-34.4,M,,*55
$GPRMC,144522.000,A,4308.3151,N,07726.2619,W,0.03,309.39,161023,,,A*7D
$GPGGA,144522.250,4308.3151,N,07726.2619,W,1,07,1.28,158.0,M,-34.4,M,,*52
$GPRMC,144522.500,A,4308.3151,N,07726.2619,W,0.02,65.11,161023,,,A*4A
$GPGGA,144522.750,4308.3151,N,07726.2619,W,1,07,1.28,158.0,M,-34.4,M,,*57
$GPRMC,144523.000,A,4308.3151,N,07726.2620,W,0.02,53.80,161023,,,A*49
$GPGGA,144523.250,4308.3151,N,07726.2620,W,1,07,1.28,158.0,M,-34.4,M,,*59
$GPRMC,144523.500,A,4308.3151,N,07726.2620,W,0.02,53.60,161023,,,A*42
$GPGGA,144523.750,4308.3151,N,07726.2620,W,1,07,1.28,158.1,M,-34.4,M,,*5D
$GPRMC,144524.000,A,4308.3151,N,07726.2620,W,0.01,101.93,161023,,,A*79
$GPGGA,144524.250,4308.3151,N,07726.2620,W,1,07,1.28,158.2,M,-34.4,M,,*5C
$GPRMC,144524.500,A,4308.3151,N,07726.2620,W,0.02,61.64,161023,,,A*40
$GPGGA,144524.750,4308.3151,N,07726.2620,W,1,07,1.28,158.2,M,-34.4,M,,*59
$GPRMC,144525.000,A,4308.3151,N,07726.2620,W,0.02,73.80,161023,,,A*4D
$GPGGA,144525.250,4308.3152,N,07726.2620,W,1,07,1.28,158.2,M,-34.4,M,,*5E
$GPRMC,144525.500,A,4308.3152,N,07726.2621,W,0.01,268.08,161023,,,A*71
$GPGGA,144525.750,4308.3152,N,07726.2621,W,1,07,1.28,158.3,M,-34.4,M,,*5B
$GPRMC,144526.000,A,4308.3152,N,07726.2621,W,0.01,54.55,161023,,,A*42
$GPGGA,144526.250,4308.3152,N,07726.2621,W,1,07,1.28,158.4,M,-34.4,M,,*5A
$GPRMC,144526.500,A,4308.3153,N,07726.2621,W,0.02,85.72,161023,,,A*4C
$GPGGA,144526.750,4308.3153,N,07726.2621,W,1,07,1.28,158.6,M,-34.4,M,,*5C
$GPRMC,144527.000,A,4308.3153,N,07726.2621,W,0.02,4.69,161023,,,A*7B
$GPGGA,144527.250,4308.3153,N,07726.2622,W,1,07,1.31,158.7,M,-34.4,M,,*52
$GPRMC,144527.500,A,4308.3154,N,07726.2622,W,0.02,136.65,161023,,,A*76
$GPGGA,144527.750,4308.3154,N,07726.2622,W,1,07,1.28,158.8,M,-34.4,M,,*57
$GPRMC,144528.000,A,4308.3154,N,07726.2622,W,0.04,105.29,161023,,,A*72
$GPGGA,144528.250,4308.3154,N,07726.2622,W,1,07,1.28,158.9,M,-34.4,M,,*5C
$GPRMC,144528.500,A,4308.3154,N,07726.2622,W,0.01,221.47,161023,,,A*7F
$GPGGA,144528.750,4308.3154,N,07726.2622,W,1,07,1.28,159.1,M,-34.4,M,,*50
$GPRMC,144529.000,A,4308.3155,N,07726.2622,W,0.01,145.70,161023,,,A*7F
$GPGGA,144529.250,4308.3155,N,07726.2622,W,1,07,1.28,159.2,M,-34.4,M,,*56
$GPRMC,144529.500,A,4308.3155,N,07726.2622,W,0.05,333.64,161023,,,A*78
$GPGGA,144529.750,4308.3155,N,07726.2622,W,1,07,1.28,159.2,M,-34.4,M,,*53
$GPRMC,144530.000,A,4308.3155,N,07726.2622,W,0.03,110.57,161023,,,A*70
$GPGGA,144530.250,4308.3155,N,07726.2622,W,1,07,1.28,159.3,M,-34.4,M,,*5F
$GPRMC,144530.500,A,4308.3156,N,07726.2622,W,0.03,77.03,161023,,,A*47
$GPGGA,144530.750,4308.3156,N,07726.2622,W,1,07,1.28,159.5,M,-34.4,M,,*5F
$GPRMC,144531.000,A,4308.3156,N,07726.2622,W,0.04,200.83,161023,,,A*7E
$GPGGA,144531.250,4308.3156,N,07726.2622,W,1,07,1.28,159.6,M,-34.4,M,,*58
$GPRMC,144531.500,A,4308.3156,N,07726.2622,W,0.02,310.43,161023,,,A*71
$GPGGA,144531.750,4308.3156,N,07726.2623,W,1,07,1.28,159.6,M,-34.4,M,,*5C
$GPRMC,144532.000,A,4308.3156,N,07726.2623,W,0.02,123.24,161023,,,A*75
$GPGGA,144532.250,4308.3157,N,07726.2623,W,1,07,1.28,159.7,M,-34.4,M,,*5A
$GPRMC,144532.500,A,4308.3156,N,07726.2623,W,0.01,159.06,161023,,,A*7E
$GPGGA,144532.750,4308.3156,N,07726.2623,W,1,07,1.28,159.8,M,-34.4,M,,*51
$GPRMC,144533.000,A,4308.3156,N,07726.2623,W,0.04,78.20,161023,,,A*49
$GPGGA,144533.250,4308.3156,N,07726.2623,W,1,07,1.28,159.9,M,-34.4,M,,*54
$GPRMC,144533.500,A,4308.3156,N,07726.2623,W,0.03,26.50,161023,,,A*47
$GPGGA,144533.750,4308.3156,N,07726.2623,W,1,07,1.28,160.0,M,-34.4,M,,*52
$GPRMC,144534.000,A,4308.3156,N,07726.2623,W,0.02,196.78,161023,,,A*74
$GPGGA,144534.250,4308.3156,N,07726.2623,W,1,07,1.28,160.0,M,-34.4,M,,*50
$GPRMC,144534.500,A,4308.3156,N,07726.2623,W,0.02,125.88,161023,,,A*76
$GPGGA,144534.750,4308.3156,N,07726.2623,W,1,07,1.28,160.1,M,-34.4,M,,*54
$GPRMC,144535.000,A,4308.3156,N,07726.2623,W,0.02,280.78,161023,,,A*71
$GPGGA,144535.250,4308.3156,N,07726.2623,W,1,07,1.28,160.2,M,-34.4,M,,*53
$GPRMC,144535.500,A,4308.3156,N,07726.2623,W,0.00,70.62,161023,,,A*40
$GPGGA,144535.750,4308.3156,N,07726.2623,W,1,07,1.29,160.3,M,-34.4,M,,*56
$GPRMC,144536.000,A,4308.3156,N,07726.2623,W,0.01,295.04,161023,,,A*7E
$GPGGA,144536.250,4308.3156,N,07726.2623,W,1,07,1.28,160.3,M,-34.4,M,,*51
$GPRMC,144536.500,A,4308.3156,N,07726.2623,W,0.04,60.76,161023,,,A*43
$GPGGA,144536.750,4308.3156,N,07726.2623,W,1,07,1.28,160.3,M,-34.4,M,,*54
$GPRMC,144537.000,A,4308.3156,N,07726.2623,W,0.02,111.86,161023,,,A*79
$GPGGA,144537.250,4308.3156,N,07726.2623,W,1,07,1.28,160.3,M,-34.4,M,,*50
$GPRMC,144537.500,A,4308.3156,N,07726.2623,W,0.03,172.65,161023,,,A*75
$GPGGA,144537.750,4308.3156,N,07726.2623,W,1,07,1.28,160.3,M,-34.4,M,,*55
$GPRMC,144538.000,A,4308.3156,N,07726.2623,W,0.01,288.52,161023,,,A*7F
$GPGGA,144538.250,4308.3156,N,07726.2623,W,1,07,1.28,160.3,M,-34.4,M,,*5F
$GPRMC,144538.500,A,4308.3156,N,07726.2623,W,0.03,157.26,161023,,,A*7A
$GPGGA,144538.750,4308.3156,N,07726.2623,W,1,07,1.28,160.3,M,-34.4,M,,*5A
$GPRMC,144539.000,A,4308.3156,N,07726.2623,W,0.02,233.81,161023,,,A*73
$GPGGA,144539.250,4308.3156,N,07726.2623,W,1,07,1.28,160.3,M,-34.4,M,,*5E
$GPRMC,144539.500,A,4308.3156,N,07726.2623,W,0.02,294.14,161023,,,A*77
$GPGGA,144539.750,4308.3156,N,07726.2623,W,1,07,1.28,160.3,M,-34.4,M,,*5B
$GPRMC,144540.000,A,4308.3156,N,07726.2623,W,0.02,118.61,161023,,,A*79
$GPGGA,144540.250,4308.3156,N,07726.2623,W,1,07,1.28,160.3,M,-34.4,M,,*50
$GPRMC,144540.500,A,4308.3156,N,07726.2623,W,0.01,23.07,161023,,,A*46
$GPGGA,144540.750,4308.3156,N,07726.2623,W,1,07,1.28,160.3,M,-34.4,M,,*55
$GPRMC,144541.000,A,4308.3156,N,07726.2623,W,0.04,345.96,161023,,,A*7C
$GPGGA,144541.250,4308.3156,N,07726.2623,W,1,07,1.31,160.3,M,-34.4,M,,*59
$GPRMC,144541.500,A,4308.3156,N,07726.2623,W,0.01,297.02,161023,,,A*7F
$GPGGA,144541.750,4308.3156,N,07726.2623,W,1,07,1.28,160.3,M,-34.4,M,,*54
$GPRMC,144542.000,A,4308.3156,N,07726.2623,W,0.01,66.03,161023,,,A*44
$GPGGA,144542.250,4308.3156,N,07726.2623,W,1,07,1.28,160.3,M,-34.4,M,,*52
$GPRMC,144542.500,A,4308.3156,N,07726.2623,W,0.03,168.07,161023,,,A*78
$GPGGA,144542.750,4308.3156,N,07726.2623,W,1,07,1.28,160.3,M,-34.4,M,,*57
$GPRMC,144543.000,A,4308.3156,N,07726.2623,W,0.01,152.75,161023,,,A*72
$GPGGA,144543.250,4308.3156,N,07726.2623,W,1,07,1.28,160.3,M,-34.4,M,,*53
$GPRMC,144543.500,A,4308.3156,N,07726.2623,W,0.06,59.70,161023,,,A*4F
$GPGGA,144543.750,4308.3156,N,07726.2623,W,1,07,1.28,160.3,M,-34.4,M,,*56
$GPRMC,144544.000,A,4308.3156,N,07726.2623,W,0.02,161.77,161023,,,A*74
$GPGGA,144544.250,4308.3156,N,07726.2623,W,1,07,1.28,160.3,M,-34.4,M,,*54
$GPRMC,144544.500,A,4308.3156,N,07726.2623,W,0.03,16.19,161023,,,A*49
$GPGGA,144544.750,4308.3156,N,07726.2623,W,1,07,1.31,160.3,M,-34.4,M,,*59
$GPRMC,144545.000,A,4308.3156,N,07726.2623,W,0.00,282.23,161023,,,A*78
$GPGGA,144545.250,4308.3156,N,07726.2623,W,1,07,1.31,160.3,M,-34.4,M,,*5D
$GPRMC,144545.500,A,4308.3156,N,07726.2623,W,0.00,200.23,161023,,,A*77
$GPGGA,144545.750,4308.3156,N,07726.2623,W,1,07,1.31,160.3,M,-34.4,M,,*58
$GPRMC,144546.000,A,4308.3156,N,07726.2623,W,0.01,172.92,161023,,,A*7C
$GPGGA,144546.250,4308.3156,N,07726.2623,W,1,07,1.31,160.3,M,-34.4,M,,*5E
$GPRMC,144546.500,A,4308.3156,N,07726.2623,W,0.00,65.02,161023,,,A*46
$GPGGA,144546.750,4308.3156,N,07726.2623,W,1,07,1.31,160.3,M,-34.4,M,,*5B
$GPRMC,144547.000,A,4308.3156,N,07726.2623,W,0.00,63.10,161023,,,A*47
$GPGGA,144547.250,4308.3156,N,07726.2623,W,1,07,1.31,160.3,M,-34.4,M,,*5F
$GPRMC,144547.500,A,4308.3156,N,07726.2623,W,0.01,181.07,161023,,,A*78
$GPGGA,144547.750,4308.3156,N,07726.2623,W,1,07,1.31,160.3,M,-34.4,M,,*5A
$GPRMC,144548.000,A,4308.3156,N,07726.2623,W,0.00,0.00,161023,,,A*7C
$GPGGA,144548.250,4308.3156,N,07726.2623,W,1,07,1.31,160.3,M,-34.4,M,,*50
$GPRMC,144548.500,A,4308.3156,N,07726.2623,W,0.00,239.66,161023,,,A*71
$GPGGA,144548.750,4308.3156,N,07726.2623,W,1,07,1.31,160.3,M,-34.4,M,,*55
$GPRMC,144549.000,A,4308.3156,N,07726.2623,W,0.00,48.42,161023,,,A*47
$GPGGA,144549.250,4308.3156,N,07726.2623,W,1,07,1.31,160.3,M,-34.4,M,,*51
$GPRMC,144549.500,A,4308.3156,N,07726.2623,W,0.00,167.67,161023,,,A*79
$GPGGA,144549.750,4308.3156,N,07726.2623,W,1,07,1.31,160.3,M,-34.4,M,,*54
$GPRMC,144550.000,A,4308.3156,N,07726.2623,W,0.00,29.17,161023,,,A*48
$GPGGA,144550.250,4308.3156,N,07726.2623,W,1,07,1.31,160.3,M,-34.4,M,,*59
$GPRMC,144550.500,A,4308.3156,N,07726.2623,W,0.00,296.86,161023,,,A*73
$GPGGA,144550.750,4308.3156,N,07726.2623,W,1,07,1.31,160.3,M,-34.4,M,,*5C
$GPRMC,144551.000,A,4308.3156,N,07726.2623,W,0.01,327.14,161023,,,A*76
$GPGGA,144551.250,4308.3156,N,07726.2623,W,1,07,1.31,160.3,M,-34.4,M,,*58
$GPRMC,144551.500,A,4308.3156,N,07726.2623,W,0.00,82.49,161023,,,A*46
$GPGGA,144551.750,4308.3156,N,07726.2623,W,1,07,1.31,160.3,M,-34.4,M,,*5D
$GPRMC,144552.000,A,4308.3156,N,07726.2623,W,0.00,135.90,161023,,,A*79
$GPGGA,144552.250,4308.3156,N,07726.2623,W,1,07,1.31,160.3,M,-34.4,M,,*5B
$GPRMC,144552.500,A,4308.3156,N,07726.2623,W,0.01,336.60,161023,,,A*73
$GPGGA,144552.750,4308.3156,N,07726.2623,W,1,07,1.31,160.3,M,-34.4,M,,*5E
$GPRMC,144553.000,A,4308.3156,N,07726.2623,W,0.00,92.77,161023,,,A*4D
$GPGGA,144553.250,4308.3156,N,07726.2623,W,1,07,1.31,160.3,M,-34.4,M,,*5A
$GPRMC,144553.500,A,4308.3156,N,07726.2623,W,0.00,261.36,161023,,,A*73
$GPGGA,144553.750,4308.3156,N,07726.2623,W,1,07,1.31,160.3,M,-34.4,M,,*5F
$GPRMC,144554.000,A,4308.3156,N,07726.2623,W,0.00,198.82,161023,,,A*7B
$GPGGA,144554.250,4308.3156,N,07726.2623,W,1,07,1.31,160.3,M,-34.4,M,,*5D
$GPRMC,144554.500,A,4308.3156,N,07726.2623,W,0.00,147.96,161023,,,A*79
$GPGGA,144554.750,4308.3156,N,07726.2623,W,1,07,1.31,160.3,M,-34.4,M,,*58
$GPRMC,144555.000,A,4308.3156,N,07726.2623,W,0.01,15.22,161023,,,A*45
$GPGGA,144555.250,4308.3156,N,07726.2623,W,1,07,1.31,160.3,M,-34.4,M,,*5C
$GPRMC,144555.500,A,4308.3156,N,07726.2623,W,0.00,93.09,161023,,,A*46
$GPGGA,144555.750,4308.3156,N,07726.2623,W,1,07,1.31,160.3,M,-34.4,M,,*59
$GPRMC,144556.000,A,4308.3156,N,07726.2623,W,0.02,11.20,161023,,,A*43
$GPGGA,144556.250,4308.3156,N,07726.2623,W,1,07,1.31,160.3,M,-34.4,M,,*5F
$GPRMC,144556.500,A,4308.3156,N,07726.2623,W,0.10,16.66,161023,,,A*40
$GPGGA,144556.750,4308.3156,N,07726.2623,W,1,07,1.31,160.3,M,-34.4,M,,*5A
$GPRMC,144557.000,A,4308.3156,N,07726.2623,W,0.49,29.62,161023,,,A*40
$GPGGA,144557.250,4308.3156,N,07726.2623,W,1,07,1.31,160.3,M,-34.4,M,,*5E
$GPRMC,144557.500,A,4308.3156,N,07726.2623,W,2.58,21.69,161023,,,A*44
$GPGGA,144557.750,4308.3158,N,07726.2622,W,1,07,1.28,160.3,M,-34.4,M,,*5C
$GPRMC,144558.000,A,4308.3160,N,07726.2621,W,3.42,23.38,161023,,,A*45
$GPGGA,144558.250,4308.3162,N,07726.2619,W,1,07,1.28,160.3,M,-34.4,M,,*57
$GPRMC,144558.500,A,4308.3165,N,07726.2617,W,3.93,38.10,161023,,,A*4C
$GPGGA,144558.750,4308.3167,N,07726.2615,W,1,07,1.31,160.3,M,-34.4,M,,*53
$GPRMC,144559.000,A,4308.3169,N,07726.2613,W,3.63,39.48,161023,,,A*43
$GPGGA,144559.250,4308.3171,N,07726.2610,W,1,07,1.29,160.3,M,-34.4,M,,*5C
$GPRMC,144559.500,A,4308.3173,N,07726.2607,W,4.03,58.37,161023,,,A*46
$GPGGA,144559.750,4308.3174,N,07726.2604,W,1,07,1.31,160.3,M,-34.4,M,,*50
$GPRMC,144600.000,A,4308.3175,N,07726.2600,W,3.69,57.70,161023,,,A*4A
$GPGGA,144600.250,4308.3176,N,07726.2597,W,1,07,1.28,160.4,M,-34.4,M,,*5E
$GPRMC,144600.500,A,4308.3177,N,07726.2594,W,3.47,68.52,161023,,,A*43
$GPGGA,144600.750,4308.3178,N,07726.2591,W,1,07,1.28,160.4,M,-34.4,M,,*53
$GPRMC,144601.000,A,4308.3178,N,07726.2587,W,3.43,81.65,161023,,,A*4D
$GPGGA,144601.250,4308.3179,N,07726.2584,W,1,07,1.28,160.3,M,-34.4,M,,*55
$GPRMC,144601.500,A,4308.3179,N,07726.2581,W,3.41,87.43,161023,,,A*4F
$GPGGA,144601.750,4308.3179,N,07726.2577,W,1,07,1.28,160.3,M,-34.4,M,,*5C
$GPRMC,144602.000,A,4308.3178,N,07726.2575,W,2.77,97.79,161023,,,A*4F
$GPGGA,144602.250,4308.3178,N,07726.2572,W,1,07,1.28,160.3,M,-34.4,M,,*5E
$GPRMC,144602.500,A,4308.3178,N,07726.2570,W,1.84,100.40,161023,,,A*75
$GPGGA,144602.750,4308.3178,N,07726.2569,W,1,07,1.28,160.3,M,-34.4,M,,*51
$GPRMC,144603.000,A,4308.3177,N,07726.2568,W,0.09,79.98,161023,,,A*49
$GPGGA,144603.250,4308.3178,N,07726.2569,W,1,07,1.28,160.3,M,-34.4,M,,*55
$GPRMC,144603.500,A,4308.3178,N,07726.2570,W,1.72,279.40,161023,,,A*70
$GPGGA,144603.750,4308.3178,N,07726.2572,W,1,06,1.46,160.3,M,-34.4,M,,*53
$GPRMC,144604.000,A,4308.3178,N,07726.2575,W,3.73,280.29,161023,,,A*7D
$GPGGA,144604.250,4308.3179,N,07726.2579,W,1,06,1.46,160.3,M,-34.4,M,,*5B
$GPRMC,144604.500,A,4308.3180,N,07726.2584,W,5.87,281.66,161023,,,A*76
$GPGGA,144604.750,4308.3181,N,07726.2590,W,1,06,1.97,160.4,M,-34.4,M,,*55
$GPRMC,144605.000,A,4308.3182,N,07726.2597,W,7.94,280.35,161023,,,A*75
$GPGGA,144605.250,4308.3183,N,07726.2605,W,1,06,1.97,160.5,M,-34.4,M,,*5D
$GPRMC,144605.500,A,4308.3184,N,07726.2613,W,9.63,280.21,161023,,,A*7A
$GPGGA,144605.750,4308.3185,N,07726.2623,W,1,07,1.31,160.5,M,-34.4,M,,*57
$GPRMC,144606.000,A,4308.3186,N,07726.2633,W,11.26,279.77,161023,,,A*41
$GPGGA,144606.250,4308.3188,N,07726.2644,W,1,06,1.97,160.6,M,-34.4,M,,*53
$GPRMC,144606.500,A,4308.3190,N,07726.2656,W,12.85,280.17,161023,,,A*4A
$GPGGA,144606.750,4308.3192,N,07726.2669,W,1,07,1.31,160.7,M,-34.4,M,,*5E
$GPRMC,144607.000,A,4308.3193,N,07726.2683,W,14.58,280.38,161023,,,A*4E
$GPGGA,144607.250,4308.3195,N,07726.2697,W,1,07,1.31,160.8,M,-34.4,M,,*53
$GPRMC,144607.500,A,4308.3197,N,07726.2712,W,16.13,280.80,161023,,,A*48
$GPGGA,144607.750,4308.3199,N,07726.2727,W,1,07,1.31,161.1,M,-34.4,M,,*58
$GPRMC,144608.000,A,4308.3202,N,07726.2743,W,17.55,282.78,161023,,,A*4F
$GPGGA,144608.250,4308.3205,N,07726.2759,W,1,07,1.31,161.2,M,-34.4,M,,*5E
$GPRMC,144608.500,A,4308.3209,N,07726.2776,W,18.99,284.87,161023,,,A*4E
$GPGGA,144608.750,4308.3213,N,07726.2793,W,1,07,1.31,161.4,M,-34.4,M,,*5C
$GPRMC,144609.000,A,4308.3217,N,07726.2810,W,20.00,287.58,161023,,,A*40
$GPGGA,144609.250,4308.3222,N,07726.2828,W,1,07,1.31,161.7,M,-34.4,M,,*56
$GPRMC,144609.500,A,4308.3227,N,07726.2847,W,21.13,289.23,161023,,,A*45
$GPGGA,144609.750,4308.3232,N,07726.2866,W,1,07,1.31,161.9,M,-34.4,M,,*56
$GPRMC,144610.000,A,4308.3238,N,07726.2885,W,21.79,291.98,161023,,,A*4D
$GPGGA,144610.250,4308.3244,N,07726.2905,W,1,07,1.31,162.1,M,-34.4,M,,*55
$GPRMC,144610.500,A,4308.3251,N,07726.2924,W,22.22,294.87,161023,,,A*4B
$GPGGA,144610.750,4308.3258,N,07726.2943,W,1,07,1.31,162.2,M,-34.4,M,,*5C
$GPRMC,144611.000,A,4308.3265,N,07726.2962,W,22.83,296.75,161023,,,A*4E
$GPGGA,144611.250,4308.3273,N,07726.2981,W,1,07,1.31,162.4,M,-34.4,M,,*59
$GPRMC,144611.500,A,4308.3280,N,07726.3001,W,23.41,297.84,161023,,,A*4D
$GPGGA,144611.750,4308.3288,N,07726.3020,W,1,07,1.31,162.6,M,-34.4,M,,*59
$GPRMC,144612.000,A,4308.3297,N,07726.3039,W,23.49,300.08,161023,,,A*45
$GPGGA,144612.250,4308.3305,N,07726.3058,W,1,07,1.31,162.9,M,-34.4,M,,*5B
$GPRMC,144612.500,A,4308.3313,N,07726.3077,W,23.98,300.42,161023,,,A*45
$GPGGA,144612.750,4308.3322,N,07726.3097,W,1,07,1.31,163.2,M,-34.4,M,,*52
$GPRMC,144613.000,A,4308.3330,N,07726.3117,W,24.28,300.57,161023,,,A*4F
$GPGGA,144613.250,4308.3339,N,07726.3136,W,1,07,1.31,163.4,M,-34.4,M,,*50
$GPRMC,144613.500,A,4308.3348,N,07726.3156,W,24.21,301.86,161023,,,A*44
$GPGGA,144613.750,4308.3357,N,07726.3175,W,1,07,1.31,163.6,M,-34.4,M,,*58
$GPRMC,144614.000,A,4308.3366,N,07726.3194,W,24.22,302.94,161023,,,A*47
$GPGGA,144614.250,4308.3375,N,07726.3214,W,1,07,1.31,163.8,M,-34.4,M,,*50
$GPRMC,144614.500,A,4308.3385,N,07726.3233,W,24.19,303.69,161023,,,A*4A
$GPGGA,144614.750,4308.3394,N,07726.3252,W,1,07,1.31,164.0,M,-34.4,M,,*57
$GPRMC,144615.000,A,4308.3404,N,07726.3271,W,24.17,304.04,161023,,,A*44
$GPGGA,144615.250,4308.3413,N,07726.3290,W,1,07,1.31,164.2,M,-34.4,M,,*57
$GPRMC,144615.500,A,4308.3422,N,07726.3309,W,23.95,303.59,161023,,,A*49
$GPGGA,144615.750,4308.3432,N,07726.3328,W,1,07,1.31,164.4,M,-34.4,M,,*55
$GPRMC,144616.000,A,4308.3441,N,07726.3347,W,23.85,303.83,161023,,,A*46
$GPGGA,144616.250,4308.3450,N,07726.3366,W,1,07,1.31,164.6,M,-34.4,M,,*5F
$GPRMC,144616.500,A,4308.3460,N,07726.3385,W,23.64,303.74,161023,,,A*49
$GPGGA,144616.750,4308.3469,N,07726.3403,W,1,07,1.31,164.8,M,-34.4,M,,*5A
$GPRMC,144617.000,A,4308.3478,N,07726.3422,W,23.53,303.87,161023,,,A*46
$GPGGA,144617.250,4308.3487,N,07726.3441,W,1,07,1.31,165.0,M,-34.4,M,,*51
$GPRMC,144617.500,A,4308.3496,N,07726.3459,W,23.21,303.97,161023,,,A*4B
$GPGGA,144617.750,4308.3505,N,07726.3478,W,1,07,1.31,165.2,M,-34.4,M,,*57
$GPRMC,144618.000,A,4308.3515,N,07726.3496,W,23.21,305.99,161023,,,A*40
$GPGGA,144618.250,4308.3524,N,07726.3513,W,1,07,1.31,165.4,M,-34.4,M,,*54
$GPRMC,144618.500,A,4308.3534,N,07726.3530,W,23.00,308.98,161023,,,A*44
$GPGGA,144618.750,4308.3545,N,07726.3547,W,1,07,1.31,165.5,M,-34.4,M,,*56
$GPRMC,144619.000,A,4308.3555,N,07726.3563,W,23.24,312.47,161023,,,A*4E
$GPGGA,144619.250,4308.3567,N,07726.3578,W,1,07,1.31,165.8,M,-34.4,M,,*53
$GPRMC,144619.500,A,4308.3578,N,07726.3594,W,22.99,316.10,161023,,,A*4D
$GPGGA,144619.750,4308.3590,N,07726.3609,W,1,07,1.31,166.0,M,-34.4,M,,*50
$GPRMC,144620.000,A,4308.3601,N,07726.3623,W,22.85,319.38,161023,,,A*48
$GPGGA,144620.250,4308.3614,N,07726.3637,W,1,07,1.31,166.2,M,-34.4,M,,*5F
$GPRMC,144620.500,A,4308.3627,N,07726.3649,W,22.64,323.47,161023,,,A*4B
$GPGGA,144620.750,4308.3640,N,07726.3662,W,1,07,1.31,166.4,M,-34.4,M,,*5D
$GPRMC,144621.000,A,4308.3653,N,07726.3673,W,22.41,328.39,161023,,,A*40
$GPGGA,144621.250,4308.3667,N,07726.3684,W,1,07,1.31,166.6,M,-34.4,M,,*56
$GPRMC,144621.500,A,4308.3681,N,07726.3694,W,22.50,333.10,161023,,,A*42
$GPGGA,144621.750,4308.3695,N,07726.3703,W,1,07,1.31,166.8,M,-34.4,M,,*5E
$GPRMC,144622.000,A,4308.3710,N,07726.3711,W,22.38,336.95,161023,,,A*47
$GPGGA,144622.250,4308.3724,N,07726.3719,W,1,07,1.31,167.0,M,-34.4,M,,*51
$GPRMC,144622.500,A,4308.3740,N,07726.3727,W,22.86,341.40,161023,,,A*4F
$GPGGA,144622.750,4308.3755,N,07726.3733,W,1,07,1.31,167.1,M,-34.4,M,,*5B
$GPRMC,144623.000,A,4308.3771,N,07726.3739,W,23.19,346.32,161023,,,A*43
$GPGGA,144623.250,4308.3786,N,07726.3744,W,1,07,1.31,167.3,M,-34.4,M,,*53
$GPRMC,144623.500,A,4308.3802,N,07726.3748,W,23.15,347.69,161023,,,A*48
$GPGGA,144623.750,4308.3819,N,07726.3753,W,1,07,1.31,167.5,M,-34.4,M,,*5F
$GPRMC,144624.000,A,4308.3835,N,07726.3757,W,23.13,349.31,161023,,,A*45
$GPGGA,144624.250,4308.3851,N,07726.3760,W,1,07,1.31,167.6,M,-34.4,M,,*52
$GPRMC,144624.500,A,4308.3867,N,07726.3764,W,23.05,351.33,161023,,,A*4B
$GPGGA,144624.750,4308.3883,N,07726.3766,W,1,07,1.31,167.8,M,-34.4,M,,*50
$GPRMC,144625.000,A,4308.3899,N,07726.3768,W,23.24,354.28,161023,,,A*4E
$GPGGA,144625.250,4308.3916,N,07726.3769,W,1,07,1.31,168.0,M,-34.4,M,,*51
$GPRMC,144625.500,A,4308.3932,N,07726.3768,W,23.00,359.97,161023,,,A*44
$GPGGA,144625.750,4308.3948,N,07726.3767,W,1,07,1.31,168.2,M,-34.4,M,,*53
$GPRMC,144626.000,A,4308.3964,N,07726.3765,W,23.30,3.21,161023,,,A*4E
$GPGGA,144626.250,4308.3981,N,07726.3762,W,1,07,1.31,168.3,M,-34.4,M,,*54
$GPRMC,144626.500,A,4308.3997,N,07726.3758,W,24.06,8.42,161023,,,A*45
$GPGGA,144626.750,4308.4014,N,07726.3753,W,1,07,1.31,168.5,M,-34.4,M,,*57
$GPRMC,144627.000,A,4308.4031,N,07726.3748,W,24.36,11.31,161023,,,A*7D
$GPGGA,144627.250,4308.4047,N,07726.3743,W,1,07,1.31,168.6,M,-34.4,M,,*57
$GPRMC,144627.500,A,4308.4064,N,07726.3738,W,24.92,12.75,161023,,,A*72
$GPGGA,144627.750,4308.4081,N,07726.3733,W,1,07,1.31,168.7,M,-34.4,M,,*5E
$GPRMC,144628.000,A,4308.4098,N,07726.3728,W,24.57,11.64,161023,,,A*70
$GPGGA,144628.250,4308.4114,N,07726.3723,W,1,07,1.31,168.9,M,-34.4,M,,*56
$GPRMC,144628.500,A,4308.4131,N,07726.3718,W,24.66,10.92,161023,,,A*7E
$GPGGA,144628.750,4308.4148,N,07726.3713,W,1,07,1.31,169.0,M,-34.4,M,,*51
$GPRMC,144629.000,A,4308.4165,N,07726.3708,W,24.72,9.60,161023,,,A*4A
$GPGGA,144629.250,4308.4182,N,07726.3704,W,1,07,1.31,169.1,M,-34.4,M,,*54
$GPRMC,144629.500,A,4308.4199,N,07726.3700,W,24.58,8.59,161023,,,A*47
$GPGGA,144629.750,4308.4216,N,07726.3696,W,1,07,1.31,169.2,M,-34.4,M,,*56
$GPRMC,144630.000,A,4308.4232,N,07726.3693,W,23.95,7.84,161023,,,A*4A
$GPGGA,144630.250,4308.4249,N,07726.3689,W,1,07,1.31,169.3,M,-34.4,M,,*5E
$GPRMC,144630.500,A,4308.4265,N,07726.3685,W,23.27,7.67,161023,,,A*4E
$GPGGA,144630.750,4308.4281,N,07726.3681,W,1,07,1.31,169.4,M,-34.4,M,,*50
$GPRMC,144631.000,A,4308.4296,N,07726.3678,W,22.79,7.36,161023,,,A*4A
$GPGGA,144631.250,4308.4312,N,07726.3675,W,1,07,1.31,169.6,M,-34.4,M,,*56
$GPRMC,144631.500,A,4308.4327,N,07726.3672,W,22.34,7.47,161023,,,A*41
$GPGGA,144631.750,4308.4343,N,07726.3668,W,1,07,1.31,169.7,M,-34.4,M,,*5A
$GPRMC,144632.000,A,4308.4358,N,07726.3665,W,21.72,7.42,161023,,,A*4D
$GPGGA,144632.250,4308.4373,N,07726.3662,W,1,07,1.31,169.8,M,-34.4,M,,*5A
$GPRMC,144632.500,A,4308.4388,N,07726.3659,W,21.19,8.88,161023,,,A*4E
$GPGGA,144632.750,4308.4402,N,07726.3655,W,1,07,1.31,169.9,M,-34.4,M,,*5B
$GPRMC,144633.000,A,4308.4416,N,07726.3652,W,20.86,9.87,161023,,,A*48
$GPGGA,144633.250,4308.4430,N,07726.3648,W,1,07,1.31,170.1,M,-34.4,M,,*52
$GPRMC,144633.500,A,4308.4444,N,07726.3644,W,20.09,10.63,161023,,,A*78
$GPGGA,144633.750,4308.4457,N,07726.3640,W,1,07,1.31,170.3,M,-34.4,M,,*5C
$GPRMC,144634.000,A,4308.4470,N,07726.3636,W,18.95,10.50,161023,,,A*76
$GPGGA,144634.250,4308.4483,N,07726.3632,W,1,07,1.31,170.5,M,-34.4,M,,*54
$GPRMC,144634.500,A,4308.4494,N,07726.3629,W,17.19,10.82,161023,,,A*73
$GPGGA,144634.750,4308.4505,N,07726.3625,W,1,07,1.31,170.7,M,-34.4,M,,*5A
$GPRMC,144635.000,A,4308.4516,N,07726.3621,W,15.29,10.76,161023,,,A*7E
$GPGGA,144635.250,4308.4526,N,07726.3617,W,1,07,1.31,170.7,M,-34.4,M,,*5E
$GPRMC,144635.500,A,4308.4535,N,07726.3614,W,12.59,9.32,161023,,,A*44
$GPGGA,144635.750,4308.4542,N,07726.3611,W,1,07,1.31,170.7,M,-34.4,M,,*5F
$GPRMC,144636.000,A,4308.4548,N,07726.3608,W,9.17,12.17,161023,,,A*48
$GPGGA,144636.250,4308.4554,N,07726.3606,W,1,07,1.31,170.8,M,-34.4,M,,*57
$GPRMC,144636.500,A,4308.4558,N,07726.3604,W,6.37,11.84,161023,,,A*44
$GPGGA,144636.750,4308.4562,N,07726.3602,W,1,07,1.31,170.9,M,-34.4,M,,*52
$GPRMC,144637.000,A,4308.4565,N,07726.3601,W,3.96,10.69,161023,,,A*47
$GPGGA,144637.250,4308.4567,N,07726.3599,W,1,07,1.31,171.1,M,-34.4,M,,*5B
$GPRMC,144637.500,A,4308.4569,N,07726.3598,W,2.22,10.69,161023,,,A*43
$GPGGA,144637.750,4308.4570,N,07726.3597,W,1,07,1.31,171.1,M,-34.4,M,,*56
$GPRMC,144638.000,A,4308.4572,N,07726.3596,W,2.05,10.69,161023,,,A*48
$GPGGA,144638.250,4308.4574,N,07726.3595,W,1,07,1.31,171.1,M,-34.4,M,,*5A
$GPRMC,144638.500,A,4308.4575,N,07726.3594,W,3.01,12.89,161023,,,A*41
$GPGGA,144638.750,4308.4578,N,07726.3593,W,1,07,1.31,171.0,M,-34.4,M,,*54
$GPRMC,144639.000,A,4308.4581,N,07726.3592,W,5.28,9.28,161023,,,A*74
$GPGGA,144639.250,4308.4585,N,07726.3591,W,1,07,1.31,171.0,M,-34.4,M,,*50
$GPRMC,144639.500,A,4308.4590,N,07726.3590,W,7.06,0.79,161023,,,A*70
$GPGGA,144639.750,4308.4595,N,07726.3590,W,1,07,1.31,171.0,M,-34.4,M,,*55
$GPRMC,144640.000,A,4308.4601,N,07726.3590,W,9.09,351.03,161023,,,A*7B
$GPGGA,144640.250,4308.4607,N,07726.3592,W,1,07,1.31,171.2,M,-34.4,M,,*56
$GPRMC,144640.500,A,4308.4613,N,07726.3595,W,10.60,340.36,161023,,,A*49
$GPGGA,144640.750,4308.4620,N,07726.3599,W,1,07,1.31,171.3,M,-34.4,M,,*5C
$GPRMC,144641.000,A,4308.4627,N,07726.3605,W,11.95,323.88,161023,,,A*4B
$GPGGA,144641.250,4308.4633,N,07726.3612,W,1,07,1.31,171.4,M,-34.4,M,,*5D
$GPRMC,144641.500,A,4308.4638,N,07726.3621,W,13.20,309.33,161023,,,A*42
$GPGGA,144641.750,4308.4644,N,07726.3632,W,1,07,1.31,171.4,M,-34.4,M,,*5A
$GPRMC,144642.000,A,4308.4648,N,07726.3644,W,14.20,296.55,161023,,,A*40
$GPGGA,144642.250,4308.4652,N,07726.3657,W,1,07,1.31,171.2,M,-34.4,M,,*5E
$GPRMC,144642.500,A,4308.4655,N,07726.3671,W,15.47,286.60,161023,,,A*48
$GPGGA,144642.750,4308.4658,N,07726.3685,W,1,07,1.31,171.0,M,-34.4,M,,*5C
$GPRMC,144643.000,A,4308.4660,N,07726.3701,W,16.46,281.10,161023,,,A*4E
$GPGGA,144643.250,4308.4662,N,07726.3716,W,1,07,1.31,170.9,M,-34.4,M,,*52
$GPRMC,144643.500,A,4308.4663,N,07726.3733,W,17.54,278.03,161023,,,A*4F
$GPGGA,144643.750,4308.4665,N,07726.3750,W,1,07,1.31,170.6,M,-34.4,M,,*5D
$GPRMC,144644.000,A,4308.4667,N,07726.3768,W,18.67,276.17,161023,,,A*43
$GPGGA,144644.250,4308.4668,N,07726.3786,W,1,07,1.31,170.3,M,-34.4,M,,*5C
$GPRMC,144644.500,A,4308.4669,N,07726.3805,W,19.52,275.78,161023,,,A*41
$GPGGA,144644.750,4308.4670,N,07726.3824,W,1,07,1.31,170.2,M,-34.4,M,,*56
$GPRMC,144645.000,A,4308.4672,N,07726.3843,W,20.25,275.61,161023,,,A*4F
$GPGGA,144645.250,4308.4673,N,07726.3863,W,1,07,1.31,170.0,M,-34.4,M,,*50
$GPRMC,144645.500,A,4308.4674,N,07726.3883,W,20.75,276.13,161023,,,A*43
$GPGGA,144645.750,4308.4676,N,07726.3903,W,1,07,1.31,169.8,M,-34.4,M,,*57
$GPRMC,144646.000,A,4308.4678,N,07726.3923,W,20.85,276.56,161023,,,A*4C
$GPGGA,144646.250,4308.4680,N,07726.3943,W,1,07,1.31,169.5,M,-34.4,M,,*51
$GPRMC,144646.500,A,4308.4681,N,07726.3962,W,20.85,276.91,161023,,,A*41
$GPGGA,144646.750,4308.4683,N,07726.3982,W,1,07,1.31,169.3,M,-34.4,M,,*5C
$GPRMC,144647.000,A,4308.4685,N,07726.4002,W,20.90,277.16,161023,,,A*43
$GPGGA,144647.250,4308.4687,N,07726.4023,W,1,07,1.31,169.2,M,-34.4,M,,*58
$GPRMC,144647.500,A,4308.4688,N,07726.4043,W,20.72,277.38,161023,,,A*4E
$GPGGA,144647.750,4308.4690,N,07726.4063,W,1,07,1.31,169.0,M,-34.4,M,,*5D
$GPRMC,144648.000,A,4308.4691,N,07726.4082,W,20.36,277.80,161023,,,A*42
$GPGGA,144648.250,4308.4693,N,07726.4101,W,1,07,1.31,168.8,M,-34.4,M,,*58
$GPRMC,144648.500,A,4308.4695,N,07726.4120,W,19.12,277.59,161023,,,A*42
$GPGGA,144648.750,4308.4697,N,07726.4138,W,1,07,1.31,168.7,M,-34.4,M,,*5C
$GPRMC,144649.000,A,4308.4699,N,07726.4155,W,17.73,277.88,161023,,,A*4D
$GPGGA,144649.250,4308.4700,N,07726.4171,W,1,07,1.31,168.6,M,-34.4,M,,*5B
$GPRMC,144649.500,A,4308.4702,N,07726.4187,W,15.85,278.62,161023,,,A*44
$GPGGA,144649.750,4308.4703,N,07726.4201,W,1,07,1.31,168.5,M,-34.4,M,,*5A
$GPRMC,144650.000,A,4308.4704,N,07726.4215,W,13.78,278.60,161023,,,A*41
$GPGGA,144650.250,4308.4705,N,07726.4227,W,1,07,1.31,168.5,M,-34.4,M,,*55
$GPRMC,144650.500,A,4308.4706,N,07726.4238,W,10.82,278.62,161023,,,A*4D
$GPGGA,144650.750,4308.4707,N,07726.4248,W,1,06,1.98,168.5,M,-34.4,M,,*59
$GPRMC,144651.000,A,4308.4708,N,07726.4257,W,8.48,278.76,161023,,,A*74
$GPGGA,144651.250,4308.4709,N,07726.4265,W,1,06,1.98,168.4,M,-34.4,M,,*5D
$GPRMC,144651.500,A,4308.4709,N,07726.4271,W,6.62,280.33,161023,,,A*74
$GPGGA,144651.750,4308.4710,N,07726.4277,W,1,07,1.31,168.4,M,-34.4,M,,*51
$GPRMC,144652.000,A,4308.4710,N,07726.4283,W,5.35,279.30,161023,,,A*73
$GPGGA,144652.250,4308.4711,N,07726.4288,W,1,07,1.31,168.3,M,-34.4,M,,*51
$GPRMC,144652.500,A,4308.4711,N,07726.4293,W,5.16,278.72,161023,,,A*70
$GPGGA,144652.750,4308.4711,N,07726.4298,W,1,07,1.31,168.3,M,-34.4,M,,*55
$GPRMC,144653.000,A,4308.4711,N,07726.4303,W,5.13,278.35,161023,,,A*7A
$GPGGA,144653.250,4308.4712,N,07726.4308,W,1,07,1.31,168.3,M,-34.4,M,,*5A
$GPRMC,144653.500,A,4308.4713,N,07726.4312,W,4.31,278.44,161023,,,A*7A
$GPGGA,144653.750,4308.4713,N,07726.4316,W,1,07,1.31,168.3,M,-34.4,M,,*51
$GPRMC,144654.000,A,4308.4714,N,07726.4320,W,3.81,278.70,161023,,,A*75
$GPGGA,144654.250,4308.4714,N,07726.4323,W,1,07,1.29,168.2,M,-34.4,M,,*5A
$GPRMC,144654.500,A,4308.4715,N,07726.4326,W,3.20,279.65,161023,,,A*79
$GPGGA,144654.750,4308.4715,N,07726.4329,W,1,07,1.28,168.1,M,-34.4,M,,*56
$GPRMC,144655.000,A,4308.4716,N,07726.4331,W,2.66,280.05,161023,,,A*7B
$GPGGA,144655.250,4308.4716,N,07726.4333,W,1,07,1.28,168.1,M,-34.4,M,,*5A
$GPRMC,144655.500,A,4308.4716,N,07726.4335,W,2.21,280.05,161023,,,A*79
$GPGGA,144655.750,4308.4716,N,07726.4337,W,1,07,1.28,168.1,M,-34.4,M,,*5B
$GPRMC,144656.000,A,4308.4717,N,07726.4340,W,1.84,280.05,161023,,,A*70
$GPGGA,144656.250,4308.4717,N,07726.4341,W,1,07,1.29,168.1,M,-34.4,M,,*5C
$GPRMC,144656.500,A,4308.4717,N,07726.4343,W,1.39,280.05,161023,,,A*70
$GPGGA,144656.750,4308.4718,N,07726.4344,W,1,07,1.28,168.1,M,-34.4,M,,*52
$GPRMC,144657.000,A,4308.4718,N,07726.4345,W,1.08,280.05,161023,,,A*7F
$GPGGA,144657.250,4308.4718,N,07726.4346,W,1,07,1.29,168.1,M,-34.4,M,,*55
$GPRMC,144657.500,A,4308.4719,N,07726.4347,W,0.76,280.05,161023,,,A*71
$GPGGA,144657.750,4308.4719,N,07726.4348,W,1,07,1.29,168.1,M,-34.4,M,,*5F
$GPRMC,144658.000,A,4308.4719,N,07726.4348,W,0.31,280.05,161023,,,A*77
$GPGGA,144658.250,4308.4719,N,07726.4348,W,1,07,1.29,168.1,M,-34.4,M,,*55
$GPRMC,144658.500,A,4308.4720,N,07726.4349,W,0.09,280.05,161023,,,A*72
$GPGGA,144658.750,4308.4720,N,07726.4349,W,1,07,1.29,168.1,M,-34.4,M,,*5B
$GPRMC,144659.000,A,4308.4720,N,07726.4349,W,0.06,280.05,161023,,,A*79
$GPGGA,144659.250,4308.4721,N,07726.4349,W,1,07,1.28,168.1,M,-34.4,M,,*5F
$GPRMC,144659.500,A,4308.4721,N,07726.4349,W,0.10,280.05,161023,,,A*7A
$GPGGA,144659.750,4308.4721,N,07726.4348,W,1,07,1.29,168.2,M,-34.4,M,,*59
$GPRMC,144700.000,A,4308.4721,N,07726.4348,W,0.07,280.05,161023,,,A*75
$GPGGA,144700.250,4308.4721,N,07726.4348,W,1,07,1.29,168.2,M,-34.4,M,,*51
$GPRMC,144700.500,A,4308.4721,N,07726.4348,W,0.06,280.05,161023,,,A*71
$GPGGA,144700.750,4308.4721,N,07726.4348,W,1,07,1.29,168.2,M,-34.4,M,,*54
$GPRMC,144701.000,A,4308.4721,N,07726.4348,W,0.05,280.05,161023,,,A*76
$GPGGA,144701.250,4308.4721,N,07726.4348,W,1,07,1.29,168.2,M,-34.4,M,,*50
$GPRMC,144701.500,A,4308.4721,N,07726.4348,W,0.10,280.05,161023,,,A*77
$GPGGA,144701.750,4308.4721,N,07726.4348,W,1,07,1.29,168.2,M,-34.4,M,,*55
$GPRMC,144702.000,A,4308.4721,N,07726.4348,W,0.07,280.05,161023,,,A*77
$GPGGA,144702.250,4308.4721,N,07726.4348,W,1,07,1.28,168.2,M,-34.4,M,,*52
$GPRMC,144702.500,A,4308.4721,N,07726.4348,W,0.07,280.05,161023,,,A*72
$GPGGA,144702.750,4308.4721,N,07726.4348,W,1,07,1.28,168.3,M,-34.4,M,,*56
$GPRMC,144703.000,A,4308.4721,N,07726.4348,W,0.07,280.05,161023,,,A*76
$GPGGA,144703.250,4308.4721,N,07726.4348,W,1,07,1.28,168.3,M,-34.4,M,,*52
$GPRMC,144703.500,A,4308.4721,N,07726.4348,W,0.01,280.05,161023,,,A*75
$GPGGA,144703.750,4308.4721,N,07726.4348,W,1,07,1.28,168.3,M,-34.4,M,,*57
$GPRMC,144704.000,A,4308.4721,N,07726.4348,W,0.01,280.05,161023,,,A*77
$GPGGA,144704.250,4308.4721,N,07726.4347,W,1,07,1.28,168.3,M,-34.4,M,,*5A
$GPRMC,144704.500,A,4308.4721,N,07726.4347,W,0.07,280.05,161023,,,A*7B
$GPGGA,144704.750,4308.4721,N,07726.4348,W,1,07,1.29,168.3,M,-34.4,M,,*51
$GPRMC,144705.000,A,4308.4721,N,07726.4348,W,0.18,280.05,161023,,,A*7E
$GPGGA,144705.250,4308.4721,N,07726.4348,W,1,07,1.28,168.3,M,-34.4,M,,*54
$GPRMC,144705.500,A,4308.4721,N,07726.4348,W,0.01,280.05,161023,,,A*73
$GPGGA,144705.750,4308.4721,N,07726.4348,W,1,07,1.29,168.3,M,-34.4,M,,*50
$GPRMC,144706.000,A,4308.4721,N,07726.4348,W,0.07,280.05,161023,,,A*73
$GPGGA,144706.250,4308.4721,N,07726.4348,W,1,07,1.29,168.3,M,-34.4,M,,*56
$GPRMC,144706.500,A,4308.4721,N,07726.4348,W,0.11,280.05,161023,,,A*71
$GPGGA,144706.750,4308.4721,N,07726.4348,W,1,07,1.29,168.3,M,-34.4,M,,*53
$GPRMC,144707.000,A,4308.4721,N,07726.4348,W,0.42,280.05,161023,,,A*73
$GPGGA,144707.250,4308.4721,N,07726.4349,W,1,07,1.29,168.3,M,-34.4,M,,*56
$GPRMC,144707.500,A,4308.4721,N,07726.4349,W,0.87,280.05,161023,,,A*7E
$GPGGA,144707.750,4308.4721,N,07726.4350,W,1,07,1.29,168.4,M,-34.4,M,,*5C
$GPRMC,144708.000,A,4308.4721,N,07726.4351,W,1.35,282.97,161023,,,A*7C
$GPGGA,144708.250,4308.4721,N,07726.4352,W,1,07,1.29,168.4,M,-34.4,M,,*54
$GPRMC,144708.500,A,4308.4722,N,07726.4354,W,2.75,282.97,161023,,,A*78
$GPGGA,144708.750,4308.4722,N,07726.4357,W,1,07,1.28,168.4,M,-34.4,M,,*56
$GPRMC,144709.000,A,4308.4723,N,07726.4361,W,5.01,278.82,161023,,,A*7E
$GPGGA,144709.250,4308.4724,N,07726.4367,W,1,07,1.31,168.4,M,-34.4,M,,*5F
$GPRMC,144709.500,A,4308.4724,N,07726.4373,W,7.61,278.38,161023,,,A*7A
$GPGGA,144709.750,4308.4725,N,07726.4381,W,1,07,1.31,168.4,M,-34.4,M,,*53
$GPRMC,144710.000,A,4308.4727,N,07726.4390,W,10.10,278.61,161023,,,A*45
$GPGGA,144710.250,4308.4727,N,07726.4400,W,1,07,1.31,168.4,M,-34.4,M,,*52
$GPRMC,144710.500,A,4308.4728,N,07726.4411,W,12.10,277.87,161023,,,A*44
$GPGGA,144710.750,4308.4730,N,07726.4423,W,1,07,1.31,168.5,M,-34.4,M,,*51
$GPRMC,144711.000,A,4308.4731,N,07726.4435,W,13.82,277.79,161023,,,A*45
$GPGGA,144711.250,4308.4732,N,07726.4448,W,1,07,1.31,168.7,M,-34.4,M,,*58
$GPRMC,144711.500,A,4308.4734,N,07726.4462,W,15.55,277.80,161023,,,A*4D
$GPGGA,144711.750,4308.4735,N,07726.4477,W,1,07,1.31,168.8,M,-34.4,M,,*59
$GPRMC,144712.000,A,4308.4737,N,07726.4493,W,17.01,277.64,161023,,,A*4F
$GPGGA,144712.250,4308.4739,N,07726.4509,W,1,07,1.31,169.0,M,-34.4,M,,*52
$GPRMC,144712.500,A,4308.4741,N,07726.4528,W,18.54,275.86,161023,,,A*4B
$GPGGA,144712.750,4308.4742,N,07726.4546,W,1,07,1.31,169.1,M,-34.4,M,,*51
$GPRMC,144713.000,A,4308.4743,N,07726.4565,W,20.11,277.55,161023,,,A*42
$GPGGA,144713.250,4308.4744,N,07726.4585,W,1,07,1.31,169.1,M,-34.4,M,,*5C
$GPRMC,144713.500,A,4308.4746,N,07726.4606,W,21.85,278.23,161023,,,A*46
$GPGGA,144713.750,4308.4748,N,07726.4628,W,1,07,1.31,169.3,M,-34.4,M,,*53
$GPRMC,144714.000,A,4308.4750,N,07726.4649,W,23.25,277.16,161023,,,A*49
$GPGGA,144714.250,4308.4752,N,07726.4672,W,1,07,1.31,169.4,M,-34.4,M,,*52
$GPRMC,144714.500,A,4308.4754,N,07726.4695,W,24.38,277.35,161023,,,A*43
$GPGGA,144714.750,4308.4756,N,07726.4718,W,1,07,1.31,169.4,M,-34.4,M,,*5E
$GPRMC,144715.000,A,4308.4758,N,07726.4742,W,25.62,277.30,161023,,,A*4B
$GPGGA,144715.250,4308.4760,N,07726.4766,W,1,07,1.31,169.7,M,-34.4,M,,*55
$GPRMC,144715.500,A,4308.4763,N,07726.4792,W,26.90,276.99,161023,,,A*47
$GPGGA,144715.750,4308.4765,N,07726.4817,W,1,07,1.31,169.9,M,-34.4,M,,*52
$GPRMC,144716.000,A,4308.4767,N,07726.4844,W,28.20,277.06,161023,,,A*43
$GPGGA,144716.250,4308.4769,N,07726.4871,W,1,07,1.31,170.1,M,-34.4,M,,*58
$GPRMC,144716.500,A,4308.4772,N,07726.4899,W,29.39,276.85,161023,,,A*41
$GPGGA,144716.750,4308.4774,N,07726.4927,W,1,07,1.31,170.3,M,-34.4,M,,*51
$GPRMC,144717.000,A,4308.4776,N,07726.4956,W,30.65,276.19,161023,,,A*47
$GPGGA,144717.250,4308.4778,N,07726.4985,W,1,07,1.31,170.5,M,-34.4,M,,*57
$GPRMC,144717.500,A,4308.4781,N,07726.5015,W,31.93,275.90,161023,,,A*4F
$GPGGA,144717.750,4308.4783,N,07726.5046,W,1,07,1.31,170.6,M,-34.4,M,,*52
$GPRMC,144718.000,A,4308.4785,N,07726.5077,W,33.13,275.24,161023,,,A*40
$GPGGA,144718.250,4308.4788,N,07726.5108,W,1,07,1.31,170.7,M,-34.4,M,,*59
$GPRMC,144718.500,A,4308.4790,N,07726.5140,W,33.95,275.34,161023,,,A*4B
$GPGGA,144718.750,4308.4792,N,07726.5173,W,1,07,1.31,170.8,M,-34.4,M,,*54
$GPRMC,144719.000,A,4308.4794,N,07726.5206,W,34.59,274.68,161023,,,A*45
$GPGGA,144719.250,4308.4796,N,07726.5239,W,1,07,1.31,171.0,M,-34.4,M,,*50
$GPRMC,144719.500,A,4308.4797,N,07726.5272,W,35.09,273.79,161023,,,A*43
$GPGGA,144719.750,4308.4799,N,07726.5306,W,1,07,1.31,171.0,M,-34.4,M,,*57
$GPRMC,144720.000,A,4308.4801,N,07726.5340,W,35.65,273.44,161023,,,A*48
$GPGGA,144720.250,4308.4802,N,07726.5374,W,1,07,1.31,171.1,M,-34.4,M,,*51
$GPRMC,144720.500,A,4308.4804,N,07726.5408,W,36.46,273.14,161023,,,A*44
$GPGGA,144720.750,4308.4805,N,07726.5443,W,1,07,1.31,171.2,M,-34.4,M,,*53
$GPRMC,144721.000,A,4308.4807,N,07726.5478,W,36.80,273.29,161023,,,A*40
$GPGGA,144721.250,4308.4809,N,07726.5513,W,1,07,1.31,171.3,M,-34.4,M,,*5E
$GPRMC,144721.500,A,4308.4810,N,07726.5549,W,37.11,273.04,161023,,,A*46
$GPGGA,144721.750,4308.4812,N,07726.5585,W,1,07,1.31,171.2,M,-34.4,M,,*5F
$GPRMC,144722.000,A,4308.4813,N,07726.5621,W,37.32,272.87,161023,,,A*45
$GPGGA,144722.250,4308.4815,N,07726.5658,W,1,07,1.31,171.3,M,-34.4,M,,*5C
$GPRMC,144722.500,A,4308.4816,N,07726.5695,W,38.11,272.93,161023,,,A*41
$GPGGA,144722.750,4308.4818,N,07726.5732,W,1,07,1.31,171.3,M,-34.4,M,,*59
$GPRMC,144723.000,A,4308.4819,N,07726.5769,W,39.12,273.07,161023,,,A*46
$GPGGA,144723.250,4308.4821,N,07726.5807,W,1,07,1.31,171.3,M,-34.4,M,,*5E
$GPRMC,144723.500,A,4308.4823,N,07726.5845,W,39.36,272.84,161023,,,A*47
$GPGGA,144723.750,4308.4824,N,07726.5882,W,1,07,1.31,171.4,M,-34.4,M,,*54
$GPRMC,144724.000,A,4308.4826,N,07726.5920,W,39.79,272.96,161023,,,A*4A
$GPGGA,144724.250,4308.4827,N,07726.5958,W,1,06,1.99,171.5,M,-34.4,M,,*51
$GPRMC,144724.500,A,4308.4829,N,07726.5996,W,39.81,272.59,161023,,,A*49
$GPGGA,144724.750,4308.4830,N,07726.6034,W,1,07,1.31,171.8,M,-34.4,M,,*5C
$GPRMC,144725.000,A,4308.4831,N,07726.6072,W,39.85,271.78,161023,,,A*40
$GPGGA,144725.250,4308.4832,N,07726.6110,W,1,07,1.31,172.0,M,-34.4,M,,*56
$GPRMC,144725.500,A,4308.4832,N,07726.6148,W,39.96,270.39,161023,,,A*48
$GPGGA,144725.750,4308.4832,N,07726.6186,W,1,07,1.31,172.2,M,-34.4,M,,*5E
$GPRMC,144726.000,A,4308.4833,N,07726.6223,W,39.95,270.44,161023,,,A*48
$GPGGA,144726.250,4308.4833,N,07726.6261,W,1,07,1.31,172.3,M,-34.4,M,,*52
$GPRMC,144726.500,A,4308.4832,N,07726.6299,W,39.93,269.30,161023,,,A*40
$GPGGA,144726.750,4308.4831,N,07726.6336,W,1,07,1.31,172.5,M,-34.4,M,,*50
$GPRMC,144727.000,A,4308.4831,N,07726.6374,W,39.86,268.49,161023,,,A*4E
$GPGGA,144727.250,4308.4830,N,07726.6411,W,1,07,1.31,172.7,M,-34.4,M,,*55
$GPRMC,144727.500,A,4308.4829,N,07726.6449,W,39.55,268.55,161023,,,A*48
$GPGGA,144727.750,4308.4829,N,07726.6486,W,1,07,1.31,172.9,M,-34.4,M,,*58
$GPRMC,144728.000,A,4308.4828,N,07726.6523,W,39.56,268.10,161023,,,A*4C
$GPGGA,144728.250,4308.4827,N,07726.6561,W,1,07,1.31,173.1,M,-34.4,M,,*5D
$GPRMC,144728.500,A,4308.4826,N,07726.6599,W,39.65,267.21,161023,,,A*4B
$GPGGA,144728.750,4308.4824,N,07726.6636,W,1,07,1.31,173.2,M,-34.4,M,,*59
$GPRMC,144729.000,A,4308.4823,N,07726.6674,W,39.60,266.36,161023,,,A*48
$GPGGA,144729.250,4308.4821,N,07726.6712,W,1,07,1.31,173.4,M,-34.4,M,,*59
$GPRMC,144729.500,A,4308.4819,N,07726.6749,W,39.56,266.23,161023,,,A*4A
$GPGGA,144729.750,4308.4817,N,07726.6787,W,1,07,1.31,173.6,M,-34.4,M,,*57
$GPRMC,144730.000,A,4308.4815,N,07726.6825,W,39.50,266.21,161023,,,A*4A
$GPGGA,144730.250,4308.4813,N,07726.6863,W,1,07,1.31,173.7,M,-34.4,M,,*5A
$GPRMC,144730.500,A,4308.4812,N,07726.6900,W,39.49,266.04,161023,,,A*41
$GPGGA,144730.750,4308.4810,N,07726.6938,W,1,07,1.31,173.8,M,-34.4,M,,*5C
$GPRMC,144731.000,A,4308.4808,N,07726.6976,W,39.39,266.08,161023,,,A*44
$GPGGA,144731.250,4308.4806,N,07726.7013,W,1,07,1.31,173.9,M,-34.4,M,,*5F
$GPRMC,144731.500,A,4308.4804,N,07726.7051,W,39.53,266.07,161023,,,A*43
$GPGGA,144731.750,4308.4802,N,07726.7089,W,1,07,1.31,173.9,M,-34.4,M,,*5D
$GPRMC,144732.000,A,4308.4801,N,07726.7127,W,39.22,265.95,161023,,,A*4E
$GPGGA,144732.250,4308.4799,N,07726.7164,W,1,06,2.00,174.0,M,-34.4,M,,*5A
$GPRMC,144732.500,A,4308.4797,N,07726.7201,W,39.11,266.08,161023,,,A*4B
$GPGGA,144732.750,4308.4795,N,07726.7239,W,1,07,1.31,174.3,M,-34.4,M,,*5B
$GPRMC,144733.000,A,4308.4793,N,07726.7276,W,38.61,265.89,161023,,,A*47
$GPGGA,144733.250,4308.4791,N,07726.7312,W,1,07,1.31,174.4,M,-34.4,M,,*54
$GPRMC,144733.500,A,4308.4790,N,07726.7349,W,37.96,266.13,161023,,,A*4B
$GPGGA,144733.750,4308.4788,N,07726.7385,W,1,07,1.31,174.6,M,-34.4,M,,*55
$GPRMC,144734.000,A,4308.4786,N,07726.7420,W,37.64,265.55,161023,,,A*4A
$GPGGA,144734.250,4308.4784,N,07726.7456,W,1,07,1.31,174.8,M,-34.4,M,,*5C
$GPRMC,144734.500,A,4308.4782,N,07726.7491,W,37.29,266.00,161023,,,A*4B
$GPGGA,144734.750,4308.4781,N,07726.7526,W,1,07,1.31,174.9,M,-34.4,M,,*5B
$GPRMC,144735.000,A,4308.4778,N,07726.7560,W,36.70,265.63,161023,,,A*4E
$GPGGA,144735.250,4308.4777,N,07726.7594,W,1,07,1.31,175.2,M,-34.4,M,,*55
$GPRMC,144735.500,A,4308.4775,N,07726.7628,W,35.62,265.46,161023,,,A*4E
$GPGGA,144735.750,4308.4773,N,07726.7662,W,1,07,1.31,175.3,M,-34.4,M,,*5F
$GPRMC,144736.000,A,4308.4771,N,07726.7695,W,35.10,265.18,161023,,,A*44
$GPGGA,144736.250,4308.4769,N,07726.7728,W,1,07,1.31,175.3,M,-34.4,M,,*5D
$GPRMC,144736.500,A,4308.4767,N,07726.7761,W,34.69,265.29,161023,,,A*41
$GPGGA,144736.750,4308.4765,N,07726.7794,W,1,07,1.31,175.2,M,-34.4,M,,*52
$GPRMC,144737.000,A,4308.4763,N,07726.7826,W,34.30,265.37,161023,,,A*4E
$GPGGA,144737.250,4308.4761,N,07726.7859,W,1,07,1.31,175.1,M,-34.4,M,,*5F
$GPRMC,144737.500,A,4308.4760,N,07726.7892,W,34.31,265.55,161023,,,A*42
$GPGGA,144737.750,4308.4757,N,07726.7925,W,1,07,1.31,175.0,M,-34.4,M,,*54
$GPRMC,144738.000,A,4308.4755,N,07726.7957,W,34.56,265.30,161023,,,A*44
$GPGGA,144738.250,4308.4753,N,07726.7990,W,1,07,1.31,174.9,M,-34.4,M,,*5C
$GPRMC,144738.500,A,4308.4751,N,07726.8024,W,34.76,264.99,161023,,,A*47
$GPGGA,144738.750,4308.4749,N,07726.8057,W,1,07,1.31,174.7,M,-34.4,M,,*51
$GPRMC,144739.000,A,4308.4747,N,07726.8091,W,35.20,264.71,161023,,,A*4E
$GPGGA,144739.250,4308.4745,N,07726.8125,W,1,07,1.31,174.6,M,-34.4,M,,*5C
$GPRMC,144739.500,A,4308.4743,N,07726.8159,W,36.52,264.57,161023,,,A*48
$GPGGA,144739.750,4308.4741,N,07726.8194,W,1,07,1.31,174.4,M,-34.4,M,,*55
$GPRMC,144740.000,A,4308.4738,N,07726.8229,W,37.22,264.84,161023,,,A*43
$GPGGA,144740.250,4308.4736,N,07726.8264,W,1,07,1.31,174.3,M,-34.4,M,,*55
$GPRMC,144740.500,A,4308.4734,N,07726.8299,W,37.65,265.16,161023,,,A*48
$GPGGA,144740.750,4308.4732,N,07726.8335,W,1,07,1.31,174.2,M,-34.4,M,,*50
$GPRMC,144741.000,A,4308.4729,N,07726.8371,W,37.92,265.00,161023,,,A*48
$GPGGA,144741.250,4308.4727,N,07726.8408,W,1,07,1.31,174.1,M,-34.4,M,,*5A
$GPRMC,144741.500,A,4308.4724,N,07726.8444,W,38.75,264.97,161023,,,A*48
$GPGGA,144741.750,4308.4722,N,07726.8481,W,1,07,1.31,174.0,M,-34.4,M,,*5A
$GPRMC,144742.000,A,4308.4720,N,07726.8518,W,39.19,265.15,161023,,,A*42
$GPGGA,144742.250,4308.4718,N,07726.8555,W,1,07,1.31,173.9,M,-34.4,M,,*53
$GPRMC,144742.500,A,4308.4715,N,07726.8592,W,39.39,265.07,161023,,,A*42
$GPGGA,144742.750,4308.4713,N,07726.8630,W,1,07,1.31,173.7,M,-34.4,M,,*53
$GPRMC,144743.000,A,4308.4710,N,07726.8667,W,39.61,264.97,161023,,,A*4F
$GPGGA,144743.250,4308.4708,N,07726.8705,W,1,07,1.31,173.6,M,-34.4,M,,*5B
$GPRMC,144743.500,A,4308.4705,N,07726.8742,W,39.75,265.22,161023,,,A*42
$GPGGA,144743.750,4308.4703,N,07726.8780,W,1,07,1.31,173.5,M,-34.4,M,,*5B
$GPRMC,144744.000,A,4308.4700,N,07726.8818,W,39.77,265.07,161023,,,A*40
$GPGGA,144744.250,4308.4698,N,07726.8856,W,1,07,1.31,173.3,M,-34.4,M,,*58
$GPRMC,144744.500,A,4308.4695,N,07726.8893,W,39.77,265.29,161023,,,A*47
$GPGGA,144744.750,4308.4693,N,07726.8931,W,1,07,1.31,173.1,M,-34.4,M,,*54
$GPRMC,144745.000,A,4308.4690,N,07726.8969,W,39.78,265.16,161023,,,A*41
$GPGGA,144745.250,4308.4688,N,07726.9007,W,1,07,1.31,172.7,M,-34.4,M,,*50
$GPRMC,144745.500,A,4308.4685,N,07726.9045,W,39.85,265.20,161023,,,A*41
$GPGGA,144745.750,4308.4682,N,07726.9083,W,1,07,1.31,172.3,M,-34.4,M,,*57
$GPRMC,144746.000,A,4308.4680,N,07726.9121,W,39.93,265.02,161023,,,A*46
$GPGGA,144746.250,4308.4677,N,07726.9159,W,1,07,1.31,172.1,M,-34.4,M,,*5F
$GPRMC,144746.500,A,4308.4675,N,07726.9197,W,40.10,264.75,161023,,,A*40
$GPGGA,144746.750,4308.4672,N,07726.9235,W,1,07,1.31,171.7,M,-34.4,M,,*53
$GPRMC,144747.000,A,4308.4669,N,07726.9273,W,40.22,264.88,161023,,,A*43
$GPGGA,144747.250,4308.4666,N,07726.9312,W,1,07,1.31,171.4,M,-34.4,M,,*55
$GPRMC,144747.500,A,4308.4663,N,07726.9350,W,40.41,264.90,161023,,,A*40
$GPGGA,144747.750,4308.4661,N,07726.9388,W,1,07,1.31,171.0,M,-34.4,M,,*50
$GPRMC,144748.000,A,4308.4658,N,07726.9427,W,40.46,265.21,161023,,,A*49
$GPGGA,144748.250,4308.4656,N,07726.9465,W,1,07,1.31,170.6,M,-34.4,M,,*5D
$GPRMC,144748.500,A,4308.4653,N,07726.9504,W,40.73,264.79,161023,,,A*4D
$GPGGA,144748.750,4308.4651,N,07726.9543,W,1,07,1.31,170.3,M,-34.4,M,,*5F
$GPRMC,144749.000,A,4308.4648,N,07726.9581,W,40.79,265.30,161023,,,A*48
$GPGGA,144749.250,4308.4646,N,07726.9620,W,1,07,1.31,170.1,M,-34.4,M,,*59
$GPRMC,144749.500,A,4308.4643,N,07726.9659,W,40.92,265.18,161023,,,A*4F
$GPGGA,144749.750,4308.4640,N,07726.9698,W,1,07,1.31,169.8,M,-34.4,M,,*58
$GPRMC,144750.000,A,4308.4638,N,07726.9737,W,41.35,265.21,161023,,,A*41
$GPGGA,144750.250,4308.4635,N,07726.9776,W,1,07,1.31,169.6,M,-34.4,M,,*58
$GPRMC,144750.500,A,4308.4633,N,07726.9815,W,41.60,264.97,161023,,,A*4C
$GPGGA,144750.750,4308.4630,N,07726.9854,W,1,07,1.31,169.3,M,-34.4,M,,*52
$GPRMC,144751.000,A,4308.4628,N,07726.9894,W,41.59,265.31,161023,,,A*4C
$GPGGA,144751.250,4308.4625,N,07726.9933,W,1,07,1.31,169.1,M,-34.4,M,,*50
$GPRMC,144751.500,A,4308.4623,N,07726.9972,W,41.75,265.60,161023,,,A*41
$GPGGA,144751.750,4308.4621,N,07727.0012,W,1,07,1.31,168.9,M,-34.4,M,,*5A
$GPRMC,144752.000,A,4308.4618,N,07727.0051,W,41.92,266.08,161023,,,A*4B
$GPGGA,144752.250,4308.4616,N,07727.0091,W,1,07,1.31,168.7,M,-34.4,M,,*5D
$GPRMC,144752.500,A,4308.4614,N,07727.0131,W,42.08,266.35,161023,,,A*4B
$GPGGA,144752.750,4308.4612,N,07727.0170,W,1,07,1.31,168.5,M,-34.4,M,,*50
$GPRMC,144753.000,A,4308.4610,N,07727.0210,W,41.89,267.15,161023,,,A*42
$GPGGA,144753.250,4308.4609,N,07727.0250,W,1,07,1.32,168.4,M,-34.4,M,,*5D
$GPRMC,144753.500,A,4308.4608,N,07727.0290,W,42.01,267.90,161023,,,A*48
$GPGGA,144753.750,4308.4607,N,07727.0329,W,1,07,1.31,168.2,M,-34.4,M,,*5C
$GPRMC,144754.000,A,4308.4606,N,07727.0369,W,41.99,268.64,161023,,,A*45
$GPGGA,144754.250,4308.4606,N,07727.0409,W,1,07,1.31,168.1,M,-34.4,M,,*59
$GPRMC,144754.500,A,4308.4606,N,07727.0449,W,42.05,270.07,161023,,,A*4F
$GPGGA,144754.750,4308.4606,N,07727.0489,W,1,07,1.31,168.0,M,-34.4,M,,*55
$GPRMC,144755.000,A,4308.4606,N,07727.0530,W,42.23,270.79,161023,,,A*49
$GPGGA,144755.250,4308.4607,N,07727.0570,W,1,07,1.31,168.0,M,-34.4,M,,*57
$GPRMC,144755.500,A,4308.4608,N,07727.0611,W,42.81,272.18,161023,,,A*4F
$GPGGA,144755.750,4308.4609,N,07727.0652,W,1,07,1.31,167.8,M,-34.4,M,,*58
$GPRMC,144756.000,A,4308.4611,N,07727.0692,W,42.82,272.99,161023,,,A*40
$GPGGA,144756.250,4308.4613,N,07727.0733,W,1,07,1.31,167.8,M,-34.4,M,,*53
$GPRMC,144756.500,A,4308.4616,N,07727.0774,W,43.21,274.80,161023,,,A*4D
$GPGGA,144756.750,4308.4619,N,07727.0815,W,1,07,1.31,167.8,M,-34.4,M,,*57
$GPRMC,144757.000,A,4308.4622,N,07727.0855,W,43.09,275.92,161023,,,A*4A
$GPGGA,144757.250,4308.4625,N,07727.0896,W,1,07,1.32,167.8,M,-34.4,M,,*54
$GPRMC,144757.500,A,4308.4629,N,07727.0937,W,42.85,276.58,161023,,,A*41
$GPGGA,144757.750,4308.4632,N,07727.0977,W,1,07,1.31,167.9,M,-34.4,M,,*5B
$GPRMC,144758.000,A,4308.4635,N,07727.1018,W,42.85,276.93,161023,,,A*44
$GPGGA,144758.250,4308.4639,N,07727.1059,W,1,07,1.31,168.1,M,-34.4,M,,*59
$GPRMC,144758.500,A,4308.4643,N,07727.1100,W,42.82,277.72,161023,,,A*41
$GPGGA,144758.750,4308.4647,N,07727.1140,W,1,07,1.31,168.3,M,-34.4,M,,*5E
$GPRMC,144759.000,A,4308.4651,N,07727.1181,W,42.77,278.24,161023,,,A*49
$GPGGA,144759.250,4308.4655,N,07727.1221,W,1,07,1.31,168.5,M,-34.4,M,,*5B
$GPRMC,144759.500,A,4308.4660,N,07727.1261,W,42.67,278.94,161023,,,A*49
$GPGGA,144759.750,4308.4665,N,07727.1302,W,1,07,1.31,168.7,M,-34.4,M,,*5F
$GPRMC,144800.000,A,4308.4669,N,07727.1342,W,42.69,279.37,161023,,,A*40
$GPGGA,144800.250,4308.4674,N,07727.1382,W,1,07,1.31,169.0,M,-34.4,M,,*57
$GPRMC,144800.500,A,4308.4679,N,07727.1422,W,42.69,279.38,161023,,,A*4A
$GPGGA,144800.750,4308.4684,N,07727.1462,W,1,07,1.31,169.2,M,-34.4,M,,*56
$GPRMC,144801.000,A,4308.4689,N,07727.1503,W,42.64,279.87,161023,,,A*4A
$GPGGA,144801.250,4308.4694,N,07727.1543,W,1,07,1.32,169.5,M,-34.4,M,,*55
$GPRMC,144801.500,A,4308.4699,N,07727.1583,W,42.57,279.79,161023,,,A*47
$GPGGA,144801.750,4308.4704,N,07727.1623,W,1,07,1.32,169.6,M,-34.4,M,,*5E
$GPRMC,144802.000,A,4308.4709,N,07727.1663,W,42.64,279.67,161023,,,A*4B
$GPGGA,144802.250,4308.4714,N,07727.1703,W,1,07,1.31,169.8,M,-34.4,M,,*57
$GPRMC,144802.500,A,4308.4718,N,07727.1743,W,42.57,279.20,161023,,,A*4E
$GPGGA,144802.750,4308.4723,N,07727.1783,W,1,07,1.31,170.0,M,-34.4,M,,*5E
$GPRMC,144803.000,A,4308.4728,N,07727.1824,W,42.80,280.47,161023,,,A*4A
$GPGGA,144803.250,4308.4734,N,07727.1864,W,1,07,1.32,170.0,M,-34.4,M,,*59
$GPRMC,144803.500,A,4308.4739,N,07727.1904,W,42.74,281.09,161023,,,A*4C
$GPGGA,144803.750,4308.4744,N,07727.1945,W,1,07,1.31,170.1,M,-34.4,M,,*5B
$GPRMC,144804.000,A,4308.4750,N,07727.1985,W,42.54,280.92,161023,,,A*49
$GPGGA,144804.250,4308.4755,N,07727.2025,W,1,07,1.31,170.3,M,-34.4,M,,*57
$GPRMC,144804.500,A,4308.4760,N,07727.2065,W,42.51,279.84,161023,,,A*4F
$GPGGA,144804.750,4308.4766,N,07727.2105,W,1,07,1.32,170.3,M,-34.4,M,,*52
$GPRMC,144805.000,A,4308.4771,N,07727.2145,W,42.24,280.12,161023,,,A*43
$GPGGA,144805.250,4308.4776,N,07727.2185,W,1,07,1.31,170.4,M,-34.4,M,,*5B
$GPRMC,144805.500,A,4308.4780,N,07727.2224,W,42.03,279.03,161023,,,A*4F
$GPGGA,144805.750,4308.4785,N,07727.2264,W,1,07,1.32,170.6,M,-34.4,M,,*5F
$GPRMC,144806.000,A,4308.4790,N,07727.2303,W,41.98,279.65,161023,,,A*4D
$GPGGA,144806.250,4308.4796,N,07727.2343,W,1,07,1.32,170.8,M,-34.4,M,,*51
$GPRMC,144806.500,A,4308.4800,N,07727.2382,W,41.93,279.61,161023,,,A*48
$GPGGA,144806.750,4308.4805,N,07727.2422,W,1,07,1.32,170.9,M,-34.4,M,,*50
$GPRMC,144807.000,A,4308.4810,N,07727.2461,W,41.71,279.77,161023,,,A*4C
$GPGGA,144807.250,4308.4815,N,07727.2500,W,1,07,1.32,171.1,M,-34.4,M,,*5D
$GPRMC,144807.500,A,4308.4820,N,07727.2539,W,41.45,279.24,161023,,,A*47
$GPGGA,144807.750,4308.4825,N,07727.2579,W,1,07,1.31,171.3,M,-34.4,M,,*54
$GPRMC,144808.000,A,4308.4829,N,07727.2618,W,41.60,278.56,161023,,,A*47
$GPGGA,144808.250,4308.4834,N,07727.2658,W,1,07,1.32,171.4,M,-34.4,M,,*5A
$GPRMC,144808.500,A,4308.4838,N,07727.2697,W,41.44,279.14,161023,,,A*44
$GPGGA,144808.750,4308.4843,N,07727.2736,W,1,07,1.31,171.5,M,-34.4,M,,*54
$GPRMC,144809.000,A,4308.4848,N,07727.2777,W,41.55,279.52,161023,,,A*4A
$GPGGA,144809.250,4308.4853,N,07727.2818,W,1,07,1.32,171.2,M,-34.4,M,,*56
$GPRMC,144809.500,A,4308.4858,N,07727.2858,W,41.60,279.82,161023,,,A*47
$GPGGA,144809.750,4308.4863,N,07727.2898,W,1,07,1.32,171.0,M,-34.4,M,,*5A
$GPRMC,144810.000,A,4308.4867,N,07727.2939,W,41.86,279.32,161023,,,A*43
$GPGGA,144810.250,4308.4872,N,07727.2980,W,1,07,1.32,170.1,M,-34.4,M,,*5F
$GPRMC,144810.500,A,4308.4877,N,07727.3020,W,41.86,279.55,161023,,,A*46
$GPGGA,144810.750,4308.4881,N,07727.3060,W,1,07,1.32,169.8,M,-34.4,M,,*51
$GPRMC,144811.000,A,4308.4886,N,07727.3100,W,42.13,279.53,161023,,,A*46
$GPGGA,144811.250,4308.4891,N,07727.3140,W,1,07,1.32,169.4,M,-34.4,M,,*5B
$GPRMC,144811.500,A,4308.4895,N,07727.3180,W,42.10,279.36,161023,,,A*49
$GPGGA,144811.750,4308.4900,N,07727.3219,W,1,07,1.32,169.2,M,-34.4,M,,*5E
$GPRMC,144812.000,A,4308.4905,N,07727.3259,W,42.01,279.22,161023,,,A*45
$GPGGA,144812.250,4308.4910,N,07727.3299,W,1,07,1.32,169.0,M,-34.4,M,,*53
$GPRMC,144812.500,A,4308.4915,N,07727.3338,W,42.18,279.25,161023,,,A*48
$GPGGA,144812.750,4308.4920,N,07727.3378,W,1,07,1.32,168.8,M,-34.4,M,,*52
$GPRMC,144813.000,A,4308.4924,N,07727.3418,W,42.17,279.27,161023,,,A*46
$GPGGA,144813.250,4308.4929,N,07727.3457,W,1,07,1.32,168.5,M,-34.4,M,,*58
$GPRMC,144813.500,A,4308.4934,N,07727.3497,W,42.28,279.41,161023,,,A*49
$GPGGA,144813.750,4308.4939,N,07727.3537,W,1,07,1.32,168.5,M,-34.4,M,,*5B
$GPRMC,144814.000,A,4308.4943,N,07727.3577,W,42.26,278.77,161023,,,A*4E
$GPGGA,144814.250,4308.4948,N,07727.3616,W,1,07,1.32,168.4,M,-34.4,M,,*5E
$GPRMC,144814.500,A,4308.4953,N,07727.3656,W,42.28,278.99,161023,,,A*44
$GPGGA,144814.750,4308.4957,N,07727.3696,W,1,07,1.32,168.2,M,-34.4,M,,*5B
$GPRMC,144815.000,A,4308.4962,N,07727.3736,W,42.00,279.40,161023,,,A*4A
$GPGGA,144815.250,4308.4967,N,07727.3775,W,1,07,1.31,168.1,M,-34.4,M,,*50
$GPRMC,144815.500,A,4308.4972,N,07727.3815,W,41.79,279.08,161023,,,A*41
$GPGGA,144815.750,4308.4976,N,07727.3854,W,1,07,1.32,167.8,M,-34.4,M,,*5C
$GPRMC,144816.000,A,4308.4981,N,07727.3894,W,41.51,278.99,161023,,,A*41
$GPGGA,144816.250,4308.4986,N,07727.3933,W,1,07,1.32,167.7,M,-34.4,M,,*5A
$GPRMC,144816.500,A,4308.4990,N,07727.3972,W,41.22,279.33,161023,,,A*48
$GPGGA,144816.750,4308.4995,N,07727.4011,W,1,07,1.32,167.6,M,-34.4,M,,*52
$GPRMC,144817.000,A,4308.5000,N,07727.4050,W,41.02,279.53,161023,,,A*47
$GPGGA,144817.250,4308.5004,N,07727.4088,W,1,07,1.32,167.5,M,-34.4,M,,*55
$GPRMC,144817.500,A,4308.5009,N,07727.4126,W,40.67,279.22,161023,,,A*4F
$GPGGA,144817.750,4308.5014,N,07727.4165,W,1,07,1.32,167.5,M,-34.4,M,,*53
$GPRMC,144818.000,A,4308.5018,N,07727.4202,W,40.27,279.01,161023,,,A*45
$GPGGA,144818.250,4308.5023,N,07727.4240,W,1,07,1.32,167.5,M,-34.4,M,,*59
$GPRMC,144818.500,A,4308.5027,N,07727.4278,W,40.02,278.90,161023,,,A*4F
$GPGGA,144818.750,4308.5032,N,07727.4315,W,1,07,1.32,167.4,M,-34.4,M,,*5C
$GPRMC,144819.000,A,4308.5036,N,07727.4352,W,39.47,279.01,161023,,,A*44
$GPGGA,144819.250,4308.5041,N,07727.4389,W,1,07,1.32,167.4,M,-34.4,M,,*59
$GPRMC,144819.500,A,4308.5045,N,07727.4426,W,39.11,278.90,161023,,,A*4B
$GPGGA,144819.750,4308.5049,N,07727.4462,W,1,07,1.32,167.5,M,-34.4,M,,*57
$GPRMC,144820.000,A,4308.5054,N,07727.4499,W,38.59,279.25,161023,,,A*42
$GPGGA,144820.250,4308.5058,N,07727.4535,W,1,07,1.32,167.5,M,-34.4,M,,*5B
$GPRMC,144820.500,A,4308.5063,N,07727.4571,W,38.23,279.30,161023,,,A*4D
$GPGGA,144820.750,4308.5067,N,07727.4606,W,1,07,1.32,167.4,M,-34.4,M,,*50
$GPRMC,144821.000,A,4308.5071,N,07727.4642,W,37.72,279.75,161023,,,A*43
$GPGGA,144821.250,4308.5075,N,07727.4677,W,1,07,1.32,167.5,M,-34.4,M,,*50
$GPRMC,144821.500,A,4308.5079,N,07727.4712,W,37.42,279.44,161023,,,A*4B
$GPGGA,144821.750,4308.5083,N,07727.4747,W,1,07,1.32,167.5,M,-34.4,M,,*5E
$GPRMC,144822.000,A,4308.5088,N,07727.4782,W,37.19,279.88,161023,,,A*44
$GPGGA,144822.250,4308.5092,N,07727.4816,W,1,07,1.32,167.5,M,-34.4,M,,*53
$GPRMC,144822.500,A,4308.5097,N,07727.4851,W,37.06,279.78,161023,,,A*4F
$GPGGA,144822.750,4308.5101,N,07727.4886,W,1,07,1.32,167.5,M,-34.4,M,,*54
$GPRMC,144823.000,A,4308.5105,N,07727.4920,W,37.06,280.51,161023,,,A*4B
$GPGGA,144823.250,4308.5110,N,07727.4955,W,1,07,1.32,167.6,M,-34.4,M,,*5C
$GPRMC,144823.500,A,4308.5114,N,07727.4990,W,37.03,279.88,161023,,,A*42
$GPGGA,144823.750,4308.5119,N,07727.5024,W,1,07,1.32,167.6,M,-34.4,M,,*5E
$GPRMC,144824.000,A,4308.5124,N,07727.5059,W,37.20,280.05,161023,,,A*4C
$GPGGA,144824.250,4308.5128,N,07727.5094,W,1,07,1.32,167.7,M,-34.4,M,,*54
$GPRMC,144824.500,A,4308.5133,N,07727.5129,W,37.27,279.82,161023,,,A*47
$GPGGA,144824.750,4308.5137,N,07727.5163,W,1,07,1.32,167.7,M,-34.4,M,,*56
$GPRMC,144825.000,A,4308.5142,N,07727.5198,W,37.18,279.90,161023,,,A*40
$GPGGA,144825.250,4308.5147,N,07727.5233,W,1,07,1.32,167.6,M,-34.4,M,,*52
$GPRMC,144825.500,A,4308.5151,N,07727.5268,W,37.23,279.62,161023,,,A*4E
$GPGGA,144825.750,4308.5156,N,07727.5303,W,1,07,1.32,167.6,M,-34.4,M,,*55
$GPRMC,144826.000,A,4308.5160,N,07727.5338,W,37.00,279.43,161023,,,A*4C
$GPGGA,144826.250,4308.5164,N,07727.5373,W,1,07,1.32,167.4,M,-34.4,M,,*57
$GPRMC,144826.500,A,4308.5169,N,07727.5407,W,36.52,279.67,161023,,,A*4B
$GPGGA,144826.750,4308.5173,N,07727.5442,W,1,07,1.32,167.3,M,-34.4,M,,*56
$GPRMC,144827.000,A,4308.5177,N,07727.5476,W,36.23,279.72,161023,,,A*44
$GPGGA,144827.250,4308.5182,N,07727.5510,W,1,07,1.32,167.2,M,-34.4,M,,*5B
$GPRMC,144827.500,A,4308.5186,N,07727.5544,W,35.96,279.57,161023,,,A*45
$GPGGA,144827.750,4308.5191,N,07727.5577,W,1,07,1.32,167.1,M,-34.4,M,,*5E
$GPRMC,144828.000,A,4308.5195,N,07727.5611,W,35.45,279.95,161023,,,A*4E
$GPGGA,144828.250,4308.5199,N,07727.5644,W,1,07,1.32,166.9,M,-34.4,M,,*56
$GPRMC,144828.500,A,4308.5204,N,07727.5677,W,35.15,280.19,161023,,,A*47
$GPGGA,144828.750,4308.5208,N,07727.5710,W,1,07,1.32,166.8,M,-34.4,M,,*59
$GPRMC,144829.000,A,4308.5212,N,07727.5743,W,35.00,279.70,161023,,,A*4F
$GPGGA,144829.250,4308.5216,N,07727.5775,W,1,07,1.32,166.6,M,-34.4,M,,*5F
$GPRMC,144829.500,A,4308.5221,N,07727.5808,W,34.54,279.89,161023,,,A*4C
$GPGGA,144829.750,4308.5225,N,07727.5840,W,1,07,1.32,166.4,M,-34.4,M,,*51
$GPRMC,144830.000,A,4308.5229,N,07727.5873,W,34.48,279.29,161023,,,A*42
$GPGGA,144830.250,4308.5232,N,07727.5905,W,1,07,1.32,166.2,M,-34.4,M,,*5C
$GPRMC,144830.500,A,4308.5236,N,07727.5937,W,34.09,279.08,161023,,,A*4E
$GPGGA,144830.750,4308.5240,N,07727.5969,W,1,07,1.32,166.0,M,-34.4,M,,*54
$GPRMC,144831.000,A,4308.5243,N,07727.6001,W,34.05,278.73,161023,,,A*46
$GPGGA,144831.250,4308.5247,N,07727.6033,W,1,07,1.32,165.9,M,-34.4,M,,*58
$GPRMC,144831.500,A,4308.5251,N,07727.6065,W,33.78,279.16,161023,,,A*4D
$GPGGA,144831.750,4308.5254,N,07727.6096,W,1,07,1.32,165.8,M,-34.4,M,,*51
$GPRMC,144832.000,A,4308.5258,N,07727.6127,W,33.18,279.47,161023,,,A*47
$GPGGA,144832.250,4308.5262,N,07727.6158,W,1,07,1.32,165.8,M,-34.4,M,,*51
$GPRMC,144832.500,A,4308.5266,N,07727.6190,W,33.07,279.46,161023,,,A*4C
$GPGGA,144832.750,4308.5269,N,07727.6221,W,1,07,1.32,165.7,M,-34.4,M,,*5D
$GPRMC,144833.000,A,4308.5273,N,07727.6252,W,32.90,279.25,161023,,,A*4B
$GPGGA,144833.250,4308.5276,N,07727.6283,W,1,07,1.32,165.8,M,-34.4,M,,*50
$GPRMC,144833.500,A,4308.5280,N,07727.6314,W,32.55,278.44,161023,,,A*4E
$GPGGA,144833.750,4308.5283,N,07727.6344,W,1,07,1.32,165.8,M,-34.4,M,,*55
$GPRMC,144834.000,A,4308.5286,N,07727.6375,W,32.27,277.94,161023,,,A*4A
$GPGGA,144834.250,4308.5290,N,07727.6405,W,1,07,1.32,165.8,M,-34.4,M,,*57
$GPRMC,144834.500,A,4308.5293,N,07727.6435,W,32.08,278.05,161023,,,A*42
$GPGGA,144834.750,4308.5296,N,07727.6465,W,1,07,1.32,165.7,M,-34.4,M,,*5D
