Vers 81
USE_SERIAL_FEEDBACK=true
DEVELOPMENT_MODE=false
USE_RMC_ONLY=false

$GPRMC,160729.000,A,4308.3075,N,07726.2605,W,0.02,315.16,170923,,,A*70
$GPGGA,160729.250,4308.3076,N,07726.2605,W,1,04,2.66,151.2,M,-34.4,M,,*55
$GPRMC,160729.500,A,4308.3077,N,07726.2606,W,0.03,318.17,170923,,,A*79
$GPGGA,160729.750,4308.3077,N,07726.2607,W,1,04,2.66,151.5,M,-34.4,M,,*54
$GPRMC,160730.000,A,4308.3077,N,07726.2608,W,0.04,189.59,170923,,,A*7D
$GPGGA,160730.250,4308.3078,N,07726.2609,W,1,04,2.66,151.6,M,-34.4,M,,*5B
$GPRMC,160730.500,A,4308.3078,N,07726.2610,W,0.01,223.95,170923,,,A*78
$GPGGA,160730.750,4308.3078,N,07726.2610,W,1,04,2.66,151.6,M,-34.4,M,,*56
$GPRMC,160731.000,A,4308.3079,N,07726.2611,W,0.03,190.17,170923,,,A*7F
$GPGGA,160731.250,4308.3079,N,07726.2611,W,1,04,2.66,151.9,M,-34.4,M,,*5D
$GPRMC,160731.500,A,4308.3080,N,07726.2612,W,0.03,135.18,170923,,,A*7F
$GPGGA,160731.750,4308.3080,N,07726.2613,W,1,04,2.66,152.2,M,-34.4,M,,*54
$GPRMC,160732.000,A,4308.3081,N,07726.2613,W,0.01,92.19,170923,,,A*46
$GPGGA,160732.250,4308.3096,N,07726.2611,W,1,07,1.20,154.1,M,-34.4,M,,*50
$GPRMC,160732.500,A,4308.3103,N,07726.2611,W,0.04,22.84,170923,,,A*40
$GPGGA,160732.750,4308.3109,N,07726.2611,W,1,07,1.19,155.3,M,-34.4,M,,*5B
$GPRMC,160733.000,A,4308.3113,N,07726.2611,W,0.04,298.06,170923,,,A*7C
$GPGGA,160733.250,4308.3116,N,07726.2611,W,1,07,1.19,155.6,M,-34.4,M,,*54
$GPRMC,160733.500,A,4308.3118,N,07726.2611,W,0.06,202.38,170923,,,A*7E
$GPGGA,160733.750,4308.3119,N,07726.2612,W,1,07,1.19,155.4,M,-34.4,M,,*5F
$GPRMC,160734.000,A,4308.3120,N,07726.2612,W,0.03,297.75,170923,,,A*74
$GPGGA,160734.250,4308.3121,N,07726.2613,W,1,07,1.19,155.3,M,-34.4,M,,*50
$GPRMC,160734.500,A,4308.3122,N,07726.2613,W,0.02,277.18,170923,,,A*76
$GPGGA,160734.750,4308.3123,N,07726.2614,W,1,07,1.19,155.4,M,-34.4,M,,*57
$GPRMC,160735.000,A,4308.3124,N,07726.2614,W,0.03,325.81,170923,,,A*74
$GPGGA,160735.250,4308.3124,N,07726.2614,W,1,07,1.20,155.4,M,-34.4,M,,*5E
$GPRMC,160735.500,A,4308.3125,N,07726.2614,W,0.02,123.38,170923,,,A*77
$GPGGA,160735.750,4308.3126,N,07726.2614,W,1,07,1.20,155.4,M,-34.4,M,,*59
$GPRMC,160736.000,A,4308.3127,N,07726.2614,W,0.02,63.88,170923,,,A*4D
$GPGGA,160736.250,4308.3127,N,07726.2614,W,1,07,1.20,155.2,M,-34.4,M,,*58
$GPRMC,160736.500,A,4308.3127,N,07726.2614,W,0.01,293.47,170923,,,A*75
$GPGGA,160736.750,4308.3128,N,07726.2614,W,1,07,1.20,155.1,M,-34.4,M,,*51
$GPRMC,160737.000,A,4308.3128,N,07726.2615,W,0.01,279.88,170923,,,A*78
$GPGGA,160737.250,4308.3129,N,07726.2615,W,1,07,1.20,155.0,M,-34.4,M,,*54
$GPRMC,160737.500,A,4308.3129,N,07726.2615,W,0.03,147.27,170923,,,A*75
$GPGGA,160737.750,4308.3130,N,07726.2615,W,1,07,1.20,155.0,M,-34.4,M,,*59
$GPRMC,160738.000,A,4308.3130,N,07726.2615,W,0.02,327.75,170923,,,A*75
$GPGGA,160738.250,4308.3131,N,07726.2615,W,1,07,1.20,155.0,M,-34.4,M,,*52
$GPRMC,160738.500,A,4308.3131,N,07726.2615,W,0.05,286.57,170923,,,A*7C
$GPGGA,160738.750,4308.3132,N,07726.2615,W,1,07,1.20,154.9,M,-34.4,M,,*5C
$GPRMC,160739.000,A,4308.3133,N,07726.2614,W,0.04,162.26,170923,,,A*75
$GPGGA,160739.250,4308.3133,N,07726.2614,W,1,07,1.20,154.9,M,-34.4,M,,*58
$GPRMC,160739.500,A,4308.3134,N,07726.2614,W,0.03,233.05,170923,,,A*76
$GPGGA,160739.750,4308.3134,N,07726.2614,W,1,07,1.20,155.0,M,-34.4,M,,*52
$GPRMC,160740.000,A,4308.3135,N,07726.2614,W,0.04,9.66,170923,,,A*75
$GPGGA,160740.250,4308.3135,N,07726.2614,W,1,07,1.20,155.1,M,-34.4,M,,*59
$GPRMC,160740.500,A,4308.3136,N,07726.2614,W,0.03,62.57,170923,,,A*4B
$GPGGA,160740.750,4308.3136,N,07726.2614,W,1,07,1.20,155.2,M,-34.4,M,,*5C
$GPRMC,160741.000,A,4308.3137,N,07726.2614,W,0.04,19.00,170923,,,A*47
$GPGGA,160741.250,4308.3137,N,07726.2614,W,1,07,1.20,155.2,M,-34.4,M,,*59
$GPRMC,160741.500,A,4308.3138,N,07726.2613,W,0.02,25.71,170923,,,A*45
$GPGGA,160741.750,4308.3138,N,07726.2613,W,1,07,1.20,155.2,M,-34.4,M,,*54
$GPRMC,160742.000,A,4308.3138,N,07726.2613,W,0.03,346.08,170923,,,A*7A
$GPGGA,160742.250,4308.3139,N,07726.2613,W,1,07,1.20,155.3,M,-34.4,M,,*52
$GPRMC,160742.500,A,4308.3139,N,07726.2613,W,0.05,307.50,170923,,,A*70
$GPGGA,160742.750,4308.3139,N,07726.2613,W,1,07,1.20,155.4,M,-34.4,M,,*50
$GPRMC,160743.000,A,4308.3140,N,07726.2613,W,0.02,243.94,170923,,,A*74
$GPGGA,160743.250,4308.3140,N,07726.2612,W,1,07,1.20,155.4,M,-34.4,M,,*5B
$GPRMC,160743.500,A,4308.3140,N,07726.2612,W,0.03,178.10,170923,,,A*76
$GPGGA,160743.750,4308.3141,N,07726.2612,W,1,07,1.20,155.5,M,-34.4,M,,*5E
$GPRMC,160744.000,A,4308.3141,N,07726.2611,W,0.03,127.70,170923,,,A*7A
$GPGGA,160744.250,4308.3141,N,07726.2610,W,1,07,1.20,155.7,M,-34.4,M,,*5C
$GPRMC,160744.500,A,4308.3141,N,07726.2610,W,0.08,112.79,170923,,,A*7A
$GPGGA,160744.750,4308.3141,N,07726.2609,W,1,07,1.20,155.9,M,-34.4,M,,*5F
$GPRMC,160745.000,A,4308.3141,N,07726.2608,W,0.10,119.93,170923,,,A*71
$GPGGA,160745.250,4308.3141,N,07726.2608,W,1,07,1.20,156.0,M,-34.4,M,,*50
$GPRMC,160745.500,A,4308.3141,N,07726.2608,W,0.02,348.59,170923,,,A*77
$GPGGA,160745.750,4308.3142,N,07726.2608,W,1,07,1.20,156.1,M,-34.4,M,,*57
$GPRMC,160746.000,A,4308.3142,N,07726.2608,W,0.07,349.88,170923,,,A*7A
$GPGGA,160746.250,4308.3142,N,07726.2608,W,1,07,1.20,156.1,M,-34.4,M,,*51
$GPRMC,160746.500,A,4308.3142,N,07726.2608,W,0.06,338.77,170923,,,A*78
$GPGGA,160746.750,4308.3142,N,07726.2608,W,1,07,1.20,156.0,M,-34.4,M,,*55
$GPRMC,160747.000,A,4308.3142,N,07726.2608,W,0.11,327.72,170923,,,A*71
$GPGGA,160747.250,4308.3142,N,07726.2608,W,1,07,1.20,156.0,M,-34.4,M,,*51
$GPRMC,160747.500,A,4308.3142,N,07726.2608,W,0.07,293.44,170923,,,A*78
$GPGGA,160747.750,4308.3142,N,07726.2608,W,1,07,1.20,156.0,M,-34.4,M,,*54
$GPRMC,160748.000,A,4308.3143,N,07726.2608,W,0.14,1.03,170923,,,A*7B
$GPGGA,160748.250,4308.3143,N,07726.2608,W,1,07,1.20,155.9,M,-34.4,M,,*55
$GPRMC,160748.500,A,4308.3143,N,07726.2609,W,0.17,335.39,170923,,,A*71
$GPGGA,160748.750,4308.3143,N,07726.2609,W,1,07,1.20,155.9,M,-34.4,M,,*51
$GPRMC,160749.000,A,4308.3143,N,07726.2609,W,0.14,351.96,170923,,,A*71
$GPGGA,160749.250,4308.3143,N,07726.2609,W,1,07,1.20,155.8,M,-34.4,M,,*54
$GPRMC,160749.500,A,4308.3144,N,07726.2609,W,0.14,352.70,170923,,,A*78
$GPGGA,160749.750,4308.3144,N,07726.2609,W,1,07,1.20,155.7,M,-34.4,M,,*59
$GPRMC,160750.000,A,4308.3143,N,07726.2609,W,0.10,0.05,170923,,,A*70
$GPGGA,160750.250,4308.3143,N,07726.2610,W,1,07,1.20,155.6,M,-34.4,M,,*5A
$GPRMC,160750.500,A,4308.3143,N,07726.2610,W,0.10,329.75,170923,,,A*72
$GPGGA,160750.750,4308.3143,N,07726.2610,W,1,07,1.20,155.6,M,-34.4,M,,*5F
$GPRMC,160751.000,A,4308.3143,N,07726.2609,W,0.14,41.81,170923,,,A*4C
$GPGGA,160751.250,4308.3143,N,07726.2609,W,1,07,1.20,155.5,M,-34.4,M,,*50
$GPRMC,160751.500,A,4308.3143,N,07726.2609,W,0.18,51.15,170923,,,A*49
$GPGGA,160751.750,4308.3143,N,07726.2609,W,1,07,1.20,155.5,M,-34.4,M,,*55
$GPRMC,160752.000,A,4308.3143,N,07726.2610,W,0.17,53.44,170923,,,A*4E
$GPGGA,160752.250,4308.3143,N,07726.2610,W,1,07,1.20,155.4,M,-34.4,M,,*5A
$GPRMC,160752.500,A,4308.3143,N,07726.2610,W,0.11,61.71,170923,,,A*4A
$GPGGA,160752.750,4308.3143,N,07726.2610,W,1,07,1.20,155.3,M,-34.4,M,,*58
$GPRMC,160753.000,A,4308.3143,N,07726.2610,W,0.11,54.02,170923,,,A*4C
$GPGGA,160753.250,4308.3142,N,07726.2610,W,1,07,1.20,155.3,M,-34.4,M,,*5D
$GPRMC,160753.500,A,4308.3142,N,07726.2611,W,0.09,36.43,170923,,,A*41
$GPGGA,160753.750,4308.3142,N,07726.2611,W,1,07,1.20,155.3,M,-34.4,M,,*59
$GPRMC,160754.000,A,4308.3142,N,07726.2611,W,0.12,28.33,170923,,,A*41
$GPGGA,160754.250,4308.3142,N,07726.2611,W,1,07,1.20,155.2,M,-34.4,M,,*5A
$GPRMC,160754.500,A,4308.3141,N,07726.2611,W,0.10,21.56,170923,,,A*4F
$GPGGA,160754.750,4308.3141,N,07726.2612,W,1,07,1.20,155.1,M,-34.4,M,,*5C
$GPRMC,160755.000,A,4308.3140,N,07726.2612,W,0.08,134.04,170923,,,A*72
$GPGGA,160755.250,4308.3139,N,07726.2612,W,1,07,1.20,155.1,M,-34.4,M,,*57
$GPRMC,160755.500,A,4308.3139,N,07726.2612,W,0.12,150.23,170923,,,A*75
$GPGGA,160755.750,4308.3139,N,07726.2612,W,1,07,1.20,155.0,M,-34.4,M,,*53
$GPRMC,160756.000,A,4308.3139,N,07726.2612,W,0.09,79.36,170923,,,A*47
$GPGGA,160756.250,4308.3138,N,07726.2613,W,1,07,1.20,155.0,M,-34.4,M,,*55
$GPRMC,160756.500,A,4308.3138,N,07726.2614,W,0.03,147.11,170923,,,A*76
$GPGGA,160756.750,4308.3137,N,07726.2614,W,1,07,1.20,154.9,M,-34.4,M,,*50
$GPRMC,160757.000,A,4308.3137,N,07726.2615,W,0.09,218.68,170923,,,A*71
$GPGGA,160757.250,4308.3137,N,07726.2615,W,1,07,1.20,154.9,M,-34.4,M,,*55
$GPRMC,160757.500,A,4308.3137,N,07726.2615,W,0.04,216.03,170923,,,A*7A
$GPGGA,160757.750,4308.3136,N,07726.2616,W,1,07,1.20,154.8,M,-34.4,M,,*53
$GPRMC,160758.000,A,4308.3136,N,07726.2616,W,0.04,309.49,170923,,,A*73
$GPGGA,160758.250,4308.3136,N,07726.2616,W,1,07,1.20,154.8,M,-34.4,M,,*59
$GPRMC,160758.500,A,4308.3136,N,07726.2617,W,0.06,264.31,170923,,,A*70
$GPGGA,160758.750,4308.3135,N,07726.2618,W,1,07,1.20,154.8,M,-34.4,M,,*51
$GPRMC,160759.000,A,4308.3135,N,07726.2618,W,0.12,252.06,170923,,,A*7C
$GPGGA,160759.250,4308.3135,N,07726.2619,W,1,07,1.20,154.8,M,-34.4,M,,*54
$GPRMC,160759.500,A,4308.3134,N,07726.2619,W,0.08,240.37,170923,,,A*73
$GPGGA,160759.750,4308.3134,N,07726.2619,W,1,07,1.20,154.8,M,-34.4,M,,*50
$GPRMC,160800.000,A,4308.3134,N,07726.2619,W,0.13,218.49,170923,,,A*7B
$GPGGA,160800.250,4308.3134,N,07726.2619,W,1,07,1.20,154.8,M,-34.4,M,,*56
$GPRMC,160800.500,A,4308.3134,N,07726.2619,W,0.05,208.22,170923,,,A*75
$GPGGA,160800.750,4308.3134,N,07726.2619,W,1,07,1.20,154.8,M,-34.4,M,,*53
$GPRMC,160801.000,A,4308.3134,N,07726.2619,W,0.08,217.53,170923,,,A*74
$GPGGA,160801.250,4308.3134,N,07726.2619,W,1,07,1.20,154.8,M,-34.4,M,,*57
$GPRMC,160801.500,A,4308.3134,N,07726.2619,W,0.01,246.66,170923,,,A*7A
$GPGGA,160801.750,4308.3134,N,07726.2619,W,1,07,1.20,154.8,M,-34.4,M,,*52
$GPRMC,160802.000,A,4308.3134,N,07726.2620,W,0.11,346.73,170923,,,A*72
$GPGGA,160802.250,4308.3134,N,07726.2620,W,1,07,1.20,154.8,M,-34.4,M,,*5E
$GPRMC,160802.500,A,4308.3134,N,07726.2620,W,0.10,351.62,170923,,,A*70
$GPGGA,160802.750,4308.3134,N,07726.2620,W,1,07,1.20,154.8,M,-34.4,M,,*5B
$GPRMC,160803.000,A,4308.3134,N,07726.2620,W,0.11,17.23,170923,,,A*41
$GPGGA,160803.250,4308.3134,N,07726.2620,W,1,07,1.20,154.8,M,-34.4,M,,*5F
$GPRMC,160803.500,A,4308.3134,N,07726.2620,W,0.08,327.59,170923,,,A*71
$GPGGA,160803.750,4308.3134,N,07726.2620,W,1,07,1.20,154.8,M,-34.4,M,,*5A
$GPRMC,160804.000,A,4308.3134,N,07726.2620,W,0.11,258.42,170923,,,A*78
$GPGGA,160804.250,4308.3134,N,07726.2620,W,1,07,1.20,154.8,M,-34.4,M,,*58
$GPRMC,160804.500,A,4308.3134,N,07726.2620,W,0.03,191.73,170923,,,A*7A
$GPGGA,160804.750,4308.3134,N,07726.2620,W,1,07,1.20,154.8,M,-34.4,M,,*5D
$GPRMC,160805.000,A,4308.3134,N,07726.2620,W,0.14,82.03,170923,,,A*4C
$GPGGA,160805.250,4308.3134,N,07726.2620,W,1,07,1.20,154.8,M,-34.4,M,,*59
$GPRMC,160805.500,A,4308.3134,N,07726.2620,W,0.40,11.35,170923,,,A*47
$GPGGA,160805.750,4308.3135,N,07726.2619,W,1,07,1.20,154.8,M,-34.4,M,,*57
$GPRMC,160806.000,A,4308.3137,N,07726.2619,W,1.00,1.76,170923,,,A*7B
$GPGGA,160806.250,4308.3139,N,07726.2620,W,1,07,1.20,154.8,M,-34.4,M,,*57
$GPRMC,160806.500,A,4308.3141,N,07726.2620,W,1.48,359.00,170923,,,A*76
$GPGGA,160806.750,4308.3143,N,07726.2620,W,1,07,1.20,154.8,M,-34.4,M,,*5F
$GPRMC,160807.000,A,4308.3145,N,07726.2620,W,2.56,7.66,170923,,,A*72
$GPGGA,160807.250,4308.3147,N,07726.2620,W,1,07,1.20,154.8,M,-34.4,M,,*5F
$GPRMC,160807.500,A,4308.3149,N,07726.2619,W,3.16,10.69,170923,,,A*4D
$GPGGA,160807.750,4308.3151,N,07726.2619,W,1,07,1.20,154.8,M,-34.4,M,,*57
$GPRMC,160808.000,A,4308.3153,N,07726.2619,W,2.99,0.73,170923,,,A*70
$GPGGA,160808.250,4308.3155,N,07726.2619,W,1,07,1.20,154.8,M,-34.4,M,,*59
$GPRMC,160808.500,A,4308.3157,N,07726.2619,W,2.62,5.38,170923,,,A*7F
$GPGGA,160808.750,4308.3157,N,07726.2618,W,1,07,1.20,154.9,M,-34.4,M,,*5E
$GPRMC,160809.000,A,4308.3159,N,07726.2617,W,2.43,359.02,170923,,,A*7B
$GPGGA,160809.250,4308.3160,N,07726.2617,W,1,07,1.20,155.1,M,-34.4,M,,*58
$GPRMC,160809.500,A,4308.3162,N,07726.2617,W,3.18,350.40,170923,,,A*76
$GPGGA,160809.750,4308.3164,N,07726.2617,W,1,07,1.20,155.3,M,-34.4,M,,*5B
$GPRMC,160810.000,A,4308.3166,N,07726.2617,W,3.37,338.93,170923,,,A*72
$GPGGA,160810.250,4308.3168,N,07726.2619,W,1,07,1.20,155.4,M,-34.4,M,,*53
$GPRMC,160810.500,A,4308.3170,N,07726.2620,W,3.49,331.26,170923,,,A*7A
$GPGGA,160810.750,4308.3171,N,07726.2621,W,1,07,1.20,155.4,M,-34.4,M,,*55
$GPRMC,160811.000,A,4308.3173,N,07726.2623,W,3.30,324.60,170923,,,A*76
$GPGGA,160811.250,4308.3175,N,07726.2625,W,1,07,1.20,155.5,M,-34.4,M,,*50
$GPRMC,160811.500,A,4308.3176,N,07726.2627,W,3.41,316.95,170923,,,A*7F
$GPGGA,160811.750,4308.3178,N,07726.2629,W,1,07,1.20,155.6,M,-34.4,M,,*57
$GPRMC,160812.000,A,4308.3178,N,07726.2631,W,3.02,308.74,170923,,,A*77
$GPGGA,160812.250,4308.3179,N,07726.2633,W,1,07,1.20,155.6,M,-34.4,M,,*5B
$GPRMC,160812.500,A,4308.3180,N,07726.2635,W,2.72,298.45,170923,,,A*7D
$GPGGA,160812.750,4308.3180,N,07726.2637,W,1,07,1.20,155.6,M,-34.4,M,,*5C
$GPRMC,160813.000,A,4308.3181,N,07726.2638,W,2.11,301.75,170923,,,A*72
$GPGGA,160813.250,4308.3182,N,07726.2639,W,1,07,1.20,155.7,M,-34.4,M,,*55
$GPRMC,160813.500,A,4308.3182,N,07726.2639,W,1.02,325.74,170923,,,A*73
$GPGGA,160813.750,4308.3182,N,07726.2639,W,1,07,1.20,155.7,M,-34.4,M,,*50
$GPRMC,160814.000,A,4308.3182,N,07726.2637,W,0.37,41.67,170923,,,A*4B
$GPGGA,160814.250,4308.3181,N,07726.2634,W,1,07,1.20,155.7,M,-34.4,M,,*5C
$GPRMC,160814.500,A,4308.3182,N,07726.2630,W,1.63,86.05,170923,,,A*46
$GPGGA,160814.750,4308.3181,N,07726.2624,W,1,07,1.20,155.7,M,-34.4,M,,*58
$GPRMC,160815.000,A,4308.3181,N,07726.2617,W,4.90,94.24,170923,,,A*4D
$GPGGA,160815.250,4308.3180,N,07726.2612,W,1,07,1.20,155.7,M,-34.4,M,,*58
$GPRMC,160815.500,A,4308.3179,N,07726.2605,W,7.08,96.33,170923,,,A*4A
$GPGGA,160815.750,4308.3179,N,07726.2596,W,1,07,1.20,155.7,M,-34.4,M,,*54
$GPRMC,160816.000,A,4308.3178,N,07726.2588,W,8.91,92.80,170923,,,A*48
$GPGGA,160816.250,4308.3178,N,07726.2579,W,1,07,1.20,155.8,M,-34.4,M,,*5D
$GPRMC,160816.500,A,4308.3178,N,07726.2569,W,10.29,90.75,170923,,,A*70
$GPGGA,160816.750,4308.3178,N,07726.2557,W,1,07,1.20,155.7,M,-34.4,M,,*5B
$GPRMC,160817.000,A,4308.3177,N,07726.2546,W,12.32,90.93,170923,,,A*76
$GPGGA,160817.250,4308.3177,N,07726.2533,W,1,07,1.20,155.7,M,-34.4,M,,*52
$GPRMC,160817.500,A,4308.3176,N,07726.2520,W,13.85,91.97,170923,,,A*7A
$GPGGA,160817.750,4308.3174,N,07726.2506,W,1,07,1.20,155.6,M,-34.4,M,,*53
$GPRMC,160818.000,A,4308.3173,N,07726.2492,W,15.17,94.21,170923,,,A*78
$GPGGA,160818.250,4308.3172,N,07726.2477,W,1,07,1.20,155.6,M,-34.4,M,,*58
$GPRMC,160818.500,A,4308.3171,N,07726.2462,W,16.20,93.77,170923,,,A*73
$GPGGA,160818.750,4308.3171,N,07726.2446,W,1,07,1.20,155.5,M,-34.4,M,,*5F
$GPRMC,160819.000,A,4308.3170,N,07726.2430,W,17.32,92.84,170923,,,A*7E
$GPGGA,160819.250,4308.3169,N,07726.2413,W,1,07,1.20,155.5,M,-34.4,M,,*52
$GPRMC,160819.500,A,4308.3169,N,07726.2396,W,18.21,91.96,170923,,,A*75
$GPGGA,160819.750,4308.3169,N,07726.2378,W,1,07,1.20,155.4,M,-34.4,M,,*5C
$GPRMC,160820.000,A,4308.3170,N,07726.2360,W,19.11,90.42,170923,,,A*71
$GPGGA,160820.250,4308.3170,N,07726.2342,W,1,07,1.20,155.4,M,-34.4,M,,*52
$GPRMC,160820.500,A,4308.3171,N,07726.2323,W,19.87,89.27,170923,,,A*76
$GPGGA,160820.750,4308.3171,N,07726.2304,W,1,07,1.20,155.3,M,-34.4,M,,*53
$GPRMC,160821.000,A,4308.3171,N,07726.2285,W,20.55,88.47,170923,,,A*7D
$GPGGA,160821.250,4308.3171,N,07726.2266,W,1,07,1.20,155.3,M,-34.4,M,,*52
$GPRMC,160821.500,A,4308.3171,N,07726.2246,W,21.07,88.70,170923,,,A*75
$GPGGA,160821.750,4308.3171,N,07726.2225,W,1,07,1.20,155.3,M,-34.4,M,,*50
$GPRMC,160822.000,A,4308.3170,N,07726.2205,W,21.69,89.46,170923,,,A*79
$GPGGA,160822.250,4308.3170,N,07726.2184,W,1,07,1.20,155.2,M,-34.4,M,,*5E
$GPRMC,160822.500,A,4308.3170,N,07726.2163,W,22.36,89.63,170923,,,A*71
$GPGGA,160822.750,4308.3169,N,07726.2142,W,1,07,1.20,155.1,M,-34.4,M,,*5A
$GPRMC,160823.000,A,4308.3169,N,07726.2120,W,22.87,89.67,170923,,,A*74
$GPGGA,160823.250,4308.3169,N,07726.2098,W,1,07,1.20,155.0,M,-34.4,M,,*59
$GPRMC,160823.500,A,4308.3169,N,07726.2077,W,23.14,89.80,170923,,,A*70
$GPGGA,160823.750,4308.3169,N,07726.2055,W,1,07,1.20,155.0,M,-34.4,M,,*5D
$GPRMC,160824.000,A,4308.3169,N,07726.2033,W,23.44,89.94,170923,,,A*72
$GPGGA,160824.250,4308.3168,N,07726.2011,W,1,07,1.20,155.0,M,-34.4,M,,*5E
$GPRMC,160824.500,A,4308.3169,N,07726.1989,W,23.39,89.45,170923,,,A*7A
$GPGGA,160824.750,4308.3169,N,07726.1967,W,1,07,1.20,154.9,M,-34.4,M,,*59
$GPRMC,160825.000,A,4308.3170,N,07726.1945,W,23.18,89.11,170923,,,A*74
$GPGGA,160825.250,4308.3170,N,07726.1923,W,1,07,1.20,154.8,M,-34.4,M,,*54
$GPRMC,160825.500,A,4308.3170,N,07726.1901,W,22.75,89.20,170923,,,A*79
$GPGGA,160825.750,4308.3170,N,07726.1880,W,1,07,1.20,154.8,M,-34.4,M,,*59
$GPRMC,160826.000,A,4308.3169,N,07726.1859,W,22.15,89.96,170923,,,A*70
$GPGGA,160826.250,4308.3169,N,07726.1839,W,1,07,1.20,154.7,M,-34.4,M,,*5A
$GPRMC,160826.500,A,4308.3168,N,07726.1819,W,21.51,90.58,170923,,,A*79
$GPGGA,160826.750,4308.3168,N,07726.1799,W,1,07,1.20,154.6,M,-34.4,M,,*5A
$GPRMC,160827.000,A,4308.3167,N,07726.1779,W,21.14,90.72,170923,,,A*72
$GPGGA,160827.250,4308.3167,N,07726.1760,W,1,07,1.20,154.6,M,-34.4,M,,*57
$GPRMC,160827.500,A,4308.3166,N,07726.1741,W,20.60,90.55,170923,,,A*7A
$GPGGA,160827.750,4308.3166,N,07726.1721,W,1,07,1.20,154.5,M,-34.4,M,,*55
$GPRMC,160828.000,A,4308.3165,N,07726.1702,W,20.22,90.49,170923,,,A*7F
$GPGGA,160828.250,4308.3165,N,07726.1684,W,1,07,1.20,154.5,M,-34.4,M,,*52
$GPRMC,160828.500,A,4308.3165,N,07726.1665,W,19.99,90.53,170923,,,A*7B
$GPGGA,160828.750,4308.3164,N,07726.1647,W,1,07,1.20,154.5,M,-34.4,M,,*59
$GPRMC,160829.000,A,4308.3164,N,07726.1628,W,19.72,90.59,170923,,,A*78
$GPGGA,160829.250,4308.3164,N,07726.1610,W,1,07,1.20,154.4,M,-34.4,M,,*5E
$GPRMC,160829.500,A,4308.3164,N,07726.1592,W,19.41,90.37,170923,,,A*77
$GPGGA,160829.750,4308.3164,N,07726.1574,W,1,07,1.20,154.4,M,-34.4,M,,*5A
$GPRMC,160830.000,A,4308.3165,N,07726.1556,W,19.23,88.91,170923,,,A*72
$GPGGA,160830.250,4308.3165,N,07726.1539,W,1,07,1.20,154.5,M,-34.4,M,,*5E
$GPRMC,160830.500,A,4308.3168,N,07726.1521,W,18.89,86.78,170923,,,A*72
$GPGGA,160830.750,4308.3171,N,07726.1504,W,1,07,1.20,154.6,M,-34.4,M,,*53
$GPRMC,160831.000,A,4308.3174,N,07726.1487,W,18.53,82.05,170923,,,A*7F
$GPGGA,160831.250,4308.3176,N,07726.1470,W,1,07,1.20,154.7,M,-34.4,M,,*53
$GPRMC,160831.500,A,4308.3180,N,07726.1453,W,18.44,78.76,170923,,,A*7F
$GPGGA,160831.750,4308.3183,N,07726.1437,W,1,07,1.20,154.6,M,-34.4,M,,*5E
$GPRMC,160832.000,A,4308.3186,N,07726.1419,W,18.81,75.99,170923,,,A*74
$GPGGA,160832.250,4308.3189,N,07726.1402,W,1,07,1.20,154.6,M,-34.4,M,,*54
$GPRMC,160832.500,A,4308.3193,N,07726.1385,W,18.83,73.94,170923,,,A*7E
$GPGGA,160832.750,4308.3198,N,07726.1369,W,1,07,1.21,154.7,M,-34.4,M,,*5B
$GPRMC,160833.000,A,4308.3202,N,07726.1352,W,18.84,71.06,170923,,,A*75
$GPGGA,160833.250,4308.3207,N,07726.1336,W,1,07,1.20,154.7,M,-34.4,M,,*51
$GPRMC,160833.500,A,4308.3211,N,07726.1319,W,18.87,69.28,170923,,,A*7B
$GPGGA,160833.750,4308.3218,N,07726.1304,W,1,07,1.20,154.8,M,-34.4,M,,*54
$GPRMC,160834.000,A,4308.3224,N,07726.1289,W,18.90,64.48,170923,,,A*7A
$GPGGA,160834.250,4308.3231,N,07726.1273,W,1,07,1.20,154.9,M,-34.4,M,,*5D
$GPRMC,160834.500,A,4308.3238,N,07726.1258,W,18.87,61.55,170923,,,A*71
$GPGGA,160834.750,4308.3247,N,07726.1245,W,1,07,1.20,154.8,M,-34.4,M,,*5D
$GPRMC,160835.000,A,4308.3260,N,07726.1234,W,18.76,51.98,170923,,,A*7E
$GPGGA,160835.250,4308.3271,N,07726.1222,W,1,07,1.20,154.9,M,-34.4,M,,*5C
$GPRMC,160835.500,A,4308.3282,N,07726.1209,W,19.20,46.57,170923,,,A*7E
$GPGGA,160835.750,4308.3295,N,07726.1199,W,1,07,1.20,154.9,M,-34.4,M,,*50
$GPRMC,160836.000,A,4308.3307,N,07726.1188,W,19.60,40.17,170923,,,A*78
$GPGGA,160836.250,4308.3318,N,07726.1177,W,1,07,1.20,154.9,M,-34.4,M,,*52
$GPRMC,160836.500,A,4308.3329,N,07726.1168,W,19.54,36.43,170923,,,A*78
$GPGGA,160836.750,4308.3340,N,07726.1158,W,1,07,1.21,154.8,M,-34.4,M,,*57
$GPRMC,160837.000,A,4308.3351,N,07726.1149,W,19.04,34.19,170923,,,A*78
$GPGGA,160837.250,4308.3363,N,07726.1140,W,1,07,1.20,154.8,M,-34.4,M,,*5A
$GPRMC,160837.500,A,4308.3376,N,07726.1133,W,19.18,28.60,170923,,,A*7B
$GPGGA,160837.750,4308.3389,N,07726.1129,W,1,07,1.20,154.8,M,-34.4,M,,*54
$GPRMC,160838.000,A,4308.3402,N,07726.1125,W,18.63,19.56,170923,,,A*78
$GPGGA,160838.250,4308.3415,N,07726.1121,W,1,07,1.20,154.9,M,-34.4,M,,*55
$GPRMC,160838.500,A,4308.3428,N,07726.1118,W,18.57,13.95,170923,,,A*79
$GPGGA,160838.750,4308.3443,N,07726.1116,W,1,07,1.21,154.8,M,-34.4,M,,*57
$GPRMC,160839.000,A,4308.3457,N,07726.1114,W,19.36,7.46,170923,,,A*44
$GPGGA,160839.250,4308.3471,N,07726.1112,W,1,07,1.20,154.8,M,-34.4,M,,*57
$GPRMC,160839.500,A,4308.3485,N,07726.1112,W,19.71,3.89,170923,,,A*4C
$GPGGA,160839.750,4308.3501,N,07726.1112,W,1,07,1.21,154.8,M,-34.4,M,,*55
$GPRMC,160840.000,A,4308.3517,N,07726.1113,W,20.91,0.72,170923,,,A*4F
$GPGGA,160840.250,4308.3532,N,07726.1113,W,1,07,1.21,154.9,M,-34.4,M,,*5E
$GPRMC,160840.500,A,4308.3547,N,07726.1114,W,21.26,359.62,170923,,,A*4B
$GPGGA,160840.750,4308.3563,N,07726.1115,W,1,07,1.21,154.8,M,-34.4,M,,*58
$GPRMC,160841.000,A,4308.3580,N,07726.1116,W,21.78,358.27,170923,,,A*4D
$GPGGA,160841.250,4308.3596,N,07726.1117,W,1,07,1.21,154.8,M,-34.4,M,,*54
$GPRMC,160841.500,A,4308.3612,N,07726.1118,W,22.18,359.24,170923,,,A*49
$GPGGA,160841.750,4308.3628,N,07726.1119,W,1,07,1.21,154.7,M,-34.4,M,,*56
$GPRMC,160842.000,A,4308.3644,N,07726.1120,W,22.32,359.38,170923,,,A*42
$GPGGA,160842.250,4308.3660,N,07726.1120,W,1,07,1.21,154.8,M,-34.4,M,,*59
$GPRMC,160842.500,A,4308.3677,N,07726.1121,W,22.59,359.47,170923,,,A*43
$GPGGA,160842.750,4308.3693,N,07726.1122,W,1,07,1.21,154.8,M,-34.4,M,,*52
$GPRMC,160843.000,A,4308.3709,N,07726.1122,W,22.81,359.20,170923,,,A*48
$GPGGA,160843.250,4308.3725,N,07726.1123,W,1,07,1.21,154.9,M,-34.4,M,,*5A
$GPRMC,160843.500,A,4308.3741,N,07726.1123,W,22.90,359.19,170923,,,A*4A
$GPGGA,160843.750,4308.3758,N,07726.1124,W,1,07,1.21,154.9,M,-34.4,M,,*52
$GPRMC,160844.000,A,4308.3775,N,07726.1124,W,23.15,359.66,170923,,,A*4C
$GPGGA,160844.250,4308.3791,N,07726.1125,W,1,07,1.21,154.9,M,-34.4,M,,*54
$GPRMC,160844.500,A,4308.3809,N,07726.1125,W,23.44,359.81,170923,,,A*41
$GPGGA,160844.750,4308.3826,N,07726.1126,W,1,07,1.21,154.9,M,-34.4,M,,*51
$GPRMC,160845.000,A,4308.3844,N,07726.1126,W,23.82,359.83,170923,,,A*47
$GPGGA,160845.250,4308.3861,N,07726.1126,W,1,07,1.21,154.9,M,-34.4,M,,*56
$GPRMC,160845.500,A,4308.3879,N,07726.1127,W,23.94,359.87,170923,,,A*4E
$GPGGA,160845.750,4308.3896,N,07726.1127,W,1,07,1.21,154.9,M,-34.4,M,,*5A
$GPRMC,160846.000,A,4308.3913,N,07726.1127,W,24.08,0.17,170923,,,A*41
$GPGGA,160846.250,4308.3930,N,07726.1127,W,1,07,1.21,154.9,M,-34.4,M,,*51
$GPRMC,160846.500,A,4308.3947,N,07726.1127,W,24.19,0.69,170923,,,A*4C
$GPGGA,160846.750,4308.3963,N,07726.1127,W,1,07,1.21,155.0,M,-34.4,M,,*5A
$GPRMC,160847.000,A,4308.3979,N,07726.1127,W,23.91,0.75,170923,,,A*4F
$GPGGA,160847.250,4308.3995,N,07726.1127,W,1,07,1.21,155.1,M,-34.4,M,,*56
$GPRMC,160847.500,A,4308.4010,N,07726.1128,W,23.47,359.95,170923,,,A*4E
$GPGGA,160847.750,4308.4025,N,07726.1129,W,1,07,1.21,155.3,M,-34.4,M,,*5A
$GPRMC,160848.000,A,4308.4039,N,07726.1130,W,22.74,359.81,170923,,,A*42
$GPGGA,160848.250,4308.4054,N,07726.1131,W,1,07,1.21,155.5,M,-34.4,M,,*59
$GPRMC,160848.500,A,4308.4068,N,07726.1131,W,22.17,0.21,170923,,,A*42
$GPGGA,160848.750,4308.4082,N,07726.1132,W,1,07,1.21,155.7,M,-34.4,M,,*56
$GPRMC,160849.000,A,4308.4094,N,07726.1132,W,21.09,0.23,170923,,,A*48
$GPGGA,160849.250,4308.4109,N,07726.1132,W,1,07,1.21,155.9,M,-34.4,M,,*5E
$GPRMC,160849.500,A,4308.4123,N,07726.1132,W,21.01,0.25,170923,,,A*4E
$GPGGA,160849.750,4308.4137,N,07726.1132,W,1,07,1.21,156.1,M,-34.4,M,,*5D
$GPRMC,160850.000,A,4308.4151,N,07726.1132,W,20.50,1.12,170923,,,A*46
$GPGGA,160850.250,4308.4165,N,07726.1131,W,1,07,1.21,156.4,M,-34.4,M,,*51
$GPRMC,160850.500,A,4308.4179,N,07726.1131,W,20.16,1.76,170923,,,A*4A
$GPGGA,160850.750,4308.4192,N,07726.1130,W,1,07,1.21,156.8,M,-34.4,M,,*51
$GPRMC,160851.000,A,4308.4206,N,07726.1129,W,19.68,2.85,170923,,,A*40
$GPGGA,160851.250,4308.4220,N,07726.1128,W,1,07,1.21,157.0,M,-34.4,M,,*5F
$GPRMC,160851.500,A,4308.4233,N,07726.1126,W,19.26,3.74,170923,,,A*49
$GPGGA,160851.750,4308.4245,N,07726.1124,W,1,07,1.21,157.1,M,-34.4,M,,*54
$GPRMC,160852.000,A,4308.4256,N,07726.1123,W,18.35,5.24,170923,,,A*49
$GPGGA,160852.250,4308.4267,N,07726.1122,W,1,07,1.21,157.1,M,-34.4,M,,*54
$GPRMC,160852.500,A,4308.4273,N,07726.1120,W,16.37,6.98,170923,,,A*40
$GPGGA,160852.750,4308.4279,N,07726.1118,W,1,07,1.21,157.7,M,-34.4,M,,*51
$GPRMC,160853.000,A,4308.4286,N,07726.1116,W,14.07,8.46,170923,,,A*47
$GPGGA,160853.250,4308.4292,N,07726.1114,W,1,07,1.21,158.2,M,-34.4,M,,*56
$GPRMC,160853.500,A,4308.4297,N,07726.1113,W,11.83,9.78,170923,,,A*42
$GPGGA,160853.750,4308.4303,N,07726.1112,W,1,07,1.21,158.5,M,-34.4,M,,*5B
$GPRMC,160854.000,A,4308.4308,N,07726.1111,W,10.35,9.80,170923,,,A*4E
$GPGGA,160854.250,4308.4315,N,07726.1109,W,1,07,1.21,158.6,M,-34.4,M,,*57
$GPRMC,160854.500,A,4308.4322,N,07726.1107,W,10.26,9.71,170923,,,A*48
$GPGGA,160854.750,4308.4328,N,07726.1106,W,1,07,1.21,158.6,M,-34.4,M,,*53
$GPRMC,160855.000,A,4308.4334,N,07726.1104,W,9.86,12.08,170923,,,A*4E
$GPGGA,160855.250,4308.4339,N,07726.1101,W,1,07,1.21,158.6,M,-34.4,M,,*50
$GPRMC,160855.500,A,4308.4345,N,07726.1098,W,9.66,18.54,170923,,,A*44
$GPGGA,160855.750,4308.4351,N,07726.1094,W,1,07,1.21,158.6,M,-34.4,M,,*56
$GPRMC,160856.000,A,4308.4357,N,07726.1089,W,10.19,26.62,170923,,,A*79
$GPGGA,160856.250,4308.4363,N,07726.1082,W,1,07,1.20,158.8,M,-34.4,M,,*59
$GPRMC,160856.500,A,4308.4368,N,07726.1074,W,10.70,38.37,170923,,,A*72
$GPGGA,160856.750,4308.4373,N,07726.1063,W,1,07,1.21,159.5,M,-34.4,M,,*5F
$GPRMC,160857.000,A,4308.4378,N,07726.1053,W,11.58,52.19,170923,,,A*79
$GPGGA,160857.250,4308.4382,N,07726.1043,W,1,07,1.20,159.9,M,-34.4,M,,*5A
$GPRMC,160857.500,A,4308.4386,N,07726.1031,W,12.27,60.34,170923,,,A*7C
$GPGGA,160857.750,4308.4389,N,07726.1020,W,1,07,1.21,160.1,M,-34.4,M,,*52
$GPRMC,160858.000,A,4308.4392,N,07726.1008,W,13.37,65.15,170923,,,A*7F
$GPGGA,160858.250,4308.4395,N,07726.0996,W,1,07,1.20,160.2,M,-34.4,M,,*52
$GPRMC,160858.500,A,4308.4398,N,07726.0982,W,14.41,69.49,170923,,,A*79
$GPGGA,160858.750,4308.4400,N,07726.0968,W,1,07,1.21,160.3,M,-34.4,M,,*5D
$GPRMC,160859.000,A,4308.4403,N,07726.0952,W,16.05,73.01,170923,,,A*70
$GPGGA,160859.250,4308.4405,N,07726.0937,W,1,07,1.21,160.4,M,-34.4,M,,*51
$GPRMC,160859.500,A,4308.4408,N,07726.0920,W,17.29,74.61,170923,,,A*75
$GPGGA,160859.750,4308.4412,N,07726.0903,W,1,07,1.21,160.5,M,-34.4,M,,*54
$GPRMC,160900.000,A,4308.4415,N,07726.0885,W,18.37,74.85,170923,,,A*75
$GPGGA,160900.250,4308.4418,N,07726.0868,W,1,07,1.21,160.6,M,-34.4,M,,*59
$GPRMC,160900.500,A,4308.4421,N,07726.0850,W,18.95,75.98,170923,,,A*7A
$GPGGA,160900.750,4308.4424,N,07726.0831,W,1,07,1.21,160.8,M,-34.4,M,,*51
$GPRMC,160901.000,A,4308.4427,N,07726.0813,W,19.71,76.52,170923,,,A*71
$GPGGA,160901.250,4308.4430,N,07726.0793,W,1,07,1.21,161.0,M,-34.4,M,,*5E
$GPRMC,160901.500,A,4308.4432,N,07726.0774,W,20.48,76.46,170923,,,A*7B
$GPGGA,160901.750,4308.4435,N,07726.0754,W,1,07,1.21,161.1,M,-34.4,M,,*54
$GPRMC,160902.000,A,4308.4437,N,07726.0734,W,21.20,76.55,170923,,,A*71
$GPGGA,160902.250,4308.4439,N,07726.0715,W,1,07,1.21,161.0,M,-34.4,M,,*5A
$GPRMC,160902.500,A,4308.4442,N,07726.0694,W,21.73,77.09,170923,,,A*73
$GPGGA,160902.750,4308.4444,N,07726.0674,W,1,07,1.21,160.9,M,-34.4,M,,*5B
$GPRMC,160903.000,A,4308.4447,N,07726.0653,W,22.28,76.53,170923,,,A*7A
$GPGGA,160903.250,4308.4451,N,07726.0632,W,1,07,1.21,161.0,M,-34.4,M,,*51
$GPRMC,160903.500,A,4308.4455,N,07726.0611,W,22.73,75.67,170923,,,A*70
$GPGGA,160903.750,4308.4459,N,07726.0589,W,1,07,1.21,161.2,M,-34.4,M,,*5D
$GPRMC,160904.000,A,4308.4463,N,07726.0567,W,23.39,74.29,170923,,,A*71
$GPGGA,160904.250,4308.4467,N,07726.0546,W,1,07,1.20,161.4,M,-34.4,M,,*56
$GPRMC,160904.500,A,4308.4472,N,07726.0524,W,23.82,73.18,170923,,,A*76
$GPGGA,160904.750,4308.4475,N,07726.0502,W,1,07,1.21,161.5,M,-34.4,M,,*50
$GPRMC,160905.000,A,4308.4480,N,07726.0479,W,24.39,72.70,170923,,,A*7E
$GPGGA,160905.250,4308.4485,N,07726.0457,W,1,07,1.21,161.7,M,-34.4,M,,*58
$GPRMC,160905.500,A,4308.4490,N,07726.0434,W,24.63,72.36,170923,,,A*7E
$GPGGA,160905.750,4308.4496,N,07726.0411,W,1,07,1.21,161.9,M,-34.4,M,,*53
$GPRMC,160906.000,A,4308.4501,N,07726.0388,W,25.02,72.18,170923,,,A*7B
$GPGGA,160906.250,4308.4507,N,07726.0364,W,1,07,1.20,162.1,M,-34.4,M,,*53
$GPRMC,160906.500,A,4308.4513,N,07726.0341,W,25.43,72.01,170923,,,A*75
$GPGGA,160906.750,4308.4519,N,07726.0317,W,1,07,1.21,162.4,M,-34.4,M,,*59
$GPRMC,160907.000,A,4308.4524,N,07726.0293,W,25.93,71.79,170923,,,A*7A
$GPGGA,160907.250,4308.4530,N,07726.0269,W,1,07,1.20,162.8,M,-34.4,M,,*53
$GPRMC,160907.500,A,4308.4535,N,07726.0245,W,26.01,71.85,170923,,,A*7F
$GPGGA,160907.750,4308.4541,N,07726.0221,W,1,07,1.21,163.1,M,-34.4,M,,*55
$GPRMC,160908.000,A,4308.4546,N,07726.0197,W,26.05,72.04,170923,,,A*73
$GPGGA,160908.250,4308.4552,N,07726.0173,W,1,07,1.20,163.5,M,-34.4,M,,*5C
$GPRMC,160908.500,A,4308.4557,N,07726.0150,W,26.06,71.72,170923,,,A*7C
$GPGGA,160908.750,4308.4563,N,07726.0126,W,1,07,1.21,163.7,M,-34.4,M,,*58
$GPRMC,160909.000,A,4308.4570,N,07726.0103,W,26.06,70.05,170923,,,A*7A
$GPGGA,160909.250,4308.4576,N,07726.0079,W,1,07,1.21,164.0,M,-34.4,M,,*53
$GPRMC,160909.500,A,4308.4583,N,07726.0056,W,26.49,68.22,170923,,,A*75
$GPGGA,160909.750,4308.4591,N,07726.0032,W,1,07,1.21,164.2,M,-34.4,M,,*52
$GPRMC,160910.000,A,4308.4599,N,07726.0009,W,26.62,65.68,170923,,,A*73
$GPGGA,160910.250,4308.4607,N,07725.9986,W,1,07,1.20,164.3,M,-34.4,M,,*5F
$GPRMC,160910.500,A,4308.4616,N,07725.9963,W,26.87,63.39,170923,,,A*74
$GPGGA,160910.750,4308.4627,N,07725.9940,W,1,07,1.21,164.4,M,-34.4,M,,*54
$GPRMC,160911.000,A,4308.4637,N,07725.9917,W,27.02,59.23,170923,,,A*7E
$GPGGA,160911.250,4308.4648,N,07725.9895,W,1,07,1.21,164.5,M,-34.4,M,,*51
$GPRMC,160911.500,A,4308.4659,N,07725.9873,W,27.17,56.81,170923,,,A*73
$GPGGA,160911.750,4308.4671,N,07725.9852,W,1,07,1.21,164.4,M,-34.4,M,,*54
$GPRMC,160912.000,A,4308.4683,N,07725.9830,W,28.17,53.63,170923,,,A*73
$GPGGA,160912.250,4308.4695,N,07725.9809,W,1,07,1.20,164.3,M,-34.4,M,,*50
$GPRMC,160912.500,A,4308.4708,N,07725.9788,W,28.20,52.05,170923,,,A*7D
$GPGGA,160912.750,4308.4720,N,07725.9767,W,1,07,1.21,164.2,M,-34.4,M,,*5D
$GPRMC,160913.000,A,4308.4733,N,07725.9745,W,28.49,50.91,170923,,,A*70
$GPGGA,160913.250,4308.4746,N,07725.9725,W,1,07,1.20,164.0,M,-34.4,M,,*5C
$GPRMC,160913.500,A,4308.4760,N,07725.9703,W,29.28,48.27,170923,,,A*73
$GPGGA,160913.750,4308.4774,N,07725.9682,W,1,07,1.21,163.8,M,-34.4,M,,*5A
$GPRMC,160914.000,A,4308.4787,N,07725.9661,W,29.83,47.49,170923,,,A*7B
$GPGGA,160914.250,4308.4801,N,07725.9640,W,1,07,1.21,163.6,M,-34.4,M,,*55
$GPRMC,160914.500,A,4308.4815,N,07725.9618,W,30.22,47.36,170923,,,A*7F
$GPGGA,160914.750,4308.4829,N,07725.9596,W,1,07,1.21,163.4,M,-34.4,M,,*50
$GPRMC,160915.000,A,4308.4844,N,07725.9574,W,30.90,47.49,170923,,,A*77
$GPGGA,160915.250,4308.4858,N,07725.9553,W,1,07,1.21,163.3,M,-34.4,M,,*5C
$GPRMC,160915.500,A,4308.4873,N,07725.9531,W,31.02,47.00,170923,,,A*70
$GPGGA,160915.750,4308.4888,N,07725.9509,W,1,07,1.21,163.2,M,-34.4,M,,*5A
$GPRMC,160916.000,A,4308.4903,N,07725.9486,W,31.34,46.17,170923,,,A*7F
$GPGGA,160916.250,4308.4918,N,07725.9464,W,1,07,1.21,163.2,M,-34.4,M,,*5E
$GPRMC,160916.500,A,4308.4933,N,07725.9442,W,31.30,46.64,170923,,,A*71
$GPGGA,160916.750,4308.4949,N,07725.9421,W,1,07,1.21,162.8,M,-34.4,M,,*55
$GPRMC,160917.000,A,4308.4965,N,07725.9400,W,31.00,46.16,170923,,,A*76
$GPGGA,160917.250,4308.4980,N,07725.9379,W,1,07,1.20,162.4,M,-34.4,M,,*53
$GPRMC,160917.500,A,4308.4995,N,07725.9358,W,30.78,45.87,170923,,,A*73
$GPGGA,160917.750,4308.5011,N,07725.9337,W,1,07,1.21,162.3,M,-34.4,M,,*5A
$GPRMC,160918.000,A,4308.5026,N,07725.9316,W,30.75,45.93,170923,,,A*7B
$GPGGA,160918.250,4308.5041,N,07725.9294,W,1,07,1.20,162.2,M,-34.4,M,,*5D
$GPRMC,160918.500,A,4308.5056,N,07725.9273,W,30.97,46.40,170923,,,A*7A
$GPGGA,160918.750,4308.5071,N,07725.9251,W,1,07,1.21,162.1,M,-34.4,M,,*50
$GPRMC,160919.000,A,4308.5087,N,07725.9231,W,30.94,45.85,170923,,,A*7D
$GPGGA,160919.250,4308.5103,N,07725.9210,W,1,07,1.21,161.7,M,-34.4,M,,*50
$GPRMC,160919.500,A,4308.5119,N,07725.9189,W,30.92,45.84,170923,,,A*79
$GPGGA,160919.750,4308.5134,N,07725.9168,W,1,07,1.21,161.4,M,-34.4,M,,*5E
$GPRMC,160920.000,A,4308.5150,N,07725.9147,W,30.94,46.28,170923,,,A*7A
$GPGGA,160920.250,4308.5165,N,07725.9125,W,1,07,1.20,161.3,M,-34.4,M,,*5A
$GPRMC,160920.500,A,4308.5181,N,07725.9104,W,30.97,46.62,170923,,,A*79
$GPGGA,160920.750,4308.5196,N,07725.9083,W,1,07,1.21,161.2,M,-34.4,M,,*5E
$GPRMC,160921.000,A,4308.5211,N,07725.9061,W,30.97,46.73,170923,,,A*75
$GPGGA,160921.250,4308.5226,N,07725.9039,W,1,07,1.21,161.2,M,-34.4,M,,*53
$GPRMC,160921.500,A,4308.5242,N,07725.9017,W,31.00,46.38,170923,,,A*77
$GPGGA,160921.750,4308.5257,N,07725.8996,W,1,07,1.21,161.2,M,-34.4,M,,*5D
$GPRMC,160922.000,A,4308.5272,N,07725.8975,W,30.76,45.77,170923,,,A*76
$GPGGA,160922.250,4308.5287,N,07725.8953,W,1,07,1.20,161.4,M,-34.4,M,,*58
$GPRMC,160922.500,A,4308.5302,N,07725.8932,W,30.69,45.97,170923,,,A*76
$GPGGA,160922.750,4308.5316,N,07725.8910,W,1,07,1.21,161.4,M,-34.4,M,,*52
$GPRMC,160923.000,A,4308.5332,N,07725.8889,W,30.74,46.35,170923,,,A*77
$GPGGA,160923.250,4308.5347,N,07725.8868,W,1,07,1.21,161.4,M,-34.4,M,,*5C
$GPRMC,160923.500,A,4308.5362,N,07725.8847,W,31.06,45.71,170923,,,A*72
$GPGGA,160923.750,4308.5377,N,07725.8825,W,1,07,1.21,161.4,M,-34.4,M,,*53
$GPRMC,160924.000,A,4308.5393,N,07725.8804,W,31.30,45.54,170923,,,A*7B
$GPGGA,160924.250,4308.5408,N,07725.8782,W,1,07,1.20,161.5,M,-34.4,M,,*5C
$GPRMC,160924.500,A,4308.5423,N,07725.8760,W,31.57,46.11,170923,,,A*7C
$GPGGA,160924.750,4308.5438,N,07725.8738,W,1,07,1.21,161.5,M,-34.4,M,,*5A
$GPRMC,160925.000,A,4308.5453,N,07725.8716,W,31.48,46.65,170923,,,A*73
$GPGGA,160925.250,4308.5468,N,07725.8694,W,1,07,1.21,161.5,M,-34.4,M,,*5C
$GPRMC,160925.500,A,4308.5483,N,07725.8671,W,31.35,47.22,170923,,,A*73
$GPGGA,160925.750,4308.5498,N,07725.8649,W,1,07,1.21,161.5,M,-34.4,M,,*56
$GPRMC,160926.000,A,4308.5513,N,07725.8627,W,31.22,47.24,170923,,,A*7E
$GPGGA,160926.250,4308.5527,N,07725.8605,W,1,07,1.21,161.6,M,-34.4,M,,*5E
$GPRMC,160926.500,A,4308.5542,N,07725.8583,W,31.15,47.30,170923,,,A*73
$GPGGA,160926.750,4308.5557,N,07725.8561,W,1,07,1.21,161.6,M,-34.4,M,,*5D
$GPRMC,160927.000,A,4308.5572,N,07725.8539,W,31.11,47.17,170923,,,A*74
$GPGGA,160927.250,4308.5586,N,07725.8517,W,1,07,1.21,161.7,M,-34.4,M,,*55
$GPRMC,160927.500,A,4308.5601,N,07725.8495,W,31.13,46.76,170923,,,A*75
$GPGGA,160927.750,4308.5616,N,07725.8473,W,1,07,1.21,161.7,M,-34.4,M,,*59
$GPRMC,160928.000,A,4308.5631,N,07725.8452,W,31.11,46.44,170923,,,A*74
$GPGGA,160928.250,4308.5646,N,07725.8430,W,1,07,1.21,161.6,M,-34.4,M,,*50
$GPRMC,160928.500,A,4308.5661,N,07725.8409,W,30.88,46.43,170923,,,A*7C
$GPGGA,160928.750,4308.5675,N,07725.8387,W,1,07,1.21,161.5,M,-34.4,M,,*5D
$GPRMC,160929.000,A,4308.5690,N,07725.8365,W,30.91,46.61,170923,,,A*73
$GPGGA,160929.250,4308.5704,N,07725.8343,W,1,07,1.21,161.4,M,-34.4,M,,*57
$GPRMC,160929.500,A,4308.5719,N,07725.8322,W,30.94,47.23,170923,,,A*77
$GPGGA,160929.750,4308.5733,N,07725.8300,W,1,07,1.21,161.4,M,-34.4,M,,*51
$GPRMC,160930.000,A,4308.5748,N,07725.8278,W,30.95,47.55,170923,,,A*70
$GPGGA,160930.250,4308.5762,N,07725.8257,W,1,07,1.21,161.4,M,-34.4,M,,*5B
$GPRMC,160930.500,A,4308.5777,N,07725.8236,W,30.90,46.93,170923,,,A*7D
$GPGGA,160930.750,4308.5792,N,07725.8214,W,1,07,1.21,161.3,M,-34.4,M,,*51
$GPRMC,160931.000,A,4308.5806,N,07725.8193,W,30.68,46.60,170923,,,A*77
$GPGGA,160931.250,4308.5821,N,07725.8172,W,1,07,1.21,161.2,M,-34.4,M,,*50
$GPRMC,160931.500,A,4308.5836,N,07725.8151,W,30.59,46.27,170923,,,A*7E
$GPGGA,160931.750,4308.5850,N,07725.8130,W,1,07,1.21,161.0,M,-34.4,M,,*57
$GPRMC,160932.000,A,4308.5865,N,07725.8109,W,30.29,46.14,170923,,,A*74
$GPGGA,160932.250,4308.5879,N,07725.8088,W,1,07,1.21,160.8,M,-34.4,M,,*51
$GPRMC,160932.500,A,4308.5894,N,07725.8068,W,30.21,46.24,170923,,,A*72
$GPGGA,160932.750,4308.5909,N,07725.8047,W,1,07,1.21,160.7,M,-34.4,M,,*5E
$GPRMC,160933.000,A,4308.5924,N,07725.8026,W,29.75,46.14,170923,,,A*7C
$GPGGA,160933.250,4308.5938,N,07725.8006,W,1,07,1.21,160.7,M,-34.4,M,,*5D
$GPRMC,160933.500,A,4308.5953,N,07725.7986,W,29.72,45.47,170923,,,A*77
$GPGGA,160933.750,4308.5968,N,07725.7966,W,1,07,1.21,160.7,M,-34.4,M,,*5D
$GPRMC,160934.000,A,4308.5983,N,07725.7945,W,29.72,45.66,170923,,,A*74
$GPGGA,160934.250,4308.5997,N,07725.7925,W,1,07,1.20,160.6,M,-34.4,M,,*58
$GPRMC,160934.500,A,4308.6012,N,07725.7905,W,29.75,45.73,170923,,,A*74
$GPGGA,160934.750,4308.6026,N,07725.7885,W,1,07,1.21,160.5,M,-34.4,M,,*54
$GPRMC,160935.000,A,4308.6040,N,07725.7864,W,29.78,46.50,170923,,,A*7E
$GPGGA,160935.250,4308.6054,N,07725.7843,W,1,07,1.20,160.3,M,-34.4,M,,*58
$GPRMC,160935.500,A,4308.6068,N,07725.7822,W,29.85,47.86,170923,,,A*7B
$GPGGA,160935.750,4308.6081,N,07725.7800,W,1,07,1.21,160.1,M,-34.4,M,,*51
$GPRMC,160936.000,A,4308.6094,N,07725.7778,W,29.92,49.73,170923,,,A*7C
$GPGGA,160936.250,4308.6107,N,07725.7756,W,1,07,1.20,159.9,M,-34.4,M,,*57
$GPRMC,160936.500,A,4308.6120,N,07725.7734,W,29.96,50.80,170923,,,A*7F
$GPGGA,160936.750,4308.6133,N,07725.7712,W,1,07,1.21,159.8,M,-34.4,M,,*55
$GPRMC,160937.000,A,4308.6144,N,07725.7690,W,29.51,53.12,170923,,,A*75
$GPGGA,160937.250,4308.6156,N,07725.7666,W,1,07,1.20,159.7,M,-34.4,M,,*5E
$GPRMC,160937.500,A,4308.6167,N,07725.7642,W,29.88,55.99,170923,,,A*7F
$GPGGA,160937.750,4308.6177,N,07725.7617,W,1,07,1.21,159.6,M,-34.4,M,,*5E
$GPRMC,160938.000,A,4308.6186,N,07725.7591,W,30.69,61.26,170923,,,A*73
$GPGGA,160938.250,4308.6195,N,07725.7565,W,1,07,1.21,159.4,M,-34.4,M,,*5C
$GPRMC,160938.500,A,4308.6202,N,07725.7539,W,30.77,65.95,170923,,,A*78
$GPGGA,160938.750,4308.6208,N,07725.7512,W,1,07,1.21,159.2,M,-34.4,M,,*58
$GPRMC,160939.000,A,4308.6215,N,07725.7484,W,30.84,70.88,170923,,,A*79
$GPGGA,160939.250,4308.6221,N,07725.7456,W,1,07,1.21,158.8,M,-34.4,M,,*5D
$GPRMC,160939.500,A,4308.6226,N,07725.7428,W,31.25,73.86,170923,,,A*7D
$GPGGA,160939.750,4308.6230,N,07725.7400,W,1,07,1.21,158.6,M,-34.4,M,,*55
$GPRMC,160940.000,A,4308.6235,N,07725.7371,W,30.76,76.49,170923,,,A*7E
$GPGGA,160940.250,4308.6239,N,07725.7342,W,1,07,1.20,158.3,M,-34.4,M,,*52
$GPRMC,160940.500,A,4308.6242,N,07725.7312,W,31.02,79.60,170923,,,A*78
$GPGGA,160940.750,4308.6244,N,07725.7282,W,1,07,1.21,158.2,M,-34.4,M,,*50
$GPRMC,160941.000,A,4308.6246,N,07725.7252,W,31.57,83.58,170923,,,A*73
$GPGGA,160941.250,4308.6248,N,07725.7222,W,1,07,1.20,158.1,M,-34.4,M,,*50
$GPRMC,160941.500,A,4308.6249,N,07725.7191,W,31.68,85.55,170923,,,A*72
$GPGGA,160941.750,4308.6249,N,07725.7161,W,1,07,1.21,157.9,M,-34.4,M,,*56
$GPRMC,160942.000,A,4308.6249,N,07725.7131,W,31.78,87.51,170923,,,A*79
$GPGGA,160942.250,4308.6249,N,07725.7100,W,1,07,1.20,157.7,M,-34.4,M,,*58
$GPRMC,160942.500,A,4308.6249,N,07725.7070,W,31.82,89.00,170923,,,A*77
$GPGGA,160942.750,4308.6248,N,07725.7040,W,1,07,1.21,157.5,M,-34.4,M,,*5A
$GPRMC,160943.000,A,4308.6247,N,07725.7010,W,31.79,89.78,170923,,,A*70
$GPGGA,160943.250,4308.6246,N,07725.6981,W,1,07,1.20,157.2,M,-34.4,M,,*53
$GPRMC,160943.500,A,4308.6245,N,07725.6951,W,31.30,90.26,170923,,,A*74
$GPGGA,160943.750,4308.6244,N,07725.6922,W,1,07,1.21,156.9,M,-34.4,M,,*56
$GPRMC,160944.000,A,4308.6244,N,07725.6893,W,31.07,90.39,170923,,,A*72
$GPGGA,160944.250,4308.6243,N,07725.6864,W,1,07,1.20,156.6,M,-34.4,M,,*5E
$GPRMC,160944.500,A,4308.6242,N,07725.6835,W,30.76,90.71,170923,,,A*76
$GPGGA,160944.750,4308.6241,N,07725.6807,W,1,07,1.21,156.3,M,-34.4,M,,*58
$GPRMC,160945.000,A,4308.6240,N,07725.6778,W,30.49,90.62,170923,,,A*78
$GPGGA,160945.250,4308.6239,N,07725.6750,W,1,07,1.20,156.2,M,-34.4,M,,*5E
$GPRMC,160945.500,A,4308.6238,N,07725.6721,W,30.07,90.79,170923,,,A*7E
$GPGGA,160945.750,4308.6237,N,07725.6694,W,1,07,1.21,156.0,M,-34.4,M,,*5F
$GPRMC,160946.000,A,4308.6236,N,07725.6666,W,29.85,90.54,170923,,,A*79
$GPGGA,160946.250,4308.6236,N,07725.6638,W,1,07,1.20,156.0,M,-34.4,M,,*5F
$GPRMC,160946.500,A,4308.6235,N,07725.6611,W,29.11,90.27,170923,,,A*76
$GPGGA,160946.750,4308.6234,N,07725.6584,W,1,07,1.21,156.0,M,-34.4,M,,*5D
$GPRMC,160947.000,A,4308.6233,N,07725.6557,W,28.85,90.51,170923,,,A*78
$GPGGA,160947.250,4308.6232,N,07725.6530,W,1,07,1.20,156.0,M,-34.4,M,,*51
$GPRMC,160947.500,A,4308.6231,N,07725.6503,W,28.59,90.95,170923,,,A*77
$GPGGA,160947.750,4308.6231,N,07725.6476,W,1,07,1.21,155.9,M,-34.4,M,,*5F
$GPRMC,160948.000,A,4308.6230,N,07725.6450,W,28.34,91.03,170923,,,A*7E
$GPGGA,160948.250,4308.6229,N,07725.6423,W,1,07,1.21,155.9,M,-34.4,M,,*5C
$GPRMC,160948.500,A,4308.6228,N,07725.6397,W,27.91,91.05,170923,,,A*78
$GPGGA,160948.750,4308.6227,N,07725.6371,W,1,07,1.21,155.9,M,-34.4,M,,*57
$GPRMC,160949.000,A,4308.6226,N,07725.6345,W,27.48,91.31,170923,,,A*7E
$GPGGA,160949.250,4308.6225,N,07725.6319,W,1,07,1.21,155.9,M,-34.4,M,,*5F
$GPRMC,160949.500,A,4308.6224,N,07725.6293,W,27.02,91.29,170923,,,A*74
$GPGGA,160949.750,4308.6223,N,07725.6268,W,1,07,1.21,156.0,M,-34.4,M,,*51
$GPRMC,160950.000,A,4308.6222,N,07725.6243,W,26.88,91.04,170923,,,A*7E
$GPGGA,160950.250,4308.6221,N,07725.6218,W,1,07,1.20,156.1,M,-34.4,M,,*59
$GPRMC,160950.500,A,4308.6220,N,07725.6193,W,26.37,91.05,170923,,,A*72
$GPGGA,160950.750,4308.6219,N,07725.6168,W,1,07,1.21,156.2,M,-34.4,M,,*51
$GPRMC,160951.000,A,4308.6218,N,07725.6144,W,25.91,90.29,170923,,,A*77
$GPGGA,160951.250,4308.6217,N,07725.6120,W,1,07,1.20,156.3,M,-34.4,M,,*57
$GPRMC,160951.500,A,4308.6216,N,07725.6096,W,24.92,90.98,170923,,,A*7A
$GPGGA,160951.750,4308.6216,N,07725.6073,W,1,07,1.21,156.5,M,-34.4,M,,*53
$GPRMC,160952.000,A,4308.6215,N,07725.6050,W,24.45,90.78,170923,,,A*71
$GPGGA,160952.250,4308.6214,N,07725.6027,W,1,07,1.21,156.6,M,-34.4,M,,*55
$GPRMC,160952.500,A,4308.6213,N,07725.6005,W,23.45,91.13,170923,,,A*79
$GPGGA,160952.750,4308.6212,N,07725.5984,W,1,07,1.21,156.7,M,-34.4,M,,*54
$GPRMC,160953.000,A,4308.6211,N,07725.5964,W,21.48,92.28,170923,,,A*76
$GPGGA,160953.250,4308.6210,N,07725.5945,W,1,07,1.21,156.8,M,-34.4,M,,*50
$GPRMC,160953.500,A,4308.6208,N,07725.5926,W,19.71,92.82,170923,,,A*7C
$GPGGA,160953.750,4308.6207,N,07725.5910,W,1,07,1.21,156.8,M,-34.4,M,,*53
$GPRMC,160954.000,A,4308.6206,N,07725.5893,W,17.65,93.02,170923,,,A*7D
$GPGGA,160954.250,4308.6203,N,07725.5879,W,1,07,1.21,156.9,M,-34.4,M,,*5A
$GPRMC,160954.500,A,4308.6201,N,07725.5866,W,13.76,96.23,170923,,,A*75
$GPGGA,160954.750,4308.6202,N,07725.5854,W,1,07,1.20,156.8,M,-34.4,M,,*51
$GPRMC,160955.000,A,4308.6201,N,07725.5843,W,10.76,99.22,170923,,,A*7B
$GPGGA,160955.250,4308.6199,N,07725.5834,W,1,07,1.20,156.8,M,-34.4,M,,*52
$GPRMC,160955.500,A,4308.6196,N,07725.5827,W,7.84,104.42,170923,,,A*79
$GPGGA,160955.750,4308.6193,N,07725.5819,W,1,07,1.21,156.9,M,-34.4,M,,*52
$GPRMC,160956.000,A,4308.6190,N,07725.5813,W,7.31,107.17,170923,,,A*73
$GPGGA,160956.250,4308.6189,N,07725.5805,W,1,08,1.10,157.4,M,-34.4,M,,*53
$GPRMC,160956.500,A,4308.6187,N,07725.5798,W,6.42,109.13,170923,,,A*73
$GPGGA,160956.750,4308.6185,N,07725.5792,W,1,08,1.10,157.8,M,-34.4,M,,*57
$GPRMC,160957.000,A,4308.6183,N,07725.5786,W,6.40,113.37,170923,,,A*73
$GPGGA,160957.250,4308.6180,N,07725.5779,W,1,08,1.10,158.3,M,-34.4,M,,*57
$GPRMC,160957.500,A,4308.6175,N,07725.5772,W,7.43,122.24,170923,,,A*76
$GPGGA,160957.750,4308.6171,N,07725.5766,W,1,08,1.10,158.9,M,-34.4,M,,*58
$GPRMC,160958.000,A,4308.6166,N,07725.5759,W,8.60,129.08,170923,,,A*7C
$GPGGA,160958.250,4308.6161,N,07725.5753,W,1,08,1.10,159.1,M,-34.4,M,,*5C
$GPRMC,160958.500,A,4308.6154,N,07725.5746,W,10.23,138.46,170923,,,A*42
$GPGGA,160958.750,4308.6145,N,07725.5740,W,1,08,1.10,159.5,M,-34.4,M,,*59
$GPRMC,160959.000,A,4308.6137,N,07725.5734,W,11.55,144.59,170923,,,A*43
$GPGGA,160959.250,4308.6129,N,07725.5728,W,1,08,1.10,159.6,M,-34.4,M,,*5A
$GPRMC,160959.500,A,4308.6120,N,07725.5723,W,12.38,151.43,170923,,,A*41
$GPGGA,160959.750,4308.6110,N,07725.5720,W,1,08,1.10,159.9,M,-34.4,M,,*52
$GPRMC,161000.000,A,4308.6100,N,07725.5716,W,13.50,161.02,170923,,,A*4D
$GPGGA,161000.250,4308.6090,N,07725.5713,W,1,08,1.09,160.1,M,-34.4,M,,*50
$GPRMC,161000.500,A,4308.6080,N,07725.5711,W,14.20,166.34,170923,,,A*44
$GPGGA,161000.750,4308.6069,N,07725.5710,W,1,08,1.10,160.3,M,-34.4,M,,*5A
$GPRMC,161001.000,A,4308.6057,N,07725.5711,W,15.16,176.42,170923,,,A*4E
$GPGGA,161001.250,4308.6046,N,07725.5711,W,1,08,1.09,160.5,M,-34.4,M,,*5C
$GPRMC,161001.500,A,4308.6035,N,07725.5712,W,15.61,180.11,170923,,,A*43
$GPGGA,161001.750,4308.6023,N,07725.5713,W,1,08,1.10,160.7,M,-34.4,M,,*52
$GPRMC,161002.000,A,4308.6011,N,07725.5714,W,16.53,181.41,170923,,,A*43
$GPGGA,161002.250,4308.5998,N,07725.5715,W,1,08,1.09,160.7,M,-34.4,M,,*50
$GPRMC,161002.500,A,4308.5986,N,07725.5715,W,17.31,181.44,170923,,,A*43
$GPGGA,161002.750,4308.5972,N,07725.5717,W,1,08,1.10,160.7,M,-34.4,M,,*5B
$GPRMC,161003.000,A,4308.5959,N,07725.5718,W,18.48,182.49,170923,,,A*47
$GPGGA,161003.250,4308.5944,N,07725.5719,W,1,08,1.09,160.6,M,-34.4,M,,*5D
$GPRMC,161003.500,A,4308.5930,N,07725.5719,W,19.32,180.90,170923,,,A*46
$GPGGA,161003.750,4308.5916,N,07725.5719,W,1,08,1.09,160.5,M,-34.4,M,,*5C
$GPRMC,161004.000,A,4308.5901,N,07725.5719,W,20.04,179.80,170923,,,A*4E
$GPGGA,161004.250,4308.5885,N,07725.5720,W,1,08,1.09,160.4,M,-34.4,M,,*5E
$GPRMC,161004.500,A,4308.5869,N,07725.5720,W,20.82,180.62,170923,,,A*4A
$GPGGA,161004.750,4308.5853,N,07725.5721,W,1,08,1.10,160.4,M,-34.4,M,,*59
$GPRMC,161005.000,A,4308.5837,N,07725.5722,W,21.55,180.88,170923,,,A*48
$GPGGA,161005.250,4308.5821,N,07725.5723,W,1,08,1.09,160.3,M,-34.4,M,,*55
$GPRMC,161005.500,A,4308.5805,N,07725.5723,W,22.12,180.60,170923,,,A*4B
$GPGGA,161005.750,4308.5788,N,07725.5724,W,1,08,1.10,160.2,M,-34.4,M,,*52
$GPRMC,161006.000,A,4308.5771,N,07725.5724,W,23.08,180.63,170923,,,A*4F
$GPGGA,161006.250,4308.5755,N,07725.5724,W,1,08,1.09,160.2,M,-34.4,M,,*5C
$GPRMC,161006.500,A,4308.5740,N,07725.5724,W,23.13,180.28,170923,,,A*4D
$GPGGA,161006.750,4308.5724,N,07725.5725,W,1,08,1.10,160.1,M,-34.4,M,,*55
$GPRMC,161007.000,A,4308.5707,N,07725.5726,W,23.54,181.44,170923,,,A*40
$GPGGA,161007.250,4308.5690,N,07725.5726,W,1,08,1.09,160.1,M,-34.4,M,,*54
$GPRMC,161007.500,A,4308.5672,N,07725.5726,W,24.67,180.92,170923,,,A*4B
$GPGGA,161007.750,4308.5653,N,07725.5727,W,1,07,1.79,160.2,M,-34.4,M,,*54
$GPRMC,161008.000,A,4308.5636,N,07725.5728,W,25.70,181.62,170923,,,A*46
$GPGGA,161008.250,4308.5618,N,07725.5728,W,1,07,1.79,160.2,M,-34.4,M,,*5E
$GPRMC,161008.500,A,4308.5599,N,07725.5728,W,26.21,181.41,170923,,,A*43
$GPGGA,161008.750,4308.5581,N,07725.5729,W,1,07,1.79,160.2,M,-34.4,M,,*59
$GPRMC,161009.000,A,4308.5562,N,07725.5730,W,26.49,181.56,170923,,,A*42
$GPGGA,161009.250,4308.5542,N,07725.5731,W,1,08,1.09,160.0,M,-34.4,M,,*51
$GPRMC,161009.500,A,4308.5522,N,07725.5732,W,26.74,181.16,170923,,,A*4B
$GPGGA,161009.750,4308.5501,N,07725.5733,W,1,08,1.09,159.7,M,-34.4,M,,*5C
$GPRMC,161010.000,A,4308.5482,N,07725.5734,W,26.96,181.32,170923,,,A*41
$GPGGA,161010.250,4308.5463,N,07725.5735,W,1,07,1.79,159.4,M,-34.4,M,,*59
$GPRMC,161010.500,A,4308.5443,N,07725.5736,W,27.42,180.55,170923,,,A*43
$GPGGA,161010.750,4308.5423,N,07725.5736,W,1,07,1.79,159.1,M,-34.4,M,,*5E
$GPRMC,161011.000,A,4308.5402,N,07725.5737,W,27.38,179.89,170923,,,A*49
$GPGGA,161011.250,4308.5381,N,07725.5738,W,1,07,1.79,159.0,M,-34.4,M,,*5A
$GPRMC,161011.500,A,4308.5361,N,07725.5739,W,27.57,180.23,170923,,,A*4F
$GPGGA,161011.750,4308.5339,N,07725.5741,W,1,07,1.79,158.8,M,-34.4,M,,*5B
$GPRMC,161012.000,A,4308.5316,N,07725.5742,W,28.10,180.78,170923,,,A*47
$GPGGA,161012.250,4308.5294,N,07725.5743,W,1,07,1.79,158.7,M,-34.4,M,,*56
$GPRMC,161012.500,A,4308.5272,N,07725.5744,W,28.75,180.83,170923,,,A*40
$GPGGA,161012.750,4308.5250,N,07725.5746,W,1,07,1.79,158.7,M,-34.4,M,,*5E
$GPRMC,161013.000,A,4308.5227,N,07725.5747,W,29.06,181.16,170923,,,A*4F
$GPGGA,161013.250,4308.5204,N,07725.5749,W,1,07,1.79,158.7,M,-34.4,M,,*54
$GPRMC,161013.500,A,4308.5180,N,07725.5750,W,30.34,181.38,170923,,,A*47
$GPGGA,161013.750,4308.5158,N,07725.5752,W,1,07,1.79,158.7,M,-34.4,M,,*51
$GPRMC,161014.000,A,4308.5135,N,07725.5753,W,30.62,181.54,170923,,,A*41
$GPGGA,161014.250,4308.5111,N,07725.5754,W,1,07,1.79,158.7,M,-34.4,M,,*58
$GPRMC,161014.500,A,4308.5088,N,07725.5754,W,31.23,181.23,170923,,,A*40
$GPGGA,161014.750,4308.5064,N,07725.5755,W,1,07,1.79,158.7,M,-34.4,M,,*5F
$GPRMC,161015.000,A,4308.5041,N,07725.5756,W,31.52,181.21,170923,,,A*47
$GPGGA,161015.250,4308.5016,N,07725.5756,W,1,07,1.79,158.8,M,-34.4,M,,*52
$GPRMC,161015.500,A,4308.4991,N,07725.5757,W,31.84,181.28,170923,,,A*44
$GPGGA,161015.750,4308.4968,N,07725.5758,W,1,07,1.79,158.8,M,-34.4,M,,*58
$GPRMC,161016.000,A,4308.4945,N,07725.5758,W,32.08,180.41,170923,,,A*4D
$GPGGA,161016.250,4308.4922,N,07725.5758,W,1,07,1.79,158.8,M,-34.4,M,,*50
$GPRMC,161016.500,A,4308.4897,N,07725.5759,W,32.26,180.26,170923,,,A*4A
$GPGGA,161016.750,4308.4873,N,07725.5759,W,1,07,1.79,158.7,M,-34.4,M,,*5E
$GPRMC,161017.000,A,4308.4847,N,07725.5760,W,33.49,180.40,170923,,,A*41
$GPGGA,161017.250,4308.4822,N,07725.5761,W,1,07,1.79,158.6,M,-34.4,M,,*54
$GPRMC,161017.500,A,4308.4797,N,07725.5762,W,33.97,180.17,170923,,,A*45
$GPGGA,161017.750,4308.4773,N,07725.5763,W,1,07,1.79,158.3,M,-34.4,M,,*5D
$GPRMC,161018.000,A,4308.4748,N,07725.5764,W,34.31,180.11,170923,,,A*46
$GPGGA,161018.250,4308.4723,N,07725.5765,W,1,07,1.79,158.1,M,-34.4,M,,*56
$GPRMC,161018.500,A,4308.4700,N,07725.5766,W,34.26,180.72,170923,,,A*4E
$GPGGA,161018.750,4308.4676,N,07725.5767,W,1,07,1.79,157.8,M,-34.4,M,,*56
$GPRMC,161019.000,A,4308.4651,N,07725.5768,W,34.32,180.83,170923,,,A*4A
$GPGGA,161019.250,4308.4624,N,07725.5770,W,1,07,1.79,157.6,M,-34.4,M,,*5D
$GPRMC,161019.500,A,4308.4598,N,07725.5771,W,34.68,180.81,170923,,,A*4C
$GPGGA,161019.750,4308.4573,N,07725.5772,W,1,07,1.79,157.3,M,-34.4,M,,*5E
$GPRMC,161020.000,A,4308.4548,N,07725.5773,W,35.12,180.64,170923,,,A*4B
$GPGGA,161020.250,4308.4522,N,07725.5774,W,1,07,1.79,157.1,M,-34.4,M,,*51
$GPRMC,161020.500,A,4308.4497,N,07725.5775,W,35.22,180.86,170923,,,A*44
$GPGGA,161020.750,4308.4472,N,07725.5776,W,1,07,1.79,156.9,M,-34.4,M,,*5B
$GPRMC,161021.000,A,4308.4447,N,07725.5777,W,34.91,180.99,170923,,,A*48
$GPGGA,161021.250,4308.4422,N,07725.5778,W,1,07,1.79,156.7,M,-34.4,M,,*5A
$GPRMC,161021.500,A,4308.4397,N,07725.5779,W,34.93,180.95,170923,,,A*47
$GPGGA,161021.750,4308.4371,N,07725.5780,W,1,07,1.79,156.5,M,-34.4,M,,*5B
$GPRMC,161022.000,A,4308.4344,N,07725.5782,W,34.94,181.00,170923,,,A*41
$GPGGA,161022.250,4308.4319,N,07725.5782,W,1,07,1.79,156.4,M,-34.4,M,,*50
$GPRMC,161022.500,A,4308.4292,N,07725.5784,W,34.95,181.38,170923,,,A*42
$GPGGA,161022.750,4308.4266,N,07725.5785,W,1,07,1.79,156.3,M,-34.4,M,,*5C
$GPRMC,161023.000,A,4308.4236,N,07725.5787,W,34.97,181.29,170923,,,A*49
$GPGGA,161023.250,4308.4205,N,07725.5789,W,1,07,1.79,156.3,M,-34.4,M,,*51
$GPRMC,161023.500,A,4308.4173,N,07725.5792,W,36.28,181.71,170923,,,A*41
$GPGGA,161023.750,4308.4139,N,07725.5794,W,1,07,1.79,156.3,M,-34.4,M,,*54
$GPRMC,161024.000,A,4308.4106,N,07725.5797,W,36.58,181.82,170923,,,A*4F
$GPGGA,161024.250,4308.4078,N,07725.5798,W,1,07,1.79,156.5,M,-34.4,M,,*58
$GPRMC,161024.500,A,4308.4050,N,07725.5800,W,36.63,181.98,170923,,,A*4A
$GPGGA,161024.750,4308.4023,N,07725.5802,W,1,07,1.92,156.6,M,-34.4,M,,*59
$GPRMC,161025.000,A,4308.3996,N,07725.5804,W,36.87,182.05,170923,,,A*43
$GPGGA,161025.250,4308.3969,N,07725.5805,W,1,07,1.79,156.7,M,-34.4,M,,*5E
$GPRMC,161025.500,A,4308.3942,N,07725.5807,W,37.17,182.18,170923,,,A*48
$GPGGA,161025.750,4308.3915,N,07725.5809,W,1,07,1.92,156.7,M,-34.4,M,,*59
$GPRMC,161026.000,A,4308.3888,N,07725.5811,W,37.25,182.01,170923,,,A*47
$GPGGA,161026.250,4308.3863,N,07725.5812,W,1,07,1.79,156.8,M,-34.4,M,,*5F
$GPRMC,161026.500,A,4308.3835,N,07725.5814,W,37.55,182.11,170923,,,A*47
$GPGGA,161026.750,4308.3807,N,07725.5816,W,1,07,1.92,156.8,M,-34.4,M,,*59
$GPRMC,161027.000,A,4308.3780,N,07725.5818,W,37.91,182.47,170923,,,A*45
$GPGGA,161027.250,4308.3753,N,07725.5821,W,1,07,1.79,156.8,M,-34.4,M,,*52
$GPRMC,161027.500,A,4308.3727,N,07725.5822,W,37.90,182.11,170923,,,A*46
$GPGGA,161027.750,4308.3700,N,07725.5824,W,1,07,1.79,156.8,M,-34.4,M,,*54
$GPRMC,161028.000,A,4308.3672,N,07725.5826,W,38.01,182.12,170923,,,A*4D
$GPGGA,161028.250,4308.3645,N,07725.5828,W,1,07,1.79,156.9,M,-34.4,M,,*53
$GPRMC,161028.500,A,4308.3618,N,07725.5829,W,37.86,181.70,170923,,,A*4C
$GPGGA,161028.750,4308.3591,N,07725.5831,W,1,07,1.92,156.8,M,-34.3,M,,*57
$GPRMC,161029.000,A,4308.3565,N,07725.5832,W,37.94,181.34,170923,,,A*48
$GPGGA,161029.250,4308.3538,N,07725.5833,W,1,07,1.79,156.8,M,-34.3,M,,*57
$GPRMC,161029.500,A,4308.3509,N,07725.5834,W,38.25,181.60,170923,,,A*45
$GPGGA,161029.750,4308.3480,N,07725.5836,W,1,07,1.79,156.7,M,-34.3,M,,*5A
$GPRMC,161030.000,A,4308.3452,N,07725.5837,W,38.36,181.60,170923,,,A*46
$GPGGA,161030.250,4308.3425,N,07725.5838,W,1,07,1.79,156.7,M,-34.3,M,,*56
$GPRMC,161030.500,A,4308.3398,N,07725.5839,W,38.14,181.21,170923,,,A*49
$GPGGA,161030.750,4308.3369,N,07725.5839,W,1,07,1.79,156.6,M,-34.3,M,,*5C
$GPRMC,161031.000,A,4308.3342,N,07725.5840,W,37.77,180.19,170923,,,A*44
$GPGGA,161031.250,4308.3314,N,07725.5840,W,1,07,1.79,156.7,M,-34.3,M,,*5D
$GPRMC,161031.500,A,4308.3286,N,07725.5840,W,37.69,180.19,170923,,,A*47
$GPGGA,161031.750,4308.3257,N,07725.5841,W,1,07,1.79,156.7,M,-34.3,M,,*5F
$GPRMC,161032.000,A,4308.3229,N,07725.5842,W,37.73,180.76,170923,,,A*44
$GPGGA,161032.250,4308.3201,N,07725.5843,W,1,07,1.79,156.9,M,-34.3,M,,*56
$GPRMC,161032.500,A,4308.3173,N,07725.5845,W,37.70,181.88,170923,,,A*49
$GPGGA,161032.750,4308.3146,N,07725.5846,W,1,07,1.79,157.1,M,-34.3,M,,*5F
$GPRMC,161033.000,A,4308.3119,N,07725.5847,W,37.67,182.15,170923,,,A*42
$GPGGA,161033.250,4308.3093,N,07725.5849,W,1,07,1.79,157.3,M,-34.3,M,,*5F
$GPRMC,161033.500,A,4308.3066,N,07725.5851,W,37.38,182.52,170923,,,A*40
$GPGGA,161033.750,4308.3038,N,07725.5853,W,1,07,1.79,157.4,M,-34.3,M,,*57
$GPRMC,161034.000,A,4308.3011,N,07725.5854,W,37.68,182.58,170923,,,A*48
$GPGGA,161034.250,4308.2984,N,07725.5856,W,1,07,1.79,157.6,M,-34.3,M,,*5D
$GPRMC,161034.500,A,4308.2957,N,07725.5858,W,37.76,182.24,170923,,,A*4F
$GPGGA,161034.750,4308.2930,N,07725.5859,W,1,07,1.79,157.7,M,-34.3,M,,*59
$GPRMC,161035.000,A,4308.2903,N,07725.5861,W,38.03,182.05,170923,,,A*4E
$GPGGA,161035.250,4308.2876,N,07725.5862,W,1,07,1.79,157.8,M,-34.3,M,,*59
$GPRMC,161035.500,A,4308.2849,N,07725.5864,W,38.06,181.88,170923,,,A*42
$GPGGA,161035.750,4308.2823,N,07725.5865,W,1,07,1.79,157.9,M,-34.3,M,,*5A
$GPRMC,161036.000,A,4308.2795,N,07725.5867,W,38.02,181.75,170923,,,A*4F
$GPGGA,161036.250,4308.2768,N,07725.5868,W,1,07,1.79,158.0,M,-34.3,M,,*57
$GPRMC,161036.500,A,4308.2740,N,07725.5870,W,38.27,181.94,170923,,,A*4C
$GPGGA,161036.750,4308.2713,N,07725.5872,W,1,07,1.79,158.0,M,-34.3,M,,*55
$GPRMC,161037.000,A,4308.2686,N,07725.5873,W,38.64,181.97,170923,,,A*44
$GPGGA,161037.250,4308.2658,N,07725.5875,W,1,07,1.79,158.1,M,-34.3,M,,*59
$GPRMC,161037.500,A,4308.2629,N,07725.5877,W,38.86,182.12,170923,,,A*42
$GPGGA,161037.750,4308.2597,N,07725.5880,W,1,07,1.79,158.2,M,-34.3,M,,*55
$GPRMC,161038.000,A,4308.2566,N,07725.5883,W,40.16,182.44,170923,,,A*4E
$GPGGA,161038.250,4308.2537,N,07725.5884,W,1,07,1.79,158.2,M,-34.3,M,,*51
$GPRMC,161038.500,A,4308.2509,N,07725.5886,W,39.62,182.35,170923,,,A*4C
$GPGGA,161038.750,4308.2481,N,07725.5887,W,1,07,1.92,158.3,M,-34.3,M,,*5F
$GPRMC,161039.000,A,4308.2453,N,07725.5889,W,38.84,182.29,170923,,,A*4D
$GPGGA,161039.250,4308.2426,N,07725.5890,W,1,07,1.79,158.4,M,-34.3,M,,*52
$GPRMC,161039.500,A,4308.2400,N,07725.5892,W,38.82,182.55,170923,,,A*49
$GPGGA,161039.750,4308.2374,N,07725.5893,W,1,07,1.79,158.5,M,-34.3,M,,*55
$GPRMC,161040.000,A,4308.2348,N,07725.5895,W,38.54,182.81,170923,,,A*4C
$GPGGA,161040.250,4308.2322,N,07725.5896,W,1,07,1.79,158.5,M,-34.3,M,,*58
$GPRMC,161040.500,A,4308.2295,N,07725.5898,W,38.45,182.32,170923,,,A*4D
$GPGGA,161040.750,4308.2270,N,07725.5898,W,1,07,1.79,158.6,M,-34.3,M,,*56
$GPRMC,161041.000,A,4308.2245,N,07725.5899,W,37.98,181.77,170923,,,A*48
$GPGGA,161041.250,4308.2219,N,07725.5900,W,1,07,1.79,158.7,M,-34.3,M,,*5C
$GPRMC,161041.500,A,4308.2193,N,07725.5901,W,38.08,181.88,170923,,,A*43
$GPGGA,161041.750,4308.2166,N,07725.5901,W,1,07,1.79,158.7,M,-34.3,M,,*53
$GPRMC,161042.000,A,4308.2140,N,07725.5902,W,38.18,181.71,170923,,,A*4F
$GPGGA,161042.250,4308.2114,N,07725.5902,W,1,07,1.79,158.8,M,-34.3,M,,*5C
$GPRMC,161042.500,A,4308.2087,N,07725.5903,W,37.94,181.86,170923,,,A*42
$GPGGA,161042.750,4308.2061,N,07725.5904,W,1,07,1.79,158.9,M,-34.3,M,,*5D
$GPRMC,161043.000,A,4308.2036,N,07725.5905,W,37.83,182.41,170923,,,A*44
$GPGGA,161043.250,4308.2010,N,07725.5906,W,1,07,1.79,159.1,M,-34.3,M,,*54
$GPRMC,161043.500,A,4308.1984,N,07725.5907,W,37.79,182.08,170923,,,A*48
$GPGGA,161043.750,4308.1959,N,07725.5907,W,1,07,1.79,159.1,M,-34.3,M,,*57
$GPRMC,161044.000,A,4308.1934,N,07725.5908,W,37.52,181.96,170923,,,A*43
$GPGGA,161044.250,4308.1908,N,07725.5908,W,1,07,1.79,159.1,M,-34.3,M,,*5E
$GPRMC,161044.500,A,4308.1883,N,07725.5909,W,37.49,181.87,170923,,,A*40
$GPGGA,161044.750,4308.1860,N,07725.5909,W,1,07,1.79,159.0,M,-34.3,M,,*54
$GPRMC,161045.000,A,4308.1838,N,07725.5909,W,36.62,181.87,170923,,,A*4C
$GPGGA,161045.250,4308.1813,N,07725.5909,W,1,07,1.79,158.9,M,-34.3,M,,*5C
$GPRMC,161045.500,A,4308.1788,N,07725.5910,W,36.42,182.06,170923,,,A*4D
$GPGGA,161045.750,4308.1763,N,07725.5911,W,1,07,1.79,158.7,M,-34.3,M,,*56
$GPRMC,161046.000,A,4308.1738,N,07725.5913,W,36.49,182.24,170923,,,A*48
$GPGGA,161046.250,4308.1713,N,07725.5914,W,1,07,1.79,158.6,M,-34.3,M,,*53
$GPRMC,161046.500,A,4308.1688,N,07725.5915,W,36.63,182.14,170923,,,A*4A
$GPGGA,161046.750,4308.1664,N,07725.5916,W,1,07,1.79,158.5,M,-34.3,M,,*56
$GPRMC,161047.000,A,4308.1640,N,07725.5917,W,36.43,181.95,170923,,,A*40
$GPGGA,161047.250,4308.1615,N,07725.5918,W,1,07,1.79,158.3,M,-34.3,M,,*5C
$GPRMC,161047.500,A,4308.1589,N,07725.5919,W,36.13,181.93,170923,,,A*4E
$GPGGA,161047.750,4308.1564,N,07725.5920,W,1,07,1.92,158.1,M,-34.3,M,,*50
$GPRMC,161048.000,A,4308.1539,N,07725.5921,W,36.04,181.40,170923,,,A*4C
$GPGGA,161048.250,4308.1514,N,07725.5921,W,1,07,1.79,157.8,M,-34.3,M,,*5F
$GPRMC,161048.500,A,4308.1489,N,07725.5922,W,35.99,181.27,170923,,,A*46
$GPGGA,161048.750,4308.1464,N,07725.5923,W,1,07,1.92,157.6,M,-34.3,M,,*55
$GPRMC,161049.000,A,4308.1440,N,07725.5924,W,35.97,181.56,170923,,,A*49
$GPGGA,161049.250,4308.1415,N,07725.5924,W,1,07,1.79,157.4,M,-34.3,M,,*57
$GPRMC,161049.500,A,4308.1392,N,07725.5925,W,35.98,181.81,170923,,,A*40
$GPGGA,161049.750,4308.1368,N,07725.5926,W,1,08,1.10,157.2,M,-34.3,M,,*5B
$GPRMC,161050.000,A,4308.1346,N,07725.5927,W,35.73,182.06,170923,,,A*4F
$GPGGA,161050.250,4308.1323,N,07725.5928,W,1,08,1.10,157.1,M,-34.3,M,,*54
$GPRMC,161050.500,A,4308.1299,N,07725.5929,W,35.62,182.20,170923,,,A*43
$GPGGA,161050.750,4308.1275,N,07725.5931,W,1,08,1.10,157.0,M,-34.3,M,,*5A
$GPRMC,161051.000,A,4308.1252,N,07725.5932,W,35.35,181.82,170923,,,A*43
$GPGGA,161051.250,4308.1227,N,07725.5933,W,1,07,1.79,156.8,M,-34.3,M,,*52
$GPRMC,161051.500,A,4308.1202,N,07725.5934,W,35.32,181.81,170923,,,A*41
$GPGGA,161051.750,4308.1179,N,07725.5934,W,1,07,1.92,156.7,M,-34.3,M,,*52
$GPRMC,161052.000,A,4308.1155,N,07725.5935,W,35.14,182.10,170923,,,A*48
$GPGGA,161052.250,4308.1130,N,07725.5937,W,1,07,1.79,156.6,M,-34.3,M,,*5E
$GPRMC,161052.500,A,4308.1106,N,07725.5938,W,35.36,181.94,170923,,,A*49
$GPGGA,161052.750,4308.1081,N,07725.5938,W,1,07,1.79,156.5,M,-34.3,M,,*5C
$GPRMC,161053.000,A,4308.1056,N,07725.5939,W,35.60,181.44,170923,,,A*46
$GPGGA,161053.250,4308.1032,N,07725.5940,W,1,08,1.10,156.5,M,-34.3,M,,*5F
$GPRMC,161053.500,A,4308.1007,N,07725.5941,W,36.04,181.49,170923,,,A*44
$GPGGA,161053.750,4308.0982,N,07725.5941,W,1,07,1.79,156.5,M,-34.3,M,,*58
$GPRMC,161054.000,A,4308.0958,N,07725.5942,W,36.09,181.45,170923,,,A*46
$GPGGA,161054.250,4308.0933,N,07725.5943,W,1,08,1.10,156.5,M,-34.3,M,,*52
$GPRMC,161054.500,A,4308.0907,N,07725.5944,W,36.17,181.56,170923,,,A*42
$GPGGA,161054.750,4308.0882,N,07725.5944,W,1,07,1.92,156.4,M,-34.3,M,,*5F
$GPRMC,161055.000,A,4308.0857,N,07725.5945,W,36.15,181.41,170923,,,A*47
