Vers 81
USE_SERIAL_FEEDBACK=true
DEVELOPMENT_MODE=false
USE_RMC_ONLY=false

$GPRMC,182803.750,A,4307.9871,N,07729.7454,W,0.05,86.33,160823,,,A*45
$GPGGA,182804.000,4307.9873,N,07729.7454,W,1,04,1.56,160.4,M,-34.4,M,,*5E
$GPRMC,182804.250,A,4307.9875,N,07729.7455,W,0.20,62.73,160823,,,A*4B
$GPGGA,182804.500,4307.9877,N,07729.7456,W,1,04,1.56,155.1,M,-34.4,M,,*5E
$GPRMC,182804.750,A,4307.9879,N,07729.7455,W,0.20,59.60,160823,,,A*48
$GPGGA,182805.000,4307.9882,N,07729.7454,W,1,04,1.56,151.0,M,-34.4,M,,*57
$GPRMC,182805.250,A,4307.9884,N,07729.7453,W,0.17,91.53,160823,,,A*48
$GPGGA,182805.500,4307.9885,N,07729.7454,W,1,04,1.56,147.6,M,-34.4,M,,*54
$GPRMC,182805.750,A,4307.9887,N,07729.7453,W,0.18,94.69,160823,,,A*4D
$GPGGA,182806.000,4307.9889,N,07729.7452,W,1,04,1.56,144.5,M,-34.4,M,,*58
$GPRMC,182806.250,A,4307.9890,N,07729.7452,W,0.15,117.18,160823,,,A*7D
$GPGGA,182806.500,4307.9890,N,07729.7453,W,1,04,1.56,141.8,M,-34.4,M,,*5C
$GPRMC,182806.750,A,4307.9891,N,07729.7454,W,0.11,135.67,160823,,,A*73
$GPGGA,182807.000,4307.9892,N,07729.7454,W,1,04,1.56,140.0,M,-34.4,M,,*54
$GPRMC,182807.250,A,4307.9892,N,07729.7454,W,0.13,84.67,160823,,,A*4D
$GPGGA,182807.500,4307.9893,N,07729.7455,W,1,04,1.56,137.9,M,-34.4,M,,*58
$GPRMC,182807.750,A,4307.9893,N,07729.7456,W,0.11,98.08,160823,,,A*4D
$GPGGA,182808.000,4307.9894,N,07729.7457,W,1,04,1.56,136.3,M,-34.4,M,,*5C
$GPRMC,182808.250,A,4307.9894,N,07729.7457,W,0.09,105.11,160823,,,A*75
$GPGGA,182808.500,4307.9894,N,07729.7458,W,1,04,1.56,135.0,M,-34.4,M,,*56
$GPRMC,182808.750,A,4307.9895,N,07729.7459,W,0.07,120.05,160823,,,A*73
$GPGGA,182809.000,4307.9895,N,07729.7460,W,1,04,1.56,133.7,M,-34.4,M,,*59
$GPRMC,182809.250,A,4307.9895,N,07729.7461,W,0.03,132.06,160823,,,A*78
$GPGGA,182809.500,4307.9896,N,07729.7461,W,1,04,1.56,132.6,M,-34.4,M,,*5E
$GPRMC,182809.750,A,4307.9896,N,07729.7462,W,0.05,163.24,160823,,,A*7F
$GPGGA,182810.000,4307.9897,N,07729.7463,W,1,04,1.56,131.4,M,-34.4,M,,*51
$GPRMC,182810.250,A,4307.9897,N,07729.7463,W,0.01,88.93,160823,,,A*4E
$GPGGA,182810.500,4307.9897,N,07729.7464,W,1,04,1.56,130.4,M,-34.4,M,,*52
$GPRMC,182810.750,A,4307.9898,N,07729.7465,W,0.06,35.75,160823,,,A*4B
$GPGGA,182811.000,4307.9898,N,07729.7465,W,1,04,1.56,129.5,M,-34.4,M,,*51
$GPRMC,182811.250,A,4307.9898,N,07729.7466,W,0.03,30.82,160823,,,A*44
$GPGGA,182811.500,4307.9899,N,07729.7467,W,1,04,1.56,128.5,M,-34.4,M,,*56
$GPRMC,182811.750,A,4307.9899,N,07729.7467,W,0.02,29.95,160823,,,A*4E
$GPGGA,182812.000,4307.9899,N,07729.7468,W,1,04,1.56,127.6,M,-34.4,M,,*53
$GPRMC,182812.250,A,4307.9900,N,07729.7469,W,0.03,211.56,160823,,,A*70
$GPGGA,182812.500,4307.9900,N,07729.7469,W,1,04,1.56,126.9,M,-34.4,M,,*58
$GPRMC,182812.750,A,4307.9900,N,07729.7469,W,0.03,19.54,160823,,,A*4D
$GPGGA,182813.000,4307.9900,N,07729.7469,W,1,04,1.56,126.2,M,-34.4,M,,*57
$GPRMC,182813.250,A,4307.9901,N,07729.7470,W,0.04,32.28,160823,,,A*45
$GPGGA,182813.500,4307.9901,N,07729.7470,W,1,04,1.56,125.3,M,-34.4,M,,*59
$GPRMC,182813.750,A,4307.9901,N,07729.7470,W,0.05,45.45,160823,,,A*4A
$GPGGA,182814.000,4307.9902,N,07729.7471,W,1,04,1.56,124.6,M,-34.4,M,,*5D
$GPRMC,182814.250,A,4307.9902,N,07729.7471,W,0.05,62.93,160823,,,A*44
$GPGGA,182814.500,4307.9902,N,07729.7472,W,1,04,1.56,124.0,M,-34.4,M,,*5D
$GPRMC,182814.750,A,4307.9902,N,07729.7472,W,0.05,332.88,160823,,,A*7E
$GPGGA,182815.000,4307.9903,N,07729.7473,W,1,04,1.56,123.5,M,-34.4,M,,*5B
$GPRMC,182815.250,A,4307.9903,N,07729.7473,W,0.12,319.56,160823,,,A*76
$GPGGA,182815.500,4307.9903,N,07729.7474,W,1,04,1.56,122.9,M,-34.4,M,,*54
$GPRMC,182815.750,A,4307.9904,N,07729.7474,W,0.17,270.85,160823,,,A*76
$GPGGA,182816.000,4307.9904,N,07729.7475,W,1,04,1.56,122.2,M,-34.4,M,,*5F
$GPRMC,182816.250,A,4307.9904,N,07729.7475,W,0.14,253.00,160823,,,A*7E
$GPGGA,182816.500,4307.9904,N,07729.7475,W,1,04,1.56,121.7,M,-34.4,M,,*5C
$GPRMC,182816.750,A,4307.9904,N,07729.7475,W,0.10,258.90,160823,,,A*7D
$GPGGA,182817.000,4307.9905,N,07729.7475,W,1,04,1.56,121.2,M,-34.4,M,,*5C
$GPRMC,182817.250,A,4307.9905,N,07729.7475,W,0.08,325.85,160823,,,A*7E
$GPGGA,182817.500,4307.9905,N,07729.7475,W,1,04,1.56,120.7,M,-34.4,M,,*5D
$GPRMC,182817.750,A,4307.9905,N,07729.7475,W,0.11,298.71,160823,,,A*7F
$GPGGA,182818.000,4307.9905,N,07729.7476,W,1,04,1.56,120.3,M,-34.4,M,,*50
$GPRMC,182818.250,A,4307.9906,N,07729.7476,W,0.12,266.47,160823,,,A*72
$GPGGA,182818.500,4307.9906,N,07729.7476,W,1,04,1.56,119.9,M,-34.4,M,,*56
$GPRMC,182818.750,A,4307.9906,N,07729.7475,W,0.09,283.63,160823,,,A*73
$GPGGA,182819.000,4307.9906,N,07729.7476,W,1,04,1.56,119.5,M,-34.4,M,,*5E
$GPRMC,182819.250,A,4307.9907,N,07729.7476,W,0.11,256.16,160823,,,A*76
$GPGGA,182819.500,4307.9907,N,07729.7476,W,1,04,1.56,119.0,M,-34.4,M,,*5F
$GPRMC,182819.750,A,4307.9907,N,07729.7475,W,0.10,260.26,160823,,,A*77
$GPGGA,182820.000,4307.9908,N,07729.7475,W,1,04,1.56,118.5,M,-34.4,M,,*58
$GPRMC,182820.250,A,4307.9908,N,07729.7474,W,0.00,81.27,160823,,,A*4B
$GPGGA,182820.500,4307.9909,N,07729.7474,W,1,04,1.56,118.0,M,-34.4,M,,*58
$GPRMC,182820.750,A,4307.9910,N,07729.7474,W,0.08,337.84,160823,,,A*78
$GPGGA,182821.000,4307.9910,N,07729.7473,W,1,04,1.56,117.5,M,-34.4,M,,*59
$GPRMC,182821.250,A,4307.9911,N,07729.7473,W,0.04,7.52,160823,,,A*7D
$GPGGA,182821.500,4307.9911,N,07729.7473,W,1,04,1.67,117.0,M,-34.4,M,,*5A
$GPRMC,182821.750,A,4307.9912,N,07729.7472,W,0.07,36.50,160823,,,A*49
$GPGGA,182822.000,4307.9912,N,07729.7473,W,1,04,1.56,116.5,M,-34.4,M,,*59
$GPRMC,182822.250,A,4307.9912,N,07729.7472,W,0.03,81.62,160823,,,A*46
$GPGGA,182822.500,4307.9912,N,07729.7472,W,1,04,1.56,116.1,M,-34.4,M,,*59
$GPRMC,182822.750,A,4307.9913,N,07729.7472,W,0.01,220.00,160823,,,A*7D
$GPGGA,182823.000,4307.9913,N,07729.7472,W,1,04,1.56,115.7,M,-34.4,M,,*59
$GPRMC,182823.250,A,4307.9914,N,07729.7472,W,0.03,39.39,160823,,,A*4C
$GPGGA,182823.500,4307.9914,N,07729.7472,W,1,04,1.56,115.2,M,-34.4,M,,*5E
$GPRMC,182823.750,A,4307.9914,N,07729.7472,W,0.03,44.88,160823,,,A*49
$GPGGA,182824.000,4307.9914,N,07729.7472,W,1,04,1.56,114.9,M,-34.4,M,,*56
$GPRMC,182824.250,A,4307.9914,N,07729.7472,W,0.03,125.85,160823,,,A*70
$GPGGA,182824.500,4307.9915,N,07729.7472,W,1,04,1.56,114.6,M,-34.4,M,,*5D
$GPRMC,182824.750,A,4307.9915,N,07729.7471,W,0.09,31.48,160823,,,A*48
$GPGGA,182825.000,4307.9916,N,07729.7471,W,1,04,1.56,114.2,M,-34.4,M,,*5D
$GPRMC,182825.250,A,4307.9916,N,07729.7471,W,0.08,355.86,160823,,,A*7D
$GPGGA,182825.500,4307.9915,N,07729.7472,W,1,04,1.67,113.9,M,-34.4,M,,*56
$GPRMC,182825.750,A,4307.9916,N,07729.7472,W,0.15,232.14,160823,,,A*7C
$GPGGA,182826.000,4307.9916,N,07729.7472,W,1,04,1.56,113.7,M,-34.4,M,,*5F
$GPRMC,182826.250,A,4307.9916,N,07729.7472,W,0.12,235.59,160823,,,A*73
$GPGGA,182826.500,4307.9916,N,07729.7472,W,1,05,1.51,113.4,M,-34.4,M,,*5F
$GPRMC,182826.750,A,4307.9916,N,07729.7472,W,0.15,221.11,160823,,,A*78
$GPGGA,182827.000,4307.9917,N,07729.7471,W,1,05,1.51,113.2,M,-34.4,M,,*5F
$GPRMC,182827.250,A,4307.9917,N,07729.7471,W,0.05,244.10,160823,,,A*7D
$GPGGA,182827.500,4307.9917,N,07729.7471,W,1,05,1.51,112.9,M,-34.4,M,,*50
$GPRMC,182827.750,A,4307.9918,N,07729.7471,W,0.09,296.69,160823,,,A*7A
$GPGGA,182828.000,4307.9918,N,07729.7471,W,1,05,1.51,112.7,M,-34.4,M,,*5B
$GPRMC,182828.250,A,4307.9918,N,07729.7470,W,0.08,327.06,160823,,,A*72
$GPGGA,182828.500,4307.9918,N,07729.7470,W,1,05,1.51,112.5,M,-34.4,M,,*5D
$GPRMC,182828.750,A,4307.9919,N,07729.7470,W,0.07,334.32,160823,,,A*7C
$GPGGA,182829.000,4307.9919,N,07729.7470,W,1,05,1.51,112.4,M,-34.4,M,,*59
$GPRMC,182829.250,A,4307.9919,N,07729.7470,W,0.08,291.99,160823,,,A*78
$GPGGA,182829.500,4307.9919,N,07729.7470,W,1,05,1.50,112.2,M,-34.4,M,,*5B
$GPRMC,182829.750,A,4307.9919,N,07729.7470,W,0.06,333.10,160823,,,A*7B
$GPGGA,182830.000,4307.9920,N,07729.7470,W,1,05,1.51,112.1,M,-34.4,M,,*5E
$GPRMC,182830.250,A,4307.9920,N,07729.7470,W,0.11,318.71,160823,,,A*74
$GPGGA,182830.500,4307.9920,N,07729.7470,W,1,05,1.51,112.0,M,-34.4,M,,*5A
$GPRMC,182830.750,A,4307.9920,N,07729.7470,W,0.09,307.68,160823,,,A*7E
$GPGGA,182831.000,4307.9920,N,07729.7470,W,1,05,1.51,111.9,M,-34.4,M,,*54
$GPRMC,182831.250,A,4307.9920,N,07729.7469,W,0.08,202.64,160823,,,A*7B
$GPGGA,182831.500,4307.9920,N,07729.7469,W,1,05,1.50,111.8,M,-34.4,M,,*59
$GPRMC,182831.750,A,4307.9920,N,07729.7469,W,0.12,211.69,160823,,,A*7A
$GPGGA,182832.000,4307.9920,N,07729.7469,W,1,05,1.50,111.7,M,-34.4,M,,*50
$GPRMC,182832.250,A,4307.9920,N,07729.7469,W,0.09,248.34,160823,,,A*72
$GPGGA,182832.500,4307.9920,N,07729.7469,W,1,05,1.51,111.6,M,-34.4,M,,*55
$GPRMC,182832.750,A,4307.9921,N,07729.7470,W,0.12,261.47,160823,,,A*7B
$GPGGA,182833.000,4307.9921,N,07729.7470,W,1,05,1.51,111.6,M,-34.4,M,,*58
$GPRMC,182833.250,A,4307.9921,N,07729.7471,W,0.25,287.32,160823,,,A*70
$GPGGA,182833.500,4307.9921,N,07729.7471,W,1,05,1.50,111.5,M,-34.4,M,,*5E
$GPRMC,182833.750,A,4307.9921,N,07729.7471,W,0.25,286.34,160823,,,A*72
$GPGGA,182834.000,4307.9921,N,07729.7471,W,1,05,1.51,111.5,M,-34.4,M,,*5D
$GPRMC,182834.250,A,4307.9921,N,07729.7471,W,0.18,271.29,160823,,,A*7A
$GPGGA,182834.500,4307.9921,N,07729.7471,W,1,05,1.51,111.4,M,-34.4,M,,*59
$GPRMC,182834.750,A,4307.9921,N,07729.7471,W,0.18,259.31,160823,,,A*7C
$GPGGA,182835.000,4307.9921,N,07729.7471,W,1,05,1.51,111.3,M,-34.4,M,,*5A
$GPRMC,182835.250,A,4307.9921,N,07729.7471,W,0.11,244.68,160823,,,A*71
$GPGGA,182835.500,4307.9921,N,07729.7471,W,1,05,1.51,111.3,M,-34.4,M,,*5F
$GPRMC,182835.750,A,4307.9921,N,07729.7471,W,0.04,313.00,160823,,,A*7D
$GPGGA,182836.000,4307.9921,N,07729.7471,W,1,05,1.51,111.3,M,-34.4,M,,*59
$GPRMC,182836.250,A,4307.9921,N,07729.7471,W,0.08,82.79,160823,,,A*42
$GPGGA,182836.500,4307.9921,N,07729.7471,W,1,05,1.51,111.3,M,-34.4,M,,*5C
$GPRMC,182836.750,A,4307.9921,N,07729.7471,W,0.11,68.65,160823,,,A*46
$GPGGA,182837.000,4307.9921,N,07729.7470,W,1,05,1.51,111.3,M,-34.4,M,,*59
$GPRMC,182837.250,A,4307.9921,N,07729.7470,W,0.07,142.45,160823,,,A*7F
$GPGGA,182837.500,4307.9921,N,07729.7470,W,1,05,1.51,111.3,M,-34.4,M,,*5C
$GPRMC,182837.750,A,4307.9921,N,07729.7470,W,0.07,75.59,160823,,,A*42
$GPGGA,182838.000,4307.9921,N,07729.7470,W,1,05,1.51,111.3,M,-34.4,M,,*56
$GPRMC,182838.250,A,4307.9921,N,07729.7470,W,0.12,64.01,160823,,,A*41
$GPGGA,182838.500,4307.9921,N,07729.7470,W,1,05,1.51,111.3,M,-34.4,M,,*53
$GPRMC,182838.750,A,4307.9921,N,07729.7470,W,0.18,41.62,160823,,,A*4C
$GPGGA,182839.000,4307.9922,N,07729.7470,W,1,05,1.51,111.3,M,-34.4,M,,*54
$GPRMC,182839.250,A,4307.9922,N,07729.7470,W,0.08,7.07,160823,,,A*7B
$GPGGA,182839.500,4307.9922,N,07729.7470,W,1,05,1.62,111.3,M,-34.4,M,,*51
$GPRMC,182839.750,A,4307.9922,N,07729.7470,W,0.04,327.32,160823,,,A*75
$GPGGA,182840.000,4307.9922,N,07729.7470,W,1,05,1.51,111.2,M,-34.4,M,,*5B
$GPRMC,182840.250,A,4307.9922,N,07729.7470,W,0.13,344.44,160823,,,A*7C
$GPGGA,182840.500,4307.9922,N,07729.7470,W,1,05,1.50,111.2,M,-34.4,M,,*5F
$GPRMC,182840.750,A,4307.9922,N,07729.7470,W,0.15,20.32,160823,,,A*4F
$GPGGA,182841.000,4307.9922,N,07729.7470,W,1,05,1.51,111.2,M,-34.4,M,,*5A
$GPRMC,182841.250,A,4307.9922,N,07729.7470,W,0.06,96.24,160823,,,A*43
$GPGGA,182841.500,4307.9922,N,07729.7470,W,1,05,1.51,111.2,M,-34.4,M,,*5F
$GPRMC,182841.750,A,4307.9922,N,07729.7470,W,0.05,207.53,160823,,,A*7F
$GPGGA,182842.000,4307.9922,N,07729.7470,W,1,05,1.51,111.2,M,-34.4,M,,*59
$GPRMC,182842.250,A,4307.9922,N,07729.7470,W,0.07,24.63,160823,,,A*4B
$GPGGA,182842.500,4307.9922,N,07729.7470,W,1,05,1.51,111.2,M,-34.4,M,,*5C
$GPRMC,182842.750,A,4307.9922,N,07729.7470,W,0.15,18.38,160823,,,A*4C
$GPGGA,182843.000,4307.9922,N,07729.7470,W,1,05,1.50,111.2,M,-34.4,M,,*59
$GPRMC,182843.250,A,4307.9922,N,07729.7470,W,0.16,12.87,160823,,,A*45
$GPGGA,182843.500,4307.9923,N,07729.7470,W,1,05,1.62,111.2,M,-34.4,M,,*5C
$GPRMC,182843.750,A,4307.9923,N,07729.7470,W,0.10,52.70,160823,,,A*4B
$GPGGA,182844.000,4307.9923,N,07729.7469,W,1,05,1.51,111.2,M,-34.4,M,,*56
$GPRMC,182844.250,A,4307.9923,N,07729.7469,W,0.14,214.20,160823,,,A*70
$GPGGA,182844.500,4307.9923,N,07729.7469,W,1,05,1.51,111.2,M,-34.4,M,,*53
$GPRMC,182844.750,A,4307.9923,N,07729.7470,W,0.19,244.69,160823,,,A*78
$GPGGA,182845.000,4307.9922,N,07729.7470,W,1,05,1.51,111.2,M,-34.4,M,,*5E
$GPRMC,182845.250,A,4307.9922,N,07729.7470,W,0.13,274.53,160823,,,A*7D
$GPGGA,182845.500,4307.9922,N,07729.7470,W,1,05,1.51,111.2,M,-34.4,M,,*5B
$GPRMC,182845.750,A,4307.9922,N,07729.7470,W,0.02,348.50,160823,,,A*75
$GPGGA,182846.000,4307.9922,N,07729.7470,W,1,05,1.62,111.2,M,-34.4,M,,*5D
$GPRMC,182846.250,A,4307.9922,N,07729.7470,W,0.01,225.19,160823,,,A*77
$GPGGA,182846.500,4307.9922,N,07729.7470,W,1,05,1.62,111.2,M,-34.4,M,,*58
$GPRMC,182846.750,A,4307.9922,N,07729.7470,W,0.05,158.92,160823,,,A*7C
$GPGGA,182847.000,4307.9922,N,07729.7470,W,1,05,1.62,111.2,M,-34.4,M,,*5C
$GPRMC,182847.250,A,4307.9922,N,07729.7470,W,0.07,195.90,160823,,,A*79
$GPGGA,182847.500,4307.9922,N,07729.7470,W,1,05,1.62,111.2,M,-34.4,M,,*59
$GPRMC,182847.750,A,4307.9922,N,07729.7470,W,0.03,308.16,160823,,,A*70
$GPGGA,182848.000,4307.9922,N,07729.7470,W,1,05,1.62,111.2,M,-34.4,M,,*53
$GPRMC,182848.250,A,4307.9922,N,07729.7470,W,0.01,25.28,160823,,,A*49
$GPGGA,182848.500,4307.9922,N,07729.7470,W,1,05,1.62,111.2,M,-34.4,M,,*56
$GPRMC,182848.750,A,4307.9922,N,07729.7470,W,0.01,139.94,160823,,,A*77
$GPGGA,182849.000,4307.9922,N,07729.7470,W,1,05,1.62,111.2,M,-34.4,M,,*52
$GPRMC,182849.250,A,4307.9922,N,07729.7470,W,0.00,354.19,160823,,,A*7E
$GPGGA,182849.500,4307.9922,N,07729.7470,W,1,05,1.62,111.2,M,-34.4,M,,*57
$GPRMC,182849.750,A,4307.9922,N,07729.7470,W,0.01,153.88,160823,,,A*77
$GPGGA,182850.000,4307.9922,N,07729.7470,W,1,05,1.62,111.2,M,-34.4,M,,*5A
$GPRMC,182850.250,A,4307.9922,N,07729.7470,W,0.03,282.59,160823,,,A*7B
$GPGGA,182850.500,4307.9922,N,07729.7470,W,1,05,1.62,111.2,M,-34.4,M,,*5F
$GPRMC,182850.750,A,4307.9922,N,07729.7470,W,0.00,348.76,160823,,,A*77
$GPGGA,182851.000,4307.9922,N,07729.7470,W,1,05,1.62,111.2,M,-34.4,M,,*5B
$GPRMC,182851.250,A,4307.9922,N,07729.7470,W,0.02,23.78,160823,,,A*41
$GPGGA,182851.500,4307.9922,N,07729.7470,W,1,05,1.62,111.2,M,-34.4,M,,*5E
$GPRMC,182851.750,A,4307.9922,N,07729.7470,W,0.00,0.00,160823,,,A*78
$GPGGA,182852.000,4307.9922,N,07729.7470,W,1,05,1.62,111.2,M,-34.4,M,,*58
$GPRMC,182852.250,A,4307.9922,N,07729.7470,W,0.01,127.44,160823,,,A*7B
$GPGGA,182852.500,4307.9922,N,07729.7470,W,1,05,1.62,111.2,M,-34.4,M,,*5D
$GPRMC,182852.750,A,4307.9922,N,07729.7470,W,0.01,159.07,160823,,,A*70
$GPGGA,182853.000,4307.9922,N,07729.7470,W,1,05,1.62,111.2,M,-34.4,M,,*59
$GPRMC,182853.250,A,4307.9922,N,07729.7470,W,0.01,198.55,160823,,,A*7E
$GPGGA,182853.500,4307.9922,N,07729.7470,W,1,05,1.62,111.2,M,-34.4,M,,*5C
$GPRMC,182853.750,A,4307.9922,N,07729.7470,W,0.00,0.00,160823,,,A*7A
$GPGGA,182854.000,4307.9922,N,07729.7470,W,1,05,1.62,111.2,M,-34.4,M,,*5E
$GPRMC,182854.250,A,4307.9922,N,07729.7470,W,0.02,0.15,160823,,,A*7E
$GPGGA,182854.500,4307.9922,N,07729.7470,W,1,05,1.62,111.2,M,-34.4,M,,*5B
$GPRMC,182854.750,A,4307.9922,N,07729.7470,W,0.01,307.64,160823,,,A*7A
$GPGGA,182855.000,4307.9922,N,07729.7470,W,1,05,1.62,111.2,M,-34.4,M,,*5F
$GPRMC,182855.250,A,4307.9922,N,07729.7470,W,0.03,283.74,160823,,,A*70
$GPGGA,182855.500,4307.9922,N,07729.7470,W,1,05,1.62,111.2,M,-34.4,M,,*5A
$GPRMC,182855.750,A,4307.9922,N,07729.7470,W,0.03,303.07,160823,,,A*78
$GPGGA,182856.000,4307.9922,N,07729.7470,W,1,05,1.62,111.2,M,-34.4,M,,*5C
$GPRMC,182856.250,A,4307.9922,N,07729.7470,W,0.04,301.96,160823,,,A*73
$GPGGA,182856.500,4307.9922,N,07729.7470,W,1,05,1.62,111.2,M,-34.4,M,,*59
$GPRMC,182856.750,A,4307.9922,N,07729.7470,W,0.05,309.23,160823,,,A*71
$GPGGA,182857.000,4307.9922,N,07729.7470,W,1,05,1.62,111.2,M,-34.4,M,,*5D
$GPRMC,182857.250,A,4307.9923,N,07729.7470,W,0.16,296.44,160823,,,A*70
$GPGGA,182857.500,4307.9923,N,07729.7470,W,1,05,1.62,111.2,M,-34.4,M,,*59
$GPRMC,182857.750,A,4307.9923,N,07729.7470,W,0.11,302.96,160823,,,A*71
$GPGGA,182858.000,4307.9923,N,07729.7470,W,1,05,1.51,111.2,M,-34.4,M,,*53
$GPRMC,182858.250,A,4307.9923,N,07729.7471,W,0.30,300.52,160823,,,A*73
$GPGGA,182858.500,4307.9923,N,07729.7471,W,1,05,1.51,111.2,M,-34.4,M,,*57
$GPRMC,182858.750,A,4307.9923,N,07729.7471,W,0.56,304.16,160823,,,A*72
$GPGGA,182859.000,4307.9923,N,07729.7472,W,1,05,1.51,111.2,M,-34.4,M,,*50
$GPRMC,182859.250,A,4307.9924,N,07729.7473,W,0.77,307.68,160823,,,A*7A
$GPGGA,182859.500,4307.9926,N,07729.7474,W,1,05,1.51,111.1,M,-34.4,M,,*55
$GPRMC,182859.750,A,4307.9928,N,07729.7476,W,1.19,321.37,160823,,,A*71
$GPGGA,182900.000,4307.9931,N,07729.7479,W,1,05,1.51,111.0,M,-34.4,M,,*57
$GPRMC,182900.250,A,4307.9934,N,07729.7480,W,2.56,339.33,160823,,,A*78
$GPGGA,182900.500,4307.9936,N,07729.7481,W,1,05,1.51,110.9,M,-34.4,M,,*5A
$GPRMC,182900.750,A,4307.9939,N,07729.7481,W,3.62,355.16,160823,,,A*7A
$GPGGA,182901.000,4307.9942,N,07729.7481,W,1,05,1.62,110.8,M,-34.4,M,,*5C
$GPRMC,182901.250,A,4307.9945,N,07729.7479,W,4.09,20.03,160823,,,A*4D
$GPGGA,182901.500,4307.9948,N,07729.7477,W,1,05,1.62,110.7,M,-34.4,M,,*55
$GPRMC,182901.750,A,4307.9952,N,07729.7475,W,4.85,28.11,160823,,,A*4D
$GPGGA,182902.000,4307.9955,N,07729.7473,W,1,05,1.62,110.6,M,-34.4,M,,*5A
$GPRMC,182902.250,A,4307.9959,N,07729.7469,W,5.85,37.75,160823,,,A*40
$GPGGA,182902.500,4307.9964,N,07729.7465,W,1,05,1.62,110.4,M,-34.4,M,,*58
$GPRMC,182902.750,A,4307.9968,N,07729.7461,W,6.71,40.17,160823,,,A*43
$GPGGA,182903.000,4307.9972,N,07729.7458,W,1,05,1.62,110.3,M,-34.4,M,,*52
$GPRMC,182903.250,A,4307.9977,N,07729.7453,W,7.38,41.32,160823,,,A*42
$GPGGA,182903.500,4307.9980,N,07729.7449,W,1,05,1.62,110.1,M,-34.4,M,,*58
$GPRMC,182903.750,A,4307.9984,N,07729.7444,W,7.44,43.53,160823,,,A*43
$GPGGA,182904.000,4307.9989,N,07729.7439,W,1,05,1.62,110.0,M,-34.4,M,,*55
$GPRMC,182904.250,A,4307.9994,N,07729.7435,W,7.99,40.55,160823,,,A*43
$GPGGA,182904.500,4308.0000,N,07729.7430,W,1,05,1.62,109.8,M,-34.4,M,,*57
$GPRMC,182904.750,A,4308.0005,N,07729.7425,W,8.53,39.74,160823,,,A*44
$GPGGA,182905.000,4308.0010,N,07729.7420,W,1,05,1.62,109.7,M,-34.4,M,,*5C
$GPRMC,182905.250,A,4308.0017,N,07729.7415,W,9.15,35.16,160823,,,A*4B
$GPGGA,182905.500,4308.0023,N,07729.7410,W,1,05,1.62,109.5,M,-34.4,M,,*58
$GPRMC,182905.750,A,4308.0029,N,07729.7404,W,9.88,34.55,160823,,,A*41
$GPGGA,182906.000,4308.0036,N,07729.7399,W,1,05,1.51,109.4,M,-34.4,M,,*5D
$GPRMC,182906.250,A,4308.0042,N,07729.7395,W,10.23,32.56,160823,,,A*79
$GPGGA,182906.500,4308.0049,N,07729.7389,W,1,05,1.62,109.3,M,-34.4,M,,*56
$GPRMC,182906.750,A,4308.0056,N,07729.7384,W,10.76,32.05,160823,,,A*7F
$GPGGA,182907.000,4308.0063,N,07729.7379,W,1,05,1.51,109.2,M,-34.4,M,,*54
$GPRMC,182907.250,A,4308.0071,N,07729.7373,W,11.45,31.86,160823,,,A*7F
$GPGGA,182907.500,4308.0078,N,07729.7367,W,1,05,1.51,109.1,M,-34.4,M,,*57
$GPRMC,182907.750,A,4308.0086,N,07729.7361,W,11.87,32.02,160823,,,A*70
$GPGGA,182908.000,4308.0093,N,07729.7355,W,1,05,1.51,109.0,M,-34.4,M,,*58
$GPRMC,182908.250,A,4308.0101,N,07729.7349,W,12.13,32.66,160823,,,A*72
$GPGGA,182908.500,4308.0109,N,07729.7343,W,1,05,1.51,109.0,M,-34.4,M,,*58
$GPRMC,182908.750,A,4308.0117,N,07729.7337,W,12.69,32.17,160823,,,A*72
$GPGGA,182909.000,4308.0125,N,07729.7330,W,1,05,1.51,108.9,M,-34.4,M,,*5E
$GPRMC,182909.250,A,4308.0134,N,07729.7324,W,13.13,32.08,160823,,,A*77
$GPGGA,182909.500,4308.0142,N,07729.7317,W,1,05,1.51,108.8,M,-34.4,M,,*5E
$GPRMC,182909.750,A,4308.0151,N,07729.7310,W,13.60,32.69,160823,,,A*75
$GPGGA,182910.000,4308.0159,N,07729.7303,W,1,05,1.51,108.8,M,-34.4,M,,*5C
$GPRMC,182910.250,A,4308.0168,N,07729.7296,W,13.67,32.90,160823,,,A*7C
$GPGGA,182910.500,4308.0176,N,07729.7289,W,1,05,1.51,108.7,M,-34.4,M,,*58
$GPRMC,182910.750,A,4308.0185,N,07729.7282,W,13.93,32.02,160823,,,A*7F
$GPGGA,182911.000,4308.0194,N,07729.7276,W,1,05,1.50,108.6,M,-34.4,M,,*50
$GPRMC,182911.250,A,4308.0204,N,07729.7268,W,14.56,31.94,160823,,,A*77
$GPGGA,182911.500,4308.0214,N,07729.7260,W,1,05,1.62,108.5,M,-34.4,M,,*5B
$GPRMC,182911.750,A,4308.0223,N,07729.7253,W,15.02,31.63,160823,,,A*77
$GPGGA,182912.000,4308.0233,N,07729.7246,W,1,05,1.51,108.4,M,-34.4,M,,*5D
$GPRMC,182912.250,A,4308.0242,N,07729.7238,W,15.30,31.51,160823,,,A*7B
$GPGGA,182912.500,4308.0252,N,07729.7230,W,1,05,1.51,108.3,M,-34.4,M,,*59
$GPRMC,182912.750,A,4308.0261,N,07729.7223,W,15.49,31.14,160823,,,A*7A
$GPGGA,182913.000,4308.0271,N,07729.7216,W,1,05,1.51,108.2,M,-34.4,M,,*59
$GPRMC,182913.250,A,4308.0280,N,07729.7209,W,15.43,30.56,160823,,,A*74
$GPGGA,182913.500,4308.0288,N,07729.7202,W,1,05,1.51,108.1,M,-34.4,M,,*5C
$GPRMC,182913.750,A,4308.0297,N,07729.7195,W,15.17,31.59,160823,,,A*7E
$GPGGA,182914.000,4308.0307,N,07729.7188,W,1,05,1.51,108.0,M,-34.4,M,,*58
$GPRMC,182914.250,A,4308.0316,N,07729.7181,W,14.94,30.92,160823,,,A*7D
$GPGGA,182914.500,4308.0325,N,07729.7175,W,1,05,1.51,107.9,M,-34.4,M,,*59
$GPRMC,182914.750,A,4308.0334,N,07729.7168,W,14.83,30.98,160823,,,A*73
$GPGGA,182915.000,4308.0343,N,07729.7161,W,1,05,1.51,107.9,M,-34.4,M,,*58
$GPRMC,182915.250,A,4308.0352,N,07729.7154,W,14.76,30.47,160823,,,A*70
$GPGGA,182915.500,4308.0361,N,07729.7148,W,1,05,1.51,107.8,M,-34.4,M,,*57
$GPRMC,182915.750,A,4308.0370,N,07729.7141,W,14.51,30.13,160823,,,A*75
$GPGGA,182916.000,4308.0378,N,07729.7135,W,1,05,1.51,107.7,M,-34.4,M,,*5C
$GPRMC,182916.250,A,4308.0386,N,07729.7129,W,13.87,29.87,160823,,,A*7D
$GPGGA,182916.500,4308.0394,N,07729.7123,W,1,05,1.51,107.7,M,-34.4,M,,*5C
$GPRMC,182916.750,A,4308.0403,N,07729.7118,W,13.64,28.78,160823,,,A*7C
$GPGGA,182917.000,4308.0411,N,07729.7112,W,1,05,1.51,107.6,M,-34.4,M,,*51
$GPRMC,182917.250,A,4308.0419,N,07729.7107,W,13.00,27.21,160823,,,A*7C
$GPGGA,182917.500,4308.0427,N,07729.7102,W,1,05,1.51,107.6,M,-34.4,M,,*50
$GPRMC,182917.750,A,4308.0435,N,07729.7098,W,12.68,26.45,160823,,,A*7C
$GPGGA,182918.000,4308.0442,N,07729.7093,W,1,05,1.51,107.5,M,-34.4,M,,*53
$GPRMC,182918.250,A,4308.0449,N,07729.7090,W,12.05,25.20,160823,,,A*7E
$GPGGA,182918.500,4308.0456,N,07729.7086,W,1,05,1.51,107.4,M,-34.4,M,,*56
$GPRMC,182918.750,A,4308.0461,N,07729.7081,W,11.03,27.20,160823,,,A*76
$GPGGA,182919.000,4308.0468,N,07729.7076,W,1,05,1.51,107.4,M,-34.4,M,,*50
$GPRMC,182919.250,A,4308.0469,N,07729.7071,W,9.45,35.28,160823,,,A*45
$GPGGA,182919.500,4308.0472,N,07729.7066,W,1,05,1.62,107.2,M,-34.4,M,,*59
$GPRMC,182919.750,A,4308.0477,N,07729.7060,W,8.78,40.95,160823,,,A*44
$GPGGA,182920.000,4308.0482,N,07729.7054,W,1,05,1.51,107.1,M,-34.4,M,,*5B
$GPRMC,182920.250,A,4308.0486,N,07729.7048,W,8.55,44.88,160823,,,A*48
$GPGGA,182920.500,4308.0489,N,07729.7041,W,1,05,1.51,107.0,M,-34.4,M,,*50
$GPRMC,182920.750,A,4308.0489,N,07729.7034,W,7.87,63.09,160823,,,A*45
$GPGGA,182921.000,4308.0489,N,07729.7026,W,1,05,1.51,106.9,M,-34.4,M,,*5D
$GPRMC,182921.250,A,4308.0490,N,07729.7019,W,7.65,75.53,160823,,,A*42
$GPGGA,182921.500,4308.0490,N,07729.7012,W,1,05,1.51,106.8,M,-34.4,M,,*56
$GPRMC,182921.750,A,4308.0490,N,07729.7005,W,7.44,84.09,160823,,,A*48
$GPGGA,182922.000,4308.0490,N,07729.6998,W,1,05,1.51,106.7,M,-34.4,M,,*55
$GPRMC,182922.250,A,4308.0489,N,07729.6991,W,7.74,92.09,160823,,,A*47
$GPGGA,182922.500,4308.0488,N,07729.6984,W,1,05,1.51,106.7,M,-34.4,M,,*54
$GPRMC,182922.750,A,4308.0486,N,07729.6976,W,8.02,99.09,160823,,,A*41
$GPGGA,182923.000,4308.0484,N,07729.6969,W,1,05,1.51,106.6,M,-34.4,M,,*5E
$GPRMC,182923.250,A,4308.0482,N,07729.6961,W,8.55,105.22,160823,,,A*78
$GPGGA,182923.500,4308.0478,N,07729.6953,W,1,05,1.51,106.5,M,-34.4,M,,*52
$GPRMC,182923.750,A,4308.0475,N,07729.6946,W,9.15,110.58,160823,,,A*7C
$GPGGA,182924.000,4308.0472,N,07729.6938,W,1,05,1.62,106.4,M,-34.4,M,,*56
$GPRMC,182924.250,A,4308.0468,N,07729.6930,W,9.73,114.10,160823,,,A*7B
$GPGGA,182924.500,4308.0465,N,07729.6922,W,1,05,1.62,106.3,M,-34.4,M,,*59
$GPRMC,182924.750,A,4308.0461,N,07729.6914,W,10.02,116.15,160823,,,A*48
$GPGGA,182925.000,4308.0457,N,07729.6906,W,1,05,1.62,106.2,M,-34.4,M,,*5B
$GPRMC,182925.250,A,4308.0453,N,07729.6898,W,10.38,118.20,160823,,,A*49
$GPGGA,182925.500,4308.0449,N,07729.6891,W,1,05,1.62,106.1,M,-34.4,M,,*5D
$GPRMC,182925.750,A,4308.0445,N,07729.6883,W,10.63,119.38,160823,,,A*47
$GPGGA,182926.000,4308.0441,N,07729.6875,W,1,05,1.51,106.0,M,-34.4,M,,*58
$GPRMC,182926.250,A,4308.0436,N,07729.6867,W,10.89,121.26,160823,,,A*4F
$GPGGA,182926.500,4308.0431,N,07729.6860,W,1,05,1.62,105.9,M,-34.4,M,,*54
$GPRMC,182926.750,A,4308.0426,N,07729.6852,W,10.93,122.73,160823,,,A*45
$GPGGA,182927.000,4308.0422,N,07729.6844,W,1,05,1.51,105.8,M,-34.4,M,,*55
$GPRMC,182927.250,A,4308.0418,N,07729.6836,W,10.92,123.08,160823,,,A*42
$GPGGA,182927.500,4308.0413,N,07729.6827,W,1,05,1.51,105.8,M,-34.4,M,,*57
$GPRMC,182927.750,A,4308.0408,N,07729.6819,W,11.00,123.48,160823,,,A*45
$GPGGA,182928.000,4308.0403,N,07729.6811,W,1,05,1.51,105.7,M,-34.4,M,,*56
$GPRMC,182928.250,A,4308.0397,N,07729.6803,W,11.22,125.48,160823,,,A*43
$GPGGA,182928.500,4308.0392,N,07729.6795,W,1,05,1.51,105.7,M,-34.4,M,,*5F
$GPRMC,182928.750,A,4308.0387,N,07729.6787,W,11.36,125.66,160823,,,A*4D
$GPGGA,182929.000,4308.0382,N,07729.6778,W,1,05,1.51,105.6,M,-34.4,M,,*58
$GPRMC,182929.250,A,4308.0377,N,07729.6770,W,11.68,125.67,160823,,,A*44
$GPGGA,182929.500,4308.0372,N,07729.6761,W,1,05,1.62,105.6,M,-34.4,M,,*5A
$GPRMC,182929.750,A,4308.0367,N,07729.6753,W,11.90,126.99,160823,,,A*44
$GPGGA,182930.000,4308.0361,N,07729.6745,W,1,05,1.51,105.6,M,-34.4,M,,*53
$GPRMC,182930.250,A,4308.0356,N,07729.6737,W,11.94,128.08,160823,,,A*4B
$GPGGA,182930.500,4308.0350,N,07729.6728,W,1,05,1.51,105.6,M,-34.4,M,,*5F
$GPRMC,182930.750,A,4308.0345,N,07729.6720,W,11.98,127.94,160823,,,A*4C
$GPGGA,182931.000,4308.0340,N,07729.6712,W,1,05,1.51,105.6,M,-34.4,M,,*53
$GPRMC,182931.250,A,4308.0335,N,07729.6703,W,11.74,127.62,160823,,,A*45
$GPGGA,182931.500,4308.0331,N,07729.6695,W,1,05,1.62,105.6,M,-34.4,M,,*5E
$GPRMC,182931.750,A,4308.0327,N,07729.6687,W,11.41,126.16,160823,,,A*4A
$GPGGA,182932.000,4308.0323,N,07729.6679,W,1,05,1.51,105.6,M,-34.4,M,,*59
$GPRMC,182932.250,A,4308.0319,N,07729.6671,W,10.69,124.96,160823,,,A*49
$GPGGA,182932.500,4308.0314,N,07729.6664,W,1,05,1.62,105.5,M,-34.4,M,,*57
$GPRMC,182932.750,A,4308.0310,N,07729.6656,W,10.64,124.76,160823,,,A*43
$GPGGA,182933.000,4308.0305,N,07729.6649,W,1,05,1.51,105.5,M,-34.4,M,,*5C
$GPRMC,182933.250,A,4308.0301,N,07729.6642,W,10.26,125.64,160823,,,A*46
$GPGGA,182933.500,4308.0296,N,07729.6635,W,1,05,1.62,105.4,M,-34.4,M,,*58
$GPRMC,182933.750,A,4308.0292,N,07729.6628,W,9.59,127.00,160823,,,A*74
$GPGGA,182934.000,4308.0288,N,07729.6623,W,1,05,1.62,105.4,M,-34.4,M,,*52
$GPRMC,182934.250,A,4308.0285,N,07729.6618,W,8.16,128.74,160823,,,A*75
$GPGGA,182934.500,4308.0282,N,07729.6614,W,1,05,1.62,105.3,M,-34.4,M,,*5E
$GPRMC,182934.750,A,4308.0279,N,07729.6610,W,6.53,131.01,160823,,,A*7E
$GPGGA,182935.000,4308.0277,N,07729.6607,W,1,05,1.62,105.2,M,-34.4,M,,*53
$GPRMC,182935.250,A,4308.0275,N,07729.6604,W,4.95,137.59,160823,,,A*70
$GPGGA,182935.500,4308.0272,N,07729.6603,W,1,05,1.62,105.2,M,-34.4,M,,*57
$GPRMC,182935.750,A,4308.0271,N,07729.6601,W,3.74,142.25,160823,,,A*75
$GPGGA,182936.000,4308.0270,N,07729.6600,W,1,05,1.51,105.1,M,-34.4,M,,*53
$GPRMC,182936.250,A,4308.0270,N,07729.6599,W,2.57,143.44,160823,,,A*76
$GPGGA,182936.500,4308.0269,N,07729.6598,W,1,05,1.51,105.0,M,-34.4,M,,*5D
$GPRMC,182936.750,A,4308.0268,N,07729.6597,W,2.34,143.44,160823,,,A*71
$GPGGA,182937.000,4308.0267,N,07729.6596,W,1,05,1.51,104.9,M,-34.4,M,,*51
$GPRMC,182937.250,A,4308.0266,N,07729.6595,W,2.34,143.44,160823,,,A*79
$GPGGA,182937.500,4308.0266,N,07729.6593,W,1,05,1.51,104.9,M,-34.4,M,,*50
$GPRMC,182937.750,A,4308.0264,N,07729.6591,W,2.82,143.44,160823,,,A*77
$GPGGA,182938.000,4308.0263,N,07729.6588,W,1,05,1.51,104.9,M,-34.4,M,,*55
$GPRMC,182938.250,A,4308.0261,N,07729.6586,W,3.80,137.63,160823,,,A*7B
$GPGGA,182938.500,4308.0258,N,07729.6583,W,1,05,1.51,104.8,M,-34.4,M,,*52
$GPRMC,182938.750,A,4308.0256,N,07729.6581,W,4.51,143.43,160823,,,A*77
$GPGGA,182939.000,4308.0253,N,07729.6578,W,1,05,1.62,104.7,M,-34.4,M,,*56
$GPRMC,182939.250,A,4308.0249,N,07729.6576,W,4.98,146.95,160823,,,A*7E
$GPGGA,182939.500,4308.0245,N,07729.6575,W,1,05,1.62,104.6,M,-34.4,M,,*58
$GPRMC,182939.750,A,4308.0241,N,07729.6574,W,5.52,163.02,160823,,,A*7F
$GPGGA,182940.000,4308.0236,N,07729.6575,W,1,05,1.62,104.5,M,-34.4,M,,*54
$GPRMC,182940.250,A,4308.0231,N,07729.6577,W,6.64,180.47,160823,,,A*7A
$GPGGA,182940.500,4308.0225,N,07729.6579,W,1,05,1.62,104.2,M,-34.4,M,,*58
$GPRMC,182940.750,A,4308.0220,N,07729.6582,W,7.83,192.87,160823,,,A*72
$GPGGA,182941.000,4308.0213,N,07729.6585,W,1,05,1.62,103.9,M,-34.4,M,,*56
$GPRMC,182941.250,A,4308.0207,N,07729.6589,W,8.78,200.92,160823,,,A*7F
$GPGGA,182941.500,4308.0200,N,07729.6593,W,1,05,1.62,103.6,M,-34.4,M,,*59
$GPRMC,182941.750,A,4308.0193,N,07729.6598,W,9.73,205.28,160823,,,A*7A
$GPGGA,182942.000,4308.0186,N,07729.6603,W,1,05,1.62,103.4,M,-34.4,M,,*5A
$GPRMC,182942.250,A,4308.0179,N,07729.6610,W,10.79,210.57,160823,,,A*45
$GPGGA,182942.500,4308.0173,N,07729.6617,W,1,05,1.62,103.2,M,-34.4,M,,*56
$GPRMC,182942.750,A,4308.0166,N,07729.6623,W,11.26,213.50,160823,,,A*41
$GPGGA,182943.000,4308.0160,N,07729.6630,W,1,05,1.62,103.0,M,-34.4,M,,*57
$GPRMC,182943.250,A,4308.0153,N,07729.6637,W,11.57,215.22,160823,,,A*43
$GPGGA,182943.500,4308.0146,N,07729.6644,W,1,05,1.62,102.8,M,-34.4,M,,*5C
$GPRMC,182943.750,A,4308.0140,N,07729.6651,W,11.59,215.00,160823,,,A*4A
$GPGGA,182944.000,4308.0133,N,07729.6658,W,1,05,1.51,102.6,M,-34.4,M,,*5F
$GPRMC,182944.250,A,4308.0127,N,07729.6664,W,11.50,214.37,160823,,,A*43
$GPGGA,182944.500,4308.0121,N,07729.6670,W,1,05,1.51,102.4,M,-34.4,M,,*51
$GPRMC,182944.750,A,4308.0114,N,07729.6676,W,11.25,213.42,160823,,,A*42
$GPGGA,182945.000,4308.0108,N,07729.6682,W,1,05,1.51,102.1,M,-34.4,M,,*56
$GPRMC,182945.250,A,4308.0104,N,07729.6687,W,9.79,211.39,160823,,,A*77
$GPGGA,182945.500,4308.0100,N,07729.6691,W,1,05,1.62,101.9,M,-34.4,M,,*52
$GPRMC,182945.750,A,4308.0097,N,07729.6695,W,8.26,211.83,160823,,,A*70
$GPGGA,182946.000,4308.0094,N,07729.6698,W,1,05,1.51,101.7,M,-34.4,M,,*5F
$GPRMC,182946.250,A,4308.0092,N,07729.6700,W,6.18,210.99,160823,,,A*77
$GPGGA,182946.500,4308.0090,N,07729.6702,W,1,05,1.62,101.5,M,-34.4,M,,*5E
$GPRMC,182946.750,A,4308.0087,N,07729.6704,W,4.78,212.22,160823,,,A*74
$GPGGA,182947.000,4308.0084,N,07729.6706,W,1,05,1.62,101.3,M,-34.4,M,,*5D
$GPRMC,182947.250,A,4308.0082,N,07729.6707,W,3.58,206.92,160823,,,A*7D
$GPGGA,182947.500,4308.0079,N,07729.6708,W,1,05,1.51,101.1,M,-34.4,M,,*56
$GPRMC,182947.750,A,4308.0076,N,07729.6709,W,3.28,206.08,160823,,,A*79
$GPGGA,182948.000,4308.0074,N,07729.6711,W,1,05,1.51,100.9,M,-34.4,M,,*50
$GPRMC,182948.250,A,4308.0070,N,07729.6714,W,4.48,206.66,160823,,,A*70
$GPGGA,182948.500,4308.0066,N,07729.6716,W,1,05,1.62,100.8,M,-34.4,M,,*50
$GPRMC,182948.750,A,4308.0062,N,07729.6719,W,5.73,208.21,160823,,,A*7F
$GPGGA,182949.000,4308.0058,N,07729.6721,W,1,05,1.62,100.7,M,-34.4,M,,*52
$GPRMC,182949.250,A,4308.0053,N,07729.6724,W,6.83,203.35,160823,,,A*75
$GPGGA,182949.500,4308.0048,N,07729.6726,W,1,05,1.62,100.5,M,-34.4,M,,*53
$GPRMC,182949.750,A,4308.0043,N,07729.6728,W,7.31,201.22,160823,,,A*71
$GPGGA,182950.000,4308.0037,N,07729.6731,W,1,05,1.51,100.3,M,-34.4,M,,*56
$GPRMC,182950.250,A,4308.0031,N,07729.6733,W,8.16,200.19,160823,,,A*70
$GPGGA,182950.500,4308.0025,N,07729.6736,W,1,05,1.62,100.2,M,-34.4,M,,*56
$GPRMC,182950.750,A,4308.0017,N,07729.6741,W,9.94,201.70,160823,,,A*71
$GPGGA,182951.000,4308.0009,N,07729.6745,W,1,05,1.62,100.0,M,-34.4,M,,*5A
$GPRMC,182951.250,A,4308.0001,N,07729.6748,W,11.18,202.12,160823,,,A*41
$GPGGA,182951.500,4307.9993,N,07729.6752,W,1,05,1.62,99.7,M,-34.4,M,,*63
$GPRMC,182951.750,A,4307.9984,N,07729.6756,W,12.12,201.80,160823,,,A*48
$GPGGA,182952.000,4307.9975,N,07729.6761,W,1,05,1.51,99.5,M,-34.4,M,,*6F
$GPRMC,182952.250,A,4307.9966,N,07729.6767,W,12.94,204.42,160823,,,A*45
$GPGGA,182952.500,4307.9957,N,07729.6773,W,1,05,1.51,99.3,M,-34.4,M,,*6F
$GPRMC,182952.750,A,4307.9948,N,07729.6780,W,13.57,208.11,160823,,,A*41
$GPGGA,182953.000,4307.9940,N,07729.6787,W,1,05,1.51,99.0,M,-34.4,M,,*65
$GPRMC,182953.250,A,4307.9931,N,07729.6795,W,13.95,211.33,160823,,,A*49
$GPGGA,182953.500,4307.9922,N,07729.6803,W,1,05,1.62,98.8,M,-34.4,M,,*6E
$GPRMC,182953.750,A,4307.9914,N,07729.6810,W,14.10,212.62,160823,,,A*44
$GPGGA,182954.000,4307.9905,N,07729.6818,W,1,05,1.51,98.6,M,-34.4,M,,*6D
$GPRMC,182954.250,A,4307.9897,N,07729.6825,W,13.72,212.99,160823,,,A*4D
$GPGGA,182954.500,4307.9889,N,07729.6832,W,1,05,1.51,98.4,M,-34.4,M,,*67
$GPRMC,182954.750,A,4307.9881,N,07729.6839,W,13.46,213.00,160823,,,A*44
$GPGGA,182955.000,4307.9873,N,07729.6846,W,1,05,1.62,98.2,M,-34.4,M,,*63
$GPRMC,182955.250,A,4307.9865,N,07729.6852,W,12.93,211.29,160823,,,A*47
$GPGGA,182955.500,4307.9857,N,07729.6858,W,1,05,1.62,98.0,M,-34.4,M,,*6D
$GPRMC,182955.750,A,4307.9849,N,07729.6864,W,12.63,210.37,160823,,,A*48
$GPGGA,182956.000,4307.9842,N,07729.6870,W,1,05,1.51,97.9,M,-34.4,M,,*63
$GPRMC,182956.250,A,4307.9836,N,07729.6875,W,11.75,210.25,160823,,,A*41
$GPGGA,182956.500,4307.9829,N,07729.6880,W,1,05,1.62,97.8,M,-34.4,M,,*65
$GPRMC,182956.750,A,4307.9822,N,07729.6886,W,11.48,210.38,160823,,,A*4F
$GPGGA,182957.000,4307.9815,N,07729.6891,W,1,05,1.51,97.7,M,-34.4,M,,*61
$GPRMC,182957.250,A,4307.9808,N,07729.6897,W,11.34,210.46,160823,,,A*41
$GPGGA,182957.500,4307.9801,N,07729.6903,W,1,05,1.51,97.6,M,-34.4,M,,*6A
$GPRMC,182957.750,A,4307.9794,N,07729.6909,W,11.33,212.02,160823,,,A*4D
$GPGGA,182958.000,4307.9788,N,07729.6915,W,1,05,1.51,97.4,M,-34.4,M,,*6B
$GPRMC,182958.250,A,4307.9781,N,07729.6921,W,11.05,213.89,160823,,,A*4E
$GPGGA,182958.500,4307.9775,N,07729.6928,W,1,05,1.62,97.3,M,-34.4,M,,*65
$GPRMC,182958.750,A,4307.9769,N,07729.6934,W,10.83,216.50,160823,,,A*47
$GPGGA,182959.000,4307.9763,N,07729.6941,W,1,05,1.51,97.1,M,-34.4,M,,*6B
$GPRMC,182959.250,A,4307.9758,N,07729.6947,W,10.72,218.22,160823,,,A*40
$GPGGA,182959.500,4307.9752,N,07729.6954,W,1,05,1.51,97.0,M,-34.4,M,,*69
$GPRMC,182959.750,A,4307.9747,N,07729.6960,W,10.58,219.51,160823,,,A*43
$GPGGA,183000.000,4307.9741,N,07729.6967,W,1,05,1.62,96.9,M,-34.4,M,,*62
$GPRMC,183000.250,A,4307.9736,N,07729.6973,W,10.05,219.47,160823,,,A*49
$GPGGA,183000.500,4307.9731,N,07729.6979,W,1,05,1.62,96.7,M,-34.4,M,,*61
$GPRMC,183000.750,A,4307.9726,N,07729.6984,W,9.57,218.70,160823,,,A*7F
$GPGGA,183001.000,4307.9722,N,07729.6990,W,1,05,1.51,96.6,M,-34.4,M,,*61
$GPRMC,183001.250,A,4307.9718,N,07729.6994,W,8.18,215.65,160823,,,A*74
$GPGGA,183001.500,4307.9714,N,07729.6998,W,1,05,1.51,96.5,M,-34.4,M,,*6A
$GPRMC,183001.750,A,4307.9711,N,07729.7002,W,7.24,214.79,160823,,,A*73
$GPGGA,183002.000,4307.9708,N,07729.7005,W,1,05,1.51,96.4,M,-34.4,M,,*6C
$GPRMC,183002.250,A,4307.9705,N,07729.7008,W,5.71,213.00,160823,,,A*71
$GPGGA,183002.500,4307.9701,N,07729.7010,W,1,06,1.55,96.3,M,-34.4,M,,*64
$GPRMC,183002.750,A,4307.9697,N,07729.7013,W,5.50,209.77,160823,,,A*7C
$GPGGA,183003.000,4307.9693,N,07729.7015,W,1,06,1.55,96.3,M,-34.4,M,,*6F
$GPRMC,183003.250,A,4307.9689,N,07729.7017,W,5.45,204.08,160823,,,A*72
$GPGGA,183003.500,4307.9686,N,07729.7018,W,1,06,1.55,96.2,M,-34.4,M,,*62
$GPRMC,183003.750,A,4307.9682,N,07729.7020,W,5.67,200.74,160823,,,A*77
$GPGGA,183004.000,4307.9678,N,07729.7021,W,1,06,1.55,96.1,M,-34.4,M,,*68
$GPRMC,183004.250,A,4307.9674,N,07729.7021,W,6.41,194.69,160823,,,A*78
$GPGGA,183004.500,4307.9669,N,07729.7022,W,1,06,1.55,95.9,M,-34.4,M,,*65
$GPRMC,183004.750,A,4307.9665,N,07729.7023,W,6.80,189.52,160823,,,A*76
$GPGGA,183005.000,4307.9659,N,07729.7023,W,1,06,1.55,95.7,M,-34.4,M,,*6D
$GPRMC,183005.250,A,4307.9654,N,07729.7022,W,7.31,182.67,160823,,,A*77
$GPGGA,183005.500,4307.9649,N,07729.7022,W,1,06,1.55,95.5,M,-34.4,M,,*6A
$GPRMC,183005.750,A,4307.9644,N,07729.7020,W,7.94,174.96,160823,,,A*79
$GPGGA,183006.000,4307.9637,N,07729.7019,W,1,06,1.55,95.4,M,-34.4,M,,*6C
$GPRMC,183006.250,A,4307.9631,N,07729.7017,W,8.49,169.63,160823,,,A*70
$GPGGA,183006.500,4307.9626,N,07729.7015,W,1,06,1.55,95.3,M,-34.4,M,,*62
$GPRMC,183006.750,A,4307.9621,N,07729.7012,W,8.18,165.53,160823,,,A*7A
$GPGGA,183007.000,4307.9616,N,07729.7009,W,1,06,1.55,95.1,M,-34.4,M,,*6A
$GPRMC,183007.250,A,4307.9611,N,07729.7006,W,7.89,158.15,160823,,,A*73
$GPGGA,183007.500,4307.9607,N,07729.7003,W,1,06,1.55,95.0,M,-34.4,M,,*64
$GPRMC,183007.750,A,4307.9602,N,07729.6999,W,7.65,148.90,160823,,,A*74
$GPGGA,183008.000,4307.9598,N,07729.6995,W,1,06,1.55,94.8,M,-34.4,M,,*65
$GPRMC,183008.250,A,4307.9594,N,07729.6991,W,6.57,141.80,160823,,,A*72
$GPGGA,183008.500,4307.9592,N,07729.6988,W,1,06,1.54,94.8,M,-34.4,M,,*67
$GPRMC,183008.750,A,4307.9589,N,07729.6985,W,5.07,138.47,160823,,,A*7D
$GPGGA,183009.000,4307.9588,N,07729.6982,W,1,06,1.37,94.7,M,-34.4,M,,*68
$GPRMC,183009.250,A,4307.9586,N,07729.6980,W,3.61,134.66,160823,,,A*7A
$GPGGA,183009.500,4307.9585,N,07729.6978,W,1,05,2.90,94.5,M,-34.4,M,,*6A
$GPRMC,183009.750,A,4307.9585,N,07729.6976,W,2.81,131.12,160823,,,A*7C
$GPGGA,183010.000,4307.9584,N,07729.6974,W,1,06,1.37,94.4,M,-34.4,M,,*66
$GPRMC,183010.250,A,4307.9584,N,07729.6972,W,2.24,131.12,160823,,,A*7B
$GPGGA,183010.500,4307.9584,N,07729.6970,W,1,06,1.37,94.3,M,-34.4,M,,*60
$GPRMC,183010.750,A,4307.9583,N,07729.6968,W,2.13,131.12,160823,,,A*76
$GPGGA,183011.000,4307.9583,N,07729.6966,W,1,06,1.37,94.1,M,-34.4,M,,*66
$GPRMC,183011.250,A,4307.9582,N,07729.6965,W,1.89,131.12,160823,,,A*7E
$GPGGA,183011.500,4307.9581,N,07729.6964,W,1,06,1.37,94.1,M,-34.4,M,,*63
$GPRMC,183011.750,A,4307.9580,N,07729.6963,W,1.65,131.12,160823,,,A*7D
$GPGGA,183012.000,4307.9579,N,07729.6962,W,1,06,1.37,94.0,M,-34.4,M,,*65
$GPRMC,183012.250,A,4307.9578,N,07729.6961,W,1.39,131.12,160823,,,A*77
$GPGGA,183012.500,4307.9578,N,07729.6960,W,1,06,1.37,94.0,M,-34.4,M,,*63
$GPRMC,183012.750,A,4307.9577,N,07729.6959,W,1.33,131.12,160823,,,A*7C
$GPGGA,183013.000,4307.9576,N,07729.6959,W,1,06,1.37,93.9,M,-34.4,M,,*6D
$GPRMC,183013.250,A,4307.9576,N,07729.6958,W,1.33,131.12,160823,,,A*78
$GPGGA,183013.500,4307.9575,N,07729.6956,W,1,06,1.37,93.9,M,-34.4,M,,*64
$GPRMC,183013.750,A,4307.9574,N,07729.6955,W,1.37,131.12,160823,,,A*76
$GPGGA,183014.000,4307.9573,N,07729.6954,W,1,06,1.37,93.8,M,-34.4,M,,*63
$GPRMC,183014.250,A,4307.9572,N,07729.6952,W,1.57,131.12,160823,,,A*73
$GPGGA,183014.500,4307.9571,N,07729.6951,W,1,06,1.37,93.8,M,-34.4,M,,*61
$GPRMC,183014.750,A,4307.9570,N,07729.6950,W,1.69,131.12,160823,,,A*7B
$GPGGA,183015.000,4307.9569,N,07729.6949,W,1,06,1.37,93.7,M,-34.4,M,,*6A
$GPRMC,183015.250,A,4307.9569,N,07729.6947,W,1.75,131.12,160823,,,A*7C
$GPGGA,183015.500,4307.9568,N,07729.6946,W,1,06,1.37,93.6,M,-34.4,M,,*60
$GPRMC,183015.750,A,4307.9567,N,07729.6945,W,1.89,131.12,160823,,,A*76
$GPGGA,183016.000,4307.9566,N,07729.6943,W,1,06,1.37,93.5,M,-34.4,M,,*6E
$GPRMC,183016.250,A,4307.9564,N,07729.6941,W,2.26,131.66,160823,,,A*72
$GPGGA,183016.500,4307.9562,N,07729.6938,W,1,06,1.37,93.4,M,-34.4,M,,*62
$GPRMC,183016.750,A,4307.9560,N,07729.6935,W,2.50,129.87,160823,,,A*77
$GPGGA,183017.000,4307.9560,N,07729.6932,W,1,06,1.37,93.4,M,-34.4,M,,*6E
$GPRMC,183017.250,A,4307.9559,N,07729.6928,W,4.02,115.16,160823,,,A*73
$GPGGA,183017.500,4307.9557,N,07729.6923,W,1,06,1.55,93.3,M,-34.4,M,,*6C
$GPRMC,183017.750,A,4307.9554,N,07729.6919,W,4.94,117.73,160823,,,A*77
$GPGGA,183018.000,4307.9551,N,07729.6915,W,1,06,1.55,93.2,M,-34.4,M,,*64
$GPRMC,183018.250,A,4307.9549,N,07729.6909,W,6.28,117.36,160823,,,A*74
$GPGGA,183018.500,4307.9546,N,07729.6903,W,1,06,1.55,93.1,M,-34.4,M,,*63
$GPRMC,183018.750,A,4307.9544,N,07729.6896,W,6.95,115.59,160823,,,A*76
$GPGGA,183019.000,4307.9542,N,07729.6890,W,1,06,1.55,93.0,M,-34.4,M,,*69
$GPRMC,183019.250,A,4307.9540,N,07729.6883,W,7.61,115.34,160823,,,A*73
$GPGGA,183019.500,4307.9538,N,07729.6876,W,1,06,1.55,92.9,M,-34.4,M,,*61
$GPRMC,183019.750,A,4307.9536,N,07729.6869,W,7.96,115.47,160823,,,A*7F
$GPGGA,183020.000,4307.9533,N,07729.6861,W,1,06,1.37,92.9,M,-34.4,M,,*67
$GPRMC,183020.250,A,4307.9529,N,07729.6854,W,8.60,119.05,160823,,,A*7C
$GPGGA,183020.500,4307.9525,N,07729.6847,W,1,06,1.37,92.8,M,-34.4,M,,*60
$GPRMC,183020.750,A,4307.9522,N,07729.6840,W,8.67,122.87,160823,,,A*72
$GPGGA,183021.000,4307.9517,N,07729.6834,W,1,06,1.37,92.8,M,-34.4,M,,*61
$GPRMC,183021.250,A,4307.9512,N,07729.6827,W,8.79,125.46,160823,,,A*71
$GPGGA,183021.500,4307.9508,N,07729.6820,W,1,06,1.37,92.7,M,-34.4,M,,*60
$GPRMC,183021.750,A,4307.9505,N,07729.6812,W,8.84,124.64,160823,,,A*77
$GPGGA,183022.000,4307.9501,N,07729.6805,W,1,06,1.37,92.8,M,-34.4,M,,*67
$GPRMC,183022.250,A,4307.9498,N,07729.6797,W,8.30,122.21,160823,,,A*7E
$GPGGA,183022.500,4307.9494,N,07729.6790,W,1,06,1.55,92.8,M,-34.4,M,,*68
$GPRMC,183022.750,A,4307.9491,N,07729.6783,W,8.19,120.48,160823,,,A*71
$GPGGA,183023.000,4307.9486,N,07729.6776,W,1,06,1.55,92.8,M,-34.4,M,,*67
$GPRMC,183023.250,A,4307.9482,N,07729.6769,W,8.11,120.95,160823,,,A*7B
$GPGGA,183023.500,4307.9479,N,07729.6762,W,1,06,1.55,92.8,M,-34.4,M,,*67
$GPRMC,183023.750,A,4307.9477,N,07729.6755,W,8.05,119.54,160823,,,A*79
$GPGGA,183024.000,4307.9473,N,07729.6749,W,1,06,1.37,92.8,M,-34.4,M,,*62
$GPRMC,183024.250,A,4307.9469,N,07729.6743,W,7.99,121.97,160823,,,A*7D
$GPGGA,183024.500,4307.9465,N,07729.6737,W,1,06,1.55,92.8,M,-34.4,M,,*6D
$GPRMC,183024.750,A,4307.9460,N,07729.6731,W,7.68,126.91,160823,,,A*7B
$GPGGA,183025.000,4307.9454,N,07729.6726,W,1,06,1.55,92.7,M,-34.4,M,,*64
$GPRMC,183025.250,A,4307.9451,N,07729.6722,W,6.85,132.32,160823,,,A*71
$GPGGA,183025.500,4307.9448,N,07729.6718,W,1,06,1.55,92.7,M,-34.4,M,,*61
$GPRMC,183025.750,A,4307.9446,N,07729.6713,W,5.84,133.49,160823,,,A*7F
$GPGGA,183026.000,4307.9444,N,07729.6710,W,1,06,1.37,92.7,M,-34.4,M,,*67
$GPRMC,183026.250,A,4307.9442,N,07729.6707,W,4.47,135.07,160823,,,A*7A
$GPGGA,183026.500,4307.9440,N,07729.6704,W,1,06,1.55,92.7,M,-34.4,M,,*67
$GPRMC,183026.750,A,4307.9438,N,07729.6702,W,3.25,137.98,160823,,,A*70
$GPGGA,183027.000,4307.9438,N,07729.6700,W,1,06,1.37,92.7,M,-34.4,M,,*6C
$GPRMC,183027.250,A,4307.9437,N,07729.6699,W,1.72,137.98,160823,,,A*78
$GPGGA,183027.500,4307.9437,N,07729.6698,W,1,06,1.37,92.7,M,-34.4,M,,*66
$GPRMC,183027.750,A,4307.9436,N,07729.6697,W,0.86,137.98,160823,,,A*78
$GPGGA,183028.000,4307.9435,N,07729.6697,W,1,06,1.37,92.7,M,-34.4,M,,*61
$GPRMC,183028.250,A,4307.9434,N,07729.6698,W,0.49,137.98,160823,,,A*7C
$GPGGA,183028.500,4307.9434,N,07729.6699,W,1,06,1.37,92.7,M,-34.4,M,,*6B
$GPRMC,183028.750,A,4307.9433,N,07729.6700,W,0.43,137.98,160823,,,A*74
$GPGGA,183029.000,4307.9432,N,07729.6700,W,1,06,1.55,92.8,M,-34.4,M,,*63
$GPRMC,183029.250,A,4307.9431,N,07729.6701,W,0.49,137.98,160823,,,A*79
$GPGGA,183029.500,4307.9430,N,07729.6702,W,1,06,1.37,92.9,M,-34.4,M,,*63
$GPRMC,183029.750,A,4307.9430,N,07729.6702,W,0.52,137.98,160823,,,A*74
$GPGGA,183030.000,4307.9430,N,07729.6702,W,1,06,1.37,93.0,M,-34.4,M,,*66
$GPRMC,183030.250,A,4307.9430,N,07729.6701,W,0.33,137.98,160823,,,A*7D
$GPGGA,183030.500,4307.9429,N,07729.6700,W,1,06,1.55,93.1,M,-34.4,M,,*6C
$GPRMC,183030.750,A,4307.9429,N,07729.6700,W,0.30,137.98,160823,,,A*72
$GPGGA,183031.000,4307.9429,N,07729.6699,W,1,06,1.37,93.1,M,-34.4,M,,*6D
$GPRMC,183031.250,A,4307.9429,N,07729.6699,W,0.99,137.98,160823,,,A*74
$GPGGA,183031.500,4307.9429,N,07729.6698,W,1,06,1.37,93.0,M,-34.4,M,,*68
$GPRMC,183031.750,A,4307.9429,N,07729.6696,W,1.72,137.98,160823,,,A*7A
$GPGGA,183032.000,4307.9429,N,07729.6695,W,1,06,1.37,93.0,M,-34.4,M,,*63
$GPRMC,183032.250,A,4307.9427,N,07729.6689,W,2.75,99.59,160823,,,A*40
$GPGGA,183032.500,4307.9425,N,07729.6683,W,1,06,1.37,93.1,M,-34.4,M,,*6C
$GPRMC,183032.750,A,4307.9425,N,07729.6677,W,5.27,103.58,160823,,,A*75
$GPGGA,183033.000,4307.9423,N,07729.6671,W,1,06,1.55,93.1,M,-34.4,M,,*67
$GPRMC,183033.250,A,4307.9421,N,07729.6664,W,7.21,107.93,160823,,,A*70
$GPGGA,183033.500,4307.9419,N,07729.6656,W,1,06,1.55,93.1,M,-34.4,M,,*6E
$GPRMC,183033.750,A,4307.9417,N,07729.6649,W,7.78,110.11,160823,,,A*7F
$GPGGA,183034.000,4307.9414,N,07729.6642,W,1,06,1.55,93.1,M,-34.4,M,,*64
$GPRMC,183034.250,A,4307.9411,N,07729.6634,W,8.18,114.82,160823,,,A*76
$GPGGA,183034.500,4307.9407,N,07729.6626,W,1,06,1.55,93.1,M,-34.4,M,,*61
$GPRMC,183034.750,A,4307.9403,N,07729.6618,W,8.62,117.51,160823,,,A*7E
$GPGGA,183035.000,4307.9399,N,07729.6610,W,1,06,1.37,93.1,M,-34.4,M,,*64
$GPRMC,183035.250,A,4307.9394,N,07729.6601,W,8.81,117.59,160823,,,A*7E
$GPGGA,183035.500,4307.9389,N,07729.6593,W,1,06,1.55,93.0,M,-34.4,M,,*6D
$GPRMC,183035.750,A,4307.9385,N,07729.6585,W,8.70,119.31,160823,,,A*7A
$GPGGA,183036.000,4307.9379,N,07729.6577,W,1,06,1.55,93.0,M,-34.4,M,,*6E
$GPRMC,183036.250,A,4307.9373,N,07729.6571,W,8.13,124.38,160823,,,A*7C
$GPGGA,183036.500,4307.9368,N,07729.6564,W,1,06,1.55,93.0,M,-34.4,M,,*69
$GPRMC,183036.750,A,4307.9365,N,07729.6558,W,7.42,123.51,160823,,,A*76
$GPGGA,183037.000,4307.9361,N,07729.6552,W,1,06,1.55,93.0,M,-34.4,M,,*61
$GPRMC,183037.250,A,4307.9357,N,07729.6547,W,6.39,122.19,160823,,,A*7D
$GPGGA,183037.500,4307.9354,N,07729.6541,W,1,06,1.55,93.0,M,-34.4,M,,*60
$GPRMC,183037.750,A,4307.9351,N,07729.6537,W,5.47,120.11,160823,,,A*79
$GPGGA,183038.000,4307.9348,N,07729.6532,W,1,06,1.55,93.1,M,-34.4,M,,*62
$GPRMC,183038.250,A,4307.9345,N,07729.6528,W,4.43,118.98,160823,,,A*77
$GPGGA,183038.500,4307.9342,N,07729.6525,W,1,06,1.55,93.1,M,-34.4,M,,*6B
$GPRMC,183038.750,A,4307.9340,N,07729.6522,W,3.51,118.67,160823,,,A*79
$GPGGA,183039.000,4307.9339,N,07729.6519,W,1,06,1.37,93.2,M,-34.4,M,,*6B
$GPRMC,183039.250,A,4307.9337,N,07729.6518,W,2.34,119.86,160823,,,A*78
$GPGGA,183039.500,4307.9336,N,07729.6516,W,1,06,1.37,93.3,M,-34.4,M,,*6F
$GPRMC,183039.750,A,4307.9334,N,07729.6515,W,1.80,120.73,160823,,,A*7F
$GPGGA,183040.000,4307.9333,N,07729.6513,W,1,06,1.37,93.3,M,-34.4,M,,*64
$GPRMC,183040.250,A,4307.9332,N,07729.6512,W,1.11,109.33,160823,,,A*72
$GPGGA,183040.500,4307.9331,N,07729.6511,W,1,06,1.37,93.4,M,-34.4,M,,*66
$GPRMC,183040.750,A,4307.9330,N,07729.6510,W,0.87,102.89,160823,,,A*73
$GPGGA,183041.000,4307.9329,N,07729.6510,W,1,06,1.37,93.5,M,-34.4,M,,*6B
$GPRMC,183041.250,A,4307.9329,N,07729.6510,W,0.36,96.52,160823,,,A*4F
$GPGGA,183041.500,4307.9330,N,07729.6511,W,1,06,1.37,93.5,M,-34.4,M,,*67
$GPRMC,183041.750,A,4307.9330,N,07729.6511,W,0.39,96.52,160823,,,A*4C
$GPGGA,183042.000,4307.9330,N,07729.6511,W,1,06,1.55,93.6,M,-34.4,M,,*66
$GPRMC,183042.250,A,4307.9330,N,07729.6511,W,0.48,96.52,160823,,,A*4C
$GPGGA,183042.500,4307.9330,N,07729.6512,W,1,06,1.55,93.6,M,-34.4,M,,*60
$GPRMC,183042.750,A,4307.9330,N,07729.6512,W,0.68,335.84,160823,,,A*79
$GPGGA,183043.000,4307.9329,N,07729.6512,W,1,06,1.37,93.7,M,-34.4,M,,*69
$GPRMC,183043.250,A,4307.9329,N,07729.6512,W,0.70,334.89,160823,,,A*70
$GPGGA,183043.500,4307.9329,N,07729.6511,W,1,06,1.37,93.8,M,-34.4,M,,*60
$GPRMC,183043.750,A,4307.9328,N,07729.6511,W,0.68,335.85,160823,,,A*73
$GPGGA,183044.000,4307.9328,N,07729.6511,W,1,06,1.37,93.9,M,-34.4,M,,*62
$GPRMC,183044.250,A,4307.9327,N,07729.6511,W,0.67,337.92,160823,,,A*75
$GPGGA,183044.500,4307.9327,N,07729.6510,W,1,06,1.37,94.0,M,-34.4,M,,*67
$GPRMC,183044.750,A,4307.9326,N,07729.6510,W,0.62,340.60,160823,,,A*78
$GPGGA,183045.000,4307.9325,N,07729.6509,W,1,06,1.37,94.1,M,-34.4,M,,*68
$GPRMC,183045.250,A,4307.9324,N,07729.6508,W,0.54,340.60,160823,,,A*72
$GPGGA,183045.500,4307.9322,N,07729.6507,W,1,06,1.55,94.1,M,-34.4,M,,*60
$GPRMC,183045.750,A,4307.9321,N,07729.6507,W,0.36,340.60,160823,,,A*79
$GPGGA,183046.000,4307.9319,N,07729.6506,W,1,06,1.55,94.2,M,-34.4,M,,*6C
$GPRMC,183046.250,A,4307.9317,N,07729.6505,W,0.29,340.60,160823,,,A*76
$GPGGA,183046.500,4307.9315,N,07729.6505,W,1,06,1.37,94.2,M,-34.4,M,,*62
$GPRMC,183046.750,A,4307.9314,N,07729.6505,W,0.21,340.60,160823,,,A*78
$GPGGA,183047.000,4307.9313,N,07729.6505,W,1,06,1.37,94.2,M,-34.4,M,,*60
$GPRMC,183047.250,A,4307.9311,N,07729.6505,W,0.14,340.60,160823,,,A*7F
$GPGGA,183047.500,4307.9310,N,07729.6505,W,1,06,1.37,94.2,M,-34.4,M,,*66
$GPRMC,183047.750,A,4307.9309,N,07729.6505,W,0.09,340.60,160823,,,A*7F
$GPGGA,183048.000,4307.9308,N,07729.6504,W,1,06,1.37,94.3,M,-34.4,M,,*65
$GPRMC,183048.250,A,4307.9308,N,07729.6504,W,0.04,340.60,160823,,,A*78
$GPGGA,183048.500,4307.9308,N,07729.6504,W,1,06,1.37,94.3,M,-34.4,M,,*60
$GPRMC,183048.750,A,4307.9308,N,07729.6504,W,0.02,340.60,160823,,,A*7B
$GPGGA,183049.000,4307.9308,N,07729.6504,W,1,06,1.37,94.3,M,-34.4,M,,*64
$GPRMC,183049.250,A,4307.9308,N,07729.6504,W,0.04,340.60,160823,,,A*79
$GPGGA,183049.500,4307.9308,N,07729.6504,W,1,06,1.37,94.3,M,-34.4,M,,*61
$GPRMC,183049.750,A,4307.9308,N,07729.6504,W,0.08,340.60,160823,,,A*70
$GPGGA,183050.000,4307.9308,N,07729.6504,W,1,06,1.37,94.3,M,-34.4,M,,*6C
$GPRMC,183050.250,A,4307.9308,N,07729.6504,W,0.14,340.60,160823,,,A*70
$GPGGA,183050.500,4307.9308,N,07729.6504,W,1,06,1.37,94.3,M,-34.4,M,,*69
$GPRMC,183050.750,A,4307.9308,N,07729.6504,W,0.19,340.60,160823,,,A*78
$GPGGA,183051.000,4307.9307,N,07729.6504,W,1,06,1.37,94.3,M,-34.4,M,,*62
$GPRMC,183051.250,A,4307.9307,N,07729.6504,W,0.19,340.60,160823,,,A*73
$GPGGA,183051.500,4307.9307,N,07729.6504,W,1,06,1.37,94.3,M,-34.4,M,,*67
$GPRMC,183051.750,A,4307.9307,N,07729.6504,W,0.18,340.60,160823,,,A*77
$GPGGA,183052.000,4307.9307,N,07729.6504,W,1,06,1.37,94.3,M,-34.4,M,,*61
$GPRMC,183052.250,A,4307.9307,N,07729.6504,W,0.19,340.60,160823,,,A*70
$GPGGA,183052.500,4307.9307,N,07729.6504,W,1,06,1.37,94.3,M,-34.4,M,,*64
$GPRMC,183052.750,A,4307.9307,N,07729.6505,W,0.19,340.60,160823,,,A*74
$GPGGA,183053.000,4307.9307,N,07729.6505,W,1,06,1.37,94.4,M,-34.4,M,,*66
$GPRMC,183053.250,A,4307.9307,N,07729.6505,W,0.19,340.60,160823,,,A*70
$GPGGA,183053.500,4307.9306,N,07729.6505,W,1,06,1.37,94.4,M,-34.4,M,,*62
$GPRMC,183053.750,A,4307.9306,N,07729.6505,W,0.21,340.60,160823,,,A*7F
$GPGGA,183054.000,4307.9306,N,07729.6505,W,1,06,1.37,94.4,M,-34.4,M,,*60
$GPRMC,183054.250,A,4307.9306,N,07729.6506,W,0.21,340.60,160823,,,A*7E
$GPGGA,183054.500,4307.9306,N,07729.6506,W,1,06,1.37,94.4,M,-34.4,M,,*66
$GPRMC,183054.750,A,4307.9306,N,07729.6506,W,0.21,340.60,160823,,,A*7B
$GPGGA,183055.000,4307.9306,N,07729.6506,W,1,06,1.37,94.4,M,-34.4,M,,*62
$GPRMC,183055.250,A,4307.9306,N,07729.6506,W,0.20,340.60,160823,,,A*7E
$GPGGA,183055.500,4307.9306,N,07729.6507,W,1,06,1.37,94.4,M,-34.4,M,,*66
$GPRMC,183055.750,A,4307.9306,N,07729.6507,W,0.17,340.60,160823,,,A*7E
$GPGGA,183056.000,4307.9306,N,07729.6507,W,1,06,1.37,94.4,M,-34.4,M,,*60
$GPRMC,183056.250,A,4307.9306,N,07729.6507,W,0.09,340.60,160823,,,A*77
$GPGGA,183056.500,4307.9306,N,07729.6507,W,1,06,1.37,94.4,M,-34.4,M,,*65
$GPRMC,183056.750,A,4307.9306,N,07729.6507,W,0.10,340.60,160823,,,A*7A
$GPGGA,183057.000,4307.9306,N,07729.6507,W,1,06,1.37,94.4,M,-34.4,M,,*61
$GPRMC,183057.250,A,4307.9306,N,07729.6507,W,0.36,340.60,160823,,,A*7A
$GPGGA,183057.500,4307.9306,N,07729.6507,W,1,06,1.37,94.4,M,-34.4,M,,*64
$GPRMC,183057.750,A,4307.9305,N,07729.6504,W,0.64,119.65,160823,,,A*73
$GPGGA,183058.000,4307.9302,N,07729.6502,W,1,06,1.37,94.3,M,-34.4,M,,*68
$GPRMC,183058.250,A,4307.9301,N,07729.6499,W,1.15,117.99,160823,,,A*72
$GPGGA,183058.500,4307.9299,N,07729.6497,W,1,06,1.37,94.2,M,-34.4,M,,*62
$GPRMC,183058.750,A,4307.9298,N,07729.6495,W,1.44,118.12,160823,,,A*72
$GPGGA,183059.000,4307.9296,N,07729.6492,W,1,06,1.37,94.2,M,-34.4,M,,*6C
$GPRMC,183059.250,A,4307.9295,N,07729.6486,W,2.22,115.26,160823,,,A*70
$GPGGA,183059.500,4307.9291,N,07729.6481,W,1,06,1.37,94.1,M,-34.4,M,,*6F
$GPRMC,183059.750,A,4307.9289,N,07729.6475,W,4.50,113.39,160823,,,A*7F
$GPGGA,183100.000,4307.9285,N,07729.6469,W,1,06,1.37,94.0,M,-34.4,M,,*65
$GPRMC,183100.250,A,4307.9281,N,07729.6463,W,6.84,115.55,160823,,,A*7F
$GPGGA,183100.500,4307.9277,N,07729.6456,W,1,06,1.55,93.9,M,-34.4,M,,*6B
$GPRMC,183100.750,A,4307.9272,N,07729.6449,W,7.98,116.14,160823,,,A*74
$GPGGA,183101.000,4307.9266,N,07729.6442,W,1,06,1.37,93.9,M,-34.4,M,,*6E
$GPRMC,183101.250,A,4307.9262,N,07729.6433,W,9.44,117.51,160823,,,A*73
$GPGGA,183101.500,4307.9255,N,07729.6425,W,1,06,1.37,93.9,M,-34.4,M,,*6A
$GPRMC,183101.750,A,4307.9250,N,07729.6415,W,10.10,117.01,160823,,,A*4F
$GPGGA,183102.000,4307.9244,N,07729.6406,W,1,06,1.37,93.9,M,-34.4,M,,*6D
$GPRMC,183102.250,A,4307.9236,N,07729.6396,W,11.00,117.19,160823,,,A*4C
$GPGGA,183102.500,4307.9228,N,07729.6385,W,1,06,1.55,93.7,M,-34.4,M,,*64
$GPRMC,183102.750,A,4307.9222,N,07729.6375,W,11.36,118.24,160823,,,A*45
$GPGGA,183103.000,4307.9215,N,07729.6364,W,1,06,1.55,93.7,M,-34.4,M,,*61
$GPRMC,183103.250,A,4307.9208,N,07729.6355,W,11.59,119.35,160823,,,A*43
$GPGGA,183103.500,4307.9201,N,07729.6345,W,1,06,1.55,93.6,M,-34.4,M,,*63
$GPRMC,183103.750,A,4307.9196,N,07729.6336,W,11.62,120.38,160823,,,A*48
$GPGGA,183104.000,4307.9192,N,07729.6326,W,1,06,1.37,93.7,M,-34.4,M,,*68
$GPRMC,183104.250,A,4307.9188,N,07729.6316,W,11.56,121.48,160823,,,A*46
$GPGGA,183104.500,4307.9184,N,07729.6307,W,1,06,1.55,93.7,M,-34.4,M,,*6D
$GPRMC,183104.750,A,4307.9181,N,07729.6297,W,11.27,121.85,160823,,,A*45
$GPGGA,183105.000,4307.9177,N,07729.6288,W,1,06,1.37,93.8,M,-34.4,M,,*68
$GPRMC,183105.250,A,4307.9173,N,07729.6279,W,10.77,122.17,160823,,,A*40
$GPGGA,183105.500,4307.9171,N,07729.6269,W,1,06,1.55,93.9,M,-34.4,M,,*61
$GPRMC,183105.750,A,4307.9169,N,07729.6261,W,10.20,123.53,160823,,,A*44
$GPGGA,183106.000,4307.9167,N,07729.6252,W,1,06,1.55,94.0,M,-34.4,M,,*66
$GPRMC,183106.250,A,4307.9164,N,07729.6244,W,10.03,125.17,160823,,,A*4F
$GPGGA,183106.500,4307.9162,N,07729.6235,W,1,06,1.55,94.2,M,-34.4,M,,*65
$GPRMC,183106.750,A,4307.9159,N,07729.6227,W,10.00,126.83,160823,,,A*4C
$GPGGA,183107.000,4307.9158,N,07729.6218,W,1,06,1.55,94.3,M,-34.4,M,,*66
$GPRMC,183107.250,A,4307.9155,N,07729.6211,W,9.27,129.00,160823,,,A*78
$GPGGA,183107.500,4307.9152,N,07729.6204,W,1,06,1.55,94.5,M,-34.4,M,,*62
$GPRMC,183107.750,A,4307.9149,N,07729.6197,W,8.37,129.22,160823,,,A*7D
$GPGGA,183108.000,4307.9147,N,07729.6192,W,1,06,1.55,94.6,M,-34.4,M,,*63
$GPRMC,183108.250,A,4307.9145,N,07729.6186,W,6.76,131.00,160823,,,A*79
$GPGGA,183108.500,4307.9143,N,07729.6182,W,1,06,1.55,94.8,M,-34.4,M,,*6D
$GPRMC,183108.750,A,4307.9141,N,07729.6178,W,5.47,134.87,160823,,,A*72
$GPGGA,183109.000,4307.9140,N,07729.6175,W,1,06,1.55,95.0,M,-34.4,M,,*6B
$GPRMC,183109.250,A,4307.9139,N,07729.6172,W,3.49,136.36,160823,,,A*73
$GPGGA,183109.500,4307.9139,N,07729.6170,W,1,06,1.37,95.2,M,-34.4,M,,*63
$GPRMC,183109.750,A,4307.9138,N,07729.6168,W,2.01,136.36,160823,,,A*71
$GPGGA,183110.000,4307.9139,N,07729.6167,W,1,06,1.37,95.4,M,-34.4,M,,*6E
$GPRMC,183110.250,A,4307.9140,N,07729.6167,W,0.05,136.36,160823,,,A*7A
$GPGGA,183110.500,4307.9143,N,07729.6167,W,1,06,1.37,95.4,M,-34.4,M,,*66
$GPRMC,183110.750,A,4307.9143,N,07729.6167,W,0.02,136.36,160823,,,A*7B
$GPGGA,183111.000,4307.9142,N,07729.6168,W,1,06,1.37,95.2,M,-34.4,M,,*6A
$GPRMC,183111.250,A,4307.9142,N,07729.6168,W,0.05,136.36,160823,,,A*76
$GPGGA,183111.500,4307.9144,N,07729.6169,W,1,06,1.37,95.2,M,-34.4,M,,*68
$GPRMC,183111.750,A,4307.9144,N,07729.6169,W,0.07,136.36,160823,,,A*76
$GPGGA,183112.000,4307.9146,N,07729.6169,W,1,06,1.37,95.3,M,-34.4,M,,*6D
$GPRMC,183112.250,A,4307.9148,N,07729.6170,W,0.07,136.36,160823,,,A*74
$GPGGA,183112.500,4307.9149,N,07729.6170,W,1,06,1.37,95.4,M,-34.4,M,,*68
$GPRMC,183112.750,A,4307.9151,N,07729.6171,W,0.06,136.36,160823,,,A*79
$GPGGA,183113.000,4307.9152,N,07729.6171,W,1,06,1.37,95.6,M,-34.4,M,,*65
$GPRMC,183113.250,A,4307.9154,N,07729.6170,W,0.05,136.36,160823,,,A*7A
$GPGGA,183113.500,4307.9154,N,07729.6171,W,1,06,1.37,95.7,M,-34.4,M,,*67
$GPRMC,183113.750,A,4307.9154,N,07729.6171,W,0.04,136.36,160823,,,A*7F
$GPGGA,183114.000,4307.9154,N,07729.6172,W,1,06,1.37,95.7,M,-34.4,M,,*66
$GPRMC,183114.250,A,4307.9154,N,07729.6172,W,0.03,136.36,160823,,,A*79
$GPGGA,183114.500,4307.9154,N,07729.6172,W,1,06,1.37,95.7,M,-34.4,M,,*63
$GPRMC,183114.750,A,4307.9154,N,07729.6172,W,0.02,136.36,160823,,,A*7D
$GPGGA,183115.000,4307.9154,N,07729.6173,W,1,06,1.37,95.7,M,-34.4,M,,*66
$GPRMC,183115.250,A,4307.9154,N,07729.6173,W,0.02,136.36,160823,,,A*78
$GPGGA,183115.500,4307.9154,N,07729.6173,W,1,06,1.37,95.7,M,-34.4,M,,*63
$GPRMC,183115.750,A,4307.9154,N,07729.6173,W,0.01,136.36,160823,,,A*7E
$GPGGA,183116.000,4307.9154,N,07729.6173,W,1,06,1.37,95.8,M,-34.4,M,,*6A
$GPRMC,183116.250,A,4307.9154,N,07729.6173,W,0.01,136.36,160823,,,A*78
$GPGGA,183116.500,4307.9154,N,07729.6173,W,1,06,1.37,95.8,M,-34.4,M,,*6F
$GPRMC,183116.750,A,4307.9154,N,07729.6173,W,0.01,136.36,160823,,,A*7D
$GPGGA,183117.000,4307.9154,N,07729.6173,W,1,06,1.37,95.8,M,-34.4,M,,*6B
$GPRMC,183117.250,A,4307.9154,N,07729.6173,W,0.01,136.36,160823,,,A*79
$GPGGA,183117.500,4307.9154,N,07729.6173,W,1,06,1.37,95.8,M,-34.4,M,,*6E
$GPRMC,183117.750,A,4307.9154,N,07729.6173,W,0.00,136.36,160823,,,A*7D
$GPGGA,183118.000,4307.9154,N,07729.6173,W,1,06,1.37,95.8,M,-34.4,M,,*64
$GPRMC,183118.250,A,4307.9154,N,07729.6173,W,0.00,136.36,160823,,,A*77
$GPGGA,183118.500,4307.9154,N,07729.6173,W,1,06,1.37,95.8,M,-34.4,M,,*61
$GPRMC,183118.750,A,4307.9154,N,07729.6173,W,0.01,136.36,160823,,,A*73
$GPGGA,183119.000,4307.9154,N,07729.6173,W,1,06,1.37,95.8,M,-34.4,M,,*65
$GPRMC,183119.250,A,4307.9154,N,07729.6174,W,0.01,136.36,160823,,,A*70
$GPGGA,183119.500,4307.9154,N,07729.6174,W,1,06,1.37,95.8,M,-34.4,M,,*67
$GPRMC,183119.750,A,4307.9154,N,07729.6174,W,0.01,136.36,160823,,,A*75
$GPGGA,183120.000,4307.9154,N,07729.6174,W,1,06,1.56,95.8,M,-34.4,M,,*6F
$GPRMC,183120.250,A,4307.9154,N,07729.6174,W,0.01,136.36,160823,,,A*7A
$GPGGA,183120.500,4307.9154,N,07729.6174,W,1,06,1.37,95.8,M,-34.4,M,,*6D
$GPRMC,183120.750,A,4307.9154,N,07729.6173,W,0.01,136.36,160823,,,A*78
$GPGGA,183121.000,4307.9154,N,07729.6173,W,1,06,1.37,95.8,M,-34.4,M,,*6E
$GPRMC,183121.250,A,4307.9154,N,07729.6173,W,0.01,136.36,160823,,,A*7C
$GPGGA,183121.500,4307.9154,N,07729.6173,W,1,06,1.37,95.8,M,-34.4,M,,*6B
$GPRMC,183121.750,A,4307.9154,N,07729.6173,W,0.02,136.36,160823,,,A*7A
$GPGGA,183122.000,4307.9154,N,07729.6173,W,1,06,1.37,95.8,M,-34.4,M,,*6D
$GPRMC,183122.250,A,4307.9154,N,07729.6172,W,0.04,136.36,160823,,,A*7B
$GPGGA,183122.500,4307.9154,N,07729.6172,W,1,06,1.37,95.8,M,-34.4,M,,*69
$GPRMC,183122.750,A,4307.9154,N,07729.6172,W,0.05,136.36,160823,,,A*7F
$GPGGA,183123.000,4307.9154,N,07729.6171,W,1,06,1.37,95.8,M,-34.4,M,,*6E
$GPRMC,183123.250,A,4307.9154,N,07729.6170,W,0.07,136.36,160823,,,A*7B
$GPGGA,183123.500,4307.9154,N,07729.6170,W,1,06,1.37,95.9,M,-34.4,M,,*6B
$GPRMC,183123.750,A,4307.9154,N,07729.6169,W,0.07,136.36,160823,,,A*76
$GPGGA,183124.000,4307.9154,N,07729.6168,W,1,06,1.37,95.9,M,-34.4,M,,*60
$GPRMC,183124.250,A,4307.9154,N,07729.6168,W,0.07,136.36,160823,,,A*75
$GPGGA,183124.500,4307.9154,N,07729.6167,W,1,06,1.37,95.9,M,-34.4,M,,*6A
$GPRMC,183124.750,A,4307.9154,N,07729.6167,W,0.06,136.36,160823,,,A*7E
$GPGGA,183125.000,4307.9153,N,07729.6166,W,1,06,1.37,95.9,M,-34.4,M,,*68
$GPRMC,183125.250,A,4307.9153,N,07729.6166,W,0.04,136.36,160823,,,A*7E
$GPGGA,183125.500,4307.9153,N,07729.6165,W,1,06,1.37,95.9,M,-34.4,M,,*6E
$GPRMC,183125.750,A,4307.9154,N,07729.6165,W,0.03,136.36,160823,,,A*78
$GPGGA,183126.000,4307.9154,N,07729.6165,W,1,06,1.37,95.9,M,-34.4,M,,*6F
$GPRMC,183126.250,A,4307.9154,N,07729.6164,W,0.04,136.36,160823,,,A*78
$GPGGA,183126.500,4307.9154,N,07729.6164,W,1,06,1.37,95.9,M,-34.4,M,,*6B
$GPRMC,183126.750,A,4307.9154,N,07729.6164,W,0.04,136.36,160823,,,A*7D
$GPGGA,183127.000,4307.9155,N,07729.6164,W,1,06,1.37,95.9,M,-34.4,M,,*6E
$GPRMC,183127.250,A,4307.9155,N,07729.6164,W,0.04,136.36,160823,,,A*78
$GPGGA,183127.500,4307.9155,N,07729.6164,W,1,06,1.56,95.9,M,-34.4,M,,*6C
$GPRMC,183127.750,A,4307.9155,N,07729.6164,W,0.04,136.36,160823,,,A*7D
$GPGGA,183128.000,4307.9156,N,07729.6163,W,1,06,1.56,95.9,M,-34.4,M,,*62
$GPRMC,183128.250,A,4307.9156,N,07729.6163,W,0.05,136.36,160823,,,A*72
$GPGGA,183128.500,4307.9156,N,07729.6163,W,1,06,1.37,95.9,M,-34.4,M,,*60
$GPRMC,183128.750,A,4307.9156,N,07729.6162,W,0.82,136.36,160823,,,A*79
$GPGGA,183129.000,4307.9156,N,07729.6161,W,1,06,1.37,95.9,M,-34.4,M,,*66
$GPRMC,183129.250,A,4307.9156,N,07729.6160,W,1.42,136.36,160823,,,A*72
$GPGGA,183129.500,4307.9156,N,07729.6159,W,1,06,1.37,95.9,M,-34.4,M,,*68
$GPRMC,183129.750,A,4307.9153,N,07729.6155,W,3.33,125.57,160823,,,A*75
$GPGGA,183130.000,4307.9150,N,07729.6150,W,1,06,1.37,96.0,M,-34.4,M,,*60
$GPRMC,183130.250,A,4307.9146,N,07729.6146,W,6.49,138.17,160823,,,A*7E
$GPGGA,183130.500,4307.9143,N,07729.6141,W,1,06,1.56,96.0,M,-34.4,M,,*60
$GPRMC,183130.750,A,4307.9139,N,07729.6136,W,7.21,140.19,160823,,,A*7A
