Vers 81
USE_SERIAL_FEEDBACK=true
DEVELOPMENT_MODE=false
USE_RMC_ONLY=false

$GPRMC,203522.750,A,4305.1682,N,07740.8841,W,0.02,123.85,140923,,,A*76
$GPGGA,203523.000,4305.1682,N,07740.8840,W,1,04,1.56,157.1,M,-34.4,M,,*5E
$GPRMC,203523.250,A,4305.1682,N,07740.8840,W,0.04,185.93,140923,,,A*7E
$GPGGA,203523.500,4305.1682,N,07740.8839,W,1,04,1.56,157.3,M,-34.4,M,,*57
$GPRMC,203523.750,A,4305.1682,N,07740.8838,W,0.02,233.79,140923,,,A*78
$GPGGA,203524.000,4305.1682,N,07740.8837,W,1,04,1.56,157.6,M,-34.4,M,,*5E
$GPRMC,203524.250,A,4305.1682,N,07740.8836,W,0.02,126.22,140923,,,A*7D
$GPGGA,203524.500,4305.1683,N,07740.8835,W,1,04,1.56,158.0,M,-34.4,M,,*51
$GPRMC,203524.750,A,4305.1683,N,07740.8834,W,0.05,35.79,140923,,,A*41
$GPGGA,203525.000,4305.1683,N,07740.8834,W,1,04,1.56,158.2,M,-34.4,M,,*56
$GPRMC,203525.250,A,4305.1683,N,07740.8833,W,0.02,28.61,140923,,,A*40
$GPGGA,203525.500,4305.1684,N,07740.8832,W,1,04,1.56,158.3,M,-34.4,M,,*53
$GPRMC,203525.750,A,4305.1684,N,07740.8831,W,0.02,205.94,140923,,,A*77
$GPGGA,203526.000,4305.1684,N,07740.8830,W,1,04,1.56,158.6,M,-34.4,M,,*52
$GPRMC,203526.250,A,4305.1683,N,07740.8823,W,0.03,195.19,140923,,,A*7B
$GPGGA,203526.500,4305.1682,N,07740.8817,W,1,05,1.51,161.5,M,-34.4,M,,*5B
$GPRMC,203526.750,A,4305.1681,N,07740.8810,W,0.02,50.94,140923,,,A*40
$GPGGA,203527.000,4305.1680,N,07740.8805,W,1,05,1.51,164.2,M,-34.4,M,,*5C
$GPRMC,203527.250,A,4305.1680,N,07740.8801,W,0.02,323.61,140923,,,A*78
$GPGGA,203527.500,4305.1679,N,07740.8798,W,1,05,1.51,165.8,M,-34.4,M,,*5F
$GPRMC,203527.750,A,4305.1681,N,07740.8797,W,0.03,122.66,140923,,,A*79
$GPGGA,203528.000,4305.1682,N,07740.8795,W,1,05,1.51,165.7,M,-34.4,M,,*53
$GPRMC,203528.250,A,4305.1682,N,07740.8794,W,0.03,19.63,140923,,,A*4F
$GPGGA,203528.500,4305.1683,N,07740.8793,W,1,05,1.51,165.8,M,-34.4,M,,*5E
$GPRMC,203528.750,A,4305.1684,N,07740.8792,W,0.01,177.60,140923,,,A*72
$GPGGA,203529.000,4305.1684,N,07740.8791,W,1,05,1.51,165.8,M,-34.4,M,,*5F
$GPRMC,203529.250,A,4305.1684,N,07740.8790,W,0.01,273.43,140923,,,A*72
$GPGGA,203529.500,4305.1685,N,07740.8789,W,1,05,1.51,166.1,M,-34.4,M,,*58
$GPRMC,203529.750,A,4305.1685,N,07740.8788,W,0.00,0.00,140923,,,A*7F
$GPGGA,203530.000,4305.1685,N,07740.8787,W,1,05,2.13,166.6,M,-34.4,M,,*59
$GPRMC,203530.250,A,4305.1685,N,07740.8786,W,0.05,91.07,140923,,,A*46
$GPGGA,203530.500,4305.1685,N,07740.8785,W,1,05,1.51,167.0,M,-34.4,M,,*5C
$GPRMC,203530.750,A,4305.1685,N,07740.8784,W,0.01,61.52,140923,,,A*4A
$GPGGA,203531.000,4305.1685,N,07740.8783,W,1,05,1.51,167.5,M,-34.4,M,,*5B
$GPRMC,203531.250,A,4305.1685,N,07740.8782,W,0.01,155.12,140923,,,A*7A
$GPGGA,203531.500,4305.1685,N,07740.8781,W,1,05,1.51,168.0,M,-34.4,M,,*56
$GPRMC,203531.750,A,4305.1685,N,07740.8780,W,0.02,114.04,140923,,,A*7C
$GPGGA,203532.000,4305.1685,N,07740.8780,W,1,05,1.51,168.1,M,-34.4,M,,*50
$GPRMC,203532.250,A,4305.1685,N,07740.8778,W,0.02,204.69,140923,,,A*74
$GPGGA,203532.500,4305.1685,N,07740.8775,W,1,10,0.84,169.3,M,-34.4,M,,*51
$GPRMC,203532.750,A,4305.1684,N,07740.8773,W,0.03,165.87,140923,,,A*7E
$GPGGA,203533.000,4305.1683,N,07740.8772,W,1,10,0.84,170.4,M,-34.4,M,,*5B
$GPRMC,203533.250,A,4305.1683,N,07740.8770,W,0.01,339.87,140923,,,A*77
$GPGGA,203533.500,4305.1682,N,07740.8770,W,1,10,0.84,171.1,M,-34.4,M,,*59
$GPRMC,203533.750,A,4305.1682,N,07740.8769,W,0.04,108.63,140923,,,A*74
$GPGGA,203534.000,4305.1681,N,07740.8769,W,1,10,0.84,171.5,M,-34.4,M,,*54
$GPRMC,203534.250,A,4305.1680,N,07740.8769,W,0.01,19.62,140923,,,A*41
$GPGGA,203534.500,4305.1680,N,07740.8769,W,1,10,0.84,171.9,M,-34.4,M,,*5C
$GPRMC,203534.750,A,4305.1679,N,07740.8768,W,0.05,148.11,140923,,,A*76
$GPGGA,203535.000,4305.1678,N,07740.8769,W,1,10,0.84,172.2,M,-34.4,M,,*57
$GPRMC,203535.250,A,4305.1677,N,07740.8769,W,0.03,40.48,140923,,,A*4E
$GPGGA,203535.500,4305.1677,N,07740.8769,W,1,10,0.84,172.5,M,-34.4,M,,*5A
$GPRMC,203535.750,A,4305.1677,N,07740.8769,W,0.02,159.64,140923,,,A*7D
$GPGGA,203536.000,4305.1677,N,07740.8768,W,1,10,0.84,172.6,M,-34.4,M,,*5E
$GPRMC,203536.250,A,4305.1677,N,07740.8768,W,0.03,324.23,140923,,,A*70
$GPGGA,203536.500,4305.1677,N,07740.8768,W,1,10,0.84,172.6,M,-34.4,M,,*5B
$GPRMC,203536.750,A,4305.1677,N,07740.8768,W,0.03,146.63,140923,,,A*77
$GPGGA,203537.000,4305.1677,N,07740.8767,W,1,10,0.84,172.8,M,-34.4,M,,*5E
$GPRMC,203537.250,A,4305.1676,N,07740.8767,W,0.06,123.48,140923,,,A*72
$GPGGA,203537.500,4305.1676,N,07740.8767,W,1,10,0.84,172.9,M,-34.4,M,,*5B
$GPRMC,203537.750,A,4305.1676,N,07740.8767,W,0.01,63.61,140923,,,A*4E
$GPGGA,203538.000,4305.1676,N,07740.8767,W,1,10,0.84,173.1,M,-34.4,M,,*58
$GPRMC,203538.250,A,4305.1675,N,07740.8767,W,0.01,126.72,140923,,,A*75
$GPGGA,203538.500,4305.1675,N,07740.8767,W,1,10,0.84,173.2,M,-34.4,M,,*5D
$GPRMC,203538.750,A,4305.1675,N,07740.8767,W,0.03,192.21,140923,,,A*7B
$GPGGA,203539.000,4305.1675,N,07740.8767,W,1,10,0.84,173.3,M,-34.4,M,,*58
$GPRMC,203539.250,A,4305.1674,N,07740.8767,W,0.03,107.77,140923,,,A*71
$GPGGA,203539.500,4305.1674,N,07740.8767,W,1,10,0.84,173.6,M,-34.4,M,,*59
$GPRMC,203539.750,A,4305.1674,N,07740.8767,W,0.01,153.59,140923,,,A*7B
$GPGGA,203540.000,4305.1674,N,07740.8767,W,1,10,0.84,173.7,M,-34.4,M,,*53
$GPRMC,203540.250,A,4305.1674,N,07740.8767,W,0.02,320.28,140923,,,A*73
$GPGGA,203540.500,4305.1674,N,07740.8766,W,1,10,0.84,173.9,M,-34.4,M,,*59
$GPRMC,203540.750,A,4305.1674,N,07740.8766,W,0.03,339.36,140923,,,A*71
$GPGGA,203541.000,4305.1674,N,07740.8766,W,1,10,0.84,174.0,M,-34.4,M,,*53
$GPRMC,203541.250,A,4305.1674,N,07740.8766,W,0.01,359.31,140923,,,A*76
$GPGGA,203541.500,4305.1674,N,07740.8766,W,1,10,0.86,174.3,M,-34.4,M,,*57
$GPRMC,203541.750,A,4305.1674,N,07740.8765,W,0.03,338.30,140923,,,A*74
$GPGGA,203542.000,4305.1674,N,07740.8765,W,1,10,0.84,174.5,M,-34.4,M,,*56
$GPRMC,203542.250,A,4305.1674,N,07740.8765,W,0.04,335.49,140923,,,A*76
$GPGGA,203542.500,4305.1674,N,07740.8765,W,1,10,0.84,174.6,M,-34.4,M,,*50
$GPRMC,203542.750,A,4305.1674,N,07740.8764,W,0.03,79.04,140923,,,A*47
$GPGGA,203543.000,4305.1674,N,07740.8764,W,1,10,0.84,174.8,M,-34.4,M,,*5B
$GPRMC,203543.250,A,4305.1674,N,07740.8764,W,0.01,205.68,140923,,,A*72
$GPGGA,203543.500,4305.1674,N,07740.8763,W,1,10,0.84,175.0,M,-34.4,M,,*50
$GPRMC,203543.750,A,4305.1673,N,07740.8763,W,0.04,128.03,140923,,,A*73
$GPGGA,203544.000,4305.1673,N,07740.8763,W,1,10,0.84,175.2,M,-34.4,M,,*57
$GPRMC,203544.250,A,4305.1673,N,07740.8762,W,0.02,63.44,140923,,,A*4B
$GPGGA,203544.500,4305.1673,N,07740.8762,W,1,10,0.84,175.4,M,-34.4,M,,*55
$GPRMC,203544.750,A,4305.1673,N,07740.8762,W,0.01,172.40,140923,,,A*78
$GPGGA,203545.000,4305.1673,N,07740.8762,W,1,10,0.84,175.6,M,-34.4,M,,*53
$GPRMC,203545.250,A,4305.1673,N,07740.8761,W,0.03,92.39,140923,,,A*4C
$GPGGA,203545.500,4305.1673,N,07740.8761,W,1,10,0.84,175.6,M,-34.4,M,,*55
$GPRMC,203545.750,A,4305.1673,N,07740.8761,W,0.19,186.20,140923,,,A*7E
$GPGGA,203546.000,4305.1673,N,07740.8761,W,1,10,0.84,175.8,M,-34.4,M,,*5D
$GPRMC,203546.250,A,4305.1673,N,07740.8761,W,0.44,185.14,140923,,,A*74
$GPGGA,203546.500,4305.1672,N,07740.8761,W,1,10,0.84,175.9,M,-34.4,M,,*58
$GPRMC,203546.750,A,4305.1672,N,07740.8761,W,0.50,182.49,140923,,,A*7A
$GPGGA,203547.000,4305.1672,N,07740.8761,W,1,10,0.84,176.1,M,-34.4,M,,*57
$GPRMC,203547.250,A,4305.1671,N,07740.8761,W,0.44,182.87,140923,,,A*7A
$GPGGA,203547.500,4305.1671,N,07740.8761,W,1,10,0.84,176.2,M,-34.4,M,,*52
$GPRMC,203547.750,A,4305.1670,N,07740.8761,W,0.66,185.44,140923,,,A*76
$GPGGA,203548.000,4305.1670,N,07740.8762,W,1,10,0.84,176.3,M,-34.4,M,,*5B
$GPRMC,203548.250,A,4305.1669,N,07740.8762,W,0.61,182.71,140923,,,A*71
$GPGGA,203548.500,4305.1669,N,07740.8762,W,1,10,0.84,176.3,M,-34.4,M,,*56
$GPRMC,203548.750,A,4305.1669,N,07740.8762,W,0.55,179.25,140923,,,A*76
$GPGGA,203549.000,4305.1668,N,07740.8762,W,1,10,0.84,176.3,M,-34.4,M,,*53
$GPRMC,203549.250,A,4305.1668,N,07740.8762,W,0.81,179.44,140923,,,A*7D
$GPGGA,203549.500,4305.1667,N,07740.8762,W,1,10,0.84,176.3,M,-34.4,M,,*59
$GPRMC,203549.750,A,4305.1667,N,07740.8762,W,0.78,177.28,140923,,,A*75
$GPGGA,203550.000,4305.1666,N,07740.8762,W,1,10,0.84,176.3,M,-34.4,M,,*55
$GPRMC,203550.250,A,4305.1666,N,07740.8763,W,0.23,172.95,140923,,,A*75
$GPGGA,203550.500,4305.1666,N,07740.8763,W,1,10,0.84,176.4,M,-34.4,M,,*56
$GPRMC,203550.750,A,4305.1666,N,07740.8763,W,0.15,163.78,140923,,,A*76
$GPGGA,203551.000,4305.1666,N,07740.8763,W,1,10,0.84,176.3,M,-34.4,M,,*55
$GPRMC,203551.250,A,4305.1666,N,07740.8764,W,0.09,171.71,140923,,,A*72
$GPGGA,203551.500,4305.1666,N,07740.8764,W,1,10,0.84,176.3,M,-34.4,M,,*57
$GPRMC,203551.750,A,4305.1667,N,07740.8764,W,0.04,152.65,140923,,,A*7F
$GPGGA,203552.000,4305.1667,N,07740.8764,W,1,10,0.84,176.3,M,-34.4,M,,*50
$GPRMC,203552.250,A,4305.1667,N,07740.8764,W,0.02,110.58,140923,,,A*77
$GPGGA,203552.500,4305.1667,N,07740.8764,W,1,10,0.84,176.3,M,-34.4,M,,*55
$GPRMC,203552.750,A,4305.1667,N,07740.8764,W,0.02,350.08,140923,,,A*71
$GPGGA,203553.000,4305.1668,N,07740.8764,W,1,10,0.86,176.2,M,-34.4,M,,*5D
$GPRMC,203553.250,A,4305.1668,N,07740.8764,W,0.07,189.94,140923,,,A*7C
$GPGGA,203553.500,4305.1668,N,07740.8764,W,1,10,0.84,176.2,M,-34.4,M,,*5A
$GPRMC,203553.750,A,4305.1669,N,07740.8764,W,0.20,169.52,140923,,,A*79
$GPGGA,203554.000,4305.1668,N,07740.8764,W,1,10,0.84,176.2,M,-34.4,M,,*58
$GPRMC,203554.250,A,4305.1668,N,07740.8764,W,0.27,176.96,140923,,,A*7B
$GPGGA,203554.500,4305.1668,N,07740.8764,W,1,10,0.84,176.2,M,-34.4,M,,*5D
$GPRMC,203554.750,A,4305.1668,N,07740.8764,W,0.80,182.47,140923,,,A*74
$GPGGA,203555.000,4305.1667,N,07740.8764,W,1,09,0.96,176.2,M,-34.4,M,,*5D
$GPRMC,203555.250,A,4305.1667,N,07740.8764,W,1.05,175.06,140923,,,A*7E
$GPGGA,203555.500,4305.1666,N,07740.8764,W,1,09,0.96,176.1,M,-34.4,M,,*5A
$GPRMC,203555.750,A,4305.1666,N,07740.8764,W,0.77,173.22,140923,,,A*7E
$GPGGA,203556.000,4305.1665,N,07740.8764,W,1,10,0.84,176.1,M,-34.4,M,,*54
$GPRMC,203556.250,A,4305.1664,N,07740.8763,W,0.89,170.89,140923,,,A*7E
$GPGGA,203556.500,4305.1664,N,07740.8763,W,1,09,0.96,176.1,M,-34.4,M,,*5C
$GPRMC,203556.750,A,4305.1663,N,07740.8763,W,1.25,169.47,140923,,,A*71
$GPGGA,203557.000,4305.1662,N,07740.8763,W,1,09,0.96,176.1,M,-34.4,M,,*5E
$GPRMC,203557.250,A,4305.1661,N,07740.8763,W,1.29,166.91,140923,,,A*7F
$GPGGA,203557.500,4305.1661,N,07740.8763,W,1,08,1.01,176.0,M,-34.4,M,,*57
$GPRMC,203557.750,A,4305.1660,N,07740.8763,W,1.27,161.88,140923,,,A*7A
$GPGGA,203558.000,4305.1659,N,07740.8763,W,1,09,0.96,175.9,M,-34.4,M,,*52
$GPRMC,203558.250,A,4305.1658,N,07740.8763,W,1.58,160.23,140923,,,A*73
$GPGGA,203558.500,4305.1657,N,07740.8762,W,1,09,0.96,175.8,M,-34.4,M,,*59
$GPRMC,203558.750,A,4305.1655,N,07740.8762,W,1.46,162.50,140923,,,A*73
$GPGGA,203559.000,4305.1654,N,07740.8762,W,1,10,0.84,175.7,M,-34.4,M,,*5A
$GPRMC,203559.250,A,4305.1653,N,07740.8761,W,1.45,155.56,140923,,,A*73
$GPGGA,203559.500,4305.1652,N,07740.8761,W,1,10,0.84,175.6,M,-34.4,M,,*5B
$GPRMC,203559.750,A,4305.1651,N,07740.8760,W,1.20,154.28,140923,,,A*7E
$GPGGA,203600.000,4305.1650,N,07740.8759,W,1,10,0.84,175.5,M,-34.4,M,,*5B
$GPRMC,203600.250,A,4305.1649,N,07740.8759,W,1.31,151.40,140923,,,A*7C
$GPGGA,203600.500,4305.1649,N,07740.8758,W,1,10,0.84,175.5,M,-34.4,M,,*57
$GPRMC,203600.750,A,4305.1648,N,07740.8758,W,1.44,144.92,140923,,,A*70
$GPGGA,203601.000,4305.1647,N,07740.8757,W,1,10,0.84,175.5,M,-34.4,M,,*52
$GPRMC,203601.250,A,4305.1646,N,07740.8756,W,1.51,142.68,140923,,,A*73
$GPGGA,203601.500,4305.1645,N,07740.8755,W,1,09,0.96,175.4,M,-34.4,M,,*5D
$GPRMC,203601.750,A,4305.1644,N,07740.8754,W,1.80,141.59,140923,,,A*7B
$GPGGA,203602.000,4305.1642,N,07740.8752,W,1,10,0.84,175.4,M,-34.4,M,,*50
$GPRMC,203602.250,A,4305.1641,N,07740.8751,W,1.82,134.07,140923,,,A*76
$GPGGA,203602.500,4305.1640,N,07740.8750,W,1,10,0.84,175.3,M,-34.4,M,,*52
$GPRMC,203602.750,A,4305.1640,N,07740.8749,W,1.16,128.81,140923,,,A*75
$GPGGA,203603.000,4305.1639,N,07740.8748,W,1,09,0.90,175.2,M,-34.4,M,,*5D
$GPRMC,203603.250,A,4305.1639,N,07740.8748,W,0.19,125.97,140923,,,A*7A
$GPGGA,203603.500,4305.1639,N,07740.8747,W,1,09,0.90,175.1,M,-34.4,M,,*54
$GPRMC,203603.750,A,4305.1640,N,07740.8748,W,0.45,317.59,140923,,,A*79
$GPGGA,203604.000,4305.1640,N,07740.8748,W,1,09,0.90,175.0,M,-34.4,M,,*56
$GPRMC,203604.250,A,4305.1641,N,07740.8748,W,1.24,311.55,140923,,,A*76
$GPGGA,203604.500,4305.1641,N,07740.8749,W,1,09,0.90,174.9,M,-34.4,M,,*5B
$GPRMC,203604.750,A,4305.1642,N,07740.8750,W,1.82,308.40,140923,,,A*79
$GPGGA,203605.000,4305.1643,N,07740.8751,W,1,10,0.84,174.8,M,-34.4,M,,*58
$GPRMC,203605.250,A,4305.1644,N,07740.8752,W,2.13,306.48,140923,,,A*74
$GPGGA,203605.500,4305.1645,N,07740.8754,W,1,10,0.84,174.7,M,-34.4,M,,*51
$GPRMC,203605.750,A,4305.1646,N,07740.8755,W,2.40,297.75,140923,,,A*75
$GPGGA,203606.000,4305.1647,N,07740.8757,W,1,10,0.84,174.7,M,-34.4,M,,*56
$GPRMC,203606.250,A,4305.1648,N,07740.8759,W,2.74,298.56,140923,,,A*78
$GPGGA,203606.500,4305.1649,N,07740.8762,W,1,10,0.84,174.6,M,-34.4,M,,*5A
$GPRMC,203606.750,A,4305.1650,N,07740.8764,W,3.10,286.23,140923,,,A*74
$GPGGA,203607.000,4305.1651,N,07740.8767,W,1,10,0.84,174.5,M,-34.4,M,,*51
$GPRMC,203607.250,A,4305.1651,N,07740.8770,W,3.34,283.04,140923,,,A*72
$GPGGA,203607.500,4305.1651,N,07740.8772,W,1,10,0.84,174.5,M,-34.4,M,,*50
$GPRMC,203607.750,A,4305.1652,N,07740.8775,W,3.11,275.40,140923,,,A*7F
$GPGGA,203608.000,4305.1652,N,07740.8777,W,1,10,0.84,174.5,M,-34.4,M,,*5C
$GPRMC,203606.250,A,4305.1652,N,07740.8778,W,2.28,276.53,140923,,,A*7C
$GPGGA,203606.500,4305.1651,N,07740.8779,W,1,10,0.84,175.2,M,-34.4,M,,*5C
$GPRMC,203606.750,A,4305.1650,N,07740.8779,W,1.31,275.52,140923,,,A*73
$GPGGA,203607.000,4305.1648,N,07740.8780,W,1,10,0.84,176.3,M,-34.4,M,,*54
$GPRMC,203607.250,A,4305.1647,N,07740.8780,W,0.60,262.15,140923,,,A*77
$GPGGA,203607.500,4305.1646,N,07740.8779,W,1,10,0.84,177.1,M,-34.4,M,,*5A
$GPRMC,203607.750,A,4305.1645,N,07740.8778,W,0.38,271.42,140923,,,A*7A
$GPGGA,203608.000,4305.1645,N,07740.8778,W,1,10,0.84,177.7,M,-34.4,M,,*54
$GPRMC,203608.250,A,4305.1644,N,07740.8777,W,0.88,267.02,140923,,,A*76
$GPGGA,203608.500,4305.1644,N,07740.8776,W,1,09,0.94,178.1,M,-34.4,M,,*5E
$GPRMC,203608.750,A,4305.1644,N,07740.8776,W,2.34,267.91,140923,,,A*7D
$GPGGA,203609.000,4305.1644,N,07740.8777,W,1,10,0.84,178.5,M,-34.4,M,,*56
$GPRMC,203609.250,A,4305.1643,N,07740.8780,W,3.48,266.85,140923,,,A*79
$GPGGA,203609.500,4305.1643,N,07740.8780,W,1,10,0.84,178.9,M,-34.4,M,,*50
$GPRMC,203609.750,A,4305.1642,N,07740.8782,W,4.67,259.11,140923,,,A*74
$GPGGA,203610.000,4305.1641,N,07740.8786,W,1,10,0.86,179.5,M,-34.4,M,,*56
$GPRMC,203610.250,A,4305.1640,N,07740.8788,W,5.84,243.50,140923,,,A*73
$GPGGA,203610.500,4305.1639,N,07740.8790,W,1,10,0.86,179.6,M,-34.4,M,,*58
$GPRMC,203610.750,A,4305.1635,N,07740.8796,W,6.19,236.07,140923,,,A*7C
$GPGGA,203611.000,4305.1632,N,07740.8803,W,1,10,0.86,179.9,M,-34.4,M,,*5D
$GPRMC,203611.250,A,4305.1630,N,07740.8808,W,6.93,220.86,140923,,,A*79
$GPGGA,203611.500,4305.1627,N,07740.8813,W,1,10,0.86,180.4,M,-34.4,M,,*56
$GPRMC,203611.750,A,4305.1623,N,07740.8819,W,6.86,214.44,140923,,,A*73
$GPGGA,203612.000,4305.1619,N,07740.8824,W,1,10,0.86,180.7,M,-34.4,M,,*5A
$GPRMC,203612.250,A,4305.1615,N,07740.8828,W,6.92,204.88,140923,,,A*76
$GPGGA,203612.500,4305.1611,N,07740.8831,W,1,10,0.86,180.7,M,-34.4,M,,*53
$GPRMC,203612.750,A,4305.1607,N,07740.8833,W,7.58,198.93,140923,,,A*71
$GPGGA,203613.000,4305.1603,N,07740.8835,W,1,10,0.86,180.6,M,-34.4,M,,*51
$GPRMC,203613.250,A,4305.1600,N,07740.8835,W,7.27,192.89,140923,,,A*7D
$GPGGA,203613.500,4305.1596,N,07740.8836,W,1,10,0.86,180.2,M,-34.4,M,,*5C
$GPRMC,203613.750,A,4305.1590,N,07740.8839,W,7.20,189.57,140923,,,A*70
$GPGGA,203614.000,4305.1583,N,07740.8843,W,1,10,0.86,180.2,M,-34.4,M,,*58
$GPRMC,203614.250,A,4305.1577,N,07740.8846,W,7.04,186.42,140923,,,A*7E
$GPGGA,203614.500,4305.1572,N,07740.8847,W,1,10,0.86,180.0,M,-34.4,M,,*55
$GPRMC,203614.750,A,4305.1568,N,07740.8848,W,6.80,183.04,140923,,,A*71
$GPGGA,203615.000,4305.1564,N,07740.8849,W,1,10,0.86,179.8,M,-34.4,M,,*56
$GPRMC,203615.250,A,4305.1561,N,07740.8849,W,6.01,181.56,140923,,,A*71
$GPGGA,203615.500,4305.1558,N,07740.8848,W,1,09,0.99,179.6,M,-34.4,M,,*55
$GPRMC,203615.750,A,4305.1555,N,07740.8847,W,5.55,179.24,140923,,,A*7D
$GPGGA,203616.000,4305.1553,N,07740.8847,W,1,09,0.99,179.3,M,-34.4,M,,*52
$GPRMC,203616.250,A,4305.1550,N,07740.8847,W,4.98,178.32,140923,,,A*78
$GPGGA,203616.500,4305.1549,N,07740.8847,W,1,10,0.86,178.9,M,-34.4,M,,*51
$GPRMC,203616.750,A,4305.1547,N,07740.8848,W,4.49,180.39,140923,,,A*74
$GPGGA,203617.000,4305.1546,N,07740.8849,W,1,09,0.99,178.7,M,-34.4,M,,*5C
$GPRMC,203617.250,A,4305.1544,N,07740.8850,W,4.14,180.42,140923,,,A*7E
$GPGGA,203617.500,4305.1543,N,07740.8850,W,1,09,0.99,178.5,M,-34.4,M,,*56
$GPRMC,203617.750,A,4305.1542,N,07740.8850,W,4.05,182.31,140923,,,A*7B
$GPGGA,203618.000,4305.1540,N,07740.8849,W,1,10,0.86,178.4,M,-34.4,M,,*50
$GPRMC,203618.250,A,4305.1537,N,07740.8851,W,4.06,186.30,140923,,,A*74
$GPGGA,203618.500,4305.1535,N,07740.8852,W,1,10,0.86,178.2,M,-34.4,M,,*5B
$GPRMC,203618.750,A,4305.1535,N,07740.8855,W,3.77,185.77,140923,,,A*76
$GPGGA,203619.000,4305.1535,N,07740.8857,W,1,10,0.84,177.8,M,-34.4,M,,*5D
$GPRMC,203619.250,A,4305.1533,N,07740.8857,W,3.27,189.01,140923,,,A*7E
$GPGGA,203619.500,4305.1533,N,07740.8856,W,1,10,0.84,177.5,M,-34.4,M,,*52
$GPRMC,203619.750,A,4305.1532,N,07740.8856,W,3.07,191.72,140923,,,A*74
$GPGGA,203620.000,4305.1532,N,07740.8856,W,1,10,0.84,177.2,M,-34.4,M,,*5B
$GPRMC,203620.250,A,4305.1532,N,07740.8854,W,2.79,193.12,140923,,,A*75
$GPGGA,203620.500,4305.1533,N,07740.8853,W,1,10,0.84,176.9,M,-34.4,M,,*50
$GPRMC,203620.750,A,4305.1533,N,07740.8851,W,2.48,197.80,140923,,,A*79
$GPGGA,203621.000,4305.1533,N,07740.8851,W,1,10,0.84,176.3,M,-34.4,M,,*5C
$GPRMC,203621.250,A,4305.1532,N,07740.8851,W,2.51,197.67,140923,,,A*7D
$GPGGA,203621.500,4305.1532,N,07740.8851,W,1,09,0.94,175.8,M,-34.4,M,,*59
$GPRMC,203621.750,A,4305.1531,N,07740.8852,W,2.68,204.21,140923,,,A*79
$GPGGA,203622.000,4305.1529,N,07740.8853,W,1,09,0.94,175.3,M,-34.4,M,,*5C
$GPRMC,203622.250,A,4305.1527,N,07740.8855,W,3.17,207.40,140923,,,A*72
$GPGGA,203622.500,4305.1526,N,07740.8857,W,1,10,0.84,174.9,M,-34.4,M,,*50
$GPRMC,203622.750,A,4305.1522,N,07740.8860,W,3.16,207.06,140923,,,A*77
$GPGGA,203623.000,4305.1518,N,07740.8863,W,1,10,0.84,174.7,M,-34.4,M,,*50
$GPRMC,203623.250,A,4305.1514,N,07740.8866,W,3.38,209.69,140923,,,A*7B
$GPGGA,203623.500,4305.1513,N,07740.8869,W,1,10,0.84,174.4,M,-34.4,M,,*57
$GPRMC,203623.750,A,4305.1512,N,07740.8874,W,3.28,221.09,140923,,,A*76
$GPGGA,203624.000,4305.1510,N,07740.8878,W,1,10,0.84,174.0,M,-34.4,M,,*52
$GPRMC,203624.250,A,4305.1508,N,07740.8882,W,3.68,226.33,140923,,,A*7C
$GPGGA,203624.500,4305.1508,N,07740.8886,W,1,10,0.84,173.7,M,-34.4,M,,*5F
$GPRMC,203624.750,A,4305.1507,N,07740.8890,W,3.92,232.33,140923,,,A*75
$GPGGA,203625.000,4305.1506,N,07740.8895,W,1,10,0.86,173.4,M,-34.4,M,,*56
$GPRMC,203625.250,A,4305.1505,N,07740.8899,W,4.52,237.27,140923,,,A*71
$GPGGA,203625.500,4305.1502,N,07740.8904,W,1,10,0.86,172.9,M,-34.4,M,,*52
$GPRMC,203625.750,A,4305.1500,N,07740.8910,W,4.71,246.51,140923,,,A*77
$GPGGA,203626.000,4305.1498,N,07740.8915,W,1,10,0.86,172.3,M,-34.4,M,,*5C
$GPRMC,203626.250,A,4305.1496,N,07740.8920,W,5.04,247.77,140923,,,A*7A
$GPGGA,203626.500,4305.1493,N,07740.8925,W,1,10,0.86,171.8,M,-34.4,M,,*59
$GPRMC,203626.750,A,4305.1492,N,07740.8931,W,5.71,253.68,140923,,,A*72
$GPGGA,203627.000,4305.1490,N,07740.8937,W,1,10,0.86,171.2,M,-34.4,M,,*57
$GPRMC,203627.250,A,4305.1489,N,07740.8942,W,5.97,258.58,140923,,,A*78
$GPGGA,203627.500,4305.1488,N,07740.8948,W,1,10,0.86,170.7,M,-34.4,M,,*57
$GPRMC,203627.750,A,4305.1488,N,07740.8954,W,6.60,264.30,140923,,,A*71
$GPGGA,203628.000,4305.1487,N,07740.8960,W,1,10,0.86,170.3,M,-34.4,M,,*5C
$GPRMC,203628.250,A,4305.1488,N,07740.8966,W,6.93,268.24,140923,,,A*7F
$GPGGA,203628.500,4305.1487,N,07740.8973,W,1,10,0.86,169.9,M,-34.4,M,,*59
$GPRMC,203628.750,A,4305.1487,N,07740.8980,W,7.41,270.95,140923,,,A*70
$GPGGA,203629.000,4305.1486,N,07740.8987,W,1,10,0.86,169.6,M,-34.4,M,,*58
$GPRMC,203629.250,A,4305.1486,N,07740.8994,W,7.90,272.79,140923,,,A*7C
$GPGGA,203629.500,4305.1486,N,07740.9002,W,1,10,0.86,169.5,M,-34.4,M,,*5B
$GPRMC,203629.750,A,4305.1486,N,07740.9009,W,7.87,273.79,140923,,,A*72
$GPGGA,203630.000,4305.1486,N,07740.9016,W,1,10,0.86,169.3,M,-34.4,M,,*55
$GPRMC,203630.250,A,4305.1486,N,07740.9024,W,8.21,273.89,140923,,,A*7C
$GPGGA,203630.500,4305.1486,N,07740.9032,W,1,10,0.86,169.2,M,-34.4,M,,*57
$GPRMC,203630.750,A,4305.1485,N,07740.9040,W,8.76,274.74,140923,,,A*7F
$GPGGA,203631.000,4305.1485,N,07740.9049,W,1,10,0.86,168.9,M,-34.4,M,,*56
$GPRMC,203631.250,A,4305.1484,N,07740.9058,W,9.30,273.75,140923,,,A*76
$GPGGA,203631.500,4305.1484,N,07740.9068,W,1,10,0.86,168.8,M,-34.4,M,,*50
$GPRMC,203631.750,A,4305.1484,N,07740.9077,W,9.67,277.84,140923,,,A*76
$GPGGA,203632.000,4305.1485,N,07740.9086,W,1,10,0.86,168.6,M,-34.4,M,,*59
$GPRMC,203632.250,A,4305.1485,N,07740.9096,W,9.68,278.95,140923,,,A*7E
$GPGGA,203632.500,4305.1486,N,07740.9106,W,1,10,0.86,168.5,M,-34.4,M,,*55
$GPRMC,203632.750,A,4305.1486,N,07740.9117,W,9.83,279.55,140923,,,A*78
$GPGGA,203633.000,4305.1487,N,07740.9127,W,1,10,0.86,168.4,M,-34.4,M,,*52
$GPRMC,203633.250,A,4305.1488,N,07740.9138,W,10.18,282.16,140923,,,A*46
$GPGGA,203633.500,4305.1490,N,07740.9149,W,1,10,0.86,168.3,M,-34.4,M,,*5E
$GPRMC,203633.750,A,4305.1492,N,07740.9159,W,10.27,288.25,140923,,,A*49
$GPGGA,203634.000,4305.1494,N,07740.9169,W,1,10,0.86,168.3,M,-34.4,M,,*5A
$GPRMC,203634.250,A,4305.1496,N,07740.9179,W,10.48,289.60,140923,,,A*44
$GPGGA,203634.500,4305.1498,N,07740.9189,W,1,10,0.86,168.3,M,-34.4,M,,*5D
$GPRMC,203634.750,A,4305.1499,N,07740.9200,W,11.06,287.20,140923,,,A*42
$GPGGA,203635.000,4305.1500,N,07740.9211,W,1,09,0.99,168.1,M,-34.4,M,,*5F
$GPRMC,203635.250,A,4305.1501,N,07740.9221,W,11.08,285.84,140923,,,A*47
$GPGGA,203635.500,4305.1503,N,07740.9233,W,1,09,0.99,168.0,M,-34.4,M,,*58
$GPRMC,203635.750,A,4305.1504,N,07740.9244,W,11.76,284.15,140923,,,A*44
$GPGGA,203636.000,4305.1505,N,07740.9256,W,1,10,0.86,168.0,M,-34.4,M,,*5D
$GPRMC,203636.250,A,4305.1506,N,07740.9267,W,12.08,281.67,140923,,,A*4B
$GPGGA,203636.500,4305.1507,N,07740.9279,W,1,10,0.86,167.9,M,-34.4,M,,*51
$GPRMC,203636.750,A,4305.1507,N,07740.9291,W,12.54,279.46,140923,,,A*4B
$GPGGA,203637.000,4305.1508,N,07740.9302,W,1,10,0.86,167.8,M,-34.4,M,,*56
$GPRMC,203637.250,A,4305.1509,N,07740.9314,W,12.65,279.30,140923,,,A*4E
$GPGGA,203637.500,4305.1510,N,07740.9326,W,1,10,0.86,167.6,M,-34.4,M,,*52
$GPRMC,203637.750,A,4305.1510,N,07740.9339,W,13.10,276.20,140923,,,A*41
$GPGGA,203638.000,4305.1511,N,07740.9352,W,1,09,0.99,167.1,M,-34.4,M,,*5B
$GPRMC,203638.250,A,4305.1511,N,07740.9365,W,13.14,275.98,140923,,,A*47
$GPGGA,203638.500,4305.1512,N,07740.9378,W,1,10,0.86,166.8,M,-34.4,M,,*5B
$GPRMC,203638.750,A,4305.1513,N,07740.9390,W,13.31,273.82,140923,,,A*40
$GPGGA,203639.000,4305.1513,N,07740.9402,W,1,10,0.84,166.6,M,-34.4,M,,*58
$GPRMC,203639.250,A,4305.1514,N,07740.9414,W,13.21,272.72,140923,,,A*47
$GPGGA,203639.500,4305.1515,N,07740.9426,W,1,10,0.86,166.4,M,-34.4,M,,*5D
$GPRMC,203639.750,A,4305.1515,N,07740.9438,W,13.15,272.97,140923,,,A*41
$GPGGA,203640.000,4305.1516,N,07740.9449,W,1,10,0.86,166.2,M,-34.4,M,,*5A
$GPRMC,203640.250,A,4305.1518,N,07740.9458,W,13.04,271.70,140923,,,A*4B
$GPGGA,203640.500,4305.1520,N,07740.9466,W,1,10,0.86,166.0,M,-34.4,M,,*55
$GPRMC,203640.750,A,4305.1522,N,07740.9478,W,12.86,271.60,140923,,,A*4F
$GPGGA,203641.000,4305.1523,N,07740.9489,W,1,10,0.86,165.8,M,-34.4,M,,*58
$GPRMC,203641.250,A,4305.1525,N,07740.9498,W,12.83,270.48,140923,,,A*4C
$GPGGA,203641.500,4305.1526,N,07740.9509,W,1,10,0.86,165.7,M,-34.4,M,,*5E
$GPRMC,203641.750,A,4305.1527,N,07740.9520,W,12.64,269.83,140923,,,A*4F
$GPGGA,203642.000,4305.1528,N,07740.9531,W,1,10,0.86,165.6,M,-34.4,M,,*5C
$GPRMC,203642.250,A,4305.1529,N,07740.9541,W,12.40,269.33,140923,,,A*4D
$GPGGA,203642.500,4305.1529,N,07740.9552,W,1,10,0.86,165.4,M,-34.4,M,,*5F
$GPRMC,203642.750,A,4305.1530,N,07740.9564,W,12.33,268.24,140923,,,A*44
$GPGGA,203643.000,4305.1531,N,07740.9574,W,1,10,0.86,165.2,M,-34.4,M,,*50
$GPRMC,203643.250,A,4305.1532,N,07740.9583,W,11.98,268.12,140923,,,A*4C
$GPGGA,203643.500,4305.1533,N,07740.9594,W,1,10,0.86,165.0,M,-34.4,M,,*5B
$GPRMC,203643.750,A,4305.1533,N,07740.9604,W,11.79,267.39,140923,,,A*4D
$GPGGA,203644.000,4305.1534,N,07740.9614,W,1,10,0.86,164.9,M,-34.4,M,,*5D
$GPRMC,203644.250,A,4305.1535,N,07740.9624,W,11.54,267.54,140923,,,A*4F
$GPGGA,203644.500,4305.1535,N,07740.9634,W,1,10,0.86,164.7,M,-34.4,M,,*55
$GPRMC,203644.750,A,4305.1535,N,07740.9644,W,10.94,268.04,140923,,,A*4B
$GPGGA,203645.000,4305.1535,N,07740.9653,W,1,10,0.86,164.6,M,-34.4,M,,*51
$GPRMC,203645.250,A,4305.1536,N,07740.9663,W,10.36,267.99,140923,,,A*4A
$GPGGA,203645.500,4305.1536,N,07740.9672,W,1,10,0.86,164.4,M,-34.4,M,,*56
$GPRMC,203645.750,A,4305.1536,N,07740.9681,W,8.77,269.05,140923,,,A*74
$GPGGA,203646.000,4305.1536,N,07740.9688,W,1,10,0.86,164.2,M,-34.4,M,,*53
$GPRMC,203646.250,A,4305.1537,N,07740.9694,W,6.43,269.56,140923,,,A*78
$GPGGA,203646.500,4305.1537,N,07740.9700,W,1,10,0.86,163.8,M,-34.4,M,,*5B
$GPRMC,203646.750,A,4305.1537,N,07740.9704,W,4.72,267.87,140923,,,A*77
$GPGGA,203647.000,4305.1537,N,07740.9709,W,1,10,0.86,163.7,M,-34.4,M,,*59
$GPRMC,203647.250,A,4305.1536,N,07740.9712,W,3.41,265.77,140923,,,A*7F
$GPGGA,203647.500,4305.1536,N,07740.9715,W,1,10,0.84,163.4,M,-34.4,M,,*51
$GPRMC,203647.750,A,4305.1536,N,07740.9717,W,2.21,265.77,140923,,,A*78
$GPGGA,203648.000,4305.1536,N,07740.9717,W,1,10,0.85,163.2,M,-34.4,M,,*5E
$GPRMC,203648.250,A,4305.1539,N,07740.9714,W,1.38,265.77,140923,,,A*75
$GPGGA,203648.500,4305.1540,N,07740.9712,W,1,10,0.85,163.0,M,-34.4,M,,*5D
$GPRMC,203648.750,A,4305.1540,N,07740.9713,W,1.45,265.77,140923,,,A*73
$GPGGA,203649.000,4305.1541,N,07740.9712,W,1,10,0.85,162.8,M,-34.4,M,,*51
$GPRMC,203649.250,A,4305.1543,N,07740.9712,W,2.28,265.77,140923,,,A*7D
$GPGGA,203649.500,4305.1544,N,07740.9713,W,1,10,0.85,162.5,M,-34.4,M,,*5D
$GPRMC,203649.750,A,4305.1545,N,07740.9715,W,3.22,267.13,140923,,,A*72
$GPGGA,203650.000,4305.1545,N,07740.9719,W,1,10,0.85,162.3,M,-34.4,M,,*5D
$GPRMC,203650.250,A,4305.1545,N,07740.9722,W,3.96,264.63,140923,,,A*70
$GPGGA,203650.500,4305.1545,N,07740.9726,W,1,10,0.86,162.0,M,-34.4,M,,*54
$GPRMC,203650.750,A,4305.1545,N,07740.9730,W,4.94,260.83,140923,,,A*79
$GPGGA,203651.000,4305.1545,N,07740.9734,W,1,10,0.86,161.9,M,-34.4,M,,*59
$GPRMC,203651.250,A,4305.1544,N,07740.9738,W,5.50,255.65,140923,,,A*73
$GPGGA,203651.500,4305.1543,N,07740.9742,W,1,10,0.86,161.8,M,-34.4,M,,*5A
$GPRMC,203651.750,A,4305.1541,N,07740.9747,W,6.24,246.37,140923,,,A*7E
$GPGGA,203652.000,4305.1540,N,07740.9753,W,1,10,0.86,161.7,M,-34.4,M,,*50
$GPRMC,203652.250,A,4305.1537,N,07740.9759,W,6.88,234.49,140923,,,A*7C
$GPGGA,203652.500,4305.1534,N,07740.9764,W,1,10,0.86,161.6,M,-34.4,M,,*53
$GPRMC,203652.750,A,4305.1530,N,07740.9769,W,7.63,221.63,140923,,,A*75
$GPGGA,203653.000,4305.1526,N,07740.9775,W,1,10,0.86,161.5,M,-34.4,M,,*57
$GPRMC,203653.250,A,4305.1522,N,07740.9779,W,7.63,213.65,140923,,,A*74
$GPGGA,203653.500,4305.1517,N,07740.9783,W,1,10,0.86,161.3,M,-34.4,M,,*5F
$GPRMC,203653.750,A,4305.1512,N,07740.9786,W,7.31,205.95,140923,,,A*7D
$GPGGA,203654.000,4305.1508,N,07740.9790,W,1,10,0.86,161.1,M,-34.4,M,,*53
$GPRMC,203654.250,A,4305.1502,N,07740.9793,W,8.06,200.62,140923,,,A*7C
$GPGGA,203654.500,4305.1496,N,07740.9795,W,1,10,0.86,161.0,M,-34.4,M,,*54
$GPRMC,203654.750,A,4305.1491,N,07740.9798,W,8.62,194.83,140923,,,A*7A
$GPGGA,203655.000,4305.1484,N,07740.9800,W,1,10,0.86,160.9,M,-34.4,M,,*58
$GPRMC,203655.250,A,4305.1478,N,07740.9802,W,8.96,191.91,140923,,,A*78
$GPGGA,203655.500,4305.1472,N,07740.9804,W,1,10,0.86,160.9,M,-34.4,M,,*50
$GPRMC,203655.750,A,4305.1465,N,07740.9807,W,9.04,190.05,140923,,,A*72
$GPGGA,203656.000,4305.1458,N,07740.9810,W,1,10,0.86,160.9,M,-34.4,M,,*5B
$GPRMC,203656.250,A,4305.1452,N,07740.9813,W,9.38,188.70,140923,,,A*71
$GPGGA,203656.500,4305.1446,N,07740.9814,W,1,10,0.86,161.0,M,-34.4,M,,*5D
$GPRMC,203656.750,A,4305.1440,N,07740.9814,W,9.82,186.44,140923,,,A*78
$GPGGA,203657.000,4305.1435,N,07740.9815,W,1,10,0.86,161.1,M,-34.4,M,,*5D
$GPRMC,203657.250,A,4305.1430,N,07740.9815,W,9.82,188.07,140923,,,A*73
$GPGGA,203657.500,4305.1424,N,07740.9816,W,1,09,0.98,161.3,M,-34.4,M,,*5E
$GPRMC,203657.750,A,4305.1419,N,07740.9817,W,9.68,193.35,140923,,,A*70
$GPGGA,203658.000,4305.1413,N,07740.9820,W,1,10,0.86,161.3,M,-34.4,M,,*52
$GPRMC,203658.250,A,4305.1405,N,07740.9824,W,9.70,199.64,140923,,,A*70
$GPGGA,203658.500,4305.1398,N,07740.9829,W,1,10,0.86,161.3,M,-34.4,M,,*5A
$GPRMC,203658.750,A,4305.1390,N,07740.9835,W,10.46,204.78,140923,,,A*49
$GPGGA,203659.000,4305.1382,N,07740.9841,W,1,10,0.86,161.3,M,-34.4,M,,*5B
$GPRMC,203659.250,A,4305.1375,N,07740.9847,W,10.94,208.65,140923,,,A*4C
$GPGGA,203659.500,4305.1368,N,07740.9853,W,1,10,0.86,161.5,M,-34.4,M,,*5F
$GPRMC,203659.750,A,4305.1361,N,07740.9860,W,11.54,214.37,140923,,,A*4E
$GPGGA,203700.000,4305.1354,N,07740.9868,W,1,10,0.86,161.6,M,-34.4,M,,*53
$GPRMC,203700.250,A,4305.1347,N,07740.9875,W,12.35,217.28,140923,,,A*4F
$GPGGA,203700.500,4305.1340,N,07740.9884,W,1,10,0.86,161.8,M,-34.4,M,,*5F
$GPRMC,203700.750,A,4305.1333,N,07740.9893,W,12.88,222.46,140923,,,A*49
$GPGGA,203701.000,4305.1326,N,07740.9902,W,1,10,0.86,161.9,M,-34.4,M,,*55
$GPRMC,203701.250,A,4305.1319,N,07740.9912,W,13.48,225.37,140923,,,A*41
$GPGGA,203701.500,4305.1313,N,07740.9922,W,1,10,0.86,162.0,M,-34.4,M,,*5E
$GPRMC,203701.750,A,4305.1307,N,07740.9933,W,14.04,230.15,140923,,,A*43
$GPGGA,203702.000,4305.1301,N,07740.9945,W,1,10,0.86,162.0,M,-34.4,M,,*5A
$GPRMC,203702.250,A,4305.1295,N,07740.9956,W,14.41,231.92,140923,,,A*43
$GPGGA,203702.500,4305.1288,N,07740.9968,W,1,10,0.86,162.1,M,-34.4,M,,*51
$GPRMC,203702.750,A,4305.1282,N,07740.9980,W,14.90,233.00,140923,,,A*4E
$GPGGA,203703.000,4305.1276,N,07740.9992,W,1,10,0.86,162.2,M,-34.4,M,,*52
$GPRMC,203703.250,A,4305.1269,N,07741.0005,W,15.67,232.94,140923,,,A*46
$GPGGA,203703.500,4305.1261,N,07741.0020,W,1,10,0.86,162.3,M,-34.4,M,,*58
$GPRMC,203703.750,A,4305.1253,N,07741.0035,W,15.64,232.32,140923,,,A*46
$GPGGA,203704.000,4305.1245,N,07741.0049,W,1,10,0.86,162.4,M,-34.4,M,,*54
$GPRMC,203704.250,A,4305.1237,N,07741.0063,W,15.65,232.14,140923,,,A*40
$GPGGA,203704.500,4305.1228,N,07741.0077,W,1,10,0.86,161.7,M,-34.4,M,,*57
$GPRMC,203704.750,A,4305.1220,N,07741.0090,W,15.67,233.67,140923,,,A*48
$GPGGA,203705.000,4305.1212,N,07741.0103,W,1,10,0.86,161.0,M,-34.4,M,,*5F
$GPRMC,203705.250,A,4305.1204,N,07741.0117,W,15.76,235.46,140923,,,A*41
$GPGGA,203705.500,4305.1197,N,07741.0131,W,1,10,0.86,160.5,M,-34.4,M,,*51
$GPRMC,203705.750,A,4305.1189,N,07741.0145,W,16.00,235.31,140923,,,A*47
$GPGGA,203706.000,4305.1181,N,07741.0158,W,1,10,0.86,160.1,M,-34.4,M,,*5B
$GPRMC,203706.250,A,4305.1174,N,07741.0171,W,16.02,235.43,140923,,,A*43
$GPGGA,203706.500,4305.1166,N,07741.0184,W,1,10,0.86,159.8,M,-34.4,M,,*55
$GPRMC,203706.750,A,4305.1159,N,07741.0197,W,16.09,234.75,140923,,,A*4E
$GPGGA,203707.000,4305.1153,N,07741.0209,W,1,10,0.86,159.6,M,-34.4,M,,*5F
$GPRMC,203707.250,A,4305.1146,N,07741.0222,W,16.16,236.00,140923,,,A*47
$GPGGA,203707.500,4305.1140,N,07741.0235,W,1,10,0.86,159.3,M,-34.4,M,,*52
$GPRMC,203707.750,A,4305.1133,N,07741.0248,W,16.29,238.12,140923,,,A*4D
$GPGGA,203708.000,4305.1128,N,07741.0261,W,1,10,0.86,159.0,M,-34.4,M,,*54
$GPRMC,203708.250,A,4305.1123,N,07741.0274,W,16.33,242.11,140923,,,A*4C
$GPGGA,203708.500,4305.1118,N,07741.0288,W,1,10,0.86,158.9,M,-34.4,M,,*5D
$GPRMC,203708.750,A,4305.1114,N,07741.0301,W,16.28,247.03,140923,,,A*42
$GPGGA,203709.000,4305.1110,N,07741.0316,W,1,10,0.86,158.7,M,-34.4,M,,*59
$GPRMC,203709.250,A,4305.1108,N,07741.0330,W,16.48,252.28,140923,,,A*42
$GPGGA,203709.500,4305.1105,N,07741.0345,W,1,10,0.86,158.6,M,-34.4,M,,*5F
$GPRMC,203709.750,A,4305.1103,N,07741.0360,W,16.42,257.42,140923,,,A*4A
$GPGGA,203710.000,4305.1100,N,07741.0375,W,1,10,0.86,158.5,M,-34.4,M,,*57
$GPRMC,203710.250,A,4305.1098,N,07741.0390,W,16.37,262.28,140923,,,A*43
$GPGGA,203710.500,4305.1097,N,07741.0406,W,1,10,0.86,158.4,M,-34.4,M,,*5F
$GPRMC,203710.750,A,4305.1097,N,07741.0421,W,16.26,270.32,140923,,,A*4C
$GPGGA,203711.000,4305.1098,N,07741.0436,W,1,09,0.96,158.4,M,-34.4,M,,*5E
$GPRMC,203711.250,A,4305.1097,N,07741.0451,W,16.31,279.17,140923,,,A*47
$GPGGA,203711.500,4305.1098,N,07741.0466,W,1,10,0.86,158.2,M,-34.4,M,,*51
$GPRMC,203711.750,A,4305.1100,N,07741.0480,W,16.32,285.40,140923,,,A*43
$GPGGA,203712.000,4305.1104,N,07741.0495,W,1,09,0.96,158.1,M,-34.4,M,,*55
$GPRMC,203712.250,A,4305.1108,N,07741.0510,W,16.42,291.79,140923,,,A*4D
$GPGGA,203712.500,4305.1113,N,07741.0524,W,1,09,0.96,157.9,M,-34.4,M,,*5A
$GPRMC,203712.750,A,4305.1119,N,07741.0538,W,16.49,296.34,140923,,,A*47
$GPGGA,203713.000,4305.1124,N,07741.0553,W,1,09,0.96,157.7,M,-34.4,M,,*54
$GPRMC,203713.250,A,4305.1129,N,07741.0567,W,15.93,298.52,140923,,,A*40
$GPGGA,203713.500,4305.1135,N,07741.0580,W,1,09,0.96,157.5,M,-34.4,M,,*5D
$GPRMC,203713.750,A,4305.1140,N,07741.0594,W,15.15,299.15,140923,,,A*4A
$GPGGA,203714.000,4305.1145,N,07741.0607,W,1,10,0.86,157.3,M,-34.4,M,,*5B
$GPRMC,203714.250,A,4305.1150,N,07741.0619,W,13.66,299.59,140923,,,A*45
$GPGGA,203714.500,4305.1154,N,07741.0630,W,1,09,0.96,157.2,M,-34.4,M,,*52
$GPRMC,203714.750,A,4305.1158,N,07741.0641,W,12.06,300.99,140923,,,A*4F
$GPGGA,203715.000,4305.1162,N,07741.0651,W,1,09,0.96,157.1,M,-34.4,M,,*57
$GPRMC,203715.250,A,4305.1165,N,07741.0661,W,10.41,300.71,140923,,,A*40
$GPGGA,203715.500,4305.1169,N,07741.0669,W,1,09,0.96,156.9,M,-34.4,M,,*5B
$GPRMC,203715.750,A,4305.1172,N,07741.0677,W,8.83,300.04,140923,,,A*71
$GPGGA,203716.000,4305.1174,N,07741.0684,W,1,10,0.86,156.8,M,-34.4,M,,*5A
$GPRMC,203716.250,A,4305.1177,N,07741.0690,W,7.03,297.73,140923,,,A*73
$GPGGA,203716.500,4305.1179,N,07741.0696,W,1,09,0.96,156.6,M,-34.4,M,,*56
$GPRMC,203716.750,A,4305.1180,N,07741.0701,W,5.17,297.17,140923,,,A*72
$GPGGA,203717.000,4305.1181,N,07741.0706,W,1,10,0.86,156.6,M,-34.4,M,,*54
$GPRMC,203717.250,A,4305.1182,N,07741.0710,W,3.81,287.86,140923,,,A*74
$GPGGA,203717.500,4305.1183,N,07741.0714,W,1,10,0.85,156.5,M,-34.4,M,,*50
$GPRMC,203717.750,A,4305.1184,N,07741.0716,W,2.38,283.87,140923,,,A*77
$GPGGA,203718.000,4305.1184,N,07741.0719,W,1,09,0.96,156.4,M,-34.4,M,,*5B
$GPRMC,203718.250,A,4305.1184,N,07741.0721,W,2.00,283.87,140923,,,A*72
$GPGGA,203718.500,4305.1184,N,07741.0724,W,1,09,0.96,156.4,M,-34.4,M,,*50
$GPRMC,203718.750,A,4305.1185,N,07741.0727,W,2.64,283.87,140923,,,A*72
$GPGGA,203719.000,4305.1184,N,07741.0731,W,1,10,0.85,156.4,M,-34.4,M,,*5A
$GPRMC,203719.250,A,4305.1184,N,07741.0735,W,2.92,293.19,140923,,,A*7B
$GPGGA,203719.500,4305.1184,N,07741.0739,W,1,10,0.85,156.3,M,-34.4,M,,*50
$GPRMC,203719.750,A,4305.1184,N,07741.0741,W,1.62,293.19,140923,,,A*71
$GPGGA,203720.000,4305.1184,N,07741.0742,W,1,10,0.85,156.3,M,-34.4,M,,*53
$GPRMC,203720.250,A,4305.1184,N,07741.0743,W,0.02,293.19,140923,,,A*7B
$GPGGA,203720.500,4305.1184,N,07741.0743,W,1,10,0.85,156.2,M,-34.4,M,,*56
$GPRMC,203720.750,A,4305.1184,N,07741.0743,W,0.02,293.19,140923,,,A*7E
$GPGGA,203721.000,4305.1184,N,07741.0743,W,1,10,0.85,156.2,M,-34.4,M,,*52
$GPRMC,203721.250,A,4305.1183,N,07741.0743,W,0.01,293.19,140923,,,A*7E
$GPGGA,203721.500,4305.1183,N,07741.0743,W,1,10,0.85,156.1,M,-34.4,M,,*53
$GPRMC,203721.750,A,4305.1183,N,07741.0743,W,0.01,293.19,140923,,,A*7B
$GPGGA,203722.000,4305.1182,N,07741.0743,W,1,10,0.85,156.1,M,-34.4,M,,*54
$GPRMC,203722.250,A,4305.1182,N,07741.0743,W,0.02,293.19,140923,,,A*7F
$GPGGA,203722.500,4305.1181,N,07741.0743,W,1,10,0.85,156.0,M,-34.4,M,,*53
$GPRMC,203722.750,A,4305.1180,N,07741.0742,W,0.02,293.19,140923,,,A*79
$GPGGA,203723.000,4305.1180,N,07741.0742,W,1,10,0.85,156.0,M,-34.4,M,,*57
$GPRMC,203723.250,A,4305.1180,N,07741.0742,W,0.02,293.19,140923,,,A*7D
$GPGGA,203723.500,4305.1180,N,07741.0742,W,1,10,0.85,156.0,M,-34.4,M,,*52
$GPRMC,203723.750,A,4305.1179,N,07741.0742,W,0.02,293.19,140923,,,A*7E
$GPGGA,203724.000,4305.1179,N,07741.0742,W,1,10,0.85,156.0,M,-34.4,M,,*56
$GPRMC,203724.250,A,4305.1179,N,07741.0742,W,0.02,293.19,140923,,,A*7C
$GPGGA,203724.500,4305.1179,N,07741.0742,W,1,10,0.85,156.0,M,-34.4,M,,*53
$GPRMC,203724.750,A,4305.1179,N,07741.0742,W,0.02,293.19,140923,,,A*79
$GPGGA,203725.000,4305.1179,N,07741.0742,W,1,10,0.85,156.0,M,-34.4,M,,*57
$GPRMC,203725.250,A,4305.1179,N,07741.0743,W,0.06,293.19,140923,,,A*78
$GPGGA,203725.500,4305.1179,N,07741.0743,W,1,10,0.85,156.0,M,-34.4,M,,*53
$GPRMC,203725.750,A,4305.1179,N,07741.0744,W,0.17,293.19,140923,,,A*7A
$GPGGA,203726.000,4305.1180,N,07741.0746,W,1,10,0.85,156.0,M,-34.4,M,,*56
$GPRMC,203726.250,A,4305.1182,N,07741.0750,W,5.30,298.82,140923,,,A*74
$GPGGA,203726.500,4305.1186,N,07741.0756,W,1,10,0.86,155.9,M,-34.4,M,,*5D
$GPRMC,203726.750,A,4305.1194,N,07741.0760,W,7.56,301.56,140923,,,A*7F
$GPGGA,203727.000,4305.1200,N,07741.0766,W,1,10,0.86,155.8,M,-34.4,M,,*56
$GPRMC,203727.250,A,4305.1207,N,07741.0773,W,8.57,301.17,140923,,,A*7B
$GPGGA,203727.500,4305.1213,N,07741.0781,W,1,10,0.86,155.8,M,-34.4,M,,*58
$GPRMC,203727.750,A,4305.1219,N,07741.0789,W,9.57,300.47,140923,,,A*71
$GPGGA,203728.000,4305.1225,N,07741.0797,W,1,10,0.86,155.9,M,-34.4,M,,*51
$GPRMC,203728.250,A,4305.1230,N,07741.0805,W,9.95,298.75,140923,,,A*74
$GPGGA,203728.500,4305.1235,N,07741.0812,W,1,10,0.86,155.9,M,-34.4,M,,*57
$GPRMC,203728.750,A,4305.1240,N,07741.0821,W,10.08,298.95,140923,,,A*42
$GPGGA,203729.000,4305.1245,N,07741.0830,W,1,10,0.86,156.0,M,-34.4,M,,*5E
$GPRMC,203729.250,A,4305.1249,N,07741.0839,W,10.36,299.80,140923,,,A*4E
$GPGGA,203729.500,4305.1254,N,07741.0848,W,1,10,0.86,156.0,M,-34.4,M,,*54
$GPRMC,203729.750,A,4305.1259,N,07741.0857,W,10.59,300.07,140923,,,A*45
$GPGGA,203730.000,4305.1263,N,07741.0866,W,1,10,0.86,156.0,M,-34.4,M,,*51
$GPRMC,203730.250,A,4305.1268,N,07741.0875,W,10.76,299.54,140923,,,A*40
$GPGGA,203730.500,4305.1273,N,07741.0884,W,1,10,0.86,156.1,M,-34.4,M,,*58
$GPRMC,203730.750,A,4305.1277,N,07741.0893,W,10.94,298.62,140923,,,A*4B
$GPGGA,203731.000,4305.1281,N,07741.0903,W,1,10,0.86,156.2,M,-34.4,M,,*5C
$GPRMC,203731.250,A,4305.1285,N,07741.0912,W,10.90,297.44,140923,,,A*45
$GPGGA,203731.500,4305.1289,N,07741.0922,W,1,10,0.85,156.3,M,-34.4,M,,*50
$GPRMC,203731.750,A,4305.1293,N,07741.0932,W,10.72,295.63,140923,,,A*4E
$GPGGA,203732.000,4305.1296,N,07741.0942,W,1,10,0.86,156.0,M,-34.4,M,,*5E
$GPRMC,203732.250,A,4305.1299,N,07741.0952,W,10.28,294.73,140923,,,A*4B
$GPGGA,203732.500,4305.1302,N,07741.0961,W,1,10,0.86,155.9,M,-34.4,M,,*5C
$GPRMC,203732.750,A,4305.1305,N,07741.0970,W,9.44,294.52,140923,,,A*7B
$GPGGA,203733.000,4305.1307,N,07741.0979,W,1,10,0.86,155.8,M,-34.4,M,,*55
$GPRMC,203733.250,A,4305.1310,N,07741.0987,W,9.05,294.61,140923,,,A*76
$GPGGA,203733.500,4305.1313,N,07741.0997,W,1,10,0.86,155.7,M,-34.4,M,,*5A
$GPRMC,203733.750,A,4305.1316,N,07741.1006,W,9.01,293.77,140923,,,A*70
$GPGGA,203734.000,4305.1318,N,07741.1014,W,1,10,0.86,155.5,M,-34.4,M,,*52
$GPRMC,203734.250,A,4305.1321,N,07741.1023,W,8.97,293.43,140923,,,A*78
$GPGGA,203734.500,4305.1323,N,07741.1031,W,1,10,0.86,155.5,M,-34.4,M,,*58
$GPRMC,203734.750,A,4305.1325,N,07741.1040,W,8.89,292.95,140923,,,A*79
$GPGGA,203735.000,4305.1327,N,07741.1048,W,1,10,0.86,155.4,M,-34.4,M,,*57
$GPRMC,203735.250,A,4305.1329,N,07741.1056,W,8.83,293.15,140923,,,A*75
$GPGGA,203735.500,4305.1331,N,07741.1066,W,1,10,0.86,155.4,M,-34.4,M,,*59
$GPRMC,203735.750,A,4305.1333,N,07741.1075,W,8.78,293.69,140923,,,A*75
$GPGGA,203736.000,4305.1335,N,07741.1083,W,1,10,0.86,155.4,M,-34.4,M,,*50
$GPRMC,203736.250,A,4305.1337,N,07741.1092,W,8.54,293.77,140923,,,A*7F
$GPGGA,203736.500,4305.1339,N,07741.1100,W,1,10,0.86,155.4,M,-34.4,M,,*53
$GPRMC,203736.750,A,4305.1341,N,07741.1108,W,8.14,295.02,140923,,,A*79
$GPGGA,203737.000,4305.1342,N,07741.1116,W,1,10,0.86,155.4,M,-34.4,M,,*5C
$GPRMC,203737.250,A,4305.1344,N,07741.1123,W,7.45,295.72,140923,,,A*7D
$GPGGA,203737.500,4305.1345,N,07741.1131,W,1,10,0.86,155.4,M,-34.4,M,,*5B
$GPRMC,203737.750,A,4305.1347,N,07741.1138,W,7.13,295.59,140923,,,A*7B
$GPGGA,203738.000,4305.1348,N,07741.1145,W,1,10,0.86,155.4,M,-34.4,M,,*5F
$GPRMC,203738.250,A,4305.1349,N,07741.1152,W,7.19,296.46,140923,,,A*74
$GPGGA,203738.500,4305.1351,N,07741.1159,W,1,10,0.86,155.4,M,-34.4,M,,*5F
$GPRMC,203738.750,A,4305.1352,N,07741.1166,W,7.05,297.69,140923,,,A*7D
$GPGGA,203739.000,4305.1353,N,07741.1172,W,1,10,0.86,155.5,M,-34.4,M,,*51
$GPRMC,203739.250,A,4305.1354,N,07741.1178,W,5.64,297.48,140923,,,A*76
$GPGGA,203739.500,4305.1355,N,07741.1183,W,1,09,0.96,155.5,M,-34.4,M,,*55
$GPRMC,203739.750,A,4305.1356,N,07741.1188,W,4.52,299.08,140923,,,A*70
$GPGGA,203740.000,4305.1356,N,07741.1193,W,1,10,0.86,155.5,M,-34.4,M,,*55
$GPRMC,203740.250,A,4305.1356,N,07741.1197,W,3.10,298.89,140923,,,A*7C
$GPGGA,203740.500,4305.1357,N,07741.1200,W,1,10,0.85,155.5,M,-34.4,M,,*5B
$GPRMC,203740.750,A,4305.1357,N,07741.1202,W,1.63,298.89,140923,,,A*71
$GPGGA,203741.000,4305.1357,N,07741.1204,W,1,10,0.85,155.5,M,-34.4,M,,*5B
$GPRMC,203741.250,A,4305.1357,N,07741.1205,W,0.54,298.89,140923,,,A*77
$GPGGA,203741.500,4305.1357,N,07741.1205,W,1,10,0.85,155.5,M,-34.4,M,,*5F
$GPRMC,203741.750,A,4305.1356,N,07741.1205,W,0.09,298.89,140923,,,A*7B
$GPGGA,203742.000,4305.1356,N,07741.1205,W,1,10,0.85,155.5,M,-34.4,M,,*58
$GPRMC,203742.250,A,4305.1356,N,07741.1205,W,0.15,298.89,140923,,,A*70
$GPGGA,203742.500,4305.1356,N,07741.1205,W,1,09,0.91,155.6,M,-34.4,M,,*53
$GPRMC,203742.750,A,4305.1356,N,07741.1205,W,0.10,298.89,140923,,,A*70
$GPGGA,203743.000,4305.1356,N,07741.1205,W,1,09,0.91,155.5,M,-34.4,M,,*54
$GPRMC,203743.250,A,4305.1356,N,07741.1205,W,0.07,298.89,140923,,,A*72
$GPGGA,203743.500,4305.1356,N,07741.1205,W,1,09,0.91,155.5,M,-34.4,M,,*51
$GPRMC,203743.750,A,4305.1356,N,07741.1205,W,0.05,298.89,140923,,,A*75
$GPGGA,203744.000,4305.1356,N,07741.1205,W,1,08,1.01,155.4,M,-34.4,M,,*5B
$GPRMC,203744.250,A,4305.1357,N,07741.1205,W,0.05,298.89,140923,,,A*76
$GPGGA,203744.500,4305.1356,N,07741.1205,W,1,08,1.01,155.4,M,-34.4,M,,*5E
$GPRMC,203744.750,A,4305.1357,N,07741.1205,W,0.10,298.89,140923,,,A*77
$GPGGA,203745.000,4305.1356,N,07741.1205,W,1,09,0.91,155.4,M,-34.4,M,,*53
$GPRMC,203745.250,A,4305.1356,N,07741.1205,W,0.03,298.89,140923,,,A*70
$GPGGA,203745.500,4305.1356,N,07741.1205,W,1,09,0.91,155.4,M,-34.4,M,,*56
$GPRMC,203745.750,A,4305.1356,N,07741.1205,W,0.04,298.89,140923,,,A*72
$GPGGA,203746.000,4305.1356,N,07741.1205,W,1,09,0.91,155.4,M,-34.4,M,,*50
$GPRMC,203746.250,A,4305.1356,N,07741.1205,W,0.03,298.89,140923,,,A*73
$GPGGA,203746.500,4305.1356,N,07741.1205,W,1,09,0.92,155.4,M,-34.4,M,,*56
$GPRMC,203746.750,A,4305.1356,N,07741.1204,W,0.12,298.89,140923,,,A*77
$GPGGA,203747.000,4305.1356,N,07741.1204,W,1,09,0.91,155.4,M,-34.4,M,,*50
$GPRMC,203747.250,A,4305.1356,N,07741.1204,W,0.01,298.89,140923,,,A*71
$GPGGA,203747.500,4305.1356,N,07741.1204,W,1,09,0.91,155.4,M,-34.4,M,,*55
$GPRMC,203747.750,A,4305.1356,N,07741.1204,W,0.02,298.89,140923,,,A*77
$GPGGA,203748.000,4305.1357,N,07741.1204,W,1,09,0.91,155.4,M,-34.4,M,,*5E
$GPRMC,203748.250,A,4305.1357,N,07741.1204,W,0.05,298.89,140923,,,A*7B
$GPGGA,203748.500,4305.1357,N,07741.1204,W,1,09,0.91,155.4,M,-34.4,M,,*5B
$GPRMC,203748.750,A,4305.1357,N,07741.1204,W,0.02,298.89,140923,,,A*79
$GPGGA,203749.000,4305.1357,N,07741.1204,W,1,09,0.91,155.4,M,-34.4,M,,*5F
$GPRMC,203749.250,A,4305.1357,N,07741.1204,W,0.08,298.89,140923,,,A*77
$GPGGA,203749.500,4305.1357,N,07741.1204,W,1,09,0.91,155.4,M,-34.4,M,,*5A
$GPRMC,203749.750,A,4305.1357,N,07741.1204,W,0.08,298.89,140923,,,A*72
$GPGGA,203750.000,4305.1357,N,07741.1204,W,1,10,0.85,155.4,M,-34.4,M,,*5A
$GPRMC,203750.250,A,4305.1357,N,07741.1204,W,0.01,298.89,140923,,,A*76
$GPGGA,203750.500,4305.1357,N,07741.1204,W,1,09,0.91,155.4,M,-34.4,M,,*52
$GPRMC,203750.750,A,4305.1357,N,07741.1204,W,0.03,298.89,140923,,,A*71
$GPGGA,203751.000,4305.1357,N,07741.1204,W,1,10,0.86,155.4,M,-34.4,M,,*58
$GPRMC,203751.250,A,4305.1357,N,07741.1204,W,0.03,298.89,140923,,,A*75
$GPGGA,203751.500,4305.1357,N,07741.1204,W,1,10,0.85,155.4,M,-34.4,M,,*5E
$GPRMC,203751.750,A,4305.1357,N,07741.1204,W,0.03,298.89,140923,,,A*70
$GPGGA,203752.000,4305.1357,N,07741.1204,W,1,10,0.85,155.4,M,-34.4,M,,*58
$GPRMC,203752.250,A,4305.1357,N,07741.1204,W,0.05,298.89,140923,,,A*70
$GPGGA,203752.500,4305.1357,N,07741.1204,W,1,10,0.85,155.4,M,-34.4,M,,*5D
$GPRMC,203752.750,A,4305.1357,N,07741.1204,W,0.04,298.89,140923,,,A*74
$GPGGA,203753.000,4305.1357,N,07741.1204,W,1,10,0.85,155.4,M,-34.4,M,,*59
$GPRMC,203753.250,A,4305.1357,N,07741.1204,W,0.02,298.89,140923,,,A*76
$GPGGA,203753.500,4305.1357,N,07741.1204,W,1,10,0.85,155.4,M,-34.4,M,,*5C
$GPRMC,203753.750,A,4305.1357,N,07741.1204,W,0.08,298.89,140923,,,A*79
$GPGGA,203754.000,4305.1357,N,07741.1204,W,1,10,0.86,155.4,M,-34.4,M,,*5D
$GPRMC,203754.250,A,4305.1357,N,07741.1204,W,1.24,298.89,140923,,,A*74
$GPGGA,203754.500,4305.1357,N,07741.1204,W,1,10,0.85,155.4,M,-34.4,M,,*5B
$GPRMC,203754.750,A,4305.1358,N,07741.1206,W,3.41,302.86,140923,,,A*70
$GPGGA,203755.000,4305.1359,N,07741.1209,W,1,10,0.85,155.4,M,-34.4,M,,*5C
$GPRMC,203755.250,A,4305.1361,N,07741.1213,W,4.77,304.71,140923,,,A*76
$GPGGA,203755.500,4305.1363,N,07741.1217,W,1,10,0.86,155.4,M,-34.4,M,,*5C
$GPRMC,203755.750,A,4305.1365,N,07741.1221,W,5.51,309.21,140923,,,A*7B
$GPGGA,203756.000,4305.1367,N,07741.1225,W,1,10,0.86,155.4,M,-34.4,M,,*5F
$GPRMC,203756.250,A,4305.1370,N,07741.1229,W,5.47,312.70,140923,,,A*78
$GPGGA,203756.500,4305.1372,N,07741.1232,W,1,10,0.86,155.4,M,-34.4,M,,*58
$GPRMC,203756.750,A,4305.1374,N,07741.1236,W,5.44,317.06,140923,,,A*70
$GPGGA,203757.000,4305.1377,N,07741.1239,W,1,10,0.86,155.3,M,-34.4,M,,*55
$GPRMC,203757.250,A,4305.1379,N,07741.1242,W,4.58,320.77,140923,,,A*74
$GPGGA,203757.500,4305.1381,N,07741.1245,W,1,10,0.86,155.3,M,-34.4,M,,*52
$GPRMC,203757.750,A,4305.1383,N,07741.1247,W,3.67,321.97,140923,,,A*75
$GPGGA,203758.000,4305.1385,N,07741.1249,W,1,10,0.85,155.3,M,-34.4,M,,*53
$GPRMC,203758.250,A,4305.1386,N,07741.1250,W,2.08,327.98,140923,,,A*7D
$GPGGA,203758.500,4305.1386,N,07741.1251,W,1,10,0.85,155.3,M,-34.4,M,,*5C
$GPRMC,203758.750,A,4305.1386,N,07741.1252,W,1.02,326.21,140923,,,A*70
$GPGGA,203759.000,4305.1386,N,07741.1252,W,1,09,0.91,155.2,M,-34.4,M,,*57
$GPRMC,203759.250,A,4305.1387,N,07741.1253,W,0.82,335.54,140923,,,A*7D
$GPGGA,203759.500,4305.1387,N,07741.1254,W,1,09,0.91,155.2,M,-34.4,M,,*55
$GPRMC,203759.750,A,4305.1387,N,07741.1255,W,0.92,333.46,140923,,,A*7A
$GPGGA,203800.000,4305.1387,N,07741.1255,W,1,09,0.91,155.1,M,-34.4,M,,*51
$GPRMC,203800.250,A,4305.1386,N,07741.1255,W,0.11,333.46,140923,,,A*76
$GPGGA,203800.500,4305.1386,N,07741.1255,W,1,09,0.91,155.0,M,-34.4,M,,*54
$GPRMC,203800.750,A,4305.1386,N,07741.1255,W,0.18,333.46,140923,,,A*7A
$GPGGA,203801.000,4305.1385,N,07741.1255,W,1,09,0.91,155.0,M,-34.4,M,,*53
$GPRMC,203801.250,A,4305.1385,N,07741.1255,W,0.40,333.46,140923,,,A*70
$GPGGA,203801.500,4305.1385,N,07741.1256,W,1,09,0.91,154.8,M,-34.4,M,,*5C
$GPRMC,203801.750,A,4305.1385,N,07741.1256,W,0.07,333.46,140923,,,A*75
$GPGGA,203802.000,4305.1385,N,07741.1256,W,1,09,0.91,154.7,M,-34.4,M,,*55
$GPRMC,203802.250,A,4305.1385,N,07741.1257,W,0.10,333.46,140923,,,A*74
$GPGGA,203802.500,4305.1385,N,07741.1257,W,1,09,0.91,154.5,M,-34.4,M,,*53
$GPRMC,203802.750,A,4305.1385,N,07741.1257,W,0.09,333.46,140923,,,A*79
$GPGGA,203803.000,4305.1384,N,07741.1257,W,1,09,0.91,154.4,M,-34.4,M,,*57
$GPRMC,203803.250,A,4305.1384,N,07741.1257,W,0.05,333.46,140923,,,A*70
$GPGGA,203803.500,4305.1384,N,07741.1257,W,1,09,0.91,154.4,M,-34.4,M,,*52
$GPRMC,203803.750,A,4305.1384,N,07741.1257,W,0.05,333.46,140923,,,A*75
$GPGGA,203804.000,4305.1384,N,07741.1257,W,1,09,0.92,154.4,M,-34.4,M,,*53
$GPRMC,203804.250,A,4305.1384,N,07741.1257,W,0.24,333.46,140923,,,A*74
$GPGGA,203804.500,4305.1384,N,07741.1257,W,1,09,0.91,154.4,M,-34.4,M,,*55
$GPRMC,203804.750,A,4305.1385,N,07741.1258,W,1.33,333.46,140923,,,A*78
$GPGGA,203805.000,4305.1385,N,07741.1259,W,1,09,0.91,154.3,M,-34.4,M,,*59
$GPRMC,203805.250,A,4305.1387,N,07741.1260,W,3.23,334.62,140923,,,A*77
$GPGGA,203805.500,4305.1390,N,07741.1261,W,1,10,0.85,154.3,M,-34.4,M,,*5E
$GPRMC,203805.750,A,4305.1393,N,07741.1263,W,5.29,335.67,140923,,,A*7C
$GPGGA,203806.000,4305.1397,N,07741.1264,W,1,10,0.86,154.2,M,-34.4,M,,*58
$GPRMC,203806.250,A,4305.1401,N,07741.1267,W,7.52,340.63,140923,,,A*7A
$GPGGA,203806.500,4305.1407,N,07741.1268,W,1,10,0.86,154.2,M,-34.4,M,,*5F
$GPRMC,203806.750,A,4305.1413,N,07741.1270,W,9.36,351.57,140923,,,A*71
$GPGGA,203807.000,4305.1421,N,07741.1270,W,1,10,0.86,154.3,M,-34.4,M,,*57
$GPRMC,203807.250,A,4305.1429,N,07741.1270,W,11.10,359.70,140923,,,A*4C
$GPGGA,203807.500,4305.1437,N,07741.1269,W,1,10,0.86,154.4,M,-34.4,M,,*5A
$GPRMC,203807.750,A,4305.1445,N,07741.1266,W,12.33,14.19,140923,,,A*73
$GPGGA,203808.000,4305.1454,N,07741.1262,W,1,10,0.86,154.5,M,-34.4,M,,*5F
$GPRMC,203808.250,A,4305.1462,N,07741.1258,W,13.50,21.69,140923,,,A*74
$GPGGA,203808.500,4305.1470,N,07741.1253,W,1,10,0.86,154.6,M,-34.4,M,,*5D
$GPRMC,203808.750,A,4305.1478,N,07741.1248,W,14.59,27.34,140923,,,A*7B
$GPGGA,203809.000,4305.1486,N,07741.1242,W,1,10,0.86,154.7,M,-34.4,M,,*51
$GPRMC,203809.250,A,4305.1495,N,07741.1236,W,15.92,29.80,140923,,,A*72
$GPGGA,203809.500,4305.1505,N,07741.1228,W,1,10,0.86,154.9,M,-34.4,M,,*5C
$GPRMC,203809.750,A,4305.1515,N,07741.1220,W,17.30,30.87,140923,,,A*7C
$GPGGA,203810.000,4305.1525,N,07741.1212,W,1,10,0.86,155.0,M,-34.4,M,,*52
$GPRMC,203810.250,A,4305.1536,N,07741.1203,W,18.78,31.06,140923,,,A*7A
$GPGGA,203810.500,4305.1548,N,07741.1194,W,1,10,0.86,155.2,M,-34.4,M,,*53
$GPRMC,203810.750,A,4305.1559,N,07741.1185,W,19.78,31.08,140923,,,A*74
$GPGGA,203811.000,4305.1572,N,07741.1175,W,1,10,0.86,155.1,M,-34.4,M,,*52
$GPRMC,203811.250,A,4305.1584,N,07741.1165,W,20.89,31.70,140923,,,A*75
$GPGGA,203811.500,4305.1596,N,07741.1155,W,1,10,0.86,155.2,M,-34.4,M,,*5C
$GPRMC,203811.750,A,4305.1609,N,07741.1144,W,21.89,32.43,140923,,,A*77
$GPGGA,203812.000,4305.1622,N,07741.1133,W,1,10,0.86,155.2,M,-34.4,M,,*56
$GPRMC,203812.250,A,4305.1635,N,07741.1122,W,22.98,32.93,140923,,,A*70
$GPGGA,203812.500,4305.1649,N,07741.1110,W,1,10,0.86,155.3,M,-34.4,M,,*5E
$GPRMC,203812.750,A,4305.1663,N,07741.1098,W,23.94,33.57,140923,,,A*72
$GPGGA,203813.000,4305.1677,N,07741.1086,W,1,10,0.86,155.3,M,-34.4,M,,*59
$GPRMC,203813.250,A,4305.1691,N,07741.1073,W,24.89,35.40,140923,,,A*75
$GPGGA,203813.500,4305.1705,N,07741.1059,W,1,10,0.86,155.4,M,-34.4,M,,*5D
$GPRMC,203813.750,A,4305.1719,N,07741.1045,W,25.89,35.46,140923,,,A*73
$GPGGA,203814.000,4305.1734,N,07741.1031,W,1,10,0.86,155.5,M,-34.4,M,,*52
$GPRMC,203814.250,A,4305.1749,N,07741.1016,W,26.64,35.30,140923,,,A*73
$GPGGA,203814.500,4305.1765,N,07741.1002,W,1,10,0.86,155.5,M,-34.4,M,,*53
$GPRMC,203814.750,A,4305.1780,N,07741.0987,W,27.04,35.75,140923,,,A*75
$GPGGA,203815.000,4305.1796,N,07741.0972,W,1,10,0.86,155.5,M,-34.4,M,,*54
$GPRMC,203815.250,A,4305.1812,N,07741.0957,W,27.34,35.58,140923,,,A*74
$GPGGA,203815.500,4305.1828,N,07741.0942,W,1,10,0.86,155.5,M,-34.4,M,,*58
$GPRMC,203815.750,A,4305.1844,N,07741.0926,W,27.56,35.99,140923,,,A*7D
$GPGGA,203816.000,4305.1860,N,07741.0911,W,1,10,0.86,155.5,M,-34.4,M,,*54
$GPRMC,203816.250,A,4305.1876,N,07741.0895,W,28.86,35.78,140923,,,A*7E
$GPGGA,203816.500,4305.1892,N,07741.0880,W,1,10,0.86,155.5,M,-34.4,M,,*55
$GPRMC,203816.750,A,4305.1909,N,07741.0863,W,29.23,35.77,140923,,,A*7A
$GPGGA,203817.000,4305.1925,N,07741.0848,W,1,10,0.86,155.5,M,-34.4,M,,*58
$GPRMC,203817.250,A,4305.1942,N,07741.0832,W,29.21,36.67,140923,,,A*75
$GPGGA,203817.500,4305.1959,N,07741.0815,W,1,10,0.86,155.3,M,-34.4,M,,*58
$GPRMC,203817.750,A,4305.1975,N,07741.0799,W,29.40,36.95,140923,,,A*70
$GPGGA,203818.000,4305.1992,N,07741.0782,W,1,10,0.86,155.2,M,-34.4,M,,*55
$GPRMC,203818.250,A,4305.2009,N,07741.0766,W,29.72,36.64,140923,,,A*74
$GPGGA,203818.500,4305.2025,N,07741.0749,W,1,10,0.86,155.2,M,-34.4,M,,*51
$GPRMC,203818.750,A,4305.2041,N,07741.0732,W,29.81,37.28,140923,,,A*79
$GPGGA,203819.000,4305.2058,N,07741.0716,W,1,10,0.86,155.2,M,-34.4,M,,*55
$GPRMC,203819.250,A,4305.2074,N,07741.0699,W,29.88,37.98,140923,,,A*79
$GPGGA,203819.500,4305.2091,N,07741.0681,W,1,10,0.86,155.2,M,-34.4,M,,*5A
$GPRMC,203819.750,A,4305.2107,N,07741.0664,W,30.01,38.02,140923,,,A*7E
$GPGGA,203820.000,4305.2124,N,07741.0647,W,1,10,0.86,155.2,M,-34.4,M,,*50
$GPRMC,203820.250,A,4305.2141,N,07741.0630,W,30.09,37.87,140923,,,A*78
$GPGGA,203820.500,4305.2158,N,07741.0612,W,1,10,0.86,155.1,M,-34.4,M,,*5D
$GPRMC,203820.750,A,4305.2175,N,07741.0595,W,30.09,38.26,140923,,,A*72
$GPGGA,203821.000,4305.2191,N,07741.0578,W,1,10,0.86,155.1,M,-34.4,M,,*53
$GPRMC,203821.250,A,4305.2208,N,07741.0560,W,30.16,38.16,140923,,,A*78
$GPGGA,203821.500,4305.2224,N,07741.0543,W,1,10,0.86,155.0,M,-34.4,M,,*52
$GPRMC,203821.750,A,4305.2241,N,07741.0525,W,30.16,38.41,140923,,,A*73
$GPGGA,203822.000,4305.2257,N,07741.0508,W,1,10,0.86,155.1,M,-34.4,M,,*5E
$GPRMC,203822.250,A,4305.2274,N,07741.0490,W,30.21,38.58,140923,,,A*70
$GPGGA,203822.500,4305.2290,N,07741.0473,W,1,10,0.86,155.0,M,-34.4,M,,*5C
$GPRMC,203822.750,A,4305.2307,N,07741.0455,W,30.27,38.49,140923,,,A*7F
$GPGGA,203823.000,4305.2323,N,07741.0437,W,1,10,0.86,155.1,M,-34.4,M,,*50
$GPRMC,203823.250,A,4305.2340,N,07741.0419,W,30.75,38.17,140923,,,A*7C
$GPGGA,203823.500,4305.2357,N,07741.0401,W,1,10,0.86,155.1,M,-34.4,M,,*53
$GPRMC,203823.750,A,4305.2374,N,07741.0383,W,31.21,37.99,140923,,,A*73
$GPGGA,203824.000,4305.2391,N,07741.0365,W,1,10,0.86,155.1,M,-34.4,M,,*5E
$GPRMC,203824.250,A,4305.2409,N,07741.0347,W,31.62,38.25,140923,,,A*7B
$GPGGA,203824.500,4305.2426,N,07741.0328,W,1,10,0.86,155.1,M,-34.4,M,,*59
$GPRMC,203824.750,A,4305.2444,N,07741.0309,W,32.10,38.36,140923,,,A*79
$GPGGA,203825.000,4305.2461,N,07741.0290,W,1,10,0.86,155.1,M,-34.4,M,,*5C
$GPRMC,203825.250,A,4305.2479,N,07741.0270,W,32.37,38.77,140923,,,A*7C
$GPGGA,203825.500,4305.2497,N,07741.0251,W,1,10,0.86,155.1,M,-34.4,M,,*5D
$GPRMC,203825.750,A,4305.2515,N,07741.0231,W,32.75,38.85,140923,,,A*7C
$GPGGA,203826.000,4305.2533,N,07741.0212,W,1,10,0.86,155.0,M,-34.4,M,,*52
$GPRMC,203826.250,A,4305.2551,N,07741.0192,W,32.85,38.96,140923,,,A*7D
$GPGGA,203826.500,4305.2569,N,07741.0172,W,1,10,0.86,155.1,M,-34.4,M,,*5C
$GPRMC,203826.750,A,4305.2587,N,07741.0152,W,33.12,38.49,140923,,,A*72
$GPGGA,203827.000,4305.2606,N,07741.0132,W,1,10,0.86,155.1,M,-34.4,M,,*56
$GPRMC,203827.250,A,4305.2624,N,07741.0113,W,33.18,38.68,140923,,,A*70
$GPGGA,203827.500,4305.2642,N,07741.0093,W,1,10,0.86,155.1,M,-34.4,M,,*59
$GPRMC,203827.750,A,4305.2661,N,07741.0073,W,33.51,38.30,140923,,,A*73
$GPGGA,203828.000,4305.2679,N,07741.0053,W,1,10,0.86,155.0,M,-34.4,M,,*56
$GPRMC,203828.250,A,4305.2698,N,07741.0032,W,33.53,38.62,140923,,,A*7F
$GPGGA,203828.500,4305.2716,N,07741.0012,W,1,10,0.86,155.0,M,-34.4,M,,*5E
$GPRMC,203828.750,A,4305.2735,N,07740.9992,W,33.64,38.69,140923,,,A*78
$GPGGA,203829.000,4305.2754,N,07740.9972,W,1,10,0.86,155.0,M,-34.4,M,,*5B
$GPRMC,203829.250,A,4305.2772,N,07740.9951,W,34.29,38.70,140923,,,A*76
$GPGGA,203829.500,4305.2791,N,07740.9931,W,1,10,0.86,155.0,M,-34.4,M,,*50
$GPRMC,203829.750,A,4305.2810,N,07740.9910,W,34.89,38.29,140923,,,A*7B
$GPGGA,203830.000,4305.2830,N,07740.9890,W,1,10,0.86,154.9,M,-34.4,M,,*5B
$GPRMC,203830.250,A,4305.2849,N,07740.9869,W,35.15,38.24,140923,,,A*7C
$GPGGA,203830.500,4305.2868,N,07740.9849,W,1,10,0.86,154.9,M,-34.4,M,,*57
$GPRMC,203830.750,A,4305.2888,N,07740.9828,W,35.57,38.16,140923,,,A*76
$GPGGA,203831.000,4305.2908,N,07740.9807,W,1,10,0.86,154.9,M,-34.4,M,,*5E
$GPRMC,203831.250,A,4305.2927,N,07740.9786,W,36.06,38.22,140923,,,A*7D
$GPGGA,203831.500,4305.2947,N,07740.9765,W,1,10,0.86,154.9,M,-34.4,M,,*5B
$GPRMC,203831.750,A,4305.2967,N,07740.9744,W,36.36,38.49,140923,,,A*7C
$GPGGA,203832.000,4305.2987,N,07740.9722,W,1,10,0.86,154.9,M,-34.4,M,,*52
$GPRMC,203832.250,A,4305.3007,N,07740.9701,W,36.95,38.57,140923,,,A*73
$GPGGA,203832.500,4305.3027,N,07740.9679,W,1,10,0.86,154.9,M,-34.4,M,,*5A
$GPRMC,203832.750,A,4305.3047,N,07740.9657,W,37.09,39.01,140923,,,A*76
$GPGGA,203833.000,4305.3067,N,07740.9635,W,1,10,0.86,154.9,M,-34.4,M,,*52
$GPRMC,203833.250,A,4305.3088,N,07740.9613,W,37.32,38.82,140923,,,A*73
$GPGGA,203833.500,4305.3108,N,07740.9591,W,1,10,0.86,154.9,M,-34.4,M,,*52
$GPRMC,203833.750,A,4305.3128,N,07740.9568,W,37.46,38.99,140923,,,A*7B
$GPGGA,203834.000,4305.3148,N,07740.9546,W,1,10,0.86,155.0,M,-34.4,M,,*56
$GPRMC,203834.250,A,4305.3169,N,07740.9523,W,37.48,38.33,140923,,,A*7D
$GPGGA,203834.500,4305.3189,N,07740.9501,W,1,10,0.86,155.1,M,-34.4,M,,*5C
$GPRMC,203834.750,A,4305.3210,N,07740.9479,W,37.57,38.30,140923,,,A*76
$GPGGA,203835.000,4305.3230,N,07740.9456,W,1,10,0.86,155.2,M,-34.4,M,,*59
$GPRMC,203835.250,A,4305.3251,N,07740.9434,W,37.86,38.82,140923,,,A*7B
$GPGGA,203835.500,4305.3271,N,07740.9411,W,1,10,0.86,155.4,M,-34.4,M,,*5C
$GPRMC,203835.750,A,4305.3291,N,07740.9388,W,37.85,38.98,140923,,,A*7A
$GPGGA,203836.000,4305.3312,N,07740.9365,W,1,09,1.04,155.5,M,-34.4,M,,*58
$GPRMC,203836.250,A,4305.3332,N,07740.9342,W,37.90,39.41,140923,,,A*73
$GPGGA,203836.500,4305.3353,N,07740.9319,W,1,10,0.86,155.6,M,-34.4,M,,*53
$GPRMC,203836.750,A,4305.3373,N,07740.9295,W,37.88,39.62,140923,,,A*70
$GPGGA,203837.000,4305.3393,N,07740.9272,W,1,10,0.86,155.7,M,-34.4,M,,*56
$GPRMC,203837.250,A,4305.3414,N,07740.9249,W,37.80,39.44,140923,,,A*7F
$GPGGA,203837.500,4305.3435,N,07740.9226,W,1,10,0.86,155.7,M,-34.4,M,,*59
$GPRMC,203837.750,A,4305.3455,N,07740.9203,W,37.45,39.30,140923,,,A*7B
$GPGGA,203838.000,4305.3475,N,07740.9181,W,1,10,0.85,155.8,M,-34.4,M,,*55
$GPRMC,203838.250,A,4305.3495,N,07740.9158,W,37.35,39.24,140923,,,A*72
$GPGGA,203838.500,4305.3515,N,07740.9136,W,1,10,0.85,155.8,M,-34.4,M,,*5B
$GPRMC,203838.750,A,4305.3535,N,07740.9113,W,36.54,40.04,140923,,,A*79
$GPGGA,203839.000,4305.3555,N,07740.9091,W,1,10,0.86,155.8,M,-34.4,M,,*54
$GPRMC,203839.250,A,4305.3574,N,07740.9069,W,36.14,39.70,140923,,,A*7D
$GPGGA,203839.500,4305.3593,N,07740.9047,W,1,10,0.86,155.9,M,-34.4,M,,*51
$GPRMC,203839.750,A,4305.3613,N,07740.9025,W,35.80,39.84,140923,,,A*77
$GPGGA,203840.000,4305.3632,N,07740.9004,W,1,10,0.86,156.0,M,-34.4,M,,*5F
$GPRMC,203840.250,A,4305.3651,N,07740.8982,W,35.36,38.86,140923,,,A*71
$GPGGA,203840.500,4305.3670,N,07740.8961,W,1,09,0.96,156.1,M,-34.4,M,,*5F
$GPRMC,203840.750,A,4305.3689,N,07740.8941,W,34.96,38.09,140923,,,A*72
$GPGGA,203841.000,4305.3708,N,07740.8921,W,1,10,0.86,156.2,M,-34.4,M,,*5B
$GPRMC,203841.250,A,4305.3728,N,07740.8901,W,34.80,37.99,140923,,,A*79
$GPGGA,203841.500,4305.3746,N,07740.8881,W,1,10,0.86,156.2,M,-34.4,M,,*5F
$GPRMC,203841.750,A,4305.3765,N,07740.8861,W,34.53,37.67,140923,,,A*7D
$GPGGA,203842.000,4305.3784,N,07740.8842,W,1,10,0.86,156.3,M,-34.4,M,,*59
$GPRMC,203842.250,A,4305.3803,N,07740.8822,W,33.82,38.36,140923,,,A*73
$GPGGA,203842.500,4305.3821,N,07740.8802,W,1,10,0.86,156.3,M,-34.4,M,,*58
$GPRMC,203842.750,A,4305.3839,N,07740.8783,W,33.46,38.29,140923,,,A*7D
$GPGGA,203843.000,4305.3857,N,07740.8763,W,1,10,0.86,156.4,M,-34.4,M,,*52
$GPRMC,203843.250,A,4305.3875,N,07740.8743,W,33.12,38.87,140923,,,A*78
$GPGGA,203843.500,4305.3893,N,07740.8724,W,1,10,0.86,156.4,M,-34.4,M,,*5C
$GPRMC,203843.750,A,4305.3911,N,07740.8705,W,32.80,38.47,140923,,,A*7A
$GPGGA,203844.000,4305.3928,N,07740.8686,W,1,10,0.86,156.4,M,-34.4,M,,*56
$GPRMC,203844.250,A,4305.3946,N,07740.8667,W,32.39,38.00,140923,,,A*7E
$GPGGA,203844.500,4305.3964,N,07740.8648,W,1,10,0.86,156.4,M,-34.4,M,,*59
$GPRMC,203844.750,A,4305.3981,N,07740.8629,W,32.04,38.17,140923,,,A*72
$GPGGA,203845.000,4305.3998,N,07740.8610,W,1,10,0.86,156.3,M,-34.4,M,,*54
$GPRMC,203845.250,A,4305.4016,N,07740.8592,W,31.75,38.13,140923,,,A*74
$GPGGA,203845.500,4305.4033,N,07740.8573,W,1,10,0.86,156.3,M,-34.4,M,,*58
$GPRMC,203845.750,A,4305.4050,N,07740.8555,W,31.46,37.85,140923,,,A*78
$GPGGA,203846.000,4305.4067,N,07740.8537,W,1,10,0.86,156.3,M,-34.4,M,,*5F
$GPRMC,203846.250,A,4305.4084,N,07740.8519,W,31.35,38.48,140923,,,A*75
$GPGGA,203846.500,4305.4101,N,07740.8501,W,1,10,0.86,156.2,M,-34.4,M,,*5F
$GPRMC,203846.750,A,4305.4118,N,07740.8483,W,30.93,38.10,140923,,,A*76
