Vers 81
USE_SERIAL_FEEDBACK=true
DEVELOPMENT_MODE=false
USE_RMC_ONLY=false

$GPRMC,155103.500,A,4308.3093,N,07726.2592,W,2.80,7.48,021023,,,A*77
$GPGGA,155103.750,4308.3095,N,07726.2592,W,1,06,1.48,175.7,M,-34.4,M,,*56
$GPRMC,155104.000,A,4308.3098,N,07726.2591,W,3.48,4.98,021023,,,A*76
$GPGGA,155104.250,4308.3100,N,07726.2591,W,1,06,1.48,175.1,M,-34.4,M,,*5C
$GPRMC,155104.500,A,4308.3102,N,07726.2590,W,4.14,3.00,021023,,,A*78
$GPGGA,155104.750,4308.3105,N,07726.2590,W,1,06,1.48,174.7,M,-34.4,M,,*5A
$GPRMC,155105.000,A,4308.3108,N,07726.2590,W,4.77,0.02,021023,,,A*72
$GPGGA,155105.250,4308.3111,N,07726.2590,W,1,06,1.48,174.3,M,-34.4,M,,*5F
$GPRMC,155105.500,A,4308.3114,N,07726.2590,W,5.15,0.10,021023,,,A*7C
$GPGGA,155105.750,4308.3117,N,07726.2591,W,1,06,1.48,173.8,M,-34.4,M,,*51
$GPRMC,155106.000,A,4308.3120,N,07726.2592,W,5.53,357.91,021023,,,A*75
$GPGGA,155106.250,4308.3124,N,07726.2592,W,1,06,1.48,174.0,M,-34.4,M,,*5B
$GPRMC,155106.500,A,4308.3127,N,07726.2593,W,5.75,355.69,021023,,,A*77
$GPGGA,155106.750,4308.3131,N,07726.2594,W,1,06,1.48,174.0,M,-34.4,M,,*5C
$GPRMC,155107.000,A,4308.3134,N,07726.2595,W,5.77,356.95,021023,,,A*75
$GPGGA,155107.250,4308.3138,N,07726.2595,W,1,06,1.48,173.7,M,-34.4,M,,*50
$GPRMC,155107.500,A,4308.3142,N,07726.2596,W,5.97,355.43,021023,,,A*74
$GPGGA,155107.750,4308.3145,N,07726.2597,W,1,06,1.48,173.3,M,-34.4,M,,*59
$GPRMC,155108.000,A,4308.3148,N,07726.2598,W,5.42,353.95,021023,,,A*7F
$GPGGA,155108.250,4308.3152,N,07726.2599,W,1,06,1.48,172.7,M,-34.4,M,,*5E
$GPRMC,155108.500,A,4308.3155,N,07726.2600,W,5.01,351.40,021023,,,A*79
$GPGGA,155108.750,4308.3157,N,07726.2601,W,1,06,1.48,172.0,M,-34.4,M,,*5B
$GPRMC,155109.000,A,4308.3158,N,07726.2602,W,3.93,348.41,021023,,,A*76
$GPGGA,155109.250,4308.3159,N,07726.2603,W,1,06,1.48,171.1,M,-34.4,M,,*51
$GPRMC,155109.500,A,4308.3160,N,07726.2603,W,2.45,350.89,021023,,,A*7E
$GPGGA,155109.750,4308.3160,N,07726.2603,W,1,06,1.48,170.5,M,-34.4,M,,*5B
$GPRMC,155110.000,A,4308.3160,N,07726.2603,W,1.89,352.13,021023,,,A*71
$GPGGA,155110.250,4308.3161,N,07726.2604,W,1,06,1.48,170.1,M,-34.4,M,,*54
$GPRMC,155110.500,A,4308.3161,N,07726.2604,W,2.04,348.94,021023,,,A*70
$GPGGA,155110.750,4308.3163,N,07726.2605,W,1,05,2.22,169.8,M,-34.4,M,,*5F
$GPRMC,155111.000,A,4308.3164,N,07726.2605,W,2.20,349.80,021023,,,A*72
$GPGGA,155111.250,4308.3166,N,07726.2606,W,1,06,1.48,169.6,M,-34.4,M,,*5F
$GPRMC,155111.500,A,4308.3167,N,07726.2607,W,2.45,343.28,021023,,,A*7D
$GPGGA,155111.750,4308.3169,N,07726.2609,W,1,06,1.36,169.5,M,-34.4,M,,*50
$GPRMC,155112.000,A,4308.3170,N,07726.2610,W,2.43,320.17,021023,,,A*74
$GPGGA,155112.250,4308.3172,N,07726.2612,W,1,06,1.36,169.3,M,-34.4,M,,*50
$GPRMC,155112.500,A,4308.3173,N,07726.2614,W,2.55,312.35,021023,,,A*70
$GPGGA,155112.750,4308.3174,N,07726.2616,W,1,06,1.36,169.2,M,-34.4,M,,*56
$GPRMC,155113.000,A,4308.3175,N,07726.2618,W,2.35,304.09,021023,,,A*70
$GPGGA,155113.250,4308.3175,N,07726.2620,W,1,06,1.36,169.0,M,-34.4,M,,*54
$GPRMC,155113.500,A,4308.3175,N,07726.2623,W,2.37,294.20,021023,,,A*7C
$GPGGA,155113.750,4308.3176,N,07726.2624,W,1,06,1.36,168.8,M,-34.4,M,,*5F
$GPRMC,155114.000,A,4308.3176,N,07726.2625,W,1.86,314.94,021023,,,A*74
$GPGGA,155114.250,4308.3178,N,07726.2625,W,1,06,1.36,168.7,M,-34.4,M,,*5D
$GPRMC,155114.500,A,4308.3178,N,07726.2625,W,1.56,350.76,021023,,,A*7E
$GPGGA,155114.750,4308.3178,N,07726.2623,W,1,06,1.48,168.6,M,-34.4,M,,*56
$GPRMC,155115.000,A,4308.3178,N,07726.2621,W,1.07,50.54,021023,,,A*49
$GPGGA,155115.250,4308.3175,N,07726.2614,W,1,06,1.36,168.5,M,-34.4,M,,*51
$GPRMC,155115.500,A,4308.3174,N,07726.2609,W,2.85,95.85,021023,,,A*46
$GPGGA,155115.750,4308.3174,N,07726.2604,W,1,06,1.36,168.5,M,-34.4,M,,*54
$GPRMC,155116.000,A,4308.3174,N,07726.2599,W,4.82,88.43,021023,,,A*4D
$GPGGA,155116.250,4308.3173,N,07726.2592,W,1,06,1.48,168.3,M,-34.4,M,,*56
$GPRMC,155116.500,A,4308.3174,N,07726.2584,W,7.53,85.53,021023,,,A*47
$GPGGA,155116.750,4308.3174,N,07726.2577,W,1,06,1.48,168.2,M,-34.4,M,,*5E
$GPRMC,155117.000,A,4308.3174,N,07726.2569,W,8.56,87.00,021023,,,A*4E
$GPGGA,155117.250,4308.3174,N,07726.2560,W,1,06,1.48,168.1,M,-34.4,M,,*5F
$GPRMC,155117.500,A,4308.3175,N,07726.2551,W,9.81,87.13,021023,,,A*48
$GPGGA,155117.750,4308.3176,N,07726.2541,W,1,06,1.48,168.1,M,-34.4,M,,*5B
$GPRMC,155118.000,A,4308.3176,N,07726.2531,W,10.83,85.91,021023,,,A*75
$GPGGA,155118.250,4308.3177,N,07726.2520,W,1,06,1.36,168.0,M,-34.4,M,,*5F
$GPRMC,155118.500,A,4308.3179,N,07726.2508,W,11.82,84.14,021023,,,A*79
$GPGGA,155118.750,4308.3180,N,07726.2496,W,1,06,1.48,167.9,M,-34.4,M,,*51
$GPRMC,155119.000,A,4308.3181,N,07726.2484,W,12.86,83.51,021023,,,A*7E
$GPGGA,155119.250,4308.3183,N,07726.2471,W,1,06,1.36,167.8,M,-34.4,M,,*57
$GPRMC,155119.500,A,4308.3184,N,07726.2457,W,14.09,83.39,021023,,,A*7F
$GPGGA,155119.750,4308.3185,N,07726.2443,W,1,06,1.48,167.7,M,-34.4,M,,*53
$GPRMC,155120.000,A,4308.3186,N,07726.2428,W,15.35,84.61,021023,,,A*7E
$GPGGA,155120.250,4308.3186,N,07726.2412,W,1,06,1.48,167.6,M,-34.4,M,,*5A
$GPRMC,155120.500,A,4308.3187,N,07726.2396,W,16.73,87.01,021023,,,A*7C
$GPGGA,155120.750,4308.3187,N,07726.2379,W,1,06,1.48,167.4,M,-34.4,M,,*56
$GPRMC,155121.000,A,4308.3187,N,07726.2363,W,17.62,87.52,021023,,,A*75
$GPGGA,155121.250,4308.3188,N,07726.2346,W,1,06,1.48,167.2,M,-34.4,M,,*57
$GPRMC,155121.500,A,4308.3188,N,07726.2329,W,18.21,87.42,021023,,,A*78
$GPGGA,155121.750,4308.3189,N,07726.2311,W,1,06,1.48,167.1,M,-34.4,M,,*52
$GPRMC,155122.000,A,4308.3189,N,07726.2293,W,18.96,87.54,021023,,,A*74
$GPGGA,155122.250,4308.3190,N,07726.2273,W,1,06,1.48,167.0,M,-34.4,M,,*58
$GPRMC,155122.500,A,4308.3190,N,07726.2254,W,19.99,87.76,021023,,,A*7C
$GPGGA,155122.750,4308.3191,N,07726.2234,W,1,06,1.48,166.8,M,-34.4,M,,*56
$GPRMC,155123.000,A,4308.3191,N,07726.2215,W,20.54,88.40,021023,,,A*7D
$GPGGA,155123.250,4308.3191,N,07726.2194,W,1,06,1.48,166.6,M,-34.4,M,,*55
$GPRMC,155123.500,A,4308.3191,N,07726.2173,W,21.24,89.19,021023,,,A*70
$GPGGA,155123.750,4308.3191,N,07726.2152,W,1,06,1.49,166.6,M,-34.4,M,,*5B
$GPRMC,155124.000,A,4308.3191,N,07726.2131,W,21.94,89.38,021023,,,A*7C
$GPGGA,155124.250,4308.3192,N,07726.2110,W,1,06,1.48,166.5,M,-34.4,M,,*5E
$GPRMC,155124.500,A,4308.3192,N,07726.2088,W,22.44,89.48,021023,,,A*70
$GPGGA,155124.750,4308.3192,N,07726.2066,W,1,06,1.48,166.4,M,-34.4,M,,*5A
$GPRMC,155125.000,A,4308.3191,N,07726.2044,W,23.02,90.31,021023,,,A*72
$GPGGA,155125.250,4308.3190,N,07726.2021,W,1,06,1.48,166.4,M,-34.4,M,,*5F
$GPRMC,155125.500,A,4308.3190,N,07726.1999,W,23.44,90.84,021023,,,A*70
$GPGGA,155125.750,4308.3190,N,07726.1976,W,1,06,1.48,166.3,M,-34.4,M,,*55
$GPRMC,155126.000,A,4308.3191,N,07726.1953,W,23.81,89.54,021023,,,A*7D
$GPGGA,155126.250,4308.3191,N,07726.1930,W,1,06,1.49,166.2,M,-34.4,M,,*50
$GPRMC,155126.500,A,4308.3191,N,07726.1907,W,24.47,88.79,021023,,,A*7A
$GPGGA,155126.750,4308.3191,N,07726.1883,W,1,06,1.49,166.2,M,-34.4,M,,*5C
$GPRMC,155127.000,A,4308.3191,N,07726.1859,W,24.83,89.18,021023,,,A*7A
$GPGGA,155127.250,4308.3190,N,07726.1836,W,1,06,1.48,166.1,M,-34.4,M,,*55
$GPRMC,155127.500,A,4308.3190,N,07726.1812,W,24.89,89.85,021023,,,A*7F
$GPGGA,155127.750,4308.3190,N,07726.1788,W,1,06,1.48,166.2,M,-34.4,M,,*59
$GPRMC,155128.000,A,4308.3190,N,07726.1765,W,24.86,90.36,021023,,,A*75
$GPGGA,155128.250,4308.3188,N,07726.1741,W,1,06,1.36,166.1,M,-34.4,M,,*55
$GPRMC,155128.500,A,4308.3188,N,07726.1719,W,24.40,91.07,021023,,,A*7B
$GPGGA,155128.750,4308.3187,N,07726.1696,W,1,06,1.49,166.2,M,-34.4,M,,*5F
$GPRMC,155129.000,A,4308.3187,N,07726.1674,W,23.92,91.21,021023,,,A*76
$GPGGA,155129.250,4308.3186,N,07726.1651,W,1,06,1.49,166.2,M,-34.4,M,,*51
$GPRMC,155129.500,A,4308.3185,N,07726.1629,W,23.48,90.75,021023,,,A*7E
$GPGGA,155129.750,4308.3185,N,07726.1606,W,1,06,1.49,166.3,M,-34.4,M,,*54
$GPRMC,155130.000,A,4308.3184,N,07726.1584,W,23.21,90.22,021023,,,A*7B
$GPGGA,155130.250,4308.3184,N,07726.1562,W,1,06,1.36,166.3,M,-34.4,M,,*51
$GPRMC,155130.500,A,4308.3185,N,07726.1541,W,22.62,88.59,021023,,,A*75
$GPGGA,155130.750,4308.3187,N,07726.1519,W,1,06,1.49,166.3,M,-34.4,M,,*53
$GPRMC,155131.000,A,4308.3189,N,07726.1498,W,22.21,84.77,021023,,,A*7F
$GPGGA,155131.250,4308.3192,N,07726.1476,W,1,06,1.49,166.3,M,-34.4,M,,*5B
$GPRMC,155131.500,A,4308.3195,N,07726.1456,W,21.58,80.57,021023,,,A*7E
$GPGGA,155131.750,4308.3199,N,07726.1436,W,1,06,1.49,166.4,M,-34.4,M,,*56
$GPRMC,155132.000,A,4308.3204,N,07726.1416,W,21.59,75.43,021023,,,A*79
$GPGGA,155132.250,4308.3209,N,07726.1396,W,1,06,1.49,166.4,M,-34.4,M,,*57
$GPRMC,155132.500,A,4308.3216,N,07726.1378,W,21.38,69.16,021023,,,A*7A
$GPGGA,155132.750,4308.3223,N,07726.1359,W,1,06,1.49,166.6,M,-34.4,M,,*5B
$GPRMC,155133.000,A,4308.3230,N,07726.1341,W,21.30,64.11,021023,,,A*72
$GPGGA,155133.250,4308.3237,N,07726.1324,W,1,06,1.36,166.7,M,-34.4,M,,*59
$GPRMC,155133.500,A,4308.3245,N,07726.1308,W,20.68,58.31,021023,,,A*79
$GPGGA,155133.750,4308.3253,N,07726.1292,W,1,06,1.36,166.8,M,-34.4,M,,*5D
$GPRMC,155134.000,A,4308.3262,N,07726.1277,W,20.40,54.69,021023,,,A*7C
$GPGGA,155134.250,4308.3271,N,07726.1262,W,1,06,1.36,166.8,M,-34.4,M,,*50
$GPRMC,155134.500,A,4308.3281,N,07726.1249,W,20.18,48.49,021023,,,A*7B
$GPGGA,155134.750,4308.3294,N,07726.1236,W,1,06,1.36,166.9,M,-34.4,M,,*5E
$GPRMC,155135.000,A,4308.3307,N,07726.1223,W,21.12,41.05,021023,,,A*76
$GPGGA,155135.250,4308.3320,N,07726.1211,W,1,06,1.36,166.9,M,-34.4,M,,*51
$GPRMC,155135.500,A,4308.3332,N,07726.1199,W,21.53,36.39,021023,,,A*7D
$GPGGA,155135.750,4308.3344,N,07726.1187,W,1,06,1.36,166.9,M,-34.4,M,,*5A
$GPRMC,155136.000,A,4308.3357,N,07726.1176,W,21.63,35.35,021023,,,A*75
$GPGGA,155136.250,4308.3370,N,07726.1165,W,1,06,1.36,167.0,M,-34.4,M,,*5F
$GPRMC,155136.500,A,4308.3384,N,07726.1156,W,21.86,30.87,021023,,,A*7B
$GPGGA,155136.750,4308.3398,N,07726.1148,W,1,06,1.49,167.1,M,-34.4,M,,*5A
$GPRMC,155137.000,A,4308.3413,N,07726.1141,W,22.17,24.41,021023,,,A*74
$GPGGA,155137.250,4308.3429,N,07726.1135,W,1,06,1.36,167.2,M,-34.4,M,,*52
$GPRMC,155137.500,A,4308.3444,N,07726.1131,W,23.02,16.18,021023,,,A*7C
$GPGGA,155137.750,4308.3460,N,07726.1129,W,1,06,1.49,167.5,M,-34.4,M,,*58
$GPRMC,155138.000,A,4308.3477,N,07726.1125,W,23.40,10.25,021023,,,A*7D
$GPGGA,155138.250,4308.3494,N,07726.1122,W,1,06,1.49,167.8,M,-34.4,M,,*5F
$GPRMC,155138.500,A,4308.3511,N,07726.1119,W,24.41,7.10,021023,,,A*40
$GPGGA,155138.750,4308.3529,N,07726.1117,W,1,06,1.49,168.1,M,-34.4,M,,*5D
$GPRMC,155139.000,A,4308.3547,N,07726.1115,W,25.11,4.86,021023,,,A*43
$GPGGA,155139.250,4308.3565,N,07726.1114,W,1,06,1.49,168.3,M,-34.4,M,,*50
$GPRMC,155139.500,A,4308.3584,N,07726.1113,W,25.84,2.89,021023,,,A*4A
$GPGGA,155139.750,4308.3603,N,07726.1113,W,1,06,1.49,168.5,M,-34.4,M,,*57
$GPRMC,155140.000,A,4308.3621,N,07726.1113,W,26.10,1.24,021023,,,A*47
$GPGGA,155140.250,4308.3640,N,07726.1113,W,1,06,1.36,168.7,M,-34.4,M,,*51
$GPRMC,155140.500,A,4308.3659,N,07726.1113,W,26.04,0.98,021023,,,A*4E
$GPGGA,155140.750,4308.3678,N,07726.1113,W,1,06,1.49,168.9,M,-34.4,M,,*59
$GPRMC,155141.000,A,4308.3696,N,07726.1113,W,26.07,0.42,021023,,,A*4D
$GPGGA,155141.250,4308.3715,N,07726.1113,W,1,06,1.36,169.1,M,-34.4,M,,*56
$GPRMC,155141.500,A,4308.3733,N,07726.1114,W,26.13,359.90,021023,,,A*44
$GPGGA,155141.750,4308.3752,N,07726.1114,W,1,06,1.49,169.4,M,-34.4,M,,*5A
$GPRMC,155142.000,A,4308.3770,N,07726.1115,W,26.20,359.94,021023,,,A*40
$GPGGA,155142.250,4308.3789,N,07726.1115,W,1,06,1.36,169.7,M,-34.4,M,,*50
$GPRMC,155142.500,A,4308.3807,N,07726.1115,W,26.26,0.38,021023,,,A*45
$GPGGA,155142.750,4308.3826,N,07726.1115,W,1,06,1.49,169.9,M,-34.4,M,,*59
$GPRMC,155143.000,A,4308.3844,N,07726.1115,W,26.30,0.40,021023,,,A*4E
$GPGGA,155143.250,4308.3863,N,07726.1114,W,1,06,1.49,170.1,M,-34.4,M,,*5D
$GPRMC,155143.500,A,4308.3881,N,07726.1112,W,26.30,1.51,021023,,,A*44
$GPGGA,155143.750,4308.3900,N,07726.1111,W,1,06,1.49,170.3,M,-34.4,M,,*5B
$GPRMC,155144.000,A,4308.3919,N,07726.1110,W,26.06,2.36,021023,,,A*43
$GPGGA,155144.250,4308.3937,N,07726.1109,W,1,06,1.36,170.4,M,-34.4,M,,*5B
$GPRMC,155144.500,A,4308.3954,N,07726.1108,W,25.07,1.72,021023,,,A*47
$GPGGA,155144.750,4308.3972,N,07726.1107,W,1,06,1.49,170.6,M,-34.4,M,,*5B
$GPRMC,155145.000,A,4308.3989,N,07726.1107,W,24.70,1.69,021023,,,A*47
$GPGGA,155145.250,4308.4006,N,07726.1106,W,1,06,1.49,170.7,M,-34.4,M,,*52
$GPRMC,155145.500,A,4308.4023,N,07726.1105,W,24.20,1.88,021023,,,A*44
$GPGGA,155145.750,4308.4039,N,07726.1105,W,1,06,1.49,170.8,M,-34.4,M,,*57
$GPRMC,155146.000,A,4308.4055,N,07726.1105,W,23.63,1.87,021023,,,A*4C
$GPGGA,155146.250,4308.4071,N,07726.1105,W,1,06,1.49,171.0,M,-34.4,M,,*54
$GPRMC,155146.500,A,4308.4086,N,07726.1105,W,22.80,1.54,021023,,,A*45
$GPGGA,155146.750,4308.4101,N,07726.1105,W,1,06,1.49,171.1,M,-34.4,M,,*56
$GPRMC,155147.000,A,4308.4116,N,07726.1104,W,22.14,2.09,021023,,,A*4E
$GPGGA,155147.250,4308.4130,N,07726.1104,W,1,06,1.49,171.3,M,-34.4,M,,*53
$GPRMC,155147.500,A,4308.4145,N,07726.1103,W,21.47,2.46,021023,,,A*44
$GPGGA,155147.750,4308.4160,N,07726.1102,W,1,06,1.49,171.4,M,-34.4,M,,*52
$GPRMC,155148.000,A,4308.4174,N,07726.1102,W,20.98,2.60,021023,,,A*4A
$GPGGA,155148.250,4308.4188,N,07726.1101,W,1,06,1.49,171.4,M,-34.4,M,,*5D
$GPRMC,155148.500,A,4308.4202,N,07726.1100,W,20.24,3.16,021023,,,A*48
$GPGGA,155148.750,4308.4215,N,07726.1099,W,1,06,1.49,171.3,M,-34.4,M,,*58
$GPRMC,155149.000,A,4308.4229,N,07726.1098,W,19.81,3.08,021023,,,A*4F
$GPGGA,155149.250,4308.4242,N,07726.1098,W,1,06,1.49,171.3,M,-34.4,M,,*5F
$GPRMC,155149.500,A,4308.4254,N,07726.1097,W,19.13,3.13,021023,,,A*4E
$GPGGA,155149.750,4308.4267,N,07726.1096,W,1,06,1.49,171.3,M,-34.4,M,,*53
$GPRMC,155150.000,A,4308.4279,N,07726.1096,W,18.41,3.52,021023,,,A*4E
$GPGGA,155150.250,4308.4291,N,07726.1095,W,1,06,1.49,171.3,M,-34.4,M,,*54
$GPRMC,155150.500,A,4308.4302,N,07726.1095,W,17.11,4.14,021023,,,A*4A
$GPGGA,155150.750,4308.4312,N,07726.1094,W,1,06,1.49,171.4,M,-34.4,M,,*5D
$GPRMC,155151.000,A,4308.4322,N,07726.1094,W,15.86,5.09,021023,,,A*4C
$GPGGA,155151.250,4308.4331,N,07726.1094,W,1,06,1.49,171.5,M,-34.4,M,,*59
$GPRMC,155151.500,A,4308.4339,N,07726.1095,W,13.60,5.25,021023,,,A*42
$GPGGA,155151.750,4308.4346,N,07726.1095,W,1,06,1.49,171.7,M,-34.4,M,,*5F
$GPRMC,155152.000,A,4308.4353,N,07726.1094,W,11.63,6.95,021023,,,A*40
$GPGGA,155152.250,4308.4359,N,07726.1093,W,1,06,1.49,171.7,M,-34.4,M,,*51
$GPRMC,155152.500,A,4308.4364,N,07726.1092,W,9.44,10.34,021023,,,A*47
$GPGGA,155152.750,4308.4369,N,07726.1091,W,1,06,1.49,171.7,M,-34.4,M,,*55
$GPRMC,155153.000,A,4308.4373,N,07726.1090,W,7.49,12.87,021023,,,A*4E
$GPGGA,155153.250,4308.4375,N,07726.1090,W,1,06,1.49,171.6,M,-34.4,M,,*5C
$GPRMC,155153.500,A,4308.4378,N,07726.1091,W,5.36,12.17,021023,,,A*42
$GPGGA,155153.750,4308.4381,N,07726.1091,W,1,06,1.49,171.5,M,-34.4,M,,*50
$GPRMC,155154.000,A,4308.4384,N,07726.1092,W,5.16,6.69,021023,,,A*7E
$GPGGA,155154.250,4308.4387,N,07726.1093,W,1,06,1.49,171.5,M,-34.4,M,,*56
$GPRMC,155154.500,A,4308.4390,N,07726.1095,W,5.40,358.08,021023,,,A*75
$GPGGA,155154.750,4308.4393,N,07726.1099,W,1,06,1.49,171.4,M,-34.4,M,,*5D
$GPRMC,155155.000,A,4308.4397,N,07726.1102,W,5.96,345.02,021023,,,A*74
$GPGGA,155155.250,4308.4400,N,07726.1107,W,1,06,1.49,171.4,M,-34.4,M,,*52
$GPRMC,155155.500,A,4308.4406,N,07726.1114,W,7.66,325.61,021023,,,A*77
$GPGGA,155155.750,4308.4412,N,07726.1124,W,1,06,1.36,171.9,M,-34.4,M,,*50
$GPRMC,155156.000,A,4308.4417,N,07726.1133,W,10.02,314.54,021023,,,A*44
$GPGGA,155156.250,4308.4422,N,07726.1143,W,1,06,1.36,172.1,M,-34.4,M,,*5F
$GPRMC,155156.500,A,4308.4426,N,07726.1154,W,11.57,303.78,021023,,,A*4B
$GPGGA,155156.750,4308.4429,N,07726.1165,W,1,06,1.36,172.2,M,-34.4,M,,*56
$GPRMC,155157.000,A,4308.4431,N,07726.1176,W,11.75,294.96,021023,,,A*46
$GPGGA,155157.250,4308.4433,N,07726.1188,W,1,06,1.36,172.3,M,-34.4,M,,*5B
$GPRMC,155157.500,A,4308.4434,N,07726.1201,W,12.66,284.91,021023,,,A*42
$GPGGA,155157.750,4308.4435,N,07726.1216,W,1,06,1.36,172.3,M,-34.4,M,,*5C
$GPRMC,155158.000,A,4308.4436,N,07726.1231,W,14.10,279.47,021023,,,A*47
$GPGGA,155158.250,4308.4436,N,07726.1249,W,1,06,1.36,172.4,M,-34.4,M,,*58
$GPRMC,155158.500,A,4308.4436,N,07726.1266,W,15.88,275.31,021023,,,A*4D
$GPGGA,155158.750,4308.4436,N,07726.1286,W,1,06,1.36,172.5,M,-34.4,M,,*5F
$GPRMC,155159.000,A,4308.4437,N,07726.1305,W,17.78,274.00,021023,,,A*42
$GPGGA,155159.250,4308.4438,N,07726.1327,W,1,06,1.36,172.6,M,-34.4,M,,*5C
$GPRMC,155159.500,A,4308.4439,N,07726.1350,W,20.15,273.74,021023,,,A*42
$GPGGA,155159.750,4308.4440,N,07726.1376,W,1,05,1.63,172.8,M,-34.4,M,,*5F
$GPRMC,155200.000,A,4308.4441,N,07726.1400,W,22.37,274.31,021023,,,A*41
$GPGGA,155200.250,4308.4443,N,07726.1426,W,1,06,1.36,172.9,M,-34.4,M,,*56
$GPRMC,155200.500,A,4308.4445,N,07726.1453,W,24.55,274.42,021023,,,A*40
$GPGGA,155200.750,4308.4448,N,07726.1483,W,1,05,1.63,173.0,M,-34.4,M,,*5C
$GPRMC,155201.000,A,4308.4450,N,07726.1511,W,27.17,275.64,021023,,,A*47
$GPGGA,155201.250,4308.4453,N,07726.1541,W,1,06,1.36,173.1,M,-34.4,M,,*5F
$GPRMC,155201.500,A,4308.4456,N,07726.1572,W,29.81,276.23,021023,,,A*40
$GPGGA,155201.750,4308.4460,N,07726.1604,W,1,06,1.36,173.2,M,-34.4,M,,*5B
$GPRMC,155202.000,A,4308.4463,N,07726.1636,W,31.88,276.72,021023,,,A*47
$GPGGA,155202.250,4308.4466,N,07726.1670,W,1,06,1.36,173.3,M,-34.4,M,,*59
$GPRMC,155202.500,A,4308.4469,N,07726.1703,W,33.74,277.16,021023,,,A*4D
$GPGGA,155202.750,4308.4473,N,07726.1738,W,1,06,1.36,173.4,M,-34.4,M,,*52
$GPRMC,155203.000,A,4308.4476,N,07726.1772,W,35.04,277.63,021023,,,A*42
$GPGGA,155203.250,4308.4480,N,07726.1808,W,1,06,1.36,173.6,M,-34.4,M,,*54
$GPRMC,155203.500,A,4308.4483,N,07726.1843,W,35.96,277.93,021023,,,A*44
$GPGGA,155203.750,4308.4487,N,07726.1879,W,1,06,1.36,173.8,M,-34.4,M,,*5E
$GPRMC,155204.000,A,4308.4490,N,07726.1915,W,36.57,278.03,021023,,,A*4E
$GPGGA,155204.250,4308.4494,N,07726.1950,W,1,06,1.36,174.0,M,-34.4,M,,*5B
$GPRMC,155204.500,A,4308.4498,N,07726.1986,W,36.97,278.21,021023,,,A*45
$GPGGA,155204.750,4308.4503,N,07726.2021,W,1,06,1.36,174.0,M,-34.4,M,,*5D
$GPRMC,155205.000,A,4308.4507,N,07726.2057,W,37.39,278.18,021023,,,A*4F
$GPGGA,155205.250,4308.4511,N,07726.2093,W,1,06,1.36,174.1,M,-34.4,M,,*52
$GPRMC,155205.500,A,4308.4515,N,07726.2129,W,37.91,277.71,021023,,,A*43
$GPGGA,155205.750,4308.4519,N,07726.2165,W,1,06,1.36,174.1,M,-34.4,M,,*57
$GPRMC,155206.000,A,4308.4523,N,07726.2201,W,38.15,277.42,021023,,,A*4A
$GPGGA,155206.250,4308.4528,N,07726.2237,W,1,06,1.36,174.2,M,-34.4,M,,*54
$GPRMC,155206.500,A,4308.4532,N,07726.2274,W,38.24,277.83,021023,,,A*42
$GPGGA,155206.750,4308.4536,N,07726.2310,W,1,06,1.36,174.4,M,-34.4,M,,*5C
$GPRMC,155207.000,A,4308.4540,N,07726.2347,W,38.32,277.97,021023,,,A*40
$GPGGA,155207.250,4308.4544,N,07726.2383,W,1,06,1.36,174.6,M,-34.4,M,,*55
$GPRMC,155207.500,A,4308.4548,N,07726.2420,W,38.38,277.80,021023,,,A*47
$GPGGA,155207.750,4308.4552,N,07726.2456,W,1,06,1.36,174.8,M,-34.4,M,,*56
$GPRMC,155208.000,A,4308.4555,N,07726.2492,W,38.16,277.71,021023,,,A*4A
$GPGGA,155208.250,4308.4559,N,07726.2528,W,1,06,1.36,174.9,M,-34.4,M,,*5E
$GPRMC,155208.500,A,4308.4563,N,07726.2564,W,38.04,277.58,021023,,,A*4A
$GPGGA,155208.750,4308.4567,N,07726.2600,W,1,06,1.36,175.0,M,-34.4,M,,*57
$GPRMC,155209.000,A,4308.4570,N,07726.2635,W,37.84,277.43,021023,,,A*46
$GPGGA,155209.250,4308.4574,N,07726.2671,W,1,06,1.36,175.1,M,-34.4,M,,*56
$GPRMC,155209.500,A,4308.4577,N,07726.2706,W,37.46,277.39,021023,,,A*46
$GPGGA,155209.750,4308.4581,N,07726.2740,W,1,06,1.36,175.2,M,-34.4,M,,*59
$GPRMC,155210.000,A,4308.4584,N,07726.2774,W,36.93,277.48,021023,,,A*4D
$GPGGA,155210.250,4308.4588,N,07726.2808,W,1,06,1.36,175.3,M,-34.4,M,,*5F
$GPRMC,155210.500,A,4308.4591,N,07726.2841,W,36.24,277.85,021023,,,A*48
$GPGGA,155210.750,4308.4594,N,07726.2874,W,1,06,1.36,175.4,M,-34.4,M,,*5B
$GPRMC,155211.000,A,4308.4597,N,07726.2907,W,35.88,277.85,021023,,,A*4C
$GPGGA,155211.250,4308.4600,N,07726.2939,W,1,06,1.36,175.6,M,-34.4,M,,*5B
$GPRMC,155211.500,A,4308.4603,N,07726.2972,W,35.49,277.51,021023,,,A*41
$GPGGA,155211.750,4308.4605,N,07726.3004,W,1,06,1.36,175.7,M,-34.4,M,,*5C
$GPRMC,155212.000,A,4308.4609,N,07726.3036,W,35.24,277.74,021023,,,A*49
$GPGGA,155212.250,4308.4611,N,07726.3067,W,1,06,1.36,175.8,M,-34.4,M,,*55
$GPRMC,155212.500,A,4308.4615,N,07726.3097,W,34.43,278.09,021023,,,A*4F
$GPGGA,155212.750,4308.4618,N,07726.3127,W,1,06,1.36,175.9,M,-34.4,M,,*5D
$GPRMC,155213.000,A,4308.4622,N,07726.3158,W,33.94,278.55,021023,,,A*49
$GPGGA,155213.250,4308.4625,N,07726.3188,W,1,05,1.63,175.9,M,-34.4,M,,*51
$GPRMC,155213.500,A,4308.4629,N,07726.3218,W,32.68,278.89,021023,,,A*43
$GPGGA,155213.750,4308.4632,N,07726.3248,W,1,06,1.36,176.0,M,-34.4,M,,*54
$GPRMC,155214.000,A,4308.4635,N,07726.3278,W,32.20,278.95,021023,,,A*4B
$GPGGA,155214.250,4308.4638,N,07726.3307,W,1,06,1.36,176.0,M,-34.4,M,,*56
$GPRMC,155214.500,A,4308.4641,N,07726.3336,W,31.74,278.87,021023,,,A*47
$GPGGA,155214.750,4308.4643,N,07726.3365,W,1,06,1.36,176.1,M,-34.4,M,,*5A
$GPRMC,155215.000,A,4308.4645,N,07726.3394,W,31.48,278.68,021023,,,A*41
$GPGGA,155215.250,4308.4647,N,07726.3421,W,1,06,1.36,176.1,M,-34.4,M,,*5D
$GPRMC,155215.500,A,4308.4649,N,07726.3448,W,29.66,279.03,021023,,,A*47
$GPGGA,155215.750,4308.4651,N,07726.3474,W,1,05,1.63,176.2,M,-34.4,M,,*5F
$GPRMC,155216.000,A,4308.4653,N,07726.3500,W,28.43,278.91,021023,,,A*4B
$GPGGA,155216.250,4308.4654,N,07726.3525,W,1,05,1.63,176.3,M,-34.4,M,,*58
$GPRMC,155216.500,A,4308.4656,N,07726.3550,W,27.20,278.89,021023,,,A*4D
$GPGGA,155216.750,4308.4658,N,07726.3574,W,1,05,1.63,176.2,M,-34.4,M,,*54
$GPRMC,155217.000,A,4308.4659,N,07726.3598,W,26.29,278.44,021023,,,A*4B
$GPGGA,155217.250,4308.4661,N,07726.3622,W,1,05,1.63,176.2,M,-34.4,M,,*5A
$GPRMC,155217.500,A,4308.4664,N,07726.3645,W,25.46,278.90,021023,,,A*40
$GPGGA,155217.750,4308.4666,N,07726.3669,W,1,05,1.63,176.1,M,-34.4,M,,*54
$GPRMC,155218.000,A,4308.4668,N,07726.3692,W,25.21,279.20,021023,,,A*47
$GPGGA,155218.250,4308.4671,N,07726.3716,W,1,05,1.63,176.1,M,-34.4,M,,*51
$GPRMC,155218.500,A,4308.4673,N,07726.3740,W,25.41,278.91,021023,,,A*4B
$GPGGA,155218.750,4308.4676,N,07726.3765,W,1,05,1.63,176.0,M,-34.4,M,,*56
$GPRMC,155219.000,A,4308.4679,N,07726.3789,W,25.63,279.00,021023,,,A*49
$GPGGA,155219.250,4308.4681,N,07726.3814,W,1,05,1.63,176.0,M,-34.4,M,,*53
$GPRMC,155219.500,A,4308.4683,N,07726.3838,W,25.64,279.00,021023,,,A*4B
$GPGGA,155219.750,4308.4686,N,07726.3863,W,1,05,1.63,176.1,M,-34.4,M,,*50
$GPRMC,155220.000,A,4308.4688,N,07726.3887,W,25.66,278.63,021023,,,A*4D
$GPGGA,155220.250,4308.4690,N,07726.3912,W,1,05,1.63,176.1,M,-34.4,M,,*5F
$GPRMC,155220.500,A,4308.4693,N,07726.3936,W,25.71,278.51,021023,,,A*4E
$GPGGA,155220.750,4308.4694,N,07726.3963,W,1,05,1.63,176.1,M,-34.4,M,,*58
$GPRMC,155221.000,A,4308.4697,N,07726.3988,W,27.33,277.55,021023,,,A*44
$GPGGA,155221.250,4308.4700,N,07726.4015,W,1,05,1.63,175.9,M,-34.4,M,,*54
$GPRMC,155221.500,A,4308.4702,N,07726.4041,W,28.54,278.33,021023,,,A*46
$GPGGA,155221.750,4308.4705,N,07726.4068,W,1,05,1.63,175.8,M,-34.4,M,,*5F
$GPRMC,155222.000,A,4308.4709,N,07726.4096,W,29.60,278.45,021023,,,A*46
$GPGGA,155222.250,4308.4712,N,07726.4124,W,1,05,1.63,175.7,M,-34.4,M,,*59
$GPRMC,155222.500,A,4308.4715,N,07726.4153,W,31.08,278.26,021023,,,A*44
$GPGGA,155222.750,4308.4718,N,07726.4182,W,1,05,1.63,175.5,M,-34.4,M,,*58
$GPRMC,155223.000,A,4308.4721,N,07726.4212,W,32.34,278.31,021023,,,A*4B
$GPGGA,155223.250,4308.4725,N,07726.4242,W,1,05,1.63,175.5,M,-34.4,M,,*5D
$GPRMC,155223.500,A,4308.4728,N,07726.4273,W,33.36,278.51,021023,,,A*45
$GPGGA,155223.750,4308.4732,N,07726.4305,W,1,05,1.63,175.4,M,-34.4,M,,*5D
$GPRMC,155224.000,A,4308.4735,N,07726.4337,W,34.37,279.06,021023,,,A*4F
$GPGGA,155224.250,4308.4739,N,07726.4369,W,1,05,1.63,175.4,M,-34.4,M,,*5E
$GPRMC,155224.500,A,4308.4742,N,07726.4402,W,35.25,277.69,021023,,,A*4E
$GPGGA,155224.750,4308.4745,N,07726.4436,W,1,06,1.36,175.4,M,-34.4,M,,*5E
$GPRMC,155225.000,A,4308.4748,N,07726.4470,W,35.77,276.20,021023,,,A*4E
$GPGGA,155225.250,4308.4750,N,07726.4505,W,1,05,1.63,175.4,M,-34.4,M,,*5C
$GPRMC,155225.500,A,4308.4754,N,07726.4539,W,35.86,277.08,021023,,,A*4F
$GPGGA,155225.750,4308.4757,N,07726.4573,W,1,05,1.63,175.4,M,-34.4,M,,*5F
$GPRMC,155226.000,A,4308.4761,N,07726.4607,W,36.12,277.42,021023,,,A*41
$GPGGA,155226.250,4308.4764,N,07726.4642,W,1,05,1.63,175.3,M,-34.4,M,,*5F
$GPRMC,155226.500,A,4308.4768,N,07726.4677,W,36.48,276.98,021023,,,A*43
$GPGGA,155226.750,4308.4772,N,07726.4713,W,1,05,1.63,175.2,M,-34.4,M,,*59
$GPRMC,155227.000,A,4308.4775,N,07726.4749,W,38.04,276.77,021023,,,A*40
$GPGGA,155227.250,4308.4779,N,07726.4785,W,1,06,1.36,175.2,M,-34.4,M,,*5A
$GPRMC,155227.500,A,4308.4782,N,07726.4822,W,38.96,276.34,021023,,,A*43
$GPGGA,155227.750,4308.4786,N,07726.4860,W,1,05,1.63,175.2,M,-34.4,M,,*58
$GPRMC,155228.000,A,4308.4789,N,07726.4897,W,39.55,276.42,021023,,,A*43
$GPGGA,155228.250,4308.4792,N,07726.4936,W,1,06,1.36,175.2,M,-34.4,M,,*56
$GPRMC,155228.500,A,4308.4796,N,07726.4974,W,40.14,276.52,021023,,,A*4E
$GPGGA,155228.750,4308.4798,N,07726.5013,W,1,06,1.36,175.3,M,-34.4,M,,*57
$GPRMC,155229.000,A,4308.4801,N,07726.5052,W,40.40,276.39,021023,,,A*4B
$GPGGA,155229.250,4308.4803,N,07726.5091,W,1,06,1.36,175.5,M,-34.4,M,,*52
$GPRMC,155229.500,A,4308.4806,N,07726.5129,W,40.63,276.07,021023,,,A*48
$GPGGA,155229.750,4308.4808,N,07726.5169,W,1,05,1.63,175.5,M,-34.4,M,,*59
$GPRMC,155230.000,A,4308.4810,N,07726.5208,W,40.84,275.58,021023,,,A*42
$GPGGA,155230.250,4308.4812,N,07726.5246,W,1,05,1.63,175.5,M,-34.4,M,,*51
$GPRMC,155230.500,A,4308.4814,N,07726.5286,W,41.04,275.05,021023,,,A*44
$GPGGA,155230.750,4308.4816,N,07726.5325,W,1,05,1.63,175.5,M,-34.4,M,,*54
$GPRMC,155231.000,A,4308.4818,N,07726.5365,W,41.32,274.48,021023,,,A*4D
$GPGGA,155231.250,4308.4820,N,07726.5405,W,1,05,1.63,175.4,M,-34.4,M,,*51
$GPRMC,155231.500,A,4308.4821,N,07726.5445,W,41.59,274.17,021023,,,A*40
$GPGGA,155231.750,4308.4823,N,07726.5485,W,1,05,1.63,175.3,M,-34.4,M,,*58
$GPRMC,155232.000,A,4308.4825,N,07726.5525,W,41.71,273.74,021023,,,A*4D
$GPGGA,155232.250,4308.4825,N,07726.5565,W,1,05,1.63,175.2,M,-34.4,M,,*56
$GPRMC,155232.500,A,4308.4827,N,07726.5605,W,41.81,273.34,021023,,,A*40
$GPGGA,155232.750,4308.4828,N,07726.5645,W,1,05,1.63,175.2,M,-34.4,M,,*5F
$GPRMC,155233.000,A,4308.4829,N,07726.5686,W,42.01,273.16,021023,,,A*4A
$GPGGA,155233.250,4308.4830,N,07726.5727,W,1,05,1.63,175.2,M,-34.4,M,,*57
$GPRMC,155233.500,A,4308.4831,N,07726.5769,W,42.39,272.71,021023,,,A*4D
$GPGGA,155233.750,4308.4832,N,07726.5810,W,1,05,1.63,175.2,M,-34.4,M,,*5B
$GPRMC,155234.000,A,4308.4833,N,07726.5852,W,42.58,272.59,021023,,,A*47
$GPGGA,155234.250,4308.4835,N,07726.5893,W,1,05,1.63,175.2,M,-34.4,M,,*55
$GPRMC,155234.500,A,4308.4836,N,07726.5934,W,42.63,272.20,021023,,,A*40
$GPGGA,155234.750,4308.4837,N,07726.5975,W,1,05,1.63,175.2,M,-34.4,M,,*5B
$GPRMC,155235.000,A,4308.4838,N,07726.6016,W,42.43,271.80,021023,,,A*4B
$GPGGA,155235.250,4308.4839,N,07726.6056,W,1,05,1.63,175.2,M,-34.4,M,,*5A
$GPRMC,155235.500,A,4308.4840,N,07726.6097,W,41.97,271.59,021023,,,A*46
$GPGGA,155235.750,4308.4841,N,07726.6137,W,1,05,1.63,175.2,M,-34.4,M,,*56
$GPRMC,155236.000,A,4308.4842,N,07726.6176,W,41.45,271.33,021023,,,A*4F
$GPGGA,155236.250,4308.4842,N,07726.6215,W,1,05,1.63,175.2,M,-34.4,M,,*50
$GPRMC,155236.500,A,4308.4843,N,07726.6254,W,41.29,271.25,021023,,,A*45
$GPGGA,155236.750,4308.4843,N,07726.6292,W,1,05,1.63,175.3,M,-34.4,M,,*5A
$GPRMC,155237.000,A,4308.4843,N,07726.6332,W,41.07,270.91,021023,,,A*42
$GPGGA,155237.250,4308.4843,N,07726.6370,W,1,05,1.63,175.3,M,-34.4,M,,*53
$GPRMC,155237.500,A,4308.4842,N,07726.6409,W,40.62,270.05,021023,,,A*46
$GPGGA,155237.750,4308.4840,N,07726.6448,W,1,05,1.63,175.4,M,-34.4,M,,*5E
$GPRMC,155238.000,A,4308.4839,N,07726.6488,W,40.56,269.41,021023,,,A*46
$GPGGA,155238.250,4308.4838,N,07726.6527,W,1,06,1.36,175.5,M,-34.4,M,,*51
$GPRMC,155238.500,A,4308.4836,N,07726.6566,W,40.61,268.70,021023,,,A*4A
$GPGGA,155238.750,4308.4834,N,07726.6605,W,1,06,1.36,175.6,M,-34.4,M,,*58
$GPRMC,155239.000,A,4308.4832,N,07726.6643,W,40.57,268.35,021023,,,A*4A
$GPGGA,155239.250,4308.4830,N,07726.6682,W,1,06,1.36,175.6,M,-34.4,M,,*57
$GPRMC,155239.500,A,4308.4828,N,07726.6720,W,40.37,267.54,021023,,,A*4E
$GPGGA,155239.750,4308.4826,N,07726.6758,W,1,06,1.36,175.5,M,-34.4,M,,*50
$GPRMC,155240.000,A,4308.4824,N,07726.6797,W,40.37,266.72,021023,,,A*40
$GPGGA,155240.250,4308.4821,N,07726.6835,W,1,06,1.36,175.5,M,-34.4,M,,*58
$GPRMC,155240.500,A,4308.4819,N,07726.6873,W,40.39,265.16,021023,,,A*41
$GPGGA,155240.750,4308.4817,N,07726.6911,W,1,06,1.36,175.4,M,-34.4,M,,*5E
$GPRMC,155241.000,A,4308.4815,N,07726.6949,W,40.85,264.67,021023,,,A*41
$GPGGA,155241.250,4308.4812,N,07726.6987,W,1,06,1.36,175.4,M,-34.4,M,,*50
$GPRMC,155241.500,A,4308.4809,N,07726.7025,W,40.87,263.96,021023,,,A*40
$GPGGA,155241.750,4308.4806,N,07726.7064,W,1,06,1.36,175.5,M,-34.4,M,,*54
$GPRMC,155242.000,A,4308.4803,N,07726.7102,W,40.86,263.89,021023,,,A*47
$GPGGA,155242.250,4308.4800,N,07726.7141,W,1,06,1.36,175.6,M,-34.4,M,,*51
$GPRMC,155242.500,A,4308.4801,N,07726.7174,W,40.68,265.29,021023,,,A*4D
$GPGGA,155242.750,4308.4798,N,07726.7213,W,1,06,1.36,175.8,M,-34.4,M,,*50
$GPRMC,155243.000,A,4308.4796,N,07726.7252,W,40.45,266.16,021023,,,A*4F
$GPGGA,155243.250,4308.4793,N,07726.7290,W,1,06,1.36,176.1,M,-34.4,M,,*5E
$GPRMC,155243.500,A,4308.4791,N,07726.7328,W,39.59,266.36,021023,,,A*40
$GPGGA,155243.750,4308.4789,N,07726.7366,W,1,06,1.36,176.2,M,-34.4,M,,*5B
$GPRMC,155244.000,A,4308.4787,N,07726.7403,W,39.53,266.29,021023,,,A*4F
$GPGGA,155244.250,4308.4785,N,07726.7441,W,1,06,1.36,176.4,M,-34.4,M,,*51
$GPRMC,155244.500,A,4308.4782,N,07726.7478,W,39.59,265.78,021023,,,A*4E
$GPGGA,155244.750,4308.4780,N,07726.7515,W,1,06,1.36,176.5,M,-34.4,M,,*50
$GPRMC,155245.000,A,4308.4778,N,07726.7552,W,39.51,265.62,021023,,,A*45
$GPGGA,155245.250,4308.4775,N,07726.7589,W,1,06,1.36,176.6,M,-34.4,M,,*58
$GPRMC,155245.500,A,4308.4773,N,07726.7626,W,39.34,265.92,021023,,,A*47
$GPGGA,155245.750,4308.4771,N,07726.7662,W,1,06,1.36,176.8,M,-34.4,M,,*51
$GPRMC,155246.000,A,4308.4769,N,07726.7698,W,38.60,266.14,021023,,,A*42
$GPGGA,155246.250,4308.4767,N,07726.7735,W,1,06,1.36,177.0,M,-34.4,M,,*5A
$GPRMC,155246.500,A,4308.4765,N,07726.7771,W,38.40,267.00,021023,,,A*4B
$GPGGA,155246.750,4308.4763,N,07726.7807,W,1,06,1.36,177.2,M,-34.4,M,,*57
$GPRMC,155247.000,A,4308.4761,N,07726.7843,W,38.11,267.51,021023,,,A*45
$GPGGA,155247.250,4308.4759,N,07726.7879,W,1,06,1.36,177.3,M,-34.4,M,,*52
$GPRMC,155247.500,A,4308.4758,N,07726.7915,W,36.86,268.47,021023,,,A*40
$GPGGA,155247.750,4308.4756,N,07726.7952,W,1,06,1.36,177.4,M,-34.4,M,,*57
$GPRMC,155248.000,A,4308.4755,N,07726.7988,W,36.89,268.65,021023,,,A*4C
$GPGGA,155248.250,4308.4753,N,07726.8025,W,1,06,1.36,177.4,M,-34.4,M,,*5E
$GPRMC,155248.500,A,4308.4751,N,07726.8061,W,37.13,268.82,021023,,,A*47
$GPGGA,155248.750,4308.4749,N,07726.8098,W,1,06,1.36,177.4,M,-34.4,M,,*56
$GPRMC,155249.000,A,4308.4747,N,07726.8135,W,37.50,268.28,021023,,,A*43
$GPGGA,155249.250,4308.4745,N,07726.8172,W,1,06,1.36,177.2,M,-34.4,M,,*5D
$GPRMC,155249.500,A,4308.4742,N,07726.8210,W,37.72,267.31,021023,,,A*40
$GPGGA,155249.750,4308.4739,N,07726.8249,W,1,06,1.36,177.1,M,-34.4,M,,*5B
$GPRMC,155250.000,A,4308.4736,N,07726.8287,W,39.06,266.10,021023,,,A*4F
$GPGGA,155250.250,4308.4734,N,07726.8325,W,1,06,1.36,176.9,M,-34.4,M,,*59
$GPRMC,155250.500,A,4308.4732,N,07726.8363,W,39.32,265.91,021023,,,A*48
$GPGGA,155250.750,4308.4730,N,07726.8401,W,1,06,1.36,176.6,M,-34.4,M,,*56
$GPRMC,155251.000,A,4308.4728,N,07726.8439,W,39.64,265.82,021023,,,A*4E
$GPGGA,155251.250,4308.4726,N,07726.8478,W,1,06,1.36,176.4,M,-34.4,M,,*59
$GPRMC,155251.500,A,4308.4724,N,07726.8516,W,39.94,265.85,021023,,,A*43
$GPGGA,155251.750,4308.4722,N,07726.8555,W,1,06,1.36,176.2,M,-34.4,M,,*50
$GPRMC,155252.000,A,4308.4720,N,07726.8594,W,39.98,265.81,021023,,,A*43
$GPGGA,155252.250,4308.4718,N,07726.8633,W,1,06,1.36,176.1,M,-34.4,M,,*5F
$GPRMC,155252.500,A,4308.4716,N,07726.8672,W,40.06,265.59,021023,,,A*44
$GPGGA,155252.750,4308.4713,N,07726.8711,W,1,06,1.36,176.1,M,-34.4,M,,*50
$GPRMC,155253.000,A,4308.4711,N,07726.8750,W,40.16,265.52,021023,,,A*4C
$GPGGA,155253.250,4308.4709,N,07726.8788,W,1,06,1.36,176.0,M,-34.4,M,,*5E
$GPRMC,155253.500,A,4308.4706,N,07726.8827,W,40.23,265.28,021023,,,A*4B
$GPGGA,155253.750,4308.4704,N,07726.8865,W,1,06,1.36,175.9,M,-34.4,M,,*50
$GPRMC,155254.000,A,4308.4702,N,07726.8902,W,39.94,265.13,021023,,,A*41
$GPGGA,155254.250,4308.4699,N,07726.8940,W,1,06,1.36,175.7,M,-34.4,M,,*5F
$GPRMC,155254.500,A,4308.4697,N,07726.8977,W,39.85,264.69,021023,,,A*47
$GPGGA,155254.750,4308.4694,N,07726.9014,W,1,06,1.36,175.5,M,-34.4,M,,*5C
$GPRMC,155255.000,A,4308.4692,N,07726.9051,W,39.60,264.63,021023,,,A*4B
$GPGGA,155255.250,4308.4689,N,07726.9088,W,1,06,1.36,175.2,M,-34.4,M,,*56
$GPRMC,155255.500,A,4308.4686,N,07726.9125,W,39.37,264.53,021023,,,A*48
$GPGGA,155255.750,4308.4684,N,07726.9162,W,1,06,1.36,175.0,M,-34.4,M,,*59
$GPRMC,155256.000,A,4308.4681,N,07726.9199,W,39.22,264.67,021023,,,A*4D
$GPGGA,155256.250,4308.4678,N,07726.9237,W,1,06,1.36,174.8,M,-34.4,M,,*56
$GPRMC,155256.500,A,4308.4676,N,07726.9274,W,39.22,264.79,021023,,,A*4F
$GPGGA,155256.750,4308.4673,N,07726.9312,W,1,06,1.36,174.6,M,-34.4,M,,*50
$GPRMC,155257.000,A,4308.4671,N,07726.9349,W,39.28,264.95,021023,,,A*4B
$GPGGA,155257.250,4308.4669,N,07726.9387,W,1,06,1.36,174.5,M,-34.4,M,,*50
$GPRMC,155257.500,A,4308.4667,N,07726.9425,W,39.36,265.22,021023,,,A*46
$GPGGA,155257.750,4308.4664,N,07726.9463,W,1,06,1.36,174.3,M,-34.4,M,,*53
$GPRMC,155258.000,A,4308.4662,N,07726.9501,W,39.40,265.05,021023,,,A*4A
$GPGGA,155258.250,4308.4660,N,07726.9538,W,1,06,1.36,174.2,M,-34.4,M,,*53
$GPRMC,155258.500,A,4308.4658,N,07726.9576,W,39.06,265.32,021023,,,A*40
$GPGGA,155258.750,4308.4656,N,07726.9613,W,1,06,1.36,174.1,M,-34.4,M,,*5A
$GPRMC,155259.000,A,4308.4654,N,07726.9650,W,38.93,265.18,021023,,,A*4A
$GPGGA,155259.250,4308.4652,N,07726.9687,W,1,06,1.36,174.0,M,-34.4,M,,*56
$GPRMC,155259.500,A,4308.4650,N,07726.9724,W,38.73,265.08,021023,,,A*46
$GPGGA,155259.750,4308.4649,N,07726.9760,W,1,06,1.36,173.8,M,-34.4,M,,*5E
$GPRMC,155300.000,A,4308.4647,N,07726.9796,W,38.65,265.73,021023,,,A*4A
$GPGGA,155300.250,4308.4645,N,07726.9832,W,1,06,1.36,173.6,M,-34.4,M,,*5C
$GPRMC,155300.500,A,4308.4644,N,07726.9868,W,38.54,265.89,021023,,,A*45
$GPGGA,155300.750,4308.4642,N,07726.9904,W,1,06,1.36,173.4,M,-34.4,M,,*58
$GPRMC,155301.000,A,4308.4640,N,07726.9940,W,38.47,265.65,021023,,,A*4E
$GPGGA,155301.250,4308.4638,N,07726.9977,W,1,06,1.36,173.2,M,-34.4,M,,*53
$GPRMC,155301.500,A,4308.4636,N,07727.0013,W,38.44,265.48,021023,,,A*41
$GPGGA,155301.750,4308.4634,N,07727.0049,W,1,06,1.36,172.9,M,-34.4,M,,*5C
$GPRMC,155302.000,A,4308.4632,N,07727.0085,W,38.38,265.52,021023,,,A*4C
$GPGGA,155302.250,4308.4630,N,07727.0121,W,1,06,1.36,172.7,M,-34.4,M,,*5F
$GPRMC,155302.500,A,4308.4629,N,07727.0157,W,38.24,266.02,021023,,,A*46
$GPGGA,155302.750,4308.4627,N,07727.0193,W,1,06,1.36,172.5,M,-34.4,M,,*57
$GPRMC,155303.000,A,4308.4626,N,07727.0230,W,38.32,266.68,021023,,,A*44
$GPGGA,155303.250,4308.4624,N,07727.0266,W,1,06,1.36,172.3,M,-34.4,M,,*5F
$GPRMC,155303.500,A,4308.4622,N,07727.0303,W,38.29,266.98,021023,,,A*41
$GPGGA,155303.750,4308.4621,N,07727.0339,W,1,06,1.36,172.2,M,-34.4,M,,*55
$GPRMC,155304.000,A,4308.4619,N,07727.0375,W,38.11,267.40,021023,,,A*45
$GPGGA,155304.250,4308.4618,N,07727.0412,W,1,06,1.36,172.1,M,-34.4,M,,*50
$GPRMC,155304.500,A,4308.4617,N,07727.0449,W,38.22,268.37,021023,,,A*49
$GPGGA,155304.750,4308.4616,N,07727.0486,W,1,06,1.36,172.0,M,-34.4,M,,*57
$GPRMC,155305.000,A,4308.4615,N,07727.0522,W,38.28,268.87,021023,,,A*42
$GPGGA,155305.250,4308.4615,N,07727.0559,W,1,06,1.36,171.8,M,-34.4,M,,*58
$GPRMC,155305.500,A,4308.4615,N,07727.0596,W,38.43,270.05,021023,,,A*46
$GPGGA,155305.750,4308.4615,N,07727.0633,W,1,06,1.36,171.6,M,-34.4,M,,*5C
$GPRMC,155306.000,A,4308.4616,N,07727.0670,W,38.64,271.42,021023,,,A*4F
$GPGGA,155306.250,4308.4617,N,07727.0707,W,1,06,1.36,171.3,M,-34.4,M,,*5B
$GPRMC,155306.500,A,4308.4619,N,07727.0744,W,38.91,272.64,021023,,,A*4E
$GPGGA,155306.750,4308.4621,N,07727.0781,W,1,06,1.36,171.0,M,-34.4,M,,*56
$GPRMC,155307.000,A,4308.4623,N,07727.0819,W,39.32,273.75,021023,,,A*4D
$GPGGA,155307.250,4308.4625,N,07727.0857,W,1,06,1.36,170.6,M,-34.4,M,,*55
$GPRMC,155307.500,A,4308.4628,N,07727.0895,W,39.85,274.82,021023,,,A*44
$GPGGA,155307.750,4308.4631,N,07727.0933,W,1,06,1.36,170.3,M,-34.4,M,,*53
$GPRMC,155308.000,A,4308.4634,N,07727.0970,W,39.99,275.78,021023,,,A*40
$GPGGA,155308.250,4308.4638,N,07727.1008,W,1,06,1.36,170.0,M,-34.4,M,,*53
$GPRMC,155308.500,A,4308.4641,N,07727.1046,W,40.37,276.42,021023,,,A*4A
$GPGGA,155308.750,4308.4645,N,07727.1084,W,1,06,1.36,169.7,M,-34.4,M,,*57
$GPRMC,155309.000,A,4308.4648,N,07727.1123,W,40.70,276.68,021023,,,A*4E
$GPGGA,155309.250,4308.4652,N,07727.1161,W,1,06,1.36,169.4,M,-34.4,M,,*5C
$GPRMC,155309.500,A,4308.4655,N,07727.1200,W,41.18,276.60,021023,,,A*42
$GPGGA,155309.750,4308.4659,N,07727.1238,W,1,06,1.36,169.2,M,-34.4,M,,*5B
$GPRMC,155310.000,A,4308.4662,N,07727.1277,W,41.26,276.83,021023,,,A*4B
$GPGGA,155310.250,4308.4666,N,07727.1316,W,1,06,1.36,169.1,M,-34.4,M,,*54
$GPRMC,155310.500,A,4308.4670,N,07727.1355,W,41.46,277.18,021023,,,A*49
$GPGGA,155310.750,4308.4674,N,07727.1393,W,1,06,1.36,169.1,M,-34.4,M,,*5F
$GPRMC,155311.000,A,4308.4678,N,07727.1431,W,41.40,277.55,021023,,,A*4F
$GPGGA,155311.250,4308.4682,N,07727.1470,W,1,06,1.36,169.1,M,-34.4,M,,*58
$GPRMC,155311.500,A,4308.4686,N,07727.1508,W,41.32,277.90,021023,,,A*4C
$GPGGA,155311.750,4308.4691,N,07727.1547,W,1,06,1.36,169.1,M,-34.4,M,,*5A
$GPRMC,155312.000,A,4308.4695,N,07727.1585,W,41.10,278.41,021023,,,A*4E
$GPGGA,155312.250,4308.4700,N,07727.1623,W,1,06,1.36,169.0,M,-34.4,M,,*55
$GPRMC,155312.500,A,4308.4705,N,07727.1661,W,40.84,278.91,021023,,,A*4B
$GPGGA,155312.750,4308.4710,N,07727.1698,W,1,06,1.36,168.8,M,-34.4,M,,*58
$GPRMC,155313.000,A,4308.4715,N,07727.1735,W,40.74,279.04,021023,,,A*4C
$GPGGA,155313.250,4308.4720,N,07727.1772,W,1,06,1.36,168.7,M,-34.4,M,,*55
$GPRMC,155313.500,A,4308.4726,N,07727.1809,W,40.14,279.64,021023,,,A*49
$GPGGA,155313.750,4308.4731,N,07727.1846,W,1,06,1.36,168.5,M,-34.4,M,,*5A
$GPRMC,155314.000,A,4308.4735,N,07727.1882,W,39.91,279.52,021023,,,A*4C
$GPGGA,155314.250,4308.4740,N,07727.1919,W,1,06,1.36,168.2,M,-34.4,M,,*52
$GPRMC,155314.500,A,4308.4745,N,07727.1955,W,39.64,279.69,021023,,,A*47
$GPGGA,155314.750,4308.4750,N,07727.1991,W,1,06,1.36,168.0,M,-34.4,M,,*54
$GPRMC,155315.000,A,4308.4754,N,07727.2028,W,39.45,279.39,021023,,,A*45
$GPGGA,155315.250,4308.4758,N,07727.2064,W,1,06,1.36,167.7,M,-34.4,M,,*50
$GPRMC,155315.500,A,4308.4762,N,07727.2101,W,39.33,278.57,021023,,,A*47
$GPGGA,155315.750,4308.4766,N,07727.2137,W,1,06,1.36,167.5,M,-34.4,M,,*5D
$GPRMC,155316.000,A,4308.4770,N,07727.2173,W,39.21,278.20,021023,,,A*44
$GPGGA,155316.250,4308.4774,N,07727.2209,W,1,06,1.36,167.2,M,-34.4,M,,*51
$GPRMC,155316.500,A,4308.4777,N,07727.2245,W,38.80,277.96,021023,,,A*48
$GPGGA,155316.750,4308.4782,N,07727.2281,W,1,06,1.36,167.0,M,-34.4,M,,*5F
$GPRMC,155317.000,A,4308.4786,N,07727.2317,W,38.80,278.24,021023,,,A*42
$GPGGA,155317.250,4308.4790,N,07727.2353,W,1,06,1.36,166.9,M,-34.4,M,,*5E
$GPRMC,155317.500,A,4308.4794,N,07727.2389,W,38.75,278.65,021023,,,A*4C
$GPGGA,155317.750,4308.4798,N,07727.2425,W,1,06,1.36,166.8,M,-34.4,M,,*54
$GPRMC,155318.000,A,4308.4802,N,07727.2461,W,38.46,279.28,021023,,,A*4F
$GPGGA,155318.250,4308.4807,N,07727.2497,W,1,06,1.36,166.7,M,-34.4,M,,*51
$GPRMC,155318.500,A,4308.4811,N,07727.2534,W,38.43,279.83,021023,,,A*4D
$GPGGA,155318.750,4308.4816,N,07727.2571,W,1,06,1.36,166.7,M,-34.4,M,,*5D
$GPRMC,155319.000,A,4308.4820,N,07727.2607,W,38.45,279.89,021023,,,A*44
$GPGGA,155319.250,4308.4825,N,07727.2643,W,1,06,1.36,166.6,M,-34.4,M,,*5A
$GPRMC,155319.500,A,4308.4830,N,07727.2679,W,38.43,279.76,021023,,,A*4F
$GPGGA,155319.750,4308.4835,N,07727.2715,W,1,06,1.36,166.5,M,-34.4,M,,*5F
$GPRMC,155320.000,A,4308.4840,N,07727.2750,W,38.40,279.74,021023,,,A*4C
$GPGGA,155320.250,4308.4845,N,07727.2787,W,1,07,1.29,166.3,M,-34.4,M,,*55
$GPRMC,155320.500,A,4308.4850,N,07727.2823,W,38.42,279.29,021023,,,A*49
$GPGGA,155320.750,4308.4855,N,07727.2859,W,1,07,1.29,166.0,M,-34.4,M,,*5E
$GPRMC,155321.000,A,4308.4859,N,07727.2895,W,38.57,278.94,021023,,,A*4A
$GPGGA,155321.250,4308.4864,N,07727.2930,W,1,07,1.29,165.7,M,-34.4,M,,*52
$GPRMC,155321.500,A,4308.4868,N,07727.2966,W,38.52,278.48,021023,,,A*44
$GPGGA,155321.750,4308.4873,N,07727.3001,W,1,07,1.29,165.4,M,-34.4,M,,*58
$GPRMC,155322.000,A,4308.4877,N,07727.3036,W,38.33,278.50,021023,,,A*4F
$GPGGA,155322.250,4308.4882,N,07727.3072,W,1,07,1.29,165.1,M,-34.4,M,,*51
$GPRMC,155322.500,A,4308.4887,N,07727.3108,W,38.23,278.73,021023,,,A*49
$GPGGA,155322.750,4308.4892,N,07727.3143,W,1,07,1.29,164.8,M,-34.4,M,,*5E
$GPRMC,155323.000,A,4308.4897,N,07727.3178,W,38.12,279.14,021023,,,A*49
$GPGGA,155323.250,4308.4902,N,07727.3214,W,1,07,1.29,164.5,M,-34.4,M,,*5E
$GPRMC,155323.500,A,4308.4906,N,07727.3249,W,38.07,279.37,021023,,,A*41
$GPGGA,155323.750,4308.4911,N,07727.3286,W,1,07,1.29,164.3,M,-34.4,M,,*54
$GPRMC,155324.000,A,4308.4915,N,07727.3321,W,38.02,279.29,021023,,,A*44
$GPGGA,155324.250,4308.4920,N,07727.3356,W,1,07,1.29,164.0,M,-34.4,M,,*5B
$GPRMC,155324.500,A,4308.4924,N,07727.3392,W,37.77,279.74,021023,,,A*4E
$GPGGA,155324.750,4308.4929,N,07727.3428,W,1,07,1.29,163.8,M,-34.4,M,,*56
$GPRMC,155325.000,A,4308.4933,N,07727.3463,W,37.84,279.68,021023,,,A*44
$GPGGA,155325.250,4308.4938,N,07727.3499,W,1,07,1.29,163.6,M,-34.4,M,,*56
$GPRMC,155325.500,A,4308.4942,N,07727.3535,W,38.07,279.53,021023,,,A*49
$GPGGA,155325.750,4308.4946,N,07727.3572,W,1,07,1.29,163.4,M,-34.4,M,,*5C
$GPRMC,155326.000,A,4308.4950,N,07727.3608,W,38.27,279.41,021023,,,A*40
$GPGGA,155326.250,4308.4954,N,07727.3644,W,1,07,1.29,163.3,M,-34.4,M,,*58
$GPRMC,155326.500,A,4308.4958,N,07727.3681,W,38.85,278.81,021023,,,A*49
$GPGGA,155326.750,4308.4962,N,07727.3718,W,1,07,1.29,163.2,M,-34.4,M,,*51
$GPRMC,155327.000,A,4308.4966,N,07727.3755,W,39.17,278.66,021023,,,A*4B
$GPGGA,155327.250,4308.4969,N,07727.3792,W,1,07,1.29,163.1,M,-34.4,M,,*5F
$GPRMC,155327.500,A,4308.4973,N,07727.3828,W,39.22,278.70,021023,,,A*4E
$GPGGA,155327.750,4308.4977,N,07727.3865,W,1,07,1.29,163.0,M,-34.4,M,,*53
$GPRMC,155328.000,A,4308.4981,N,07727.3902,W,39.47,279.12,021023,,,A*46
$GPGGA,155328.250,4308.4986,N,07727.3938,W,1,07,1.29,163.0,M,-34.4,M,,*5E
$GPRMC,155328.500,A,4308.4990,N,07727.3975,W,39.50,279.15,021023,,,A*42
$GPGGA,155328.750,4308.4995,N,07727.4011,W,1,07,1.29,162.8,M,-34.4,M,,*55
$GPRMC,155329.000,A,4308.5000,N,07727.4048,W,39.54,279.23,021023,,,A*46
$GPGGA,155329.250,4308.5004,N,07727.4084,W,1,07,1.29,162.6,M,-34.4,M,,*53
$GPRMC,155329.500,A,4308.5009,N,07727.4120,W,39.57,279.03,021023,,,A*44
$GPGGA,155329.750,4308.5014,N,07727.4156,W,1,07,1.29,162.4,M,-34.4,M,,*5B
$GPRMC,155330.000,A,4308.5019,N,07727.4192,W,39.64,278.59,021023,,,A*4F
$GPGGA,155330.250,4308.5023,N,07727.4228,W,1,07,1.29,162.1,M,-34.4,M,,*5D
$GPRMC,155330.500,A,4308.5028,N,07727.4265,W,39.70,278.07,021023,,,A*4D
$GPGGA,155330.750,4308.5032,N,07727.4301,W,1,07,1.29,161.9,M,-34.4,M,,*59
$GPRMC,155331.000,A,4308.5037,N,07727.4337,W,39.47,278.04,021023,,,A*46
$GPGGA,155331.250,4308.5041,N,07727.4372,W,1,07,1.29,161.6,M,-34.4,M,,*52
$GPRMC,155331.500,A,4308.5046,N,07727.4408,W,39.05,277.66,021023,,,A*43
$GPGGA,155331.750,4308.5050,N,07727.4443,W,1,07,1.29,161.3,M,-34.4,M,,*57
$GPRMC,155332.000,A,4308.5055,N,07727.4479,W,38.79,277.92,021023,,,A*40
$GPGGA,155332.250,4308.5059,N,07727.4515,W,1,07,1.29,161.0,M,-34.4,M,,*59
$GPRMC,155332.500,A,4308.5063,N,07727.4551,W,38.68,278.28,021023,,,A*45
$GPGGA,155332.750,4308.5068,N,07727.4586,W,1,07,1.29,160.8,M,-34.4,M,,*5D
$GPRMC,155333.000,A,4308.5072,N,07727.4622,W,38.55,278.51,021023,,,A*46
$GPGGA,155333.250,4308.5077,N,07727.4657,W,1,07,1.29,160.5,M,-34.4,M,,*55
$GPRMC,155333.500,A,4308.5082,N,07727.4693,W,38.33,278.97,021023,,,A*4C
$GPGGA,155333.750,4308.5086,N,07727.4728,W,1,07,1.29,160.3,M,-34.4,M,,*51
$GPRMC,155334.000,A,4308.5090,N,07727.4764,W,38.24,279.33,021023,,,A*4D
$GPGGA,155334.250,4308.5095,N,07727.4799,W,1,07,1.29,160.1,M,-34.4,M,,*59
$GPRMC,155334.500,A,4308.5099,N,07727.4835,W,38.07,280.05,021023,,,A*48
$GPGGA,155334.750,4308.5103,N,07727.4870,W,1,07,1.29,159.9,M,-34.4,M,,*58
$GPRMC,155335.000,A,4308.5107,N,07727.4905,W,36.85,280.13,021023,,,A*4B
$GPGGA,155335.250,4308.5111,N,07727.4940,W,1,07,1.29,159.7,M,-34.4,M,,*53
$GPRMC,155335.500,A,4308.5116,N,07727.4975,W,36.64,280.51,021023,,,A*40
$GPGGA,155335.750,4308.5120,N,07727.5009,W,1,07,1.29,159.6,M,-34.4,M,,*50
$GPRMC,155336.000,A,4308.5124,N,07727.5044,W,36.54,280.50,021023,,,A*4F
$GPGGA,155336.250,4308.5128,N,07727.5079,W,1,07,1.29,159.5,M,-34.4,M,,*5A
$GPRMC,155336.500,A,4308.5132,N,07727.5113,W,36.05,280.35,021023,,,A*49
$GPGGA,155336.750,4308.5135,N,07727.5147,W,1,07,1.29,159.4,M,-34.4,M,,*5E
$GPRMC,155337.000,A,4308.5139,N,07727.5181,W,35.59,280.51,021023,,,A*45
$GPGGA,155337.250,4308.5143,N,07727.5215,W,1,07,1.29,159.4,M,-34.4,M,,*5F
$GPRMC,155337.500,A,4308.5147,N,07727.5249,W,35.47,280.22,021023,,,A*45
$GPGGA,155337.750,4308.5151,N,07727.5282,W,1,07,1.29,159.4,M,-34.4,M,,*57
$GPRMC,155338.000,A,4308.5155,N,07727.5315,W,35.31,280.10,021023,,,A*44
$GPGGA,155338.250,4308.5160,N,07727.5348,W,1,07,1.29,159.3,M,-34.4,M,,*5F
$GPRMC,155338.500,A,4308.5164,N,07727.5381,W,35.36,279.68,021023,,,A*40
$GPGGA,155338.750,4308.5168,N,07727.5414,W,1,07,1.29,159.2,M,-34.4,M,,*5D
$GPRMC,155339.000,A,4308.5172,N,07727.5447,W,35.40,279.02,021023,,,A*43
$GPGGA,155339.250,4308.5176,N,07727.5480,W,1,07,1.29,159.0,M,-34.4,M,,*59
$GPRMC,155339.500,A,4308.5181,N,07727.5513,W,35.44,278.77,021023,,,A*4D
$GPGGA,155339.750,4308.5185,N,07727.5546,W,1,07,1.29,158.7,M,-34.4,M,,*5D
$GPRMC,155340.000,A,4308.5189,N,07727.5578,W,35.18,278.69,021023,,,A*45
$GPGGA,155340.250,4308.5194,N,07727.5610,W,1,07,1.29,158.4,M,-34.4,M,,*55
$GPRMC,155340.500,A,4308.5198,N,07727.5642,W,35.12,279.20,021023,,,A*4C
$GPGGA,155340.750,4308.5203,N,07727.5674,W,1,07,1.29,158.1,M,-34.4,M,,*5A
$GPRMC,155341.000,A,4308.5208,N,07727.5707,W,35.16,279.89,021023,,,A*45
$GPGGA,155341.250,4308.5212,N,07727.5740,W,1,07,1.29,157.7,M,-34.4,M,,*51
$GPRMC,155341.500,A,4308.5217,N,07727.5773,W,35.42,280.56,021023,,,A*48
$GPGGA,155341.750,4308.5222,N,07727.5805,W,1,07,1.29,157.3,M,-34.4,M,,*5D
$GPRMC,155342.000,A,4308.5227,N,07727.5838,W,35.49,280.37,021023,,,A*41
$GPGGA,155342.250,4308.5232,N,07727.5871,W,1,07,1.29,156.8,M,-34.4,M,,*53
$GPRMC,155342.500,A,4308.5236,N,07727.5904,W,35.50,279.99,021023,,,A*40
$GPGGA,155342.750,4308.5241,N,07727.5937,W,1,07,1.29,156.4,M,-34.4,M,,*5D
$GPRMC,155343.000,A,4308.5245,N,07727.5970,W,35.35,279.54,021023,,,A*41
$GPGGA,155343.250,4308.5249,N,07727.6003,W,1,07,1.29,156.0,M,-34.4,M,,*58
$GPRMC,155343.500,A,4308.5253,N,07727.6036,W,35.26,279.04,021023,,,A*4C
$GPGGA,155343.750,4308.5257,N,07727.6069,W,1,07,1.29,155.6,M,-34.4,M,,*5B
$GPRMC,155344.000,A,4308.5261,N,07727.6103,W,35.31,278.30,021023,,,A*48
$GPGGA,155344.250,4308.5264,N,07727.6136,W,1,07,1.29,155.2,M,-34.4,M,,*56
$GPRMC,155344.500,A,4308.5268,N,07727.6168,W,35.01,278.37,021023,,,A*4D
$GPGGA,155344.750,4308.5272,N,07727.6201,W,1,07,1.29,154.8,M,-34.4,M,,*58
$GPRMC,155345.000,A,4308.5275,N,07727.6233,W,34.82,277.96,021023,,,A*46
$GPGGA,155345.250,4308.5279,N,07727.6265,W,1,07,1.29,154.5,M,-34.4,M,,*58
$GPRMC,155345.500,A,4308.5282,N,07727.6298,W,34.77,277.25,021023,,,A*48
$GPGGA,155345.750,4308.5285,N,07727.6330,W,1,07,1.29,154.2,M,-34.4,M,,*58
$GPRMC,155346.000,A,4308.5288,N,07727.6363,W,34.54,276.91,021023,,,A*4E
$GPGGA,155346.250,4308.5291,N,07727.6395,W,1,07,1.29,154.0,M,-34.4,M,,*56
$GPRMC,155346.500,A,4308.5293,N,07727.6427,W,34.33,276.30,021023,,,A*4C
$GPGGA,155346.750,4308.5296,N,07727.6460,W,1,07,1.29,153.8,M,-34.4,M,,*56
$GPRMC,155347.000,A,4308.5299,N,07727.6492,W,34.60,276.06,021023,,,A*4F
$GPGGA,155347.250,4308.5301,N,07727.6525,W,1,07,1.29,153.7,M,-34.4,M,,*52
$GPRMC,155347.500,A,4308.5303,N,07727.6558,W,34.54,275.39,021023,,,A*47
$GPGGA,155347.750,4308.5304,N,07727.6590,W,1,07,1.29,153.6,M,-34.4,M,,*5D
$GPRMC,155348.000,A,4308.5306,N,07727.6623,W,34.34,274.90,021023,,,A*43
$GPGGA,155348.250,4308.5308,N,07727.6655,W,1,07,1.29,153.6,M,-34.4,M,,*51
$GPRMC,155348.500,A,4308.5309,N,07727.6687,W,34.29,274.34,021023,,,A*45
$GPGGA,155348.750,4308.5310,N,07727.6720,W,1,07,1.29,153.6,M,-34.4,M,,*5E
$GPRMC,155349.000,A,4308.5312,N,07727.6752,W,34.10,274.09,021023,,,A*46
$GPGGA,155349.250,4308.5312,N,07727.6784,W,1,07,1.29,153.6,M,-34.4,M,,*56
$GPRMC,155349.500,A,4308.5313,N,07727.6816,W,34.18,274.64,021023,,,A*4E
$GPGGA,155349.750,4308.5315,N,07727.6848,W,1,07,1.29,153.9,M,-34.4,M,,*54
$GPRMC,155350.000,A,4308.5316,N,07727.6881,W,34.12,275.28,021023,,,A*4B
$GPGGA,155350.250,4308.5317,N,07727.6913,W,1,07,1.29,154.1,M,-34.4,M,,*5B
$GPRMC,155350.500,A,4308.5318,N,07727.6946,W,33.95,275.25,021023,,,A*4F
$GPGGA,155350.750,4308.5319,N,07727.6979,W,1,07,1.29,154.3,M,-34.4,M,,*5E
$GPRMC,155351.000,A,4308.5319,N,07727.7011,W,33.71,274.95,021023,,,A*40
$GPGGA,155351.250,4308.5320,N,07727.7044,W,1,07,1.29,154.4,M,-34.4,M,,*51
$GPRMC,155351.500,A,4308.5321,N,07727.7077,W,33.64,274.55,021023,,,A*46
$GPGGA,155351.750,4308.5322,N,07727.7109,W,1,07,1.29,154.5,M,-34.4,M,,*5F
$GPRMC,155352.000,A,4308.5323,N,07727.7141,W,33.43,274.24,021023,,,A*45
$GPGGA,155352.250,4308.5324,N,07727.7171,W,1,07,1.29,154.6,M,-34.4,M,,*53
$GPRMC,155352.500,A,4308.5325,N,07727.7201,W,33.08,272.93,021023,,,A*44
$GPGGA,155352.750,4308.5325,N,07727.7232,W,1,07,1.29,154.7,M,-34.4,M,,*52
$GPRMC,155353.000,A,4308.5327,N,07727.7263,W,33.05,272.86,021023,,,A*4F
$GPGGA,155353.250,4308.5328,N,07727.7295,W,1,07,1.29,154.7,M,-34.4,M,,*56
$GPRMC,155353.500,A,4308.5328,N,07727.7325,W,32.72,272.93,021023,,,A*43
$GPGGA,155353.750,4308.5330,N,07727.7356,W,1,07,1.29,154.8,M,-34.4,M,,*5B
$GPRMC,155354.000,A,4308.5331,N,07727.7386,W,32.71,273.24,021023,,,A*4E
$GPGGA,155354.250,4308.5332,N,07727.7415,W,1,07,1.29,154.9,M,-34.4,M,,*5A
$GPRMC,155354.500,A,4308.5334,N,07727.7443,W,30.94,274.10,021023,,,A*49
$GPGGA,155354.750,4308.5336,N,07727.7472,W,1,07,1.29,155.0,M,-34.4,M,,*52
$GPRMC,155355.000,A,4308.5338,N,07727.7500,W,29.87,274.56,021023,,,A*4F
$GPGGA,155355.250,4308.5340,N,07727.7527,W,1,07,1.29,154.9,M,-34.4,M,,*5E
$GPRMC,155355.500,A,4308.5342,N,07727.7554,W,28.67,275.54,021023,,,A*4A
$GPGGA,155355.750,4308.5345,N,07727.7579,W,1,07,1.29,154.8,M,-34.4,M,,*54
$GPRMC,155356.000,A,4308.5347,N,07727.7605,W,27.39,274.94,021023,,,A*47
$GPGGA,155356.250,4308.5349,N,07727.7629,W,1,07,1.29,154.7,M,-34.4,M,,*57
$GPRMC,155356.500,A,4308.5351,N,07727.7653,W,26.14,274.82,021023,,,A*4F
$GPGGA,155356.750,4308.5353,N,07727.7675,W,1,07,1.29,154.7,M,-34.4,M,,*50
$GPRMC,155357.000,A,4308.5355,N,07727.7698,W,25.16,274.82,021023,,,A*49
$GPGGA,155357.250,4308.5357,N,07727.7720,W,1,07,1.29,154.6,M,-34.4,M,,*50
$GPRMC,155357.500,A,4308.5359,N,07727.7741,W,24.09,274.70,021023,,,A*47
$GPGGA,155357.750,4308.5361,N,07727.7762,W,1,07,1.29,154.5,M,-34.4,M,,*55
$GPRMC,155358.000,A,4308.5363,N,07727.7783,W,23.11,274.71,021023,,,A*45
$GPGGA,155358.250,4308.5366,N,07727.7802,W,1,07,1.29,154.4,M,-34.4,M,,*50
$GPRMC,155358.500,A,4308.5368,N,07727.7821,W,21.82,275.11,021023,,,A*43
$GPGGA,155358.750,4308.5370,N,07727.7838,W,1,07,1.29,154.3,M,-34.4,M,,*5C
$GPRMC,155359.000,A,4308.5372,N,07727.7856,W,20.62,274.70,021023,,,A*45
$GPGGA,155359.250,4308.5374,N,07727.7873,W,1,07,1.29,154.1,M,-34.4,M,,*51
$GPRMC,155359.500,A,4308.5375,N,07727.7891,W,19.66,275.11,021023,,,A*44
$GPGGA,155359.750,4308.5377,N,07727.7907,W,1,07,1.29,154.0,M,-34.4,M,,*54
$GPRMC,155400.000,A,4308.5379,N,07727.7924,W,18.76,275.11,021023,,,A*49
$GPGGA,155400.250,4308.5381,N,07727.7939,W,1,07,1.29,153.9,M,-34.4,M,,*50
$GPRMC,155400.500,A,4308.5383,N,07727.7954,W,17.80,274.88,021023,,,A*49
$GPGGA,155400.750,4308.5384,N,07727.7968,W,1,07,1.29,153.8,M,-34.4,M,,*55
$GPRMC,155401.000,A,4308.5385,N,07727.7982,W,16.70,273.92,021023,,,A*42
$GPGGA,155401.250,4308.5387,N,07727.7996,W,1,07,1.29,153.8,M,-34.4,M,,*53
$GPRMC,155401.500,A,4308.5388,N,07727.8008,W,15.30,274.12,021023,,,A*46
$GPGGA,155401.750,4308.5389,N,07727.8020,W,1,07,1.29,153.7,M,-34.4,M,,*5C
$GPRMC,155402.000,A,4308.5390,N,07727.8032,W,14.00,274.21,021023,,,A*42
$GPGGA,155402.250,4308.5390,N,07727.8042,W,1,07,1.29,153.7,M,-34.4,M,,*56
$GPRMC,155402.500,A,4308.5391,N,07727.8051,W,11.99,275.90,021023,,,A*4D
$GPGGA,155402.750,4308.5392,N,07727.8059,W,1,07,1.29,153.7,M,-34.4,M,,*5B
$GPRMC,155403.000,A,4308.5393,N,07727.8067,W,10.29,276.97,021023,,,A*40
$GPGGA,155403.250,4308.5393,N,07727.8073,W,1,07,1.29,153.6,M,-34.4,M,,*57
$GPRMC,155403.500,A,4308.5393,N,07727.8079,W,8.35,278.55,021023,,,A*7E
$GPGGA,155403.750,4308.5394,N,07727.8084,W,1,07,1.29,153.6,M,-34.4,M,,*5D
$GPRMC,155404.000,A,4308.5394,N,07727.8088,W,6.79,278.94,021023,,,A*7E
$GPGGA,155404.250,4308.5394,N,07727.8091,W,1,07,1.29,153.5,M,-34.4,M,,*58
$GPRMC,155404.500,A,4308.5394,N,07727.8093,W,4.84,281.18,021023,,,A*73
$GPGGA,155404.750,4308.5394,N,07727.8095,W,1,07,1.29,153.6,M,-34.4,M,,*5A
$GPRMC,155405.000,A,4308.5394,N,07727.8098,W,3.87,283.51,021023,,,A*77
$GPGGA,155405.250,4308.5395,N,07727.8101,W,1,07,1.29,153.5,M,-34.4,M,,*50
$GPRMC,155405.500,A,4308.5395,N,07727.8104,W,3.66,280.86,021023,,,A*71
$GPGGA,155405.750,4308.5395,N,07727.8108,W,1,07,1.29,153.5,M,-34.4,M,,*5C
$GPRMC,155406.000,A,4308.5395,N,07727.8113,W,4.43,275.65,021023,,,A*76
$GPGGA,155406.250,4308.5394,N,07727.8120,W,1,07,1.29,153.5,M,-34.4,M,,*51
$GPRMC,155406.500,A,4308.5394,N,07727.8128,W,6.64,266.30,021023,,,A*7F
$GPGGA,155406.750,4308.5394,N,07727.8137,W,1,07,1.29,153.5,M,-34.4,M,,*52
$GPRMC,155407.000,A,4308.5394,N,07727.8146,W,8.51,265.58,021023,,,A*76
$GPGGA,155407.250,4308.5394,N,07727.8157,W,1,07,1.29,153.5,M,-34.4,M,,*50
$GPRMC,155407.500,A,4308.5393,N,07727.8170,W,11.27,263.30,021023,,,A*40
$GPGGA,155407.750,4308.5393,N,07727.8184,W,1,07,1.29,153.6,M,-34.4,M,,*5F
$GPRMC,155408.000,A,4308.5393,N,07727.8199,W,13.46,265.57,021023,,,A*4F
$GPGGA,155408.250,4308.5393,N,07727.8216,W,1,07,1.29,153.7,M,-34.4,M,,*5C
$GPRMC,155408.500,A,4308.5393,N,07727.8235,W,16.12,267.05,021023,,,A*4E
$GPGGA,155408.750,4308.5392,N,07727.8253,W,1,07,1.29,153.8,M,-34.4,M,,*56
$GPRMC,155409.000,A,4308.5392,N,07727.8272,W,17.66,267.48,021023,,,A*43
$GPGGA,155409.250,4308.5392,N,07727.8292,W,1,07,1.29,153.9,M,-34.4,M,,*5E
$GPRMC,155409.500,A,4308.5391,N,07727.8313,W,19.63,266.69,021023,,,A*4A
$GPGGA,155409.750,4308.5391,N,07727.8335,W,1,07,1.29,154.0,M,-34.4,M,,*5A
$GPRMC,155410.000,A,4308.5390,N,07727.8357,W,21.05,267.90,021023,,,A*4A
$GPGGA,155410.250,4308.5390,N,07727.8380,W,1,07,1.29,154.1,M,-34.4,M,,*59
$GPRMC,155410.500,A,4308.5389,N,07727.8404,W,22.26,268.32,021023,,,A*43
$GPGGA,155410.750,4308.5388,N,07727.8428,W,1,06,1.36,154.3,M,-34.4,M,,*5D
$GPRMC,155411.000,A,4308.5388,N,07727.8452,W,23.17,269.64,021023,,,A*44
$GPGGA,155411.250,4308.5389,N,07727.8477,W,1,06,1.36,154.4,M,-34.4,M,,*55
$GPRMC,155411.500,A,4308.5389,N,07727.8502,W,23.98,271.01,021023,,,A*49
$GPGGA,155411.750,4308.5390,N,07727.8527,W,1,07,1.29,154.6,M,-34.4,M,,*51
$GPRMC,155412.000,A,4308.5390,N,07727.8553,W,24.80,271.65,021023,,,A*4F
$GPGGA,155412.250,4308.5390,N,07727.8580,W,1,07,1.29,154.8,M,-34.4,M,,*54
$GPRMC,155412.500,A,4308.5390,N,07727.8608,W,26.36,271.59,021023,,,A*47
$GPGGA,155412.750,4308.5391,N,07727.8637,W,1,07,1.29,154.9,M,-34.4,M,,*5E
$GPRMC,155413.000,A,4308.5392,N,07727.8666,W,27.91,272.36,021023,,,A*4F
$GPGGA,155413.250,4308.5392,N,07727.8694,W,1,07,1.29,155.1,M,-34.4,M,,*59
$GPRMC,155413.500,A,4308.5393,N,07727.8724,W,29.26,271.98,021023,,,A*49
$GPGGA,155413.750,4308.5393,N,07727.8755,W,1,07,1.29,155.4,M,-34.4,M,,*54
$GPRMC,155414.000,A,4308.5394,N,07727.8785,W,30.00,272.26,021023,,,A*4D
$GPGGA,155414.250,4308.5394,N,07727.8816,W,1,07,1.29,155.6,M,-34.4,M,,*5B
$GPRMC,155414.500,A,4308.5395,N,07727.8847,W,30.59,272.65,021023,,,A*43
$GPGGA,155414.750,4308.5395,N,07727.8878,W,1,07,1.29,155.9,M,-34.4,M,,*58
$GPRMC,155415.000,A,4308.5395,N,07727.8909,W,30.90,272.65,021023,,,A*49
$GPGGA,155415.250,4308.5395,N,07727.8941,W,1,07,1.29,156.1,M,-34.4,M,,*5C
$GPRMC,155415.500,A,4308.5395,N,07727.8972,W,31.30,273.11,021023,,,A*49
$GPGGA,155415.750,4308.5396,N,07727.9003,W,1,07,1.29,156.4,M,-34.4,M,,*51
$GPRMC,155416.000,A,4308.5396,N,07727.9034,W,31.31,273.35,021023,,,A*41
$GPGGA,155416.250,4308.5396,N,07727.9065,W,1,07,1.29,156.6,M,-34.4,M,,*55
$GPRMC,155416.500,A,4308.5397,N,07727.9095,W,31.32,273.67,021023,,,A*4A
$GPGGA,155416.750,4308.5398,N,07727.9126,W,1,07,1.29,156.8,M,-34.4,M,,*56
$GPRMC,155417.000,A,4308.5398,N,07727.9156,W,30.62,273.93,021023,,,A*40
$GPGGA,155417.250,4308.5399,N,07727.9186,W,1,07,1.29,157.0,M,-34.4,M,,*50
$GPRMC,155417.500,A,4308.5400,N,07727.9216,W,30.27,275.41,021023,,,A*4C
$GPGGA,155417.750,4308.5401,N,07727.9247,W,1,07,1.29,157.2,M,-34.4,M,,*5F
$GPRMC,155418.000,A,4308.5402,N,07727.9277,W,30.23,275.53,021023,,,A*44
$GPGGA,155418.250,4308.5402,N,07727.9308,W,1,07,1.29,157.4,M,-34.4,M,,*5A
$GPRMC,155418.500,A,4308.5403,N,07727.9339,W,30.31,276.13,021023,,,A*4F
$GPGGA,155418.750,4308.5404,N,07727.9370,W,1,07,1.29,157.5,M,-34.4,M,,*57
$GPRMC,155419.000,A,4308.5405,N,07727.9402,W,30.70,276.35,021023,,,A*43
$GPGGA,155419.250,4308.5407,N,07727.9432,W,1,07,1.29,157.6,M,-34.4,M,,*52
$GPRMC,155419.500,A,4308.5408,N,07727.9463,W,30.75,277.65,021023,,,A*4D
$GPGGA,155419.750,4308.5410,N,07727.9493,W,1,07,1.29,157.6,M,-34.4,M,,*5A
$GPRMC,155420.000,A,4308.5412,N,07727.9523,W,30.89,277.77,021023,,,A*4C
$GPGGA,155420.250,4308.5413,N,07727.9554,W,1,07,1.29,157.6,M,-34.4,M,,*5C
$GPRMC,155420.500,A,4308.5416,N,07727.9585,W,30.69,278.07,021023,,,A*47
$GPGGA,155420.750,4308.5416,N,07727.9617,W,1,07,1.29,157.6,M,-34.4,M,,*58
$GPRMC,155421.000,A,4308.5417,N,07727.9650,W,31.17,276.71,021023,,,A*4E
$GPGGA,155421.250,4308.5417,N,07727.9683,W,1,07,1.29,157.6,M,-34.4,M,,*50
$GPRMC,155421.500,A,4308.5417,N,07727.9716,W,31.37,275.19,021023,,,A*47
$GPGGA,155421.750,4308.5417,N,07727.9750,W,1,07,1.29,157.6,M,-34.4,M,,*5A
$GPRMC,155422.000,A,4308.5417,N,07727.9783,W,32.47,274.54,021023,,,A*41
$GPGGA,155422.250,4308.5418,N,07727.9815,W,1,07,1.29,157.5,M,-34.4,M,,*5E
$GPRMC,155422.500,A,4308.5418,N,07727.9848,W,32.75,273.53,021023,,,A*42
$GPGGA,155422.750,4308.5418,N,07727.9880,W,1,07,1.29,157.3,M,-34.4,M,,*51
$GPRMC,155423.000,A,4308.5419,N,07727.9913,W,33.05,272.80,021023,,,A*41
$GPGGA,155423.250,4308.5419,N,07727.9946,W,1,07,1.29,157.2,M,-34.4,M,,*5E
$GPRMC,155423.500,A,4308.5419,N,07727.9979,W,34.11,272.07,021023,,,A*45
$GPGGA,155423.750,4308.5419,N,07728.0013,W,1,07,1.29,157.1,M,-34.4,M,,*57
$GPRMC,155424.000,A,4308.5419,N,07728.0046,W,34.61,272.16,021023,,,A*43
$GPGGA,155424.250,4308.5420,N,07728.0080,W,1,07,1.29,156.9,M,-34.4,M,,*5C
$GPRMC,155424.500,A,4308.5420,N,07728.0115,W,35.12,272.19,021023,,,A*41
$GPGGA,155424.750,4308.5420,N,07728.0150,W,1,07,1.29,156.8,M,-34.4,M,,*54
$GPRMC,155425.000,A,4308.5421,N,07728.0184,W,35.65,271.94,021023,,,A*4A
$GPGGA,155425.250,4308.5421,N,07728.0221,W,1,07,1.29,156.7,M,-34.4,M,,*5B
$GPRMC,155425.500,A,4308.5421,N,07728.0257,W,35.85,270.94,021023,,,A*4D
$GPGGA,155425.750,4308.5420,N,07728.0294,W,1,07,1.29,156.6,M,-34.4,M,,*50
$GPRMC,155426.000,A,4308.5420,N,07728.0330,W,37.19,270.27,021023,,,A*45
$GPGGA,155426.250,4308.5420,N,07728.0368,W,1,07,1.29,156.5,M,-34.4,M,,*57
$GPRMC,155426.500,A,4308.5420,N,07728.0405,W,37.86,269.76,021023,,,A*4B
$GPGGA,155426.750,4308.5419,N,07728.0443,W,1,07,1.29,156.5,M,-34.4,M,,*56
$GPRMC,155427.000,A,4308.5419,N,07728.0480,W,37.89,269.78,021023,,,A*49
$GPGGA,155427.250,4308.5418,N,07728.0517,W,1,07,1.29,156.4,M,-34.4,M,,*52
$GPRMC,155427.500,A,4308.5418,N,07728.0554,W,37.82,269.86,021023,,,A*4F
$GPGGA,155427.750,4308.5417,N,07728.0591,W,1,07,1.29,156.4,M,-34.4,M,,*56
$GPRMC,155428.000,A,4308.5416,N,07728.0627,W,37.62,270.20,021023,,,A*46
$GPGGA,155428.250,4308.5416,N,07728.0663,W,1,07,1.29,156.3,M,-34.4,M,,*54
$GPRMC,155428.500,A,4308.5416,N,07728.0699,W,37.13,271.19,021023,,,A*4B
$GPGGA,155428.750,4308.5416,N,07728.0736,W,1,07,1.29,156.3,M,-34.4,M,,*50
$GPRMC,155429.000,A,4308.5415,N,07728.0773,W,37.10,271.37,021023,,,A*46
