Vers 81
USE_SERIAL_FEEDBACK=true
DEVELOPMENT_MODE=false
USE_RMC_ONLY=false

$GPRMC,161033.750,A,4307.8946,N,07726.3347,W,0.04,131.64,270823,,,A*75
$GPGGA,161034.000,4307.8948,N,07726.3350,W,1,04,3.28,156.6,M,-34.3,M,,*53
$GPRMC,161034.250,A,4307.8949,N,07726.3352,W,0.08,335.17,270823,,,A*72
$GPGGA,161034.500,4307.8949,N,07726.3354,W,1,04,3.28,157.6,M,-34.3,M,,*52
$GPRMC,161034.750,A,4307.8950,N,07726.3356,W,0.14,340.51,270823,,,A*76
$GPGGA,161035.000,4307.8952,N,07726.3358,W,1,04,3.28,158.8,M,-34.3,M,,*51
$GPRMC,161035.250,A,4307.8952,N,07726.3359,W,0.02,270.63,270823,,,A*7B
$GPGGA,161035.500,4307.8953,N,07726.3360,W,1,04,3.28,159.6,M,-34.3,M,,*51
$GPRMC,161035.750,A,4307.8953,N,07726.3360,W,0.04,242.39,270823,,,A*7D
$GPGGA,161036.000,4307.8951,N,07726.3361,W,1,04,3.28,160.2,M,-34.3,M,,*5A
$GPRMC,161036.250,A,4307.8950,N,07726.3361,W,0.09,240.19,270823,,,A*74
$GPGGA,161036.500,4307.8948,N,07726.3361,W,1,04,3.28,160.3,M,-34.3,M,,*56
$GPRMC,161036.750,A,4307.8947,N,07726.3362,W,0.13,263.57,270823,,,A*74
$GPGGA,161037.000,4307.8946,N,07726.3362,W,1,04,3.28,160.9,M,-34.3,M,,*55
$GPRMC,161037.250,A,4307.8946,N,07726.3364,W,0.07,287.61,270823,,,A*7D
$GPGGA,161037.500,4307.8946,N,07726.3364,W,1,04,3.28,161.7,M,-34.3,M,,*59
$GPRMC,161037.750,A,4307.8946,N,07726.3365,W,0.08,292.10,270823,,,A*74
$GPGGA,161038.000,4307.8946,N,07726.3366,W,1,04,3.28,162.4,M,-34.3,M,,*51
$GPRMC,161038.250,A,4307.8947,N,07726.3367,W,0.05,353.68,270823,,,A*73
$GPGGA,161038.500,4307.8947,N,07726.3368,W,1,04,4.36,163.2,M,-34.3,M,,*54
$GPRMC,161038.750,A,4307.8948,N,07726.3370,W,0.09,334.16,270823,,,A*7B
$GPGGA,161039.000,4307.8949,N,07726.3370,W,1,04,3.28,163.9,M,-34.3,M,,*54
$GPRMC,161039.250,A,4307.8948,N,07726.3370,W,0.12,64.55,270823,,,A*44
$GPGGA,161039.500,4307.8948,N,07726.3370,W,1,04,3.28,164.2,M,-34.3,M,,*5C
$GPRMC,161039.750,A,4307.8948,N,07726.3370,W,0.14,73.74,270823,,,A*42
$GPGGA,161040.000,4307.8947,N,07726.3370,W,1,04,3.28,164.3,M,-34.3,M,,*59
$GPRMC,161040.250,A,4307.8946,N,07726.3369,W,0.19,121.35,270823,,,A*71
$GPGGA,161040.500,4307.8946,N,07726.3369,W,1,04,3.28,164.3,M,-34.3,M,,*55
$GPRMC,161040.750,A,4307.8945,N,07726.3369,W,0.12,122.85,270823,,,A*74
$GPGGA,161041.000,4307.8944,N,07726.3368,W,1,04,3.28,164.2,M,-34.3,M,,*53
$GPRMC,161041.250,A,4307.8942,N,07726.3367,W,0.13,135.95,270823,,,A*7F
$GPGGA,161041.500,4307.8941,N,07726.3366,W,1,04,3.28,163.7,M,-34.3,M,,*5F
$GPRMC,161041.750,A,4307.8940,N,07726.3365,W,0.12,138.05,270823,,,A*7F
$GPGGA,161042.000,4307.8939,N,07726.3364,W,1,04,3.28,163.2,M,-34.3,M,,*51
$GPRMC,161042.250,A,4307.8938,N,07726.3363,W,0.07,115.28,270823,,,A*74
$GPGGA,161042.500,4307.8936,N,07726.3362,W,1,04,3.27,162.7,M,-34.3,M,,*56
$GPRMC,161042.750,A,4307.8936,N,07726.3361,W,0.04,3.53,270823,,,A*74
$GPGGA,161043.000,4307.8934,N,07726.3360,W,1,04,4.37,162.1,M,-34.3,M,,*52
$GPRMC,161043.250,A,4307.8933,N,07726.3359,W,0.09,24.46,270823,,,A*42
$GPGGA,161043.500,4307.8932,N,07726.3357,W,1,04,3.27,161.4,M,-34.3,M,,*55
$GPRMC,161043.750,A,4307.8930,N,07726.3356,W,0.15,58.52,270823,,,A*48
$GPGGA,161044.000,4307.8928,N,07726.3355,W,1,04,3.27,160.7,M,-34.3,M,,*5C
$GPRMC,161044.250,A,4307.8927,N,07726.3354,W,0.13,43.85,270823,,,A*48
$GPGGA,161044.500,4307.8925,N,07726.3353,W,1,04,3.27,160.1,M,-34.3,M,,*54
$GPRMC,161044.750,A,4307.8923,N,07726.3351,W,0.16,64.74,270823,,,A*42
$GPGGA,161045.000,4307.8921,N,07726.3350,W,1,04,3.27,159.5,M,-34.3,M,,*59
$GPRMC,161045.250,A,4307.8920,N,07726.3349,W,0.13,66.95,270823,,,A*44
$GPGGA,161045.500,4307.8919,N,07726.3348,W,1,04,3.28,159.0,M,-34.3,M,,*54
$GPRMC,161045.750,A,4307.8918,N,07726.3347,W,0.10,75.64,270823,,,A*4B
$GPGGA,161046.000,4307.8916,N,07726.3346,W,1,04,3.27,158.4,M,-34.3,M,,*59
$GPRMC,161046.250,A,4307.8916,N,07726.3346,W,0.08,62.47,270823,,,A*4C
$GPGGA,161046.500,4307.8915,N,07726.3345,W,1,04,3.28,158.1,M,-34.3,M,,*56
$GPRMC,161046.750,A,4307.8914,N,07726.3344,W,0.09,43.65,270823,,,A*4B
$GPGGA,161047.000,4307.8914,N,07726.3344,W,1,04,3.27,157.9,M,-34.3,M,,*5A
$GPRMC,161047.250,A,4307.8912,N,07726.3343,W,0.04,135.05,270823,,,A*75
$GPGGA,161047.500,4307.8911,N,07726.3343,W,1,04,3.27,157.7,M,-34.3,M,,*53
$GPRMC,161047.750,A,4307.8911,N,07726.3343,W,0.08,344.86,270823,,,A*70
$GPGGA,161048.000,4307.8910,N,07726.3343,W,1,04,3.27,157.7,M,-34.3,M,,*58
$GPRMC,161048.250,A,4307.8910,N,07726.3343,W,0.02,311.14,270823,,,A*7A
$GPGGA,161048.500,4307.8910,N,07726.3343,W,1,04,3.28,157.7,M,-34.3,M,,*52
$GPRMC,161048.750,A,4307.8910,N,07726.3343,W,0.07,168.90,270823,,,A*7A
$GPGGA,161049.000,4307.8910,N,07726.3343,W,1,04,3.28,157.8,M,-34.3,M,,*59
$GPRMC,161049.250,A,4307.8910,N,07726.3343,W,0.06,50.22,270823,,,A*4C
$GPGGA,161049.500,4307.8910,N,07726.3343,W,1,04,3.27,157.9,M,-34.3,M,,*52
$GPRMC,161049.750,A,4307.8910,N,07726.3343,W,0.01,114.69,270823,,,A*70
$GPGGA,161050.000,4307.8910,N,07726.3343,W,1,04,3.28,157.9,M,-34.3,M,,*50
$GPRMC,161050.250,A,4307.8910,N,07726.3343,W,0.03,145.15,270823,,,A*70
$GPGGA,161050.500,4307.8910,N,07726.3343,W,1,04,3.27,158.0,M,-34.3,M,,*5C
$GPRMC,161050.750,A,4307.8910,N,07726.3344,W,0.05,271.88,270823,,,A*74
$GPGGA,161051.000,4307.8910,N,07726.3344,W,1,04,3.27,158.1,M,-34.3,M,,*5E
$GPRMC,161051.250,A,4307.8910,N,07726.3343,W,0.10,165.07,270823,,,A*72
$GPGGA,161051.500,4307.8910,N,07726.3343,W,1,04,3.27,158.0,M,-34.3,M,,*5D
$GPRMC,161051.750,A,4307.8909,N,07726.3343,W,0.08,94.64,270823,,,A*4C
$GPGGA,161052.000,4307.8909,N,07726.3343,W,1,04,3.27,157.9,M,-34.3,M,,*55
$GPRMC,161052.250,A,4307.8909,N,07726.3343,W,0.04,269.90,270823,,,A*7D
$GPGGA,161052.500,4307.8908,N,07726.3343,W,1,04,3.27,157.7,M,-34.3,M,,*5F
$GPRMC,161052.750,A,4307.8908,N,07726.3342,W,0.03,131.36,270823,,,A*7D
$GPGGA,161053.000,4307.8907,N,07726.3342,W,1,04,3.27,157.5,M,-34.3,M,,*57
$GPRMC,161053.250,A,4307.8907,N,07726.3342,W,0.05,331.00,270823,,,A*77
$GPGGA,161053.500,4307.8907,N,07726.3341,W,1,04,3.27,157.3,M,-34.3,M,,*57
$GPRMC,161053.750,A,4307.8906,N,07726.3341,W,0.03,49.74,270823,,,A*49
$GPGGA,161054.000,4307.8906,N,07726.3341,W,1,04,3.27,157.2,M,-34.3,M,,*55
$GPRMC,161054.250,A,4307.8906,N,07726.3341,W,0.03,9.55,270823,,,A*7C
$GPGGA,161054.500,4307.8905,N,07726.3340,W,1,04,4.40,157.0,M,-34.3,M,,*56
$GPRMC,161054.750,A,4307.8905,N,07726.3340,W,0.06,354.80,270823,,,A*7D
$GPGGA,161055.000,4307.8905,N,07726.3340,W,1,04,4.41,156.8,M,-34.3,M,,*5A
$GPRMC,161055.250,A,4307.8904,N,07726.3340,W,0.02,218.76,270823,,,A*7C
$GPGGA,161055.500,4307.8903,N,07726.3339,W,1,04,3.27,156.6,M,-34.3,M,,*5E
$GPRMC,161055.750,A,4307.8903,N,07726.3339,W,0.02,281.52,270823,,,A*76
$GPGGA,161056.000,4307.8902,N,07726.3339,W,1,04,3.27,156.3,M,-34.3,M,,*5C
$GPRMC,161056.250,A,4307.8901,N,07726.3339,W,0.09,150.15,270823,,,A*75
$GPGGA,161056.500,4307.8901,N,07726.3338,W,1,04,3.27,156.1,M,-34.3,M,,*59
$GPRMC,161056.750,A,4307.8900,N,07726.3338,W,0.02,51.24,270823,,,A*49
$GPGGA,161057.000,4307.8900,N,07726.3338,W,1,04,3.27,155.9,M,-34.3,M,,*57
$GPRMC,161057.250,A,4307.8899,N,07726.3338,W,0.04,189.55,270823,,,A*78
$GPGGA,161057.500,4307.8899,N,07726.3338,W,1,04,3.27,155.7,M,-34.3,M,,*5D
$GPRMC,161057.750,A,4307.8898,N,07726.3338,W,0.06,342.94,270823,,,A*76
$GPGGA,161058.000,4307.8898,N,07726.3337,W,1,04,3.27,155.6,M,-34.3,M,,*58
$GPRMC,161058.250,A,4307.8898,N,07726.3337,W,0.01,199.25,270823,,,A*7A
$GPGGA,161058.500,4307.8898,N,07726.3337,W,1,04,3.27,155.4,M,-34.3,M,,*5F
$GPRMC,161058.750,A,4307.8897,N,07726.3337,W,0.03,121.91,270823,,,A*7E
$GPGGA,161059.000,4307.8897,N,07726.3336,W,1,04,3.27,155.1,M,-34.3,M,,*50
$GPRMC,161059.250,A,4307.8897,N,07726.3336,W,0.07,26.86,270823,,,A*4F
$GPGGA,161059.500,4307.8896,N,07726.3336,W,1,04,3.27,154.9,M,-34.3,M,,*5D
$GPRMC,161059.750,A,4307.8895,N,07726.3336,W,0.03,67.18,270823,,,A*4E
$GPGGA,161100.000,4307.8895,N,07726.3335,W,1,04,3.27,154.5,M,-34.3,M,,*59
$GPRMC,161100.250,A,4307.8894,N,07726.3335,W,0.03,235.79,270823,,,A*76
$GPGGA,161100.500,4307.8894,N,07726.3334,W,1,04,3.27,154.1,M,-34.3,M,,*58
$GPRMC,161100.750,A,4307.8893,N,07726.3334,W,0.07,331.39,270823,,,A*70
$GPGGA,161101.000,4307.8893,N,07726.3334,W,1,04,3.27,153.8,M,-34.3,M,,*55
$GPRMC,161101.250,A,4307.8892,N,07726.3333,W,0.04,172.69,270823,,,A*71
$GPGGA,161101.500,4307.8892,N,07726.3333,W,1,04,3.27,153.5,M,-34.3,M,,*5B
$GPRMC,161101.750,A,4307.8891,N,07726.3332,W,0.02,208.66,270823,,,A*71
$GPGGA,161102.000,4307.8891,N,07726.3332,W,1,04,3.27,153.2,M,-34.3,M,,*58
$GPRMC,161102.250,A,4307.8892,N,07726.3334,W,0.07,190.11,270823,,,A*75
$GPGGA,161102.500,4307.8893,N,07726.3336,W,1,06,1.60,154.3,M,-34.3,M,,*5E
$GPRMC,161102.750,A,4307.8894,N,07726.3339,W,0.03,275.59,270823,,,A*7B
$GPGGA,161103.000,4307.8895,N,07726.3341,W,1,06,1.60,155.7,M,-34.3,M,,*59
$GPRMC,161103.250,A,4307.8897,N,07726.3344,W,0.05,323.33,270823,,,A*7E
$GPGGA,161103.500,4307.8897,N,07726.3346,W,1,06,1.60,156.9,M,-34.3,M,,*54
$GPRMC,161103.750,A,4307.8898,N,07726.3348,W,0.06,314.74,270823,,,A*7C
$GPGGA,161104.000,4307.8899,N,07726.3349,W,1,06,1.60,158.0,M,-34.3,M,,*50
$GPRMC,161104.250,A,4307.8899,N,07726.3351,W,0.08,286.59,270823,,,A*7C
$GPGGA,161104.500,4307.8900,N,07726.3353,W,1,06,1.60,158.8,M,-34.3,M,,*57
$GPRMC,161104.750,A,4307.8901,N,07726.3354,W,0.11,289.62,270823,,,A*73
$GPGGA,161105.000,4307.8901,N,07726.3355,W,1,06,1.60,159.5,M,-34.3,M,,*58
$GPRMC,161105.250,A,4307.8902,N,07726.3357,W,0.16,267.63,270823,,,A*71
$GPGGA,161105.500,4307.8902,N,07726.3358,W,1,06,1.60,159.9,M,-34.3,M,,*5F
$GPRMC,161105.750,A,4307.8902,N,07726.3358,W,0.18,276.93,270823,,,A*7A
$GPGGA,161106.000,4307.8902,N,07726.3358,W,1,06,1.60,159.9,M,-34.3,M,,*59
$GPRMC,161106.250,A,4307.8902,N,07726.3358,W,0.10,273.73,270823,,,A*7F
$GPGGA,161106.500,4307.8902,N,07726.3358,W,1,06,1.60,159.9,M,-34.3,M,,*5C
$GPRMC,161106.750,A,4307.8902,N,07726.3358,W,0.05,214.59,270823,,,A*77
$GPGGA,161107.000,4307.8902,N,07726.3358,W,1,06,1.60,159.9,M,-34.3,M,,*58
$GPRMC,161107.250,A,4307.8902,N,07726.3358,W,0.10,74.70,270823,,,A*48
$GPGGA,161107.500,4307.8902,N,07726.3358,W,1,06,1.60,159.9,M,-34.3,M,,*5D
$GPRMC,161107.750,A,4307.8902,N,07726.3358,W,0.12,13.00,270823,,,A*49
$GPGGA,161108.000,4307.8902,N,07726.3358,W,1,06,1.62,159.9,M,-34.3,M,,*55
$GPRMC,161106.250,A,4307.8902,N,07726.3358,W,0.12,323.83,270823,,,A*76
$GPGGA,161106.500,4307.8902,N,07726.3357,W,1,06,1.60,159.0,M,-34.3,M,,*5A
$GPRMC,161106.750,A,4307.8902,N,07726.3357,W,0.15,335.96,270823,,,A*78
$GPGGA,161107.000,4307.8902,N,07726.3356,W,1,06,1.60,158.3,M,-34.3,M,,*5D
$GPRMC,161107.250,A,4307.8901,N,07726.3355,W,0.13,71.01,270823,,,A*46
$GPGGA,161107.500,4307.8901,N,07726.3354,W,1,06,1.60,157.8,M,-34.3,M,,*5D
$GPRMC,161107.750,A,4307.8901,N,07726.3354,W,0.11,78.44,270823,,,A*48
$GPGGA,161108.000,4307.8900,N,07726.3353,W,1,06,1.60,157.3,M,-34.3,M,,*5A
$GPRMC,161108.250,A,4307.8900,N,07726.3353,W,0.07,89.15,270823,,,A*49
$GPGGA,161108.500,4307.8900,N,07726.3352,W,1,06,1.60,156.7,M,-34.3,M,,*5B
$GPRMC,161108.750,A,4307.8899,N,07726.3352,W,0.05,124.29,270823,,,A*77
$GPGGA,161109.000,4307.8899,N,07726.3352,W,1,06,1.60,156.3,M,-34.3,M,,*5A
$GPRMC,161109.250,A,4307.8899,N,07726.3352,W,0.07,166.21,270823,,,A*7F
$GPGGA,161109.500,4307.8899,N,07726.3351,W,1,06,1.60,155.9,M,-34.3,M,,*55
$GPRMC,161109.750,A,4307.8898,N,07726.3351,W,0.04,155.86,270823,,,A*76
$GPGGA,161110.000,4307.8898,N,07726.3351,W,1,06,1.60,155.5,M,-34.3,M,,*55
$GPRMC,161110.250,A,4307.8899,N,07726.3350,W,0.07,284.92,270823,,,A*72
$GPGGA,161110.500,4307.8899,N,07726.3350,W,1,06,1.60,155.1,M,-34.3,M,,*54
$GPRMC,161110.750,A,4307.8899,N,07726.3350,W,0.03,130.26,270823,,,A*70
$GPGGA,161111.000,4307.8899,N,07726.3349,W,1,06,1.60,154.7,M,-34.3,M,,*5F
$GPRMC,161111.250,A,4307.8900,N,07726.3349,W,0.07,317.83,270823,,,A*71
$GPGGA,161111.500,4307.8900,N,07726.3349,W,1,06,1.60,154.5,M,-34.3,M,,*59
$GPRMC,161111.750,A,4307.8900,N,07726.3349,W,0.03,111.72,270823,,,A*7A
$GPGGA,161112.000,4307.8901,N,07726.3349,W,1,06,1.60,154.3,M,-34.3,M,,*58
$GPRMC,161112.250,A,4307.8901,N,07726.3349,W,0.00,327.68,270823,,,A*72
$GPGGA,161112.500,4307.8901,N,07726.3349,W,1,06,1.60,154.1,M,-34.3,M,,*5F
$GPRMC,161112.750,A,4307.8902,N,07726.3349,W,0.05,162.39,270823,,,A*76
$GPGGA,161113.000,4307.8902,N,07726.3349,W,1,06,1.60,153.9,M,-34.3,M,,*57
$GPRMC,161113.250,A,4307.8902,N,07726.3349,W,0.01,234.58,270823,,,A*71
$GPGGA,161113.500,4307.8903,N,07726.3349,W,1,06,1.60,153.8,M,-34.3,M,,*52
$GPRMC,161113.750,A,4307.8903,N,07726.3349,W,0.06,145.36,270823,,,A*7F
$GPGGA,161114.000,4307.8903,N,07726.3349,W,1,06,1.60,153.5,M,-34.3,M,,*5D
$GPRMC,161114.250,A,4307.8903,N,07726.3349,W,0.10,163.19,270823,,,A*73
$GPGGA,161114.500,4307.8903,N,07726.3349,W,1,06,1.60,153.3,M,-34.3,M,,*5E
$GPRMC,161114.750,A,4307.8903,N,07726.3349,W,0.10,171.55,270823,,,A*7D
$GPGGA,161115.000,4307.8903,N,07726.3350,W,1,06,1.60,153.1,M,-34.3,M,,*50
$GPRMC,161115.250,A,4307.8903,N,07726.3350,W,0.12,147.59,270823,,,A*7A
$GPGGA,161115.500,4307.8903,N,07726.3350,W,1,06,1.60,153.0,M,-34.3,M,,*54
$GPRMC,161115.750,A,4307.8903,N,07726.3350,W,0.13,158.79,270823,,,A*72
$GPGGA,161116.000,4307.8903,N,07726.3350,W,1,06,1.60,152.8,M,-34.3,M,,*5B
$GPRMC,161116.250,A,4307.8903,N,07726.3350,W,0.15,184.02,270823,,,A*7F
$GPGGA,161116.500,4307.8902,N,07726.3350,W,1,06,1.60,152.6,M,-34.3,M,,*51
$GPRMC,161116.750,A,4307.8902,N,07726.3350,W,0.13,174.75,270823,,,A*72
$GPGGA,161117.000,4307.8902,N,07726.3351,W,1,06,1.60,152.4,M,-34.3,M,,*56
$GPRMC,161117.250,A,4307.8902,N,07726.3351,W,0.15,216.82,270823,,,A*7E
$GPGGA,161117.500,4307.8901,N,07726.3351,W,1,06,1.60,152.2,M,-34.3,M,,*56
$GPRMC,161117.750,A,4307.8901,N,07726.3351,W,0.21,222.48,270823,,,A*7E
$GPGGA,161118.000,4307.8901,N,07726.3352,W,1,06,1.60,152.0,M,-34.3,M,,*5D
$GPRMC,161118.250,A,4307.8901,N,07726.3352,W,0.23,221.97,270823,,,A*74
$GPGGA,161118.500,4307.8900,N,07726.3352,W,1,06,1.60,151.8,M,-34.3,M,,*52
$GPRMC,161118.750,A,4307.8899,N,07726.3351,W,0.33,193.34,270823,,,A*70
$GPGGA,161119.000,4307.8897,N,07726.3350,W,1,06,1.62,151.6,M,-34.3,M,,*57
$GPRMC,161119.250,A,4307.8897,N,07726.3350,W,0.30,118.21,270823,,,A*7F
$GPGGA,161119.500,4307.8897,N,07726.3350,W,1,06,1.62,151.5,M,-34.3,M,,*51
$GPRMC,161119.750,A,4307.8897,N,07726.3350,W,0.03,185.78,270823,,,A*72
$GPGGA,161120.000,4307.8897,N,07726.3350,W,1,06,1.62,151.5,M,-34.3,M,,*5E
$GPRMC,161120.250,A,4307.8897,N,07726.3350,W,0.00,170.88,270823,,,A*7B
$GPGGA,161120.500,4307.8897,N,07726.3350,W,1,06,1.62,151.5,M,-34.3,M,,*5B
$GPRMC,161120.750,A,4307.8897,N,07726.3350,W,0.03,175.89,270823,,,A*79
$GPGGA,161121.000,4307.8897,N,07726.3350,W,1,06,1.62,151.5,M,-34.3,M,,*5F
$GPRMC,161121.250,A,4307.8897,N,07726.3349,W,0.04,121.32,270823,,,A*73
$GPGGA,161121.500,4307.8897,N,07726.3349,W,1,06,1.62,151.5,M,-34.3,M,,*52
$GPRMC,161121.750,A,4307.8897,N,07726.3349,W,0.01,66.48,270823,,,A*4C
$GPGGA,161122.000,4307.8897,N,07726.3349,W,1,06,1.62,151.5,M,-34.3,M,,*54
$GPRMC,161122.250,A,4307.8897,N,07726.3349,W,0.02,11.28,270823,,,A*4F
$GPGGA,161122.500,4307.8897,N,07726.3349,W,1,06,1.62,151.5,M,-34.3,M,,*51
$GPRMC,161122.750,A,4307.8897,N,07726.3349,W,0.02,180.41,270823,,,A*7C
$GPGGA,161123.000,4307.8897,N,07726.3349,W,1,06,1.62,151.5,M,-34.3,M,,*55
$GPRMC,161123.250,A,4307.8897,N,07726.3349,W,0.01,88.71,270823,,,A*41
$GPGGA,161123.500,4307.8897,N,07726.3349,W,1,06,1.62,151.5,M,-34.3,M,,*50
$GPRMC,161123.750,A,4307.8897,N,07726.3349,W,0.01,79.80,270823,,,A*44
$GPGGA,161124.000,4307.8897,N,07726.3349,W,1,06,1.62,151.5,M,-34.3,M,,*52
$GPRMC,161124.250,A,4307.8897,N,07726.3349,W,0.00,194.42,270823,,,A*7B
$GPGGA,161124.500,4307.8897,N,07726.3349,W,1,07,1.25,151.5,M,-34.3,M,,*55
$GPRMC,161124.750,A,4307.8897,N,07726.3349,W,0.01,265.09,270823,,,A*7D
$GPGGA,161125.000,4307.8897,N,07726.3349,W,1,07,1.25,151.5,M,-34.3,M,,*51
$GPRMC,161125.250,A,4307.8897,N,07726.3349,W,0.03,294.58,270823,,,A*71
$GPGGA,161125.500,4307.8897,N,07726.3349,W,1,07,1.25,151.5,M,-34.3,M,,*54
$GPRMC,161125.750,A,4307.8897,N,07726.3349,W,0.01,198.71,270823,,,A*72
$GPGGA,161126.000,4307.8897,N,07726.3349,W,1,07,1.25,151.5,M,-34.3,M,,*52
$GPRMC,161126.250,A,4307.8897,N,07726.3349,W,0.01,330.17,270823,,,A*74
$GPGGA,161126.500,4307.8897,N,07726.3349,W,1,07,1.25,151.5,M,-34.3,M,,*57
$GPRMC,161126.750,A,4307.8897,N,07726.3349,W,0.01,234.43,270823,,,A*75
$GPGGA,161127.000,4307.8897,N,07726.3349,W,1,07,1.25,151.5,M,-34.3,M,,*53
$GPRMC,161127.250,A,4307.8897,N,07726.3349,W,0.01,65.15,270823,,,A*44
$GPGGA,161127.500,4307.8897,N,07726.3349,W,1,07,1.25,151.5,M,-34.3,M,,*56
$GPRMC,161127.750,A,4307.8897,N,07726.3349,W,0.02,238.76,270823,,,A*7D
$GPGGA,161128.000,4307.8897,N,07726.3349,W,1,07,1.25,151.5,M,-34.3,M,,*5C
$GPRMC,161128.250,A,4307.8897,N,07726.3349,W,0.01,267.21,270823,,,A*7C
$GPGGA,161128.500,4307.8897,N,07726.3349,W,1,07,1.25,151.5,M,-34.3,M,,*59
$GPRMC,161128.750,A,4307.8897,N,07726.3349,W,0.00,3.20,270823,,,A*79
$GPGGA,161129.000,4307.8897,N,07726.3349,W,1,07,1.25,151.5,M,-34.3,M,,*5D
$GPRMC,161129.250,A,4307.8897,N,07726.3349,W,0.01,21.66,270823,,,A*4E
$GPGGA,161129.500,4307.8897,N,07726.3349,W,1,07,1.25,151.5,M,-34.3,M,,*58
$GPRMC,161129.750,A,4307.8897,N,07726.3349,W,0.00,178.19,270823,,,A*7F
$GPGGA,161130.000,4307.8897,N,07726.3349,W,1,07,1.25,151.5,M,-34.3,M,,*55
$GPRMC,161130.250,A,4307.8897,N,07726.3349,W,0.00,175.61,270823,,,A*70
$GPGGA,161130.500,4307.8897,N,07726.3349,W,1,07,1.25,151.5,M,-34.3,M,,*50
$GPRMC,161130.750,A,4307.8897,N,07726.3349,W,0.01,27.70,270823,,,A*42
$GPGGA,161131.000,4307.8897,N,07726.3349,W,1,07,1.25,151.5,M,-34.3,M,,*54
$GPRMC,161131.250,A,4307.8897,N,07726.3349,W,0.02,287.62,270823,,,A*7E
$GPGGA,161131.500,4307.8897,N,07726.3349,W,1,07,1.25,151.5,M,-34.3,M,,*51
$GPRMC,161131.750,A,4307.8897,N,07726.3349,W,0.00,285.13,270823,,,A*7D
$GPGGA,161132.000,4307.8897,N,07726.3349,W,1,07,1.25,151.5,M,-34.3,M,,*57
$GPRMC,161132.250,A,4307.8897,N,07726.3349,W,0.01,141.45,270823,,,A*72
$GPGGA,161132.500,4307.8897,N,07726.3349,W,1,07,1.25,151.5,M,-34.3,M,,*52
$GPRMC,161132.750,A,4307.8897,N,07726.3349,W,0.00,254.54,270823,,,A*71
$GPGGA,161133.000,4307.8897,N,07726.3349,W,1,07,1.25,151.5,M,-34.3,M,,*56
$GPRMC,161133.250,A,4307.8897,N,07726.3349,W,0.00,32.54,270823,,,A*47
$GPGGA,161133.500,4307.8897,N,07726.3349,W,1,07,1.25,151.5,M,-34.3,M,,*53
$GPRMC,161133.750,A,4307.8897,N,07726.3349,W,0.01,168.08,270823,,,A*74
$GPGGA,161134.000,4307.8897,N,07726.3349,W,1,07,1.25,151.5,M,-34.3,M,,*51
$GPRMC,161134.250,A,4307.8896,N,07726.3349,W,0.01,110.07,270823,,,A*77
$GPGGA,161134.500,4307.8896,N,07726.3349,W,2,07,1.25,151.4,M,-34.3,M,0000,0000*57
$GPRMC,161134.750,A,4307.8896,N,07726.3348,W,0.01,356.88,270823,,,D*71
$GPGGA,161135.000,4307.8896,N,07726.3348,W,2,07,1.25,151.4,M,-34.3,M,0000,0000*52
$GPRMC,161135.250,A,4307.8896,N,07726.3348,W,0.01,65.25,270823,,,D*41
$GPGGA,161135.500,4307.8896,N,07726.3348,W,2,07,1.25,151.3,M,-34.3,M,0000,0000*50
$GPRMC,161135.750,A,4307.8896,N,07726.3347,W,0.00,280.61,270823,,,D*73
$GPGGA,161136.000,4307.8896,N,07726.3347,W,2,07,1.25,151.2,M,-34.3,M,0000,0000*58
$GPRMC,161136.250,A,4307.8895,N,07726.3347,W,0.00,0.00,270823,,,D*7B
$GPGGA,161136.500,4307.8895,N,07726.3346,W,2,07,1.25,151.2,M,-34.3,M,0000,0000*5F
$GPRMC,161136.750,A,4307.8895,N,07726.3346,W,0.01,171.26,270823,,,D*7D
$GPGGA,161137.000,4307.8895,N,07726.3346,W,2,07,1.25,151.2,M,-34.3,M,0000,0000*5B
$GPRMC,161137.250,A,4307.8895,N,07726.3346,W,0.01,144.83,270823,,,D*70
$GPGGA,161137.500,4307.8895,N,07726.3345,W,2,07,1.25,151.1,M,-34.3,M,0000,0000*5E
$GPRMC,161137.750,A,4307.8895,N,07726.3345,W,0.01,139.97,270823,,,D*79
$GPGGA,161138.000,4307.8894,N,07726.3345,W,2,07,1.25,151.1,M,-34.3,M,0000,0000*55
$GPRMC,161138.250,A,4307.8894,N,07726.3345,W,0.01,142.40,270823,,,D*74
$GPGGA,161138.500,4307.8894,N,07726.3345,W,2,07,1.25,151.1,M,-34.3,M,0000,0000*50
$GPRMC,161138.750,A,4307.8894,N,07726.3345,W,0.01,181.35,270823,,,D*7C
$GPGGA,161139.000,4307.8894,N,07726.3344,W,2,07,1.25,151.2,M,-34.3,M,0000,0000*56
$GPRMC,161139.250,A,4307.8894,N,07726.3344,W,0.01,215.96,270823,,,D*7E
$GPGGA,161139.500,4307.8893,N,07726.3344,W,2,07,1.25,151.2,M,-34.3,M,0000,0000*54
$GPRMC,161139.750,A,4307.8893,N,07726.3344,W,0.02,167.07,270823,,,D*71
$GPGGA,161140.000,4307.8893,N,07726.3344,W,2,07,1.25,151.2,M,-34.3,M,0000,0000*5F
$GPRMC,161140.250,A,4307.8893,N,07726.3343,W,0.01,141.97,270823,,,D*73
$GPGGA,161140.500,4307.8893,N,07726.3343,W,2,07,1.25,151.2,M,-34.3,M,0000,0000*5D
$GPRMC,161140.750,A,4307.8893,N,07726.3343,W,0.01,218.16,270823,,,D*70
$GPGGA,161141.000,4307.8893,N,07726.3343,W,2,07,1.25,151.3,M,-34.3,M,0000,0000*58
$GPRMC,161141.250,A,4307.8893,N,07726.3343,W,0.01,155.64,270823,,,D*7B
$GPGGA,161141.500,4307.8893,N,07726.3343,W,2,07,1.25,151.3,M,-34.3,M,0000,0000*5D
$GPRMC,161141.750,A,4307.8893,N,07726.3342,W,0.01,156.49,270823,,,D*73
$GPGGA,161142.000,4307.8893,N,07726.3342,W,2,07,1.25,151.3,M,-34.3,M,0000,0000*5A
$GPRMC,161142.250,A,4307.8893,N,07726.3342,W,0.01,132.47,270823,,,D*79
$GPGGA,161142.500,4307.8893,N,07726.3342,W,2,07,1.25,151.3,M,-34.3,M,0000,0000*5F
$GPRMC,161142.750,A,4307.8893,N,07726.3341,W,0.01,150.08,270823,,,D*70
$GPGGA,161143.000,4307.8893,N,07726.3341,W,2,07,1.25,151.3,M,-34.3,M,0000,0000*58
$GPRMC,161143.250,A,4307.8893,N,07726.3341,W,0.01,83.39,270823,,,D*49
$GPGGA,161143.500,4307.8892,N,07726.3341,W,2,07,1.25,151.2,M,-34.3,M,0000,0000*5D
$GPRMC,161143.750,A,4307.8892,N,07726.3340,W,0.01,20.66,270823,,,D*4F
$GPGGA,161144.000,4307.8892,N,07726.3340,W,2,07,1.25,151.2,M,-34.3,M,0000,0000*5E
$GPRMC,161144.250,A,4307.8892,N,07726.3340,W,0.00,104.12,270823,,,D*78
$GPGGA,161144.500,4307.8892,N,07726.3340,W,2,07,1.25,151.2,M,-34.3,M,0000,0000*5B
$GPRMC,161144.750,A,4307.8892,N,07726.3339,W,0.00,124.72,270823,,,D*77
$GPGGA,161145.000,4307.8892,N,07726.3339,W,2,07,1.25,151.1,M,-34.3,M,0000,0000*52
$GPRMC,161145.250,A,4307.8892,N,07726.3339,W,0.01,316.89,270823,,,D*75
$GPGGA,161145.500,4307.8893,N,07726.3339,W,2,07,1.25,151.1,M,-34.3,M,0000,0000*56
$GPRMC,161145.750,A,4307.8893,N,07726.3338,W,0.00,317.65,270823,,,D*72
$GPGGA,161146.000,4307.8893,N,07726.3338,W,2,07,1.25,151.1,M,-34.3,M,0000,0000*51
$GPRMC,161146.250,A,4307.8893,N,07726.3338,W,0.00,102.12,270823,,,D*72
$GPGGA,161146.500,4307.8893,N,07726.3338,W,2,07,1.25,151.0,M,-34.3,M,0000,0000*55
$GPRMC,161146.750,A,4307.8893,N,07726.3337,W,0.01,51.74,270823,,,D*4E
$GPGGA,161147.000,4307.8893,N,07726.3337,W,2,07,1.25,151.0,M,-34.3,M,0000,0000*5E
$GPRMC,161147.250,A,4307.8893,N,07726.3337,W,0.00,286.21,270823,,,D*73
$GPGGA,161147.500,4307.8893,N,07726.3337,W,2,07,1.25,151.0,M,-34.3,M,0000,0000*5B
$GPRMC,161147.750,A,4307.8893,N,07726.3336,W,0.01,283.15,270823,,,D*74
$GPGGA,161148.000,4307.8893,N,07726.3336,W,2,07,1.25,151.0,M,-34.3,M,0000,0000*50
$GPRMC,161148.250,A,4307.8893,N,07726.3336,W,0.00,98.17,270823,,,D*45
$GPGGA,161148.500,4307.8893,N,07726.3336,W,2,08,1.07,151.0,M,-34.3,M,0000,0000*5A
$GPRMC,161148.750,A,4307.8893,N,07726.3336,W,0.01,278.20,270823,,,D*79
$GPGGA,161149.000,4307.8893,N,07726.3335,W,2,08,1.07,151.0,M,-34.3,M,0000,0000*5D
$GPRMC,161149.250,A,4307.8893,N,07726.3335,W,0.00,302.62,270823,,,D*75
$GPGGA,161149.500,4307.8893,N,07726.3335,W,2,08,1.07,151.0,M,-34.3,M,0000,0000*58
$GPRMC,161149.750,A,4307.8893,N,07726.3335,W,0.00,304.88,270823,,,D*72
$GPGGA,161150.000,4307.8893,N,07726.3335,W,2,08,1.07,151.0,M,-34.3,M,0000,0000*55
$GPRMC,161150.250,A,4307.8893,N,07726.3334,W,0.01,179.18,270823,,,D*7E
$GPGGA,161150.500,4307.8893,N,07726.3334,W,2,08,1.07,151.1,M,-34.3,M,0000,0000*50
$GPRMC,161150.750,A,4307.8893,N,07726.3334,W,0.01,107.61,270823,,,D*7C
$GPGGA,161151.000,4307.8893,N,07726.3334,W,2,08,1.07,151.1,M,-34.3,M,0000,0000*54
$GPRMC,161151.250,A,4307.8893,N,07726.3334,W,0.01,170.97,270823,,,D*71
$GPGGA,161151.500,4307.8893,N,07726.3334,W,2,08,1.07,151.1,M,-34.3,M,0000,0000*51
$GPRMC,161151.750,A,4307.8893,N,07726.3333,W,0.01,254.45,270823,,,D*79
$GPGGA,161152.000,4307.8893,N,07726.3333,W,2,08,1.07,151.1,M,-34.3,M,0000,0000*50
$GPRMC,161152.250,A,4307.8893,N,07726.3333,W,0.01,337.91,270823,,,D*72
$GPGGA,161152.500,4307.8893,N,07726.3333,W,2,08,1.07,151.1,M,-34.3,M,0000,0000*55
$GPRMC,161152.750,A,4307.8893,N,07726.3333,W,0.00,182.10,270823,,,D*73
$GPGGA,161153.000,4307.8893,N,07726.3333,W,2,08,1.07,151.1,M,-34.3,M,0000,0000*51
$GPRMC,161153.250,A,4307.8893,N,07726.3333,W,0.00,258.44,270823,,,D*72
$GPGGA,161153.500,4307.8893,N,07726.3333,W,2,08,1.07,151.1,M,-34.3,M,0000,0000*54
$GPRMC,161153.750,A,4307.8893,N,07726.3333,W,0.01,159.59,270823,,,D*78
$GPGGA,161154.000,4307.8893,N,07726.3333,W,2,08,1.07,151.0,M,-34.3,M,0000,0000*57
$GPRMC,161154.250,A,4307.8893,N,07726.3332,W,0.00,157.97,270823,,,D*76
$GPGGA,161154.500,4307.8893,N,07726.3332,W,2,08,1.07,151.0,M,-34.3,M,0000,0000*53
$GPRMC,161154.750,A,4307.8893,N,07726.3332,W,0.00,0.00,270823,,,D*7E
$GPGGA,161155.000,4307.8893,N,07726.3332,W,2,08,1.07,151.0,M,-34.3,M,0000,0000*57
$GPRMC,161155.250,A,4307.8893,N,07726.3332,W,0.01,355.28,270823,,,D*72
$GPGGA,161155.500,4307.8893,N,07726.3332,W,2,08,1.07,151.0,M,-34.3,M,0000,0000*52
$GPRMC,161155.750,A,4307.8893,N,07726.3332,W,0.01,56.28,270823,,,D*47
$GPGGA,161156.000,4307.8893,N,07726.3332,W,2,08,1.07,150.9,M,-34.3,M,0000,0000*5C
$GPRMC,161156.250,A,4307.8893,N,07726.3332,W,0.00,63.44,270823,,,D*4C
$GPGGA,161156.500,4307.8893,N,07726.3332,W,2,08,1.07,150.9,M,-34.3,M,0000,0000*59
$GPRMC,161156.750,A,4307.8893,N,07726.3332,W,0.00,64.18,270823,,,D*47
$GPGGA,161157.000,4307.8893,N,07726.3332,W,2,08,1.07,150.9,M,-34.3,M,0000,0000*5D
$GPRMC,161157.250,A,4307.8893,N,07726.3332,W,0.01,294.75,270823,,,D*74
$GPGGA,161157.500,4307.8893,N,07726.3332,W,2,08,1.07,150.9,M,-34.3,M,0000,0000*58
$GPRMC,161157.750,A,4307.8893,N,07726.3332,W,0.01,141.98,270823,,,D*79
$GPGGA,161158.000,4307.8893,N,07726.3332,W,2,08,1.07,150.9,M,-34.3,M,0000,0000*52
$GPRMC,161158.250,A,4307.8893,N,07726.3332,W,0.01,33.15,270823,,,D*42
$GPGGA,161158.500,4307.8893,N,07726.3332,W,2,08,1.07,150.9,M,-34.3,M,0000,0000*57
$GPRMC,161158.750,A,4307.8893,N,07726.3332,W,0.00,32.29,270823,,,D*48
$GPGGA,161159.000,4307.8893,N,07726.3332,W,2,08,1.07,150.9,M,-34.3,M,0000,0000*53
$GPRMC,161159.250,A,4307.8893,N,07726.3332,W,0.00,313.47,270823,,,D*74
$GPGGA,161159.500,4307.8893,N,07726.3331,W,2,08,1.07,150.9,M,-34.3,M,0000,0000*55
$GPRMC,161159.750,A,4307.8893,N,07726.3331,W,0.00,247.70,270823,,,D*76
$GPGGA,161200.000,4307.8893,N,07726.3331,W,2,08,1.07,150.9,M,-34.3,M,0000,0000*5F
$GPRMC,161200.250,A,4307.8893,N,07726.3331,W,0.00,6.91,270823,,,D*74
$GPGGA,161200.500,4307.8893,N,07726.3332,W,2,09,1.04,150.9,M,-34.3,M,0000,0000*5B
$GPRMC,161200.750,A,4307.8892,N,07726.3332,W,0.00,26.44,270823,,,D*49
$GPGGA,161201.000,4307.8892,N,07726.3331,W,2,09,1.04,151.0,M,-34.3,M,0000,0000*55
$GPRMC,161201.250,A,4307.8892,N,07726.3331,W,0.00,183.08,270823,,,D*78
$GPGGA,161201.500,4307.8892,N,07726.3331,W,2,09,1.04,151.0,M,-34.3,M,0000,0000*50
$GPRMC,161201.750,A,4307.8892,N,07726.3331,W,0.01,136.24,270823,,,D*7C
$GPGGA,161202.000,4307.8892,N,07726.3331,W,2,09,1.04,151.0,M,-34.3,M,0000,0000*56
$GPRMC,161202.250,A,4307.8892,N,07726.3331,W,0.01,199.62,270823,,,D*7D
$GPGGA,161202.500,4307.8892,N,07726.3331,W,2,09,1.04,151.0,M,-34.3,M,0000,0000*53
$GPRMC,161202.750,A,4307.8891,N,07726.3331,W,0.00,161.39,270823,,,D*73
$GPGGA,161203.000,4307.8891,N,07726.3331,W,2,09,1.04,151.0,M,-34.3,M,0000,0000*54
$GPRMC,161203.250,A,4307.8891,N,07726.3331,W,0.01,194.26,270823,,,D*72
$GPGGA,161203.500,4307.8891,N,07726.3331,W,2,09,1.04,151.0,M,-34.3,M,0000,0000*51
$GPRMC,161203.750,A,4307.8891,N,07726.3331,W,0.01,187.20,270823,,,D*73
$GPGGA,161204.000,4307.8891,N,07726.3331,W,2,09,1.04,151.0,M,-34.3,M,0000,0000*53
$GPRMC,161204.250,A,4307.8891,N,07726.3331,W,0.01,172.27,270823,,,D*7C
$GPGGA,161204.500,4307.8891,N,07726.3331,W,2,09,1.04,151.0,M,-34.3,M,0000,0000*56
$GPRMC,161204.750,A,4307.8891,N,07726.3331,W,0.00,165.03,270823,,,D*78
$GPGGA,161205.000,4307.8891,N,07726.3331,W,2,09,1.04,150.9,M,-34.3,M,0000,0000*5A
$GPRMC,161205.250,A,4307.8891,N,07726.3330,W,0.00,142.41,270823,,,D*7E
$GPGGA,161205.500,4307.8891,N,07726.3330,W,2,09,1.04,150.9,M,-34.3,M,0000,0000*5E
$GPRMC,161205.750,A,4307.8891,N,07726.3330,W,0.00,167.51,270823,,,D*7D
$GPGGA,161206.000,4307.8891,N,07726.3330,W,2,09,1.04,150.9,M,-34.3,M,0000,0000*58
$GPRMC,161206.250,A,4307.8891,N,07726.3330,W,0.00,152.78,270823,,,D*76
$GPGGA,161206.500,4307.8891,N,07726.3330,W,2,09,1.04,150.9,M,-34.3,M,0000,0000*5D
$GPRMC,161206.750,A,4307.8891,N,07726.3330,W,0.00,266.34,270823,,,D*7F
$GPGGA,161207.000,4307.8891,N,07726.3330,W,2,09,1.04,150.8,M,-34.3,M,0000,0000*58
$GPRMC,161207.250,A,4307.8891,N,07726.3329,W,0.01,229.94,270823,,,D*73
$GPGGA,161207.500,4307.8891,N,07726.3329,W,2,09,1.04,150.8,M,-34.3,M,0000,0000*55
$GPRMC,161207.750,A,4307.8891,N,07726.3329,W,0.00,351.13,270823,,,D*76
$GPGGA,161208.000,4307.8891,N,07726.3329,W,2,09,1.04,150.8,M,-34.3,M,0000,0000*5F
$GPRMC,161208.250,A,4307.8891,N,07726.3329,W,0.01,282.02,270823,,,D*72
$GPGGA,161208.500,4307.8891,N,07726.3329,W,2,09,1.04,150.7,M,-34.3,M,0000,0000*55
$GPRMC,161208.750,A,4307.8891,N,07726.3329,W,0.00,227.26,270823,,,D*7F
$GPGGA,161209.000,4307.8891,N,07726.3329,W,2,09,1.04,150.7,M,-34.3,M,0000,0000*51
$GPRMC,161209.250,A,4307.8891,N,07726.3329,W,0.01,344.32,270823,,,D*7B
$GPGGA,161209.500,4307.8891,N,07726.3329,W,2,09,1.04,150.7,M,-34.3,M,0000,0000*54
$GPRMC,161209.750,A,4307.8891,N,07726.3329,W,0.00,300.40,270823,,,D*7A
$GPGGA,161210.000,4307.8891,N,07726.3329,W,2,09,1.04,150.7,M,-34.3,M,0000,0000*59
$GPRMC,161210.250,A,4307.8891,N,07726.3329,W,0.01,32.81,270823,,,D*49
$GPGGA,161210.500,4307.8891,N,07726.3328,W,2,09,1.04,150.7,M,-34.3,M,0000,0000*5D
$GPRMC,161210.750,A,4307.8891,N,07726.3328,W,0.00,342.55,270823,,,D*71
$GPGGA,161211.000,4307.8891,N,07726.3328,W,2,09,1.04,150.7,M,-34.3,M,0000,0000*59
$GPRMC,161211.250,A,4307.8891,N,07726.3328,W,0.00,39.63,270823,,,D*4F
$GPGGA,161211.500,4307.8891,N,07726.3328,W,2,09,1.04,150.7,M,-34.3,M,0000,0000*5C
$GPRMC,161211.750,A,4307.8891,N,07726.3328,W,0.00,271.12,270823,,,D*72
$GPGGA,161212.000,4307.8891,N,07726.3328,W,2,09,1.04,150.7,M,-34.3,M,0000,0000*5A
$GPRMC,161212.250,A,4307.8891,N,07726.3328,W,0.00,0.00,270823,,,D*73
$GPGGA,161212.500,4307.8891,N,07726.3328,W,2,09,1.04,150.7,M,-34.3,M,0000,0000*5F
$GPRMC,161212.750,A,4307.8891,N,07726.3328,W,0.00,104.31,270823,,,D*71
$GPGGA,161213.000,4307.8891,N,07726.3328,W,2,09,1.04,150.7,M,-34.3,M,0000,0000*5B
$GPRMC,161213.250,A,4307.8891,N,07726.3328,W,0.00,218.10,270823,,,D*78
$GPGGA,161213.500,4307.8891,N,07726.3328,W,2,09,1.04,150.7,M,-34.3,M,0000,0000*5E
$GPRMC,161213.750,A,4307.8890,N,07726.3328,W,0.00,207.23,270823,,,D*72
$GPGGA,161214.000,4307.8890,N,07726.3328,W,2,09,1.04,150.6,M,-34.3,M,0000,0000*5C
$GPRMC,161214.250,A,4307.8890,N,07726.3328,W,0.01,144.08,270823,,,D*7C
$GPGGA,161214.500,4307.8890,N,07726.3328,W,2,09,1.04,150.6,M,-34.3,M,0000,0000*59
$GPRMC,161214.750,A,4307.8890,N,07726.3328,W,0.00,187.37,270823,,,D*7B
$GPGGA,161215.000,4307.8890,N,07726.3328,W,2,09,1.04,150.6,M,-34.3,M,0000,0000*5D
$GPRMC,161215.250,A,4307.8890,N,07726.3328,W,0.00,0.00,270823,,,D*75
$GPGGA,161215.500,4307.8890,N,07726.3328,W,2,09,1.04,150.6,M,-34.3,M,0000,0000*58
$GPRMC,161215.750,A,4307.8889,N,07726.3328,W,0.00,116.74,270823,,,D*7D
$GPGGA,161216.000,4307.8889,N,07726.3328,W,2,09,1.04,150.6,M,-34.3,M,0000,0000*56
$GPRMC,161216.250,A,4307.8889,N,07726.3328,W,0.00,131.42,270823,,,D*7B
$GPGGA,161216.500,4307.8889,N,07726.3328,W,2,09,1.04,150.6,M,-34.3,M,0000,0000*53
$GPRMC,161216.750,A,4307.8889,N,07726.3328,W,0.01,140.10,270823,,,D*7E
$GPGGA,161217.000,4307.8889,N,07726.3328,W,2,09,1.04,150.5,M,-34.3,M,0000,0000*54
$GPRMC,161217.250,A,4307.8889,N,07726.3328,W,0.00,73.14,270823,,,D*4E
$GPGGA,161217.500,4307.8888,N,07726.3328,W,2,09,1.04,150.5,M,-34.3,M,0000,0000*50
$GPRMC,161217.750,A,4307.8888,N,07726.3328,W,0.00,81.66,270823,,,D*42
$GPGGA,161218.000,4307.8888,N,07726.3328,W,2,09,1.04,150.5,M,-34.3,M,0000,0000*5A
$GPRMC,161218.250,A,4307.8888,N,07726.3328,W,0.00,137.91,270823,,,D*7C
$GPGGA,161218.500,4307.8888,N,07726.3328,W,2,09,1.04,150.5,M,-34.3,M,0000,0000*5F
$GPRMC,161218.750,A,4307.8888,N,07726.3328,W,0.01,31.88,270823,,,D*47
$GPGGA,161219.000,4307.8888,N,07726.3328,W,2,09,1.04,150.5,M,-34.3,M,0000,0000*5B
$GPRMC,161219.250,A,4307.8888,N,07726.3328,W,0.00,0.00,270823,,,D*70
$GPGGA,161219.500,4307.8888,N,07726.3328,W,2,09,1.04,150.5,M,-34.3,M,0000,0000*5E
$GPRMC,161219.750,A,4307.8888,N,07726.3328,W,0.00,287.87,270823,,,D*77
$GPGGA,161220.000,4307.8888,N,07726.3328,W,2,09,1.04,150.5,M,-34.3,M,0000,0000*51
$GPRMC,161220.250,A,4307.8888,N,07726.3328,W,0.01,261.24,270823,,,D*78
$GPGGA,161220.500,4307.8888,N,07726.3328,W,2,09,1.04,150.5,M,-34.3,M,0000,0000*54
$GPRMC,161220.750,A,4307.8888,N,07726.3328,W,0.00,0.00,270823,,,D*7F
$GPGGA,161221.000,4307.8888,N,07726.3328,W,2,09,1.04,150.5,M,-34.3,M,0000,0000*50
$GPRMC,161221.250,A,4307.8888,N,07726.3328,W,0.00,0.00,270823,,,D*7B
$GPGGA,161221.500,4307.8888,N,07726.3328,W,2,09,1.04,150.5,M,-34.3,M,0000,0000*55
$GPRMC,161221.750,A,4307.8888,N,07726.3328,W,0.00,305.02,270823,,,D*7A
$GPGGA,161222.000,4307.8888,N,07726.3328,W,2,09,1.04,150.5,M,-34.3,M,0000,0000*53
$GPRMC,161222.250,A,4307.8888,N,07726.3328,W,0.00,327.01,270823,,,D*7F
$GPGGA,161222.500,4307.8888,N,07726.3328,W,2,09,1.04,150.5,M,-34.3,M,0000,0000*56
$GPRMC,161222.750,A,4307.8888,N,07726.3328,W,0.00,264.02,270823,,,D*7F
$GPGGA,161223.000,4307.8888,N,07726.3328,W,2,09,1.04,150.5,M,-34.3,M,0000,0000*52
$GPRMC,161223.250,A,4307.8888,N,07726.3328,W,0.01,4.27,270823,,,D*79
$GPGGA,161223.500,4307.8888,N,07726.3328,W,2,09,1.04,150.5,M,-34.3,M,0000,0000*57
$GPRMC,161223.750,A,4307.8888,N,07726.3328,W,0.00,245.65,270823,,,D*7C
$GPGGA,161224.000,4307.8888,N,07726.3328,W,2,09,1.04,150.5,M,-34.3,M,0000,0000*55
$GPRMC,161224.250,A,4307.8888,N,07726.3328,W,0.00,282.78,270823,,,D*79
$GPGGA,161224.500,4307.8888,N,07726.3328,W,2,09,1.04,150.5,M,-34.3,M,0000,0000*50
$GPRMC,161224.750,A,4307.8888,N,07726.3328,W,0.00,156.08,270823,,,D*71
$GPGGA,161225.000,4307.8888,N,07726.3328,W,2,09,1.04,150.5,M,-34.3,M,0000,0000*54
$GPRMC,161225.250,A,4307.8888,N,07726.3328,W,0.01,145.64,270823,,,D*7C
$GPGGA,161225.500,4307.8888,N,07726.3328,W,2,09,1.04,150.5,M,-34.3,M,0000,0000*51
$GPRMC,161225.750,A,4307.8888,N,07726.3328,W,0.01,128.51,270823,,,D*74
$GPGGA,161226.000,4307.8888,N,07726.3328,W,2,09,1.04,150.5,M,-34.3,M,0000,0000*57
$GPRMC,161226.250,A,4307.8888,N,07726.3328,W,0.00,174.60,270823,,,D*78
$GPGGA,161226.500,4307.8888,N,07726.3328,W,2,09,1.04,150.5,M,-34.3,M,0000,0000*52
$GPRMC,161226.750,A,4307.8888,N,07726.3328,W,0.01,128.91,270823,,,D*7B
$GPGGA,161227.000,4307.8888,N,07726.3328,W,2,09,1.04,150.5,M,-34.3,M,0000,0000*56
$GPRMC,161227.250,A,4307.8888,N,07726.3328,W,0.01,74.78,270823,,,D*40
$GPGGA,161227.500,4307.8888,N,07726.3328,W,2,09,1.04,150.5,M,-34.3,M,0000,0000*53
$GPRMC,161227.750,A,4307.8888,N,07726.3328,W,0.01,144.46,270823,,,D*7A
$GPGGA,161228.000,4307.8888,N,07726.3328,W,2,09,1.04,150.5,M,-34.3,M,0000,0000*59
$GPRMC,161228.250,A,4307.8888,N,07726.3328,W,0.00,123.17,270823,,,D*74
$GPGGA,161228.500,4307.8888,N,07726.3328,W,2,09,1.04,150.5,M,-34.3,M,0000,0000*5C
$GPRMC,161228.750,A,4307.8888,N,07726.3328,W,0.01,106.05,270823,,,D*74
$GPGGA,161229.000,4307.8888,N,07726.3328,W,2,09,1.04,150.5,M,-34.3,M,0000,0000*58
$GPRMC,161229.250,A,4307.8888,N,07726.3328,W,0.01,153.09,270823,,,D*7C
$GPGGA,161229.500,4307.8888,N,07726.3328,W,2,09,1.04,150.5,M,-34.3,M,0000,0000*5D
$GPRMC,161229.750,A,4307.8888,N,07726.3328,W,0.01,140.03,270823,,,D*71
$GPGGA,161230.000,4307.8888,N,07726.3328,W,2,09,1.04,150.5,M,-34.3,M,0000,0000*50
$GPRMC,161230.250,A,4307.8888,N,07726.3328,W,0.01,125.53,270823,,,D*7A
$GPGGA,161230.500,4307.8888,N,07726.3328,W,2,09,1.04,150.5,M,-34.3,M,0000,0000*55
$GPRMC,161230.750,A,4307.8888,N,07726.3328,W,0.00,320.22,270823,,,D*7F
$GPGGA,161231.000,4307.8888,N,07726.3328,W,2,09,1.04,150.5,M,-34.3,M,0000,0000*51
$GPRMC,161231.250,A,4307.8888,N,07726.3328,W,0.01,309.74,270823,,,D*72
$GPGGA,161231.500,4307.8888,N,07726.3328,W,2,09,1.04,150.5,M,-34.3,M,0000,0000*54
$GPRMC,161231.750,A,4307.8888,N,07726.3328,W,0.00,333.26,270823,,,D*78
$GPGGA,161232.000,4307.8888,N,07726.3328,W,2,09,1.04,150.5,M,-34.3,M,0000,0000*52
$GPRMC,161232.250,A,4307.8888,N,07726.3328,W,0.01,348.32,270823,,,D*76
$GPGGA,161232.500,4307.8888,N,07726.3328,W,2,09,1.04,150.5,M,-34.3,M,0000,0000*57
$GPRMC,161232.750,A,4307.8888,N,07726.3328,W,0.01,334.80,270823,,,D*71
$GPGGA,161233.000,4307.8888,N,07726.3328,W,2,09,1.04,150.5,M,-34.3,M,0000,0000*53
$GPRMC,161233.250,A,4307.8888,N,07726.3328,W,0.01,0.23,270823,,,D*78
$GPGGA,161233.500,4307.8888,N,07726.3328,W,2,09,1.04,150.5,M,-34.3,M,0000,0000*56
$GPRMC,161233.750,A,4307.8888,N,07726.3328,W,0.01,311.60,270823,,,D*79
$GPGGA,161234.000,4307.8888,N,07726.3328,W,2,09,1.04,150.5,M,-34.3,M,0000,0000*54
$GPRMC,161234.250,A,4307.8888,N,07726.3328,W,0.01,352.79,270823,,,D*74
$GPGGA,161234.500,4307.8888,N,07726.3328,W,2,09,1.04,150.5,M,-34.3,M,0000,0000*51
$GPRMC,161234.750,A,4307.8888,N,07726.3328,W,0.01,345.50,270823,,,D*7C
$GPGGA,161235.000,4307.8888,N,07726.3328,W,2,09,1.04,150.5,M,-34.3,M,0000,0000*55
$GPRMC,161235.250,A,4307.8888,N,07726.3328,W,0.01,336.94,270823,,,D*74
$GPGGA,161235.500,4307.8888,N,07726.3328,W,2,09,1.04,150.5,M,-34.3,M,0000,0000*50
$GPRMC,161235.750,A,4307.8888,N,07726.3328,W,0.02,259.01,270823,,,D*76
$GPGGA,161236.000,4307.8888,N,07726.3328,W,2,09,1.04,150.5,M,-34.3,M,0000,0000*56
$GPRMC,161236.250,A,4307.8888,N,07726.3328,W,0.01,343.48,270823,,,D*74
$GPGGA,161236.500,4307.8888,N,07726.3328,W,2,09,1.04,150.5,M,-34.3,M,0000,0000*53
$GPRMC,161236.750,A,4307.8888,N,07726.3328,W,0.01,165.65,270823,,,D*78
$GPGGA,161237.000,4307.8888,N,07726.3328,W,2,09,1.04,150.5,M,-34.3,M,0000,0000*57
$GPRMC,161237.250,A,4307.8888,N,07726.3328,W,0.00,150.39,270823,,,D*72
$GPGGA,161237.500,4307.8888,N,07726.3328,W,2,09,1.04,150.5,M,-34.3,M,0000,0000*52
$GPRMC,161237.750,A,4307.8888,N,07726.3328,W,0.01,141.20,270823,,,D*7E
$GPGGA,161238.000,4307.8888,N,07726.3328,W,2,09,1.04,150.5,M,-34.3,M,0000,0000*58
$GPRMC,161238.250,A,4307.8888,N,07726.3328,W,0.01,194.69,270823,,,D*71
$GPGGA,161238.500,4307.8888,N,07726.3328,W,2,09,1.04,150.5,M,-34.3,M,0000,0000*5D
$GPRMC,161238.750,A,4307.8888,N,07726.3328,W,0.01,156.23,270823,,,D*74
$GPGGA,161239.000,4307.8888,N,07726.3328,W,2,09,1.04,150.5,M,-34.3,M,0000,0000*59
$GPRMC,161239.250,A,4307.8888,N,07726.3328,W,0.01,152.28,270823,,,D*7F
$GPGGA,161239.500,4307.8888,N,07726.3328,W,2,09,1.04,150.5,M,-34.3,M,0000,0000*5C
$GPRMC,161239.750,A,4307.8888,N,07726.3328,W,0.01,160.42,270823,,,D*77
$GPGGA,161240.000,4307.8888,N,07726.3328,W,2,09,1.04,150.5,M,-34.3,M,0000,0000*57
$GPRMC,161240.250,A,4307.8888,N,07726.3328,W,0.01,129.00,270823,,,D*77
$GPGGA,161240.500,4307.8888,N,07726.3328,W,2,09,1.04,150.5,M,-34.3,M,0000,0000*52
$GPRMC,161240.750,A,4307.8888,N,07726.3328,W,0.01,135.17,270823,,,D*79
$GPGGA,161241.000,4307.8888,N,07726.3328,W,2,09,1.04,150.5,M,-34.3,M,0000,0000*56
$GPRMC,161241.250,A,4307.8888,N,07726.3328,W,0.01,119.73,270823,,,D*71
$GPGGA,161241.500,4307.8888,N,07726.3328,W,2,09,1.04,150.5,M,-34.3,M,0000,0000*53
$GPRMC,161241.750,A,4307.8888,N,07726.3328,W,0.01,148.32,270823,,,D*75
$GPGGA,161242.000,4307.8888,N,07726.3328,W,2,09,1.04,150.5,M,-34.3,M,0000,0000*55
$GPRMC,161242.250,A,4307.8888,N,07726.3328,W,0.00,104.46,270823,,,D*79
$GPGGA,161242.500,4307.8888,N,07726.3328,W,2,09,1.04,150.5,M,-34.3,M,0000,0000*50
$GPRMC,161242.750,A,4307.8888,N,07726.3328,W,0.01,292.27,270823,,,D*76
$GPGGA,161243.000,4307.8888,N,07726.3328,W,2,09,1.04,150.5,M,-34.3,M,0000,0000*54
$GPRMC,161243.250,A,4307.8888,N,07726.3328,W,0.00,122.52,270823,,,D*79
$GPGGA,161243.500,4307.8888,N,07726.3328,W,2,09,1.04,150.5,M,-34.3,M,0000,0000*51
$GPRMC,161243.750,A,4307.8888,N,07726.3328,W,0.01,320.01,270823,,,D*7B
$GPGGA,161244.000,4307.8888,N,07726.3328,W,2,09,1.04,150.5,M,-34.3,M,0000,0000*53
$GPRMC,161244.250,A,4307.8888,N,07726.3328,W,0.01,347.22,270823,,,D*79
$GPGGA,161244.500,4307.8888,N,07726.3328,W,2,09,1.04,150.5,M,-34.3,M,0000,0000*56
$GPRMC,161244.750,A,4307.8888,N,07726.3328,W,0.01,340.64,270823,,,D*79
$GPGGA,161245.000,4307.8888,N,07726.3328,W,2,09,1.04,150.5,M,-34.3,M,0000,0000*52
$GPRMC,161245.250,A,4307.8888,N,07726.3328,W,0.01,334.85,270823,,,D*71
$GPGGA,161245.500,4307.8888,N,07726.3328,W,2,09,1.04,150.5,M,-34.3,M,0000,0000*57
$GPRMC,161245.750,A,4307.8888,N,07726.3328,W,0.01,332.52,270823,,,D*78
$GPGGA,161246.000,4307.8888,N,07726.3328,W,2,09,1.04,150.5,M,-34.3,M,0000,0000*51
$GPRMC,161246.250,A,4307.8888,N,07726.3328,W,0.01,312.58,270823,,,D*76
$GPGGA,161246.500,4307.8888,N,07726.3328,W,2,09,1.04,150.5,M,-34.3,M,0000,0000*54
$GPRMC,161246.750,A,4307.8888,N,07726.3328,W,0.01,1.56,270823,,,D*7C
$GPGGA,161247.000,4307.8888,N,07726.3328,W,2,09,1.04,150.5,M,-34.3,M,0000,0000*50
$GPRMC,161247.250,A,4307.8888,N,07726.3328,W,0.01,336.08,270823,,,D*74
$GPGGA,161247.500,4307.8888,N,07726.3328,W,2,09,1.04,150.5,M,-34.3,M,0000,0000*55
$GPRMC,161247.750,A,4307.8888,N,07726.3328,W,0.01,323.25,270823,,,D*7A
$GPGGA,161248.000,4307.8888,N,07726.3328,W,2,09,1.04,150.5,M,-34.3,M,0000,0000*5F
$GPRMC,161248.250,A,4307.8888,N,07726.3328,W,0.01,341.38,270823,,,D*78
$GPGGA,161248.500,4307.8888,N,07726.3328,W,2,09,1.04,150.5,M,-34.3,M,0000,0000*5A
$GPRMC,161248.750,A,4307.8888,N,07726.3328,W,0.00,120.17,270823,,,D*74
$GPGGA,161249.000,4307.8888,N,07726.3328,W,2,09,1.04,150.5,M,-34.3,M,0000,0000*5E
$GPRMC,161249.250,A,4307.8888,N,07726.3328,W,0.01,119.83,270823,,,D*76
$GPGGA,161249.500,4307.8888,N,07726.3328,W,2,09,1.04,150.5,M,-34.3,M,0000,0000*5B
$GPRMC,161249.750,A,4307.8888,N,07726.3328,W,0.01,145.17,270823,,,D*77
$GPGGA,161250.000,4307.8888,N,07726.3328,W,2,09,1.04,150.5,M,-34.3,M,0000,0000*56
$GPRMC,161250.250,A,4307.8888,N,07726.3328,W,0.01,108.52,270823,,,D*72
$GPGGA,161250.500,4307.8888,N,07726.3328,W,2,09,1.04,150.5,M,-34.3,M,0000,0000*53
$GPRMC,161250.750,A,4307.8888,N,07726.3328,W,0.01,122.04,270823,,,D*7C
$GPGGA,161251.000,4307.8888,N,07726.3328,W,2,09,1.04,150.5,M,-34.3,M,0000,0000*57
$GPRMC,161251.250,A,4307.8888,N,07726.3328,W,0.01,210.18,270823,,,D*77
$GPGGA,161251.500,4307.8888,N,07726.3328,W,2,09,1.04,150.5,M,-34.3,M,0000,0000*52
$GPRMC,161251.750,A,4307.8888,N,07726.3328,W,0.01,164.10,270823,,,D*7A
$GPGGA,161252.000,4307.8888,N,07726.3328,W,2,09,1.04,150.5,M,-34.3,M,0000,0000*54
$GPRMC,161252.250,A,4307.8888,N,07726.3328,W,0.01,177.10,270823,,,D*7E
$GPGGA,161252.500,4307.8888,N,07726.3328,W,2,09,1.04,150.5,M,-34.3,M,0000,0000*51
$GPRMC,161252.750,A,4307.8888,N,07726.3328,W,0.01,195.61,270823,,,D*71
$GPGGA,161253.000,4307.8888,N,07726.3328,W,2,09,1.04,150.5,M,-34.3,M,0000,0000*55
$GPRMC,161253.250,A,4307.8888,N,07726.3328,W,0.01,114.99,270823,,,D*7B
$GPGGA,161253.500,4307.8888,N,07726.3328,W,2,09,1.04,150.5,M,-34.3,M,0000,0000*50
$GPRMC,161253.750,A,4307.8888,N,07726.3328,W,0.00,161.20,270823,,,D*7F
$GPGGA,161254.000,4307.8888,N,07726.3328,W,2,09,1.04,150.5,M,-34.3,M,0000,0000*52
$GPRMC,161254.250,A,4307.8888,N,07726.3328,W,0.00,137.22,270823,,,D*7C
$GPGGA,161254.500,4307.8888,N,07726.3328,W,2,09,1.04,150.5,M,-34.3,M,0000,0000*57
$GPRMC,161254.750,A,4307.8888,N,07726.3328,W,0.01,312.45,270823,,,D*7C
$GPGGA,161255.000,4307.8888,N,07726.3328,W,2,09,1.04,150.5,M,-34.3,M,0000,0000*53
$GPRMC,161255.250,A,4307.8888,N,07726.3328,W,0.00,15.65,270823,,,D*4F
$GPGGA,161255.500,4307.8888,N,07726.3328,W,2,09,1.04,150.5,M,-34.3,M,0000,0000*56
$GPRMC,161255.750,A,4307.8888,N,07726.3328,W,0.01,335.34,270823,,,D*7E
$GPGGA,161256.000,4307.8888,N,07726.3328,W,2,09,1.04,150.5,M,-34.3,M,0000,0000*50
$GPRMC,161256.250,A,4307.8888,N,07726.3328,W,0.01,336.85,270823,,,D*71
$GPGGA,161256.500,4307.8888,N,07726.3328,W,2,09,1.04,150.5,M,-34.3,M,0000,0000*55
$GPRMC,161256.750,A,4307.8888,N,07726.3328,W,0.00,285.56,270823,,,D*72
$GPGGA,161257.000,4307.8888,N,07726.3328,W,2,09,1.04,150.5,M,-34.3,M,0000,0000*51
$GPRMC,161257.250,A,4307.8888,N,07726.3328,W,0.00,75.74,270823,,,D*4B
$GPGGA,161257.500,4307.8888,N,07726.3328,W,2,09,1.04,150.5,M,-34.3,M,0000,0000*54
$GPRMC,161257.750,A,4307.8888,N,07726.3328,W,0.01,324.86,270823,,,D*75
$GPGGA,161258.000,4307.8888,N,07726.3328,W,2,09,1.04,150.5,M,-34.3,M,0000,0000*5E
$GPRMC,161258.250,A,4307.8888,N,07726.3328,W,0.01,333.71,270823,,,D*71
$GPGGA,161258.500,4307.8888,N,07726.3328,W,2,09,1.04,150.5,M,-34.3,M,0000,0000*5B
$GPRMC,161258.750,A,4307.8888,N,07726.3328,W,0.01,359.77,270823,,,D*7E
$GPGGA,161259.000,4307.8888,N,07726.3328,W,2,09,1.04,150.5,M,-34.3,M,0000,0000*5F
$GPRMC,161259.250,A,4307.8888,N,07726.3328,W,0.01,329.72,270823,,,D*78
$GPGGA,161259.500,4307.8888,N,07726.3328,W,2,09,1.04,150.5,M,-34.3,M,0000,0000*5A
$GPRMC,161259.750,A,4307.8888,N,07726.3328,W,0.01,0.63,270823,,,D*75
$GPGGA,161300.000,4307.8888,N,07726.3328,W,2,09,1.04,150.5,M,-34.3,M,0000,0000*52
$GPRMC,161300.250,A,4307.8888,N,07726.3328,W,0.00,289.97,270823,,,D*74
$GPGGA,161300.500,4307.8888,N,07726.3328,W,2,09,1.04,150.5,M,-34.3,M,0000,0000*57
$GPRMC,161300.750,A,4307.8888,N,07726.3328,W,0.00,164.18,270823,,,D*76
$GPGGA,161301.000,4307.8888,N,07726.3328,W,2,09,1.04,150.5,M,-34.3,M,0000,0000*53
$GPRMC,161301.250,A,4307.8888,N,07726.3328,W,0.00,126.53,270823,,,D*7B
$GPGGA,161301.500,4307.8888,N,07726.3328,W,2,09,1.04,150.5,M,-34.3,M,0000,0000*56
$GPRMC,161301.750,A,4307.8888,N,07726.3328,W,0.00,153.37,270823,,,D*7E
$GPGGA,161302.000,4307.8888,N,07726.3328,W,2,09,1.04,150.5,M,-34.3,M,0000,0000*50
$GPRMC,161302.250,A,4307.8888,N,07726.3328,W,0.01,7.51,270823,,,D*79
$GPGGA,161302.500,4307.8888,N,07726.3328,W,2,09,1.04,150.5,M,-34.3,M,0000,0000*55
$GPRMC,161302.750,A,4307.8888,N,07726.3328,W,0.01,176.52,270823,,,D*78
$GPGGA,161303.000,4307.8888,N,07726.3328,W,2,09,1.04,150.5,M,-34.3,M,0000,0000*51
$GPRMC,161303.250,A,4307.8888,N,07726.3328,W,0.01,152.16,270823,,,D*7A
$GPGGA,161303.500,4307.8888,N,07726.3328,W,2,09,1.04,150.5,M,-34.3,M,0000,0000*54
$GPRMC,161303.750,A,4307.8888,N,07726.3328,W,0.01,181.12,270823,,,D*75
$GPGGA,161304.000,4307.8888,N,07726.3328,W,2,09,1.04,150.5,M,-34.3,M,0000,0000*56
$GPRMC,161304.250,A,4307.8888,N,07726.3327,W,0.01,140.58,270823,,,D*7B
$GPGGA,161304.500,4307.8888,N,07726.3327,W,2,09,1.04,150.5,M,-34.3,M,0000,0000*5C
$GPRMC,161304.750,A,4307.8888,N,07726.3327,W,0.01,136.87,270823,,,D*7D
$GPGGA,161305.000,4307.8888,N,07726.3327,W,2,09,1.04,150.5,M,-34.3,M,0000,0000*58
$GPRMC,161305.250,A,4307.8888,N,07726.3327,W,0.01,222.19,270823,,,D*78
$GPGGA,161305.500,4307.8888,N,07726.3327,W,2,09,1.04,150.5,M,-34.3,M,0000,0000*5D
$GPRMC,161305.750,A,4307.8888,N,07726.3327,W,0.00,167.62,270823,,,D*72
$GPGGA,161306.000,4307.8888,N,07726.3327,W,2,09,1.04,150.5,M,-34.3,M,0000,0000*5B
$GPRMC,161306.250,A,4307.8888,N,07726.3327,W,0.01,199.19,270823,,,D*78
$GPGGA,161306.500,4307.8888,N,07726.3327,W,2,09,1.04,150.5,M,-34.3,M,0000,0000*5E
$GPRMC,161306.750,A,4307.8888,N,07726.3327,W,0.00,22.89,270823,,,D*44
$GPGGA,161307.000,4307.8888,N,07726.3327,W,2,09,1.04,150.5,M,-34.3,M,0000,0000*5A
$GPRMC,161307.250,A,4307.8888,N,07726.3327,W,0.01,275.50,270823,,,D*75
$GPGGA,161307.500,4307.8888,N,07726.3327,W,2,09,1.04,150.5,M,-34.3,M,0000,0000*5F
$GPRMC,161307.750,A,4307.8888,N,07726.3327,W,0.01,269.97,270823,,,D*76
$GPGGA,161308.000,4307.8888,N,07726.3327,W,2,09,1.04,150.5,M,-34.3,M,0000,0000*55
$GPRMC,161308.250,A,4307.8888,N,07726.3327,W,0.01,6.57,270823,,,D*7B
$GPGGA,161308.500,4307.8888,N,07726.3327,W,2,09,1.04,150.5,M,-34.3,M,0000,0000*50
$GPRMC,161308.750,A,4307.8888,N,07726.3327,W,0.00,269.00,270823,,,D*76
$GPGGA,161309.000,4307.8888,N,07726.3327,W,2,09,1.04,150.5,M,-34.3,M,0000,0000*54
$GPRMC,161309.250,A,4307.8888,N,07726.3327,W,0.01,295.58,270823,,,D*7D
$GPGGA,161309.500,4307.8888,N,07726.3327,W,2,09,1.04,150.5,M,-34.3,M,0000,0000*51
$GPRMC,161309.750,A,4307.8888,N,07726.3327,W,0.01,339.47,270823,,,D*71
$GPGGA,161310.000,4307.8888,N,07726.3327,W,2,09,1.04,150.5,M,-34.3,M,0000,0000*5C
$GPRMC,161310.250,A,4307.8888,N,07726.3327,W,0.00,304.14,270823,,,D*75
$GPGGA,161310.500,4307.8888,N,07726.3327,W,2,09,1.04,150.5,M,-34.3,M,0000,0000*59
$GPRMC,161310.750,A,4307.8888,N,07726.3327,W,0.01,336.46,270823,,,D*77
$GPGGA,161311.000,4307.8888,N,07726.3327,W,2,09,1.04,150.5,M,-34.3,M,0000,0000*5D
$GPRMC,161311.250,A,4307.8888,N,07726.3327,W,0.01,305.11,270823,,,D*71
$GPGGA,161311.500,4307.8888,N,07726.3327,W,2,09,1.04,150.5,M,-34.3,M,0000,0000*58
$GPRMC,161311.750,A,4307.8888,N,07726.3327,W,0.01,275.06,270823,,,D*74
$GPGGA,161312.000,4307.8888,N,07726.3327,W,2,09,1.04,150.4,M,-34.3,M,0000,0000*5F
$GPRMC,161312.250,A,4307.8888,N,07726.3327,W,0.00,247.60,270823,,,D*72
$GPGGA,161312.500,4307.8888,N,07726.3327,W,2,09,1.04,150.4,M,-34.3,M,0000,0000*5A
$GPRMC,161312.750,A,4307.8888,N,07726.3327,W,0.01,173.81,270823,,,D*7D
$GPGGA,161313.000,4307.8888,N,07726.3327,W,2,09,1.04,150.4,M,-34.3,M,0000,0000*5E
$GPRMC,161313.250,A,4307.8888,N,07726.3327,W,0.01,181.69,270823,,,D*72
$GPGGA,161313.500,4307.8888,N,07726.3327,W,2,09,1.04,150.4,M,-34.3,M,0000,0000*5B
$GPRMC,161313.750,A,4307.8888,N,07726.3327,W,0.01,120.43,270823,,,D*74
$GPGGA,161314.000,4307.8888,N,07726.3327,W,2,09,1.04,150.4,M,-34.3,M,0000,0000*59
$GPRMC,161314.250,A,4307.8888,N,07726.3327,W,0.01,159.59,270823,,,D*73
$GPGGA,161314.500,4307.8888,N,07726.3327,W,2,09,1.04,150.4,M,-34.3,M,0000,0000*5C
$GPRMC,161314.750,A,4307.8888,N,07726.3327,W,0.01,198.72,270823,,,D*72
$GPGGA,161315.000,4307.8888,N,07726.3327,W,2,08,1.07,150.4,M,-34.3,M,0000,0000*5A
$GPRMC,161315.250,A,4307.8888,N,07726.3327,W,0.01,126.70,270823,,,D*71
$GPGGA,161315.500,4307.8888,N,07726.3327,W,2,09,1.04,150.4,M,-34.3,M,0000,0000*5D
$GPRMC,161315.750,A,4307.8888,N,07726.3327,W,0.00,149.97,270823,,,D*75
$GPGGA,161316.000,4307.8888,N,07726.3327,W,2,08,1.07,150.4,M,-34.3,M,0000,0000*59
$GPRMC,161316.250,A,4307.8888,N,07726.3327,W,0.01,137.28,270823,,,D*7F
$GPGGA,161316.500,4307.8888,N,07726.3327,W,2,09,1.04,150.4,M,-34.3,M,0000,0000*5E
$GPRMC,161316.750,A,4307.8888,N,07726.3327,W,0.00,150.12,270823,,,D*73
$GPGGA,161317.000,4307.8888,N,07726.3327,W,2,09,1.04,150.4,M,-34.3,M,0000,0000*5A
$GPRMC,161317.250,A,4307.8888,N,07726.3327,W,0.01,110.10,270823,,,D*70
$GPGGA,161317.500,4307.8888,N,07726.3327,W,2,08,1.07,150.4,M,-34.3,M,0000,0000*5D
$GPRMC,161317.750,A,4307.8888,N,07726.3327,W,0.01,82.21,270823,,,D*4D
$GPGGA,161318.000,4307.8888,N,07726.3327,W,2,08,1.07,150.4,M,-34.3,M,0000,0000*57
$GPRMC,161318.250,A,4307.8888,N,07726.3327,W,0.01,125.41,270823,,,D*7D
$GPGGA,161318.500,4307.8888,N,07726.3327,W,2,09,1.04,150.4,M,-34.3,M,0000,0000*50
$GPRMC,161318.750,A,4307.8888,N,07726.3327,W,0.00,320.12,270823,,,D*78
$GPGGA,161319.000,4307.8888,N,07726.3327,W,2,09,1.04,150.4,M,-34.3,M,0000,0000*54
$GPRMC,161319.250,A,4307.8888,N,07726.3327,W,0.00,8.70,270823,,,D*71
$GPGGA,161319.500,4307.8888,N,07726.3327,W,2,08,1.07,150.4,M,-34.3,M,0000,0000*53
$GPRMC,161319.750,A,4307.8888,N,07726.3327,W,0.01,273.74,270823,,,D*7F
$GPGGA,161320.000,4307.8888,N,07726.3327,W,2,09,1.04,150.4,M,-34.3,M,0000,0000*5E
$GPRMC,161320.250,A,4307.8888,N,07726.3327,W,0.02,332.35,270823,,,D*72
$GPGGA,161320.500,4307.8888,N,07726.3327,W,2,08,1.07,150.4,M,-34.3,M,0000,0000*59
$GPRMC,161320.750,A,4307.8888,N,07726.3327,W,0.01,359.02,270823,,,D*7D
$GPGGA,161321.000,4307.8888,N,07726.3327,W,2,09,1.04,150.4,M,-34.3,M,0000,0000*5F
$GPRMC,161321.250,A,4307.8888,N,07726.3327,W,0.00,42.72,270823,,,D*46
$GPGGA,161321.500,4307.8888,N,07726.3327,W,2,08,1.07,150.4,M,-34.3,M,0000,0000*58
$GPRMC,161321.750,A,4307.8888,N,07726.3327,W,0.01,24.19,270823,,,D*4F
$GPGGA,161322.000,4307.8888,N,07726.3327,W,2,08,1.07,150.4,M,-34.3,M,0000,0000*5E
$GPRMC,161322.250,A,4307.8888,N,07726.3327,W,0.00,2.63,270823,,,D*71
$GPGGA,161322.500,4307.8888,N,07726.3327,W,2,09,1.04,150.4,M,-34.3,M,0000,0000*59
$GPRMC,161322.750,A,4307.8888,N,07726.3327,W,0.00,100.88,270823,,,D*72
$GPGGA,161323.000,4307.8888,N,07726.3327,W,2,09,1.04,150.4,M,-34.3,M,0000,0000*5D
$GPRMC,161323.250,A,4307.8888,N,07726.3327,W,0.01,264.03,270823,,,D*75
$GPGGA,161323.500,4307.8888,N,07726.3327,W,2,08,1.07,150.4,M,-34.3,M,0000,0000*5A
$GPRMC,161323.750,A,4307.8888,N,07726.3327,W,0.01,345.78,270823,,,D*7E
$GPGGA,161324.000,4307.8888,N,07726.3327,W,2,09,1.04,150.4,M,-34.3,M,0000,0000*5A
$GPRMC,161324.250,A,4307.8888,N,07726.3327,W,0.01,7.51,270823,,,D*72
$GPGGA,161324.500,4307.8888,N,07726.3327,W,2,09,1.04,150.4,M,-34.3,M,0000,0000*5F
$GPRMC,161324.750,A,4307.8888,N,07726.3327,W,0.01,47.19,270823,,,D*4F
$GPGGA,161325.000,4307.8888,N,07726.3327,W,2,09,1.04,150.4,M,-34.3,M,0000,0000*5B
$GPRMC,161325.250,A,4307.8888,N,07726.3327,W,0.01,137.11,270823,,,D*75
$GPGGA,161325.500,4307.8888,N,07726.3327,W,2,09,1.04,150.4,M,-34.3,M,0000,0000*5E
$GPRMC,161325.750,A,4307.8888,N,07726.3327,W,0.01,200.18,270823,,,D*7E
$GPGGA,161326.000,4307.8888,N,07726.3327,W,2,09,1.04,150.4,M,-34.3,M,0000,0000*58
$GPRMC,161326.250,A,4307.8888,N,07726.3327,W,0.01,227.69,270823,,,D*7B
$GPGGA,161326.500,4307.8888,N,07726.3327,W,2,09,1.04,150.4,M,-34.3,M,0000,0000*5D
$GPRMC,161326.750,A,4307.8888,N,07726.3327,W,0.02,306.26,270823,,,D*74
$GPGGA,161327.000,4307.8888,N,07726.3327,W,2,09,1.04,150.4,M,-34.3,M,0000,0000*59
$GPRMC,161327.250,A,4307.8888,N,07726.3327,W,0.03,279.44,270823,,,D*7C
$GPGGA,161327.500,4307.8888,N,07726.3327,W,2,08,1.07,150.4,M,-34.3,M,0000,0000*5E
$GPRMC,161327.750,A,4307.8888,N,07726.3327,W,0.06,267.57,270823,,,D*71
$GPGGA,161328.000,4307.8888,N,07726.3327,W,2,09,1.04,150.4,M,-34.3,M,0000,0000*56
$GPRMC,161328.250,A,4307.8888,N,07726.3327,W,0.07,272.15,270823,,,D*78
$GPGGA,161328.500,4307.8888,N,07726.3327,W,2,09,1.04,150.4,M,-34.3,M,0000,0000*53
$GPRMC,161328.750,A,4307.8888,N,07726.3327,W,0.03,292.35,270823,,,D*75
$GPGGA,161329.000,4307.8888,N,07726.3327,W,2,09,1.04,150.4,M,-34.3,M,0000,0000*57
$GPRMC,161329.250,A,4307.8888,N,07726.3327,W,0.01,263.89,270823,,,D*7A
$GPGGA,161329.500,4307.8888,N,07726.3327,W,2,09,1.04,150.4,M,-34.3,M,0000,0000*52
$GPRMC,161329.750,A,4307.8888,N,07726.3327,W,0.01,293.03,270823,,,D*72
$GPGGA,161330.000,4307.8888,N,07726.3327,W,2,09,1.04,150.4,M,-34.3,M,0000,0000*5F
$GPRMC,161330.250,A,4307.8888,N,07726.3327,W,0.03,284.04,270823,,,D*7C
$GPGGA,161330.500,4307.8888,N,07726.3327,W,2,09,1.04,150.4,M,-34.3,M,0000,0000*5A
$GPRMC,161330.750,A,4307.8888,N,07726.3327,W,0.06,288.17,270823,,,D*72
$GPGGA,161331.000,4307.8888,N,07726.3327,W,2,09,1.02,150.4,M,-34.3,M,0000,0000*58
$GPRMC,161331.250,A,4307.8888,N,07726.3327,W,0.23,289.74,270823,,,D*75
$GPGGA,161331.500,4307.8888,N,07726.3327,W,2,09,1.04,150.4,M,-34.3,M,0000,0000*5B
$GPRMC,161331.750,A,4307.8888,N,07726.3327,W,0.31,290.41,270823,,,D*7D
$GPGGA,161332.000,4307.8888,N,07726.3328,W,2,09,1.02,150.4,M,-34.3,M,0000,0000*54
$GPRMC,161332.250,A,4307.8888,N,07726.3329,W,1.09,293.55,270823,,,D*79
$GPGGA,161332.500,4307.8888,N,07726.3331,W,2,09,1.02,150.4,M,-34.3,M,0000,0000*59
$GPRMC,161332.750,A,4307.8888,N,07726.3332,W,1.55,274.72,270823,,,D*73
$GPGGA,161333.000,4307.8888,N,07726.3334,W,2,09,1.02,150.3,M,-34.3,M,0000,0000*5F
$GPRMC,161333.250,A,4307.8888,N,07726.3336,W,1.64,269.24,270823,,,D*7E
$GPGGA,161333.500,4307.8888,N,07726.3337,W,2,09,1.02,150.3,M,-34.3,M,0000,0000*59
$GPRMC,161333.750,A,4307.8888,N,07726.3339,W,1.39,265.15,270823,,,D*72
$GPGGA,161334.000,4307.8888,N,07726.3340,W,2,09,1.02,150.2,M,-34.3,M,0000,0000*5A
$GPRMC,161334.250,A,4307.8888,N,07726.3342,W,1.40,267.80,270823,,,D*7C
$GPGGA,161334.500,4307.8888,N,07726.3343,W,2,09,1.02,150.2,M,-34.3,M,0000,0000*5C
$GPRMC,161334.750,A,4307.8888,N,07726.3344,W,1.24,265.90,270823,,,D*7E
$GPGGA,161335.000,4307.8887,N,07726.3346,W,2,09,1.02,150.1,M,-34.3,M,0000,0000*51
$GPRMC,161335.250,A,4307.8887,N,07726.3347,W,1.22,265.03,270823,,,D*7A
$GPGGA,161335.500,4307.8887,N,07726.3348,W,2,09,1.02,150.1,M,-34.3,M,0000,0000*5A
$GPRMC,161335.750,A,4307.8887,N,07726.3349,W,1.21,261.04,270823,,,D*71
$GPGGA,161336.000,4307.8886,N,07726.3351,W,2,09,1.02,150.0,M,-34.3,M,0000,0000*54
$GPRMC,161336.250,A,4307.8885,N,07726.3352,W,1.26,252.50,270823,,,D*79
$GPGGA,161336.500,4307.8885,N,07726.3353,W,2,09,1.02,150.0,M,-34.3,M,0000,0000*50
$GPRMC,161336.750,A,4307.8883,N,07726.3354,W,1.88,231.57,270823,,,D*7A
$GPGGA,161337.000,4307.8882,N,07726.3356,W,2,09,1.02,149.9,M,-34.3,M,0000,0000*57
$GPRMC,161337.250,A,4307.8881,N,07726.3357,W,1.88,219.82,270823,,,D*7D
$GPGGA,161337.500,4307.8880,N,07726.3358,W,2,09,1.02,149.9,M,-34.3,M,0000,0000*5E
$GPRMC,161337.750,A,4307.8879,N,07726.3358,W,0.93,205.91,270823,,,D*74
$GPGGA,161338.000,4307.8879,N,07726.3358,W,2,09,1.02,149.8,M,-34.3,M,0000,0000*53
$GPRMC,161338.250,A,4307.8879,N,07726.3358,W,0.38,167.59,270823,,,D*7C
$GPGGA,161338.500,4307.8879,N,07726.3357,W,2,09,1.02,149.8,M,-34.3,M,0000,0000*59
$GPRMC,161338.750,A,4307.8880,N,07726.3356,W,0.60,85.63,270823,,,D*48
$GPGGA,161339.000,4307.8881,N,07726.3353,W,2,09,1.02,149.7,M,-34.3,M,0000,0000*51
$GPRMC,161339.250,A,4307.8882,N,07726.3351,W,1.53,65.09,270823,,,D*4A
$GPGGA,161339.500,4307.8884,N,07726.3349,W,2,09,1.02,149.7,M,-34.3,M,0000,0000*5A
$GPRMC,161339.750,A,4307.8888,N,07726.3346,W,4.00,45.29,270823,,,D*40
$GPGGA,161340.000,4307.8892,N,07726.3344,W,2,09,1.03,149.6,M,-34.3,M,0000,0000*5B
$GPRMC,161340.250,A,4307.8895,N,07726.3341,W,5.80,29.33,270823,,,D*48
$GPGGA,161340.500,4307.8900,N,07726.3339,W,2,08,1.07,149.5,M,-34.3,M,0000,0000*58
$GPRMC,161340.750,A,4307.8904,N,07726.3337,W,6.12,18.37,270823,,,D*4B
$GPGGA,161341.000,4307.8909,N,07726.3336,W,2,09,1.04,149.5,M,-34.3,M,0000,0000*58
$GPRMC,161341.250,A,4307.8913,N,07726.3335,W,6.02,8.26,270823,,,D*7B
$GPGGA,161341.500,4307.8917,N,07726.3335,W,2,09,1.04,149.4,M,-34.3,M,0000,0000*50
$GPRMC,161341.750,A,4307.8921,N,07726.3334,W,5.39,6.14,270823,,,D*7A
$GPGGA,161342.000,4307.8925,N,07726.3334,W,2,09,1.04,149.4,M,-34.3,M,0000,0000*56
$GPRMC,161342.250,A,4307.8929,N,07726.3333,W,5.67,5.59,270823,,,D*72
$GPGGA,161342.500,4307.8933,N,07726.3333,W,2,09,1.04,149.3,M,-34.3,M,0000,0000*54
$GPRMC,161342.750,A,4307.8937,N,07726.3333,W,6.12,2.01,270823,,,D*73
$GPGGA,161343.000,4307.8942,N,07726.3333,W,2,09,1.04,149.3,M,-34.3,M,0000,0000*56
$GPRMC,161343.250,A,4307.8947,N,07726.3333,W,6.62,359.54,270823,,,D*7A
$GPGGA,161343.500,4307.8952,N,07726.3333,W,2,09,1.04,149.2,M,-34.3,M,0000,0000*53
$GPRMC,161343.750,A,4307.8957,N,07726.3335,W,6.94,352.14,270823,,,D*7E
$GPGGA,161344.000,4307.8962,N,07726.3337,W,2,09,1.04,149.2,M,-34.3,M,0000,0000*56
$GPRMC,161344.250,A,4307.8967,N,07726.3339,W,7.67,341.75,270823,,,D*7B
$GPGGA,161344.500,4307.8973,N,07726.3342,W,2,09,1.04,149.1,M,-34.3,M,0000,0000*52
$GPRMC,161344.750,A,4307.8978,N,07726.3346,W,8.17,332.11,270823,,,D*76
$GPGGA,161345.000,4307.8982,N,07726.3351,W,2,09,1.04,149.2,M,-34.3,M,0000,0000*59
$GPRMC,161345.250,A,4307.8985,N,07726.3356,W,7.27,316.47,270823,,,D*78
$GPGGA,161345.500,4307.8988,N,07726.3362,W,2,09,1.04,149.3,M,-34.3,M,0000,0000*57
$GPRMC,161345.750,A,4307.8991,N,07726.3367,W,7.23,305.98,270823,,,D*7E
$GPGGA,161346.000,4307.8993,N,07726.3374,W,2,09,1.04,149.2,M,-34.3,M,0000,0000*5D
$GPRMC,161346.250,A,4307.8995,N,07726.3380,W,7.42,291.48,270823,,,D*73
$GPGGA,161346.500,4307.8996,N,07726.3388,W,2,09,1.04,149.1,M,-34.3,M,0000,0000*5D
$GPRMC,161346.750,A,4307.8997,N,07726.3396,W,8.01,278.35,270823,,,D*76
$GPGGA,161347.000,4307.8996,N,07726.3404,W,2,09,1.04,149.1,M,-34.3,M,0000,0000*5A
$GPRMC,161347.250,A,4307.8995,N,07726.3413,W,8.89,264.66,270823,,,D*71
$GPGGA,161347.500,4307.8994,N,07726.3422,W,2,09,1.04,149.1,M,-34.3,M,0000,0000*59
$GPRMC,161347.750,A,4307.8992,N,07726.3430,W,9.77,254.27,270823,,,D*74
$GPGGA,161348.000,4307.8988,N,07726.3439,W,2,09,1.04,149.1,M,-34.3,M,0000,0000*54
$GPRMC,161348.250,A,4307.8982,N,07726.3448,W,10.77,236.17,270823,,,D*4F
$GPGGA,161348.500,4307.8977,N,07726.3457,W,2,09,1.04,148.9,M,-34.3,M,0000,0000*50
$GPRMC,161348.750,A,4307.8971,N,07726.3465,W,10.79,224.87,270823,,,D*4D
$GPGGA,161349.000,4307.8964,N,07726.3472,W,2,09,1.04,148.9,M,-34.3,M,0000,0000*51
$GPRMC,161349.250,A,4307.8957,N,07726.3478,W,11.62,214.03,270823,,,D*45
$GPGGA,161349.500,4307.8950,N,07726.3484,W,2,09,1.04,148.7,M,-34.3,M,0000,0000*54
$GPRMC,161349.750,A,4307.8942,N,07726.3489,W,12.26,207.56,270823,,,D*4B
$GPGGA,161350.000,4307.8933,N,07726.3493,W,2,09,1.04,148.7,M,-34.3,M,0000,0000*5A
$GPRMC,161350.250,A,4307.8924,N,07726.3497,W,13.10,200.44,270823,,,D*49
$GPGGA,161350.500,4307.8915,N,07726.3501,W,2,09,1.04,148.6,M,-34.3,M,0000,0000*50
$GPRMC,161350.750,A,4307.8905,N,07726.3504,W,14.04,196.04,270823,,,D*4E
