Vers 81
USE_SERIAL_FEEDBACK=true
DEVELOPMENT_MODE=false
USE_RMC_ONLY=false

$GPRMC,161654.000,A,4306.5473,N,07725.9333,W,3.91,178.32,270823,,,D*79
$GPGGA,161654.250,4306.5469,N,07725.9333,W,2,09,1.03,149.2,M,-34.3,M,0000,0000*55
$GPRMC,161654.500,A,4306.5465,N,07725.9333,W,4.80,178.78,270823,,,D*72
$GPGGA,161654.750,4306.5461,N,07725.9333,W,2,09,1.03,149.3,M,-34.3,M,0000,0000*59
$GPRMC,161655.000,A,4306.5456,N,07725.9332,W,6.22,181.09,270823,,,D*7D
$GPGGA,161655.250,4306.5451,N,07725.9333,W,2,09,1.03,149.4,M,-34.3,M,0000,0000*59
$GPRMC,161655.500,A,4306.5446,N,07725.9333,W,7.05,184.97,270823,,,D*7E
$GPGGA,161655.750,4306.5441,N,07725.9334,W,2,09,1.03,149.5,M,-34.3,M,0000,0000*5B
$GPRMC,161656.000,A,4306.5435,N,07725.9334,W,7.80,184.77,270823,,,D*78
$GPGGA,161656.250,4306.5429,N,07725.9335,W,2,09,1.03,149.6,M,-34.3,M,0000,0000*51
$GPRMC,161656.500,A,4306.5424,N,07725.9335,W,7.56,182.78,270823,,,D*7E
$GPGGA,161656.750,4306.5419,N,07725.9335,W,2,09,1.03,149.7,M,-34.3,M,0000,0000*56
$GPRMC,161657.000,A,4306.5415,N,07725.9336,W,6.47,179.62,270823,,,D*75
$GPGGA,161657.250,4306.5410,N,07725.9336,W,2,09,1.03,149.7,M,-34.3,M,0000,0000*58
$GPRMC,161657.500,A,4306.5407,N,07725.9336,W,5.41,176.78,270823,,,D*72
$GPGGA,161657.750,4306.5404,N,07725.9335,W,2,09,1.03,149.7,M,-34.3,M,0000,0000*5B
$GPRMC,161658.000,A,4306.5402,N,07725.9335,W,3.45,172.87,270823,,,D*78
$GPGGA,161658.250,4306.5400,N,07725.9336,W,2,09,1.02,149.8,M,-34.3,M,0000,0000*58
$GPRMC,161658.500,A,4306.5398,N,07725.9335,W,2.02,166.71,270823,,,D*77
$GPGGA,161658.750,4306.5398,N,07725.9335,W,2,09,1.02,149.9,M,-34.3,M,0000,0000*59
$GPRMC,161659.000,A,4306.5398,N,07725.9335,W,0.54,151.71,270823,,,D*76
$GPGGA,161659.250,4306.5399,N,07725.9334,W,2,09,1.02,150.0,M,-34.3,M,0000,0000*5C
$GPRMC,161659.500,A,4306.5399,N,07725.9334,W,0.39,151.71,270823,,,D*78
$GPGGA,161659.750,4306.5399,N,07725.9334,W,2,09,1.02,150.2,M,-34.3,M,0000,0000*5B
$GPRMC,161700.000,A,4306.5400,N,07725.9333,W,0.71,20.63,270823,,,D*48
$GPGGA,161700.250,4306.5400,N,07725.9332,W,2,09,1.02,150.4,M,-34.3,M,0000,0000*54
$GPRMC,161700.500,A,4306.5400,N,07725.9332,W,0.78,15.32,270823,,,D*47
$GPGGA,161700.750,4306.5400,N,07725.9331,W,2,09,1.02,150.6,M,-34.3,M,0000,0000*50
$GPRMC,161701.000,A,4306.5400,N,07725.9330,W,0.78,11.99,270823,,,D*44
$GPGGA,161701.250,4306.5400,N,07725.9329,W,2,09,1.03,150.7,M,-34.3,M,0000,0000*5D
$GPRMC,161701.500,A,4306.5399,N,07725.9328,W,0.75,12.93,270823,,,D*4B
$GPGGA,161701.750,4306.5399,N,07725.9327,W,2,09,1.03,150.9,M,-34.3,M,0000,0000*5F
$GPRMC,161702.000,A,4306.5399,N,07725.9325,W,0.68,16.58,270823,,,D*4F
$GPGGA,161702.250,4306.5398,N,07725.9324,W,2,09,1.02,151.0,M,-34.3,M,0000,0000*52
$GPRMC,161702.500,A,4306.5398,N,07725.9323,W,0.59,15.82,270823,,,D*4B
$GPGGA,161702.750,4306.5398,N,07725.9323,W,2,09,1.02,151.1,M,-34.3,M,0000,0000*51
$GPRMC,161703.000,A,4306.5398,N,07725.9322,W,0.49,4.83,270823,,,D*7E
$GPGGA,161703.250,4306.5397,N,07725.9321,W,2,09,1.03,151.2,M,-34.3,M,0000,0000*5A
$GPRMC,161703.500,A,4306.5397,N,07725.9320,W,0.38,4.24,270823,,,D*7D
$GPGGA,161703.750,4306.5396,N,07725.9319,W,2,09,1.03,151.3,M,-34.3,M,0000,0000*54
$GPRMC,161704.000,A,4306.5396,N,07725.9318,W,0.27,3.58,270823,,,D*77
$GPGGA,161704.250,4306.5395,N,07725.9317,W,2,09,1.03,151.4,M,-34.3,M,0000,0000*5C
$GPRMC,161704.500,A,4306.5395,N,07725.9316,W,0.19,3.37,270823,,,D*7B
$GPGGA,161704.750,4306.5394,N,07725.9315,W,2,09,1.03,151.5,M,-34.3,M,0000,0000*5B
$GPRMC,161705.000,A,4306.5394,N,07725.9314,W,0.14,4.79,270823,,,D*7C
$GPGGA,161705.250,4306.5393,N,07725.9313,W,2,09,1.02,151.6,M,-34.3,M,0000,0000*5C
$GPRMC,161705.500,A,4306.5393,N,07725.9312,W,0.14,8.12,270823,,,D*79
$GPGGA,161705.750,4306.5393,N,07725.9312,W,2,09,1.02,151.6,M,-34.3,M,0000,0000*58
$GPRMC,161706.000,A,4306.5393,N,07725.9312,W,0.23,13.49,270823,,,D*4F
$GPGGA,161706.250,4306.5393,N,07725.9312,W,2,09,1.02,151.6,M,-34.3,M,0000,0000*5E
$GPRMC,161706.500,A,4306.5393,N,07725.9311,W,0.29,21.38,270823,,,D*44
$GPGGA,161706.750,4306.5393,N,07725.9311,W,2,09,1.02,151.6,M,-34.3,M,0000,0000*58
$GPRMC,161707.000,A,4306.5393,N,07725.9311,W,0.28,30.52,270823,,,D*4D
$GPGGA,161707.250,4306.5393,N,07725.9311,W,2,09,1.02,151.6,M,-34.3,M,0000,0000*5C
$GPRMC,161707.500,A,4306.5393,N,07725.9310,W,0.28,40.93,270823,,,D*43
$GPGGA,161707.750,4306.5392,N,07725.9310,W,2,09,1.02,151.6,M,-34.3,M,0000,0000*59
$GPRMC,161708.000,A,4306.5392,N,07725.9310,W,0.29,40.93,270823,,,D*49
$GPGGA,161708.250,4306.5392,N,07725.9310,W,2,09,1.02,151.6,M,-34.3,M,0000,0000*53
$GPRMC,161708.500,A,4306.5392,N,07725.9310,W,0.29,40.93,270823,,,D*4C
$GPGGA,161708.750,4306.5392,N,07725.9310,W,2,09,1.02,151.6,M,-34.3,M,0000,0000*56
$GPRMC,161709.000,A,4306.5392,N,07725.9310,W,0.30,40.93,270823,,,D*40
$GPGGA,161709.250,4306.5391,N,07725.9309,W,2,09,1.02,151.6,M,-34.3,M,0000,0000*59
$GPRMC,161709.500,A,4306.5391,N,07725.9309,W,0.32,40.93,270823,,,D*4C
$GPGGA,161709.750,4306.5391,N,07725.9309,W,2,09,1.02,151.6,M,-34.3,M,0000,0000*5C
$GPRMC,161710.000,A,4306.5391,N,07725.9309,W,0.33,40.93,270823,,,D*40
$GPGGA,161710.250,4306.5390,N,07725.9309,W,2,09,1.02,151.6,M,-34.3,M,0000,0000*50
$GPRMC,161710.500,A,4306.5390,N,07725.9309,W,0.33,40.93,270823,,,D*44
$GPGGA,161710.750,4306.5390,N,07725.9309,W,2,09,1.02,151.6,M,-34.3,M,0000,0000*55
$GPRMC,161711.000,A,4306.5390,N,07725.9309,W,0.38,40.93,270823,,,D*4B
$GPGGA,161711.250,4306.5389,N,07725.9309,W,2,09,1.02,151.6,M,-34.3,M,0000,0000*59
$GPRMC,161711.500,A,4306.5389,N,07725.9309,W,0.38,145.28,270823,,,D*72
$GPGGA,161711.750,4306.5389,N,07725.9309,W,2,09,1.02,151.6,M,-34.3,M,0000,0000*5C
$GPRMC,161712.000,A,4306.5389,N,07725.9308,W,0.29,148.88,270823,,,D*72
$GPGGA,161712.250,4306.5388,N,07725.9308,W,2,09,1.02,151.6,M,-34.3,M,0000,0000*5A
$GPRMC,161712.500,A,4306.5388,N,07725.9308,W,0.21,150.25,270823,,,D*70
$GPGGA,161712.750,4306.5388,N,07725.9308,W,2,09,1.02,151.6,M,-34.3,M,0000,0000*5F
$GPRMC,161713.000,A,4306.5388,N,07725.9308,W,0.13,150.45,270823,,,D*73
$GPGGA,161713.250,4306.5388,N,07725.9308,W,2,09,1.02,151.6,M,-34.3,M,0000,0000*5B
$GPRMC,161713.500,A,4306.5388,N,07725.9308,W,0.13,150.76,270823,,,D*76
$GPGGA,161713.750,4306.5388,N,07725.9308,W,2,09,1.02,151.6,M,-34.3,M,0000,0000*5E
$GPRMC,161714.000,A,4306.5388,N,07725.9308,W,0.10,151.39,270823,,,D*7D
$GPGGA,161714.250,4306.5388,N,07725.9308,W,2,09,1.02,151.6,M,-34.3,M,0000,0000*5C
$GPRMC,161714.500,A,4306.5388,N,07725.9308,W,0.08,151.39,270823,,,D*71
$GPGGA,161714.750,4306.5388,N,07725.9308,W,2,09,1.02,151.6,M,-34.3,M,0000,0000*59
$GPRMC,161715.000,A,4306.5388,N,07725.9308,W,0.14,151.39,270823,,,D*78
$GPGGA,161715.250,4306.5387,N,07725.9308,W,2,09,1.02,151.6,M,-34.3,M,0000,0000*52
$GPRMC,161715.500,A,4306.5387,N,07725.9308,W,0.20,151.39,270823,,,D*75
$GPGGA,161715.750,4306.5387,N,07725.9309,W,2,09,1.02,151.6,M,-34.3,M,0000,0000*56
$GPRMC,161716.000,A,4306.5387,N,07725.9309,W,0.20,151.39,270823,,,D*72
$GPGGA,161716.250,4306.5387,N,07725.9309,W,2,09,1.02,151.6,M,-34.3,M,0000,0000*50
$GPRMC,161716.500,A,4306.5387,N,07725.9309,W,0.23,151.39,270823,,,D*74
$GPGGA,161716.750,4306.5387,N,07725.9309,W,2,09,1.02,151.6,M,-34.3,M,0000,0000*55
$GPRMC,161717.000,A,4306.5387,N,07725.9309,W,0.27,151.39,270823,,,D*74
$GPGGA,161717.250,4306.5387,N,07725.9310,W,2,09,1.02,151.6,M,-34.3,M,0000,0000*59
$GPRMC,161717.500,A,4306.5386,N,07725.9310,W,0.31,151.39,270823,,,D*7F
$GPGGA,161717.750,4306.5386,N,07725.9310,W,2,09,1.02,151.6,M,-34.3,M,0000,0000*5D
$GPRMC,161718.000,A,4306.5386,N,07725.9310,W,0.34,202.04,270823,,,D*7B
$GPGGA,161718.250,4306.5386,N,07725.9310,W,2,09,1.02,151.6,M,-34.3,M,0000,0000*57
$GPRMC,161718.500,A,4306.5386,N,07725.9310,W,0.31,201.78,270823,,,D*73
$GPGGA,161718.750,4306.5385,N,07725.9311,W,2,09,1.02,151.6,M,-34.3,M,0000,0000*50
$GPRMC,161719.000,A,4306.5385,N,07725.9311,W,0.29,199.99,270823,,,D*71
$GPGGA,161719.250,4306.5385,N,07725.9311,W,2,09,1.02,151.6,M,-34.3,M,0000,0000*54
$GPRMC,161719.500,A,4306.5385,N,07725.9311,W,0.28,196.71,270823,,,D*7C
$GPGGA,161719.750,4306.5385,N,07725.9311,W,2,09,1.02,151.6,M,-34.3,M,0000,0000*51
$GPRMC,161720.000,A,4306.5384,N,07725.9311,W,0.22,192.37,270823,,,D*7E
$GPGGA,161720.250,4306.5384,N,07725.9311,W,2,09,1.02,151.6,M,-34.3,M,0000,0000*5F
$GPRMC,161720.500,A,4306.5384,N,07725.9310,W,0.20,187.92,270823,,,D*73
$GPGGA,161720.750,4306.5384,N,07725.9310,W,2,09,1.02,151.6,M,-34.3,M,0000,0000*5B
$GPRMC,161721.000,A,4306.5384,N,07725.9310,W,0.29,183.53,270823,,,D*77
$GPGGA,161721.250,4306.5384,N,07725.9310,W,2,09,1.02,151.6,M,-34.3,M,0000,0000*5F
$GPRMC,161721.500,A,4306.5383,N,07725.9310,W,0.60,182.37,270823,,,D*7B
$GPGGA,161721.750,4306.5380,N,07725.9311,W,2,09,1.02,151.7,M,-34.3,M,0000,0000*5E
$GPRMC,161722.000,A,4306.5377,N,07725.9311,W,1.62,185.33,270823,,,D*77
$GPGGA,161722.250,4306.5372,N,07725.9312,W,2,09,1.02,151.7,M,-34.3,M,0000,0000*56
$GPRMC,161722.500,A,4306.5369,N,07725.9313,W,4.70,193.52,270823,,,D*79
$GPGGA,161722.750,4306.5362,N,07725.9315,W,2,09,1.03,151.8,M,-34.3,M,0000,0000*5B
$GPRMC,161723.000,A,4306.5355,N,07725.9314,W,7.87,189.51,270823,,,D*76
$GPGGA,161723.250,4306.5347,N,07725.9314,W,2,09,1.03,151.8,M,-34.3,M,0000,0000*59
$GPRMC,161723.500,A,4306.5338,N,07725.9313,W,9.70,186.05,270823,,,D*77
$GPGGA,161723.750,4306.5330,N,07725.9314,W,2,09,1.03,151.8,M,-34.3,M,0000,0000*5C
$GPRMC,161724.000,A,4306.5321,N,07725.9314,W,11.45,184.54,270823,,,D*43
$GPGGA,161724.250,4306.5311,N,07725.9314,W,2,09,1.03,151.8,M,-34.3,M,0000,0000*5D
$GPRMC,161724.500,A,4306.5302,N,07725.9315,W,12.65,185.07,270823,,,D*40
$GPGGA,161724.750,4306.5292,N,07725.9316,W,2,09,1.03,151.9,M,-34.3,M,0000,0000*51
$GPRMC,161725.000,A,4306.5282,N,07725.9316,W,14.28,183.61,270823,,,D*47
$GPGGA,161725.250,4306.5271,N,07725.9316,W,2,09,1.03,151.9,M,-34.3,M,0000,0000*58
$GPRMC,161725.500,A,4306.5261,N,07725.9317,W,15.06,182.16,270823,,,D*42
$GPGGA,161725.750,4306.5250,N,07725.9317,W,2,09,1.03,151.9,M,-34.3,M,0000,0000*5F
$GPRMC,161726.000,A,4306.5239,N,07725.9318,W,16.30,180.27,270823,,,D*40
$GPGGA,161726.250,4306.5227,N,07725.9319,W,2,09,1.03,151.9,M,-34.3,M,0000,0000*57
$GPRMC,161726.500,A,4306.5215,N,07725.9319,W,16.96,180.45,270823,,,D*42
$GPGGA,161726.750,4306.5202,N,07725.9319,W,2,09,1.03,151.9,M,-34.3,M,0000,0000*55
$GPRMC,161727.000,A,4306.5189,N,07725.9320,W,17.97,180.14,270823,,,D*4E
$GPGGA,161727.250,4306.5176,N,07725.9320,W,2,09,1.03,151.9,M,-34.3,M,0000,0000*5B
$GPRMC,161727.500,A,4306.5163,N,07725.9320,W,18.58,180.00,270823,,,D*46
$GPGGA,161727.750,4306.5149,N,07725.9320,W,2,09,1.03,151.9,M,-34.3,M,0000,0000*52
$GPRMC,161728.000,A,4306.5136,N,07725.9320,W,19.48,180.25,270823,,,D*4B
$GPGGA,161728.250,4306.5122,N,07725.9320,W,2,09,1.03,151.8,M,-34.3,M,0000,0000*54
$GPRMC,161728.500,A,4306.5108,N,07725.9320,W,20.05,180.64,270823,,,D*45
$GPGGA,161728.750,4306.5094,N,07725.9320,W,2,08,1.06,151.7,M,-34.3,M,0000,0000*56
$GPRMC,161729.000,A,4306.5080,N,07725.9321,W,20.43,181.03,270823,,,D*43
$GPGGA,161729.250,4306.5066,N,07725.9322,W,2,09,1.03,151.7,M,-34.3,M,0000,0000*59
$GPRMC,161729.500,A,4306.5051,N,07725.9322,W,20.86,180.20,270823,,,D*40
$GPGGA,161729.750,4306.5037,N,07725.9322,W,2,08,1.06,151.7,M,-34.3,M,0000,0000*5C
$GPRMC,161730.000,A,4306.5022,N,07725.9322,W,21.47,179.59,270823,,,D*4D
$GPGGA,161730.250,4306.5007,N,07725.9322,W,2,09,1.03,151.7,M,-34.3,M,0000,0000*56
$GPRMC,161730.500,A,4306.4993,N,07725.9323,W,21.66,179.61,270823,,,D*43
$GPGGA,161730.750,4306.4977,N,07725.9323,W,2,09,1.03,151.7,M,-34.3,M,0000,0000*5D
$GPRMC,161731.000,A,4306.4962,N,07725.9323,W,22.21,179.16,270823,,,D*49
$GPGGA,161731.250,4306.4947,N,07725.9323,W,2,09,1.03,151.7,M,-34.3,M,0000,0000*5A
$GPRMC,161731.500,A,4306.4931,N,07725.9323,W,22.64,179.17,270823,,,D*4A
$GPGGA,161731.750,4306.4915,N,07725.9323,W,2,09,1.03,151.6,M,-34.3,M,0000,0000*59
$GPRMC,161732.000,A,4306.4899,N,07725.9324,W,23.45,179.58,270823,,,D*41
$GPGGA,161732.250,4306.4883,N,07725.9325,W,2,09,1.03,151.5,M,-34.3,M,0000,0000*54
$GPRMC,161732.500,A,4306.4866,N,07725.9325,W,24.07,179.78,270823,,,D*46
$GPGGA,161732.750,4306.4849,N,07725.9325,W,2,09,1.03,151.5,M,-34.3,M,0000,0000*57
$GPRMC,161733.000,A,4306.4831,N,07725.9325,W,25.42,179.51,270823,,,D*4B
$GPGGA,161733.250,4306.4813,N,07725.9325,W,2,09,1.03,151.3,M,-34.3,M,0000,0000*5A
$GPRMC,161733.500,A,4306.4795,N,07725.9326,W,26.33,180.28,270823,,,D*41
$GPGGA,161733.750,4306.4776,N,07725.9326,W,2,09,1.03,151.2,M,-34.3,M,0000,0000*51
$GPRMC,161734.000,A,4306.4757,N,07725.9326,W,27.83,179.40,270823,,,D*4F
$GPGGA,161734.250,4306.4738,N,07725.9325,W,2,09,1.03,151.2,M,-34.3,M,0000,0000*5A
$GPRMC,161734.500,A,4306.4718,N,07725.9325,W,28.33,179.54,270823,,,D*43
$GPGGA,161734.750,4306.4699,N,07725.9325,W,2,09,1.03,151.2,M,-34.3,M,0000,0000*55
$GPRMC,161735.000,A,4306.4678,N,07725.9325,W,28.92,179.15,270823,,,D*4E
$GPGGA,161735.250,4306.4658,N,07725.9325,W,2,09,1.03,151.2,M,-34.3,M,0000,0000*5C
$GPRMC,161735.500,A,4306.4637,N,07725.9325,W,29.83,179.54,270823,,,D*44
$GPGGA,161735.750,4306.4616,N,07725.9325,W,2,09,1.03,151.3,M,-34.3,M,0000,0000*52
$GPRMC,161736.000,A,4306.4595,N,07725.9325,W,30.12,179.88,270823,,,D*48
$GPGGA,161736.250,4306.4574,N,07725.9325,W,2,09,1.03,151.3,M,-34.3,M,0000,0000*53
$GPRMC,161736.500,A,4306.4553,N,07725.9325,W,30.54,179.95,270823,,,D*49
$GPGGA,161736.750,4306.4531,N,07725.9325,W,2,09,1.03,151.3,M,-34.3,M,0000,0000*57
$GPRMC,161737.000,A,4306.4510,N,07725.9325,W,31.04,180.04,270823,,,D*40
$GPGGA,161737.250,4306.4488,N,07725.9325,W,2,09,1.03,151.4,M,-34.3,M,0000,0000*57
$GPRMC,161737.500,A,4306.4466,N,07725.9325,W,31.29,180.26,270823,,,D*4A
$GPGGA,161737.750,4306.4444,N,07725.9325,W,2,09,1.03,151.4,M,-34.3,M,0000,0000*52
$GPRMC,161738.000,A,4306.4421,N,07725.9325,W,31.51,179.91,270823,,,D*46
$GPGGA,161738.250,4306.4399,N,07725.9325,W,2,09,1.03,151.5,M,-34.3,M,0000,0000*5E
$GPRMC,161738.500,A,4306.4377,N,07725.9324,W,32.21,179.45,270823,,,D*4B
$GPGGA,161738.750,4306.4354,N,07725.9323,W,2,09,1.03,151.6,M,-34.3,M,0000,0000*5F
$GPRMC,161739.000,A,4306.4331,N,07725.9323,W,32.47,178.43,270823,,,D*4D
$GPGGA,161739.250,4306.4308,N,07725.9323,W,2,09,1.03,152.0,M,-34.3,M,0000,0000*57
$GPRMC,161739.500,A,4306.4286,N,07725.9322,W,32.37,178.89,270823,,,D*45
$GPGGA,161739.750,4306.4264,N,07725.9322,W,2,09,1.03,152.1,M,-34.3,M,0000,0000*59
$GPRMC,161740.000,A,4306.4241,N,07725.9322,W,32.42,179.43,270823,,,D*40
$GPGGA,161740.250,4306.4220,N,07725.9321,W,2,09,1.03,152.2,M,-34.3,M,0000,0000*52
$GPRMC,161740.500,A,4306.4198,N,07725.9321,W,31.65,179.62,270823,,,D*44
$GPGGA,161740.750,4306.4176,N,07725.9321,W,2,09,1.03,152.3,M,-34.3,M,0000,0000*56
$GPRMC,161741.000,A,4306.4155,N,07725.9320,W,31.18,180.07,270823,,,D*4F
$GPGGA,161741.250,4306.4134,N,07725.9320,W,2,09,1.03,152.2,M,-34.3,M,0000,0000*54
$GPRMC,161741.500,A,4306.4112,N,07725.9320,W,30.91,180.12,270823,,,D*4D
$GPGGA,161741.750,4306.4091,N,07725.9320,W,2,09,1.03,152.3,M,-34.3,M,0000,0000*5E
$GPRMC,161742.000,A,4306.4070,N,07725.9320,W,30.88,179.70,270823,,,D*44
$GPGGA,161742.250,4306.4048,N,07725.9319,W,2,09,1.03,152.3,M,-34.3,M,0000,0000*56
$GPRMC,161742.500,A,4306.4027,N,07725.9319,W,31.21,179.17,270823,,,D*4A
$GPGGA,161742.750,4306.4005,N,07725.9318,W,2,09,1.03,152.2,M,-34.3,M,0000,0000*5A
$GPRMC,161743.000,A,4306.3983,N,07725.9317,W,31.63,178.71,270823,,,D*47
$GPGGA,161743.250,4306.3961,N,07725.9317,W,2,09,1.03,152.3,M,-34.3,M,0000,0000*5C
$GPRMC,161743.500,A,4306.3938,N,07725.9316,W,31.87,179.12,270823,,,D*4D
$GPGGA,161743.750,4306.3916,N,07725.9315,W,2,09,1.03,152.2,M,-34.3,M,0000,0000*5A
$GPRMC,161744.000,A,4306.3893,N,07725.9315,W,32.26,179.21,270823,,,D*44
$GPGGA,161744.250,4306.3872,N,07725.9316,W,2,09,1.03,152.3,M,-34.3,M,0000,0000*59
$GPRMC,161744.500,A,4306.3849,N,07725.9315,W,32.44,179.37,270823,,,D*45
$GPGGA,161744.750,4306.3827,N,07725.9316,W,2,09,1.03,152.6,M,-34.3,M,0000,0000*59
$GPRMC,161745.000,A,4306.3806,N,07725.9316,W,32.49,179.79,270823,,,D*4E
$GPGGA,161745.250,4306.3784,N,07725.9316,W,2,09,1.03,153.0,M,-34.3,M,0000,0000*5C
$GPRMC,161745.500,A,4306.3762,N,07725.9317,W,32.48,179.38,270823,,,D*43
$GPGGA,161745.750,4306.3740,N,07725.9317,W,2,09,1.03,153.5,M,-34.3,M,0000,0000*55
$GPRMC,161746.000,A,4306.3718,N,07725.9317,W,32.72,179.31,270823,,,D*48
$GPGGA,161746.250,4306.3696,N,07725.9317,W,2,09,1.03,154.0,M,-34.3,M,0000,0000*5B
$GPRMC,161746.500,A,4306.3673,N,07725.9316,W,32.84,179.14,270823,,,D*4E
$GPGGA,161746.750,4306.3651,N,07725.9316,W,2,09,1.03,154.6,M,-34.3,M,0000,0000*52
$GPRMC,161747.000,A,4306.3628,N,07725.9315,W,33.06,178.82,270823,,,D*42
$GPGGA,161747.250,4306.3606,N,07725.9315,W,2,09,1.03,155.1,M,-34.3,M,0000,0000*51
$GPRMC,161747.500,A,4306.3583,N,07725.9314,W,33.03,179.17,270823,,,D*4C
$GPGGA,161747.750,4306.3561,N,07725.9314,W,2,09,1.03,155.8,M,-34.3,M,0000,0000*5E
$GPRMC,161748.000,A,4306.3539,N,07725.9315,W,32.73,179.70,270823,,,D*41
$GPGGA,161748.250,4306.3517,N,07725.9314,W,2,09,1.03,156.7,M,-34.3,M,0000,0000*59
$GPRMC,161748.500,A,4306.3495,N,07725.9315,W,32.77,179.78,270823,,,D*4F
$GPGGA,161748.750,4306.3474,N,07725.9315,W,2,09,1.03,157.4,M,-34.3,M,0000,0000*5B
$GPRMC,161749.000,A,4306.3452,N,07725.9315,W,31.84,179.83,270823,,,D*4B
$GPGGA,161749.250,4306.3430,N,07725.9315,W,2,09,1.03,158.1,M,-34.3,M,0000,0000*55
$GPRMC,161749.500,A,4306.3409,N,07725.9315,W,31.81,179.55,270823,,,D*4E
$GPGGA,161749.750,4306.3387,N,07725.9315,W,2,09,1.03,158.9,M,-34.3,M,0000,0000*53
$GPRMC,161750.000,A,4306.3366,N,07725.9316,W,31.20,180.11,270823,,,D*43
$GPGGA,161750.250,4306.3345,N,07725.9316,W,2,09,1.03,159.6,M,-34.3,M,0000,0000*5D
$GPRMC,161750.500,A,4306.3324,N,07725.9316,W,31.07,179.90,270823,,,D*4A
$GPGGA,161750.750,4306.3303,N,07725.9316,W,2,09,1.03,160.3,M,-34.3,M,0000,0000*55
$GPRMC,161751.000,A,4306.3282,N,07725.9316,W,30.78,179.59,270823,,,D*4F
$GPGGA,161751.250,4306.3262,N,07725.9316,W,2,09,1.03,161.0,M,-34.3,M,0000,0000*55
$GPRMC,161751.500,A,4306.3238,N,07725.9314,W,30.61,179.59,270823,,,D*41
$GPGGA,161751.750,4306.3218,N,07725.9314,W,2,09,1.03,160.2,M,-34.3,M,0000,0000*5C
$GPRMC,161752.000,A,4306.3198,N,07725.9314,W,29.90,179.79,270823,,,D*4A
$GPGGA,161752.250,4306.3178,N,07725.9314,W,2,09,1.03,160.8,M,-34.3,M,0000,0000*55
$GPRMC,161752.500,A,4306.3159,N,07725.9314,W,27.96,180.09,270823,,,D*4B
$GPGGA,161752.750,4306.3139,N,07725.9314,W,2,09,1.03,161.4,M,-34.3,M,0000,0000*58
$GPRMC,161753.000,A,4306.3120,N,07725.9315,W,26.52,180.02,270823,,,D*42
$GPGGA,161753.250,4306.3101,N,07725.9314,W,2,09,1.03,161.8,M,-34.3,M,0000,0000*5B
$GPRMC,161753.500,A,4306.3083,N,07725.9314,W,25.98,179.69,270823,,,D*40
$GPGGA,161753.750,4306.3064,N,07725.9313,W,2,09,1.03,162.0,M,-34.3,M,0000,0000*50
$GPRMC,161754.000,A,4306.3045,N,07725.9313,W,25.73,180.37,270823,,,D*47
$GPGGA,161754.250,4306.3027,N,07725.9313,W,2,09,1.03,162.2,M,-34.3,M,0000,0000*57
$GPRMC,161754.500,A,4306.3009,N,07725.9313,W,25.64,180.40,270823,,,D*4C
$GPGGA,161754.750,4306.2990,N,07725.9313,W,2,09,1.03,162.3,M,-34.3,M,0000,0000*57
$GPRMC,161755.000,A,4306.2972,N,07725.9313,W,25.67,180.86,270823,,,D*45
$GPGGA,161755.250,4306.2953,N,07725.9314,W,2,09,1.03,162.5,M,-34.3,M,0000,0000*5D
$GPRMC,161755.500,A,4306.2936,N,07725.9314,W,25.67,181.12,270823,,,D*4B
$GPGGA,161755.750,4306.2918,N,07725.9315,W,2,09,1.03,162.7,M,-34.3,M,0000,0000*54
$GPRMC,161756.000,A,4306.2900,N,07725.9315,W,25.28,180.59,270823,,,D*4C
$GPGGA,161756.250,4306.2883,N,07725.9315,W,2,09,1.03,162.9,M,-34.3,M,0000,0000*5F
$GPRMC,161756.500,A,4306.2865,N,07725.9316,W,25.29,181.48,270823,,,D*48
$GPGGA,161756.750,4306.2847,N,07725.9316,W,2,09,1.03,163.0,M,-34.3,M,0000,0000*59
$GPRMC,161757.000,A,4306.2829,N,07725.9316,W,25.36,181.36,270823,,,D*43
$GPGGA,161757.250,4306.2810,N,07725.9316,W,2,09,1.03,163.0,M,-34.3,M,0000,0000*5F
$GPRMC,161757.500,A,4306.2792,N,07725.9316,W,25.41,181.27,270823,,,D*49
$GPGGA,161757.750,4306.2775,N,07725.9317,W,2,09,1.03,163.0,M,-34.3,M,0000,0000*57
$GPRMC,161758.000,A,4306.2757,N,07725.9318,W,24.97,181.36,270823,,,D*4E
$GPGGA,161758.250,4306.2740,N,07725.9318,W,2,09,1.03,163.0,M,-34.3,M,0000,0000*54
$GPRMC,161758.500,A,4306.2722,N,07725.9318,W,24.70,181.37,270823,,,D*41
$GPGGA,161758.750,4306.2705,N,07725.9318,W,2,09,1.03,162.6,M,-34.3,M,0000,0000*57
$GPRMC,161759.000,A,4306.2688,N,07725.9318,W,24.13,181.38,270823,,,D*4E
$GPGGA,161759.250,4306.2671,N,07725.9319,W,2,09,1.03,162.6,M,-34.3,M,0000,0000*50
$GPRMC,161759.500,A,4306.2655,N,07725.9319,W,23.80,181.85,270823,,,D*41
$GPGGA,161759.750,4306.2639,N,07725.9320,W,2,09,1.03,162.7,M,-34.3,M,0000,0000*52
$GPRMC,161800.000,A,4306.2622,N,07725.9320,W,23.66,181.79,270823,,,D*46
$GPGGA,161800.250,4306.2605,N,07725.9321,W,2,09,1.03,162.7,M,-34.3,M,0000,0000*5A
$GPRMC,161800.500,A,4306.2588,N,07725.9321,W,23.89,181.47,270823,,,D*4D
$GPGGA,161800.750,4306.2571,N,07725.9321,W,2,09,1.03,162.7,M,-34.3,M,0000,0000*5F
$GPRMC,161801.000,A,4306.2553,N,07725.9321,W,24.79,180.73,270823,,,D*41
$GPGGA,161801.250,4306.2535,N,07725.9321,W,2,09,1.03,162.6,M,-34.3,M,0000,0000*5A
$GPRMC,161801.500,A,4306.2517,N,07725.9321,W,25.50,179.98,270823,,,D*4D
$GPGGA,161801.750,4306.2499,N,07725.9321,W,2,09,1.03,162.7,M,-34.3,M,0000,0000*59
$GPRMC,161802.000,A,4306.2481,N,07725.9320,W,26.65,179.62,270823,,,D*44
$GPGGA,161802.250,4306.2462,N,07725.9320,W,2,09,1.03,162.7,M,-34.3,M,0000,0000*5A
$GPRMC,161802.500,A,4306.2443,N,07725.9320,W,27.08,179.97,270823,,,D*4F
$GPGGA,161802.750,4306.2424,N,07725.9320,W,2,09,1.03,162.9,M,-34.3,M,0000,0000*53
$GPRMC,161803.000,A,4306.2405,N,07725.9320,W,27.46,180.16,270823,,,D*4C
$GPGGA,161803.250,4306.2386,N,07725.9320,W,2,09,1.03,163.1,M,-34.3,M,0000,0000*51
$GPRMC,161803.500,A,4306.2368,N,07725.9320,W,27.70,180.52,270823,,,D*40
$GPGGA,161803.750,4306.2349,N,07725.9321,W,2,09,1.03,163.1,M,-34.3,M,0000,0000*56
$GPRMC,161804.000,A,4306.2329,N,07725.9321,W,27.89,180.88,270823,,,D*47
$GPGGA,161804.250,4306.2310,N,07725.9321,W,2,09,1.03,163.2,M,-34.3,M,0000,0000*5B
$GPRMC,161804.500,A,4306.2291,N,07725.9321,W,27.74,181.02,270823,,,D*41
$GPGGA,161804.750,4306.2271,N,07725.9321,W,2,09,1.03,162.9,M,-34.3,M,0000,0000*52
$GPRMC,161805.000,A,4306.2252,N,07725.9321,W,27.66,180.86,270823,,,D*44
$GPGGA,161805.250,4306.2233,N,07725.9321,W,2,09,1.03,162.7,M,-34.3,M,0000,0000*5E
$GPRMC,161805.500,A,4306.2214,N,07725.9321,W,27.42,180.43,270823,,,D*4C
$GPGGA,161805.750,4306.2195,N,07725.9321,W,2,09,1.03,162.7,M,-34.3,M,0000,0000*54
$GPRMC,161806.000,A,4306.2177,N,07725.9321,W,26.42,180.21,270823,,,D*49
$GPGGA,161806.250,4306.2159,N,07725.9321,W,2,09,1.03,162.6,M,-34.3,M,0000,0000*53
$GPRMC,161806.500,A,4306.2141,N,07725.9321,W,25.59,179.21,270823,,,D*46
$GPGGA,161806.750,4306.2125,N,07725.9321,W,2,09,1.03,162.7,M,-34.3,M,0000,0000*5C
$GPRMC,161807.000,A,4306.2109,N,07725.9321,W,23.29,179.48,270823,,,D*40
$GPGGA,161807.250,4306.2094,N,07725.9321,W,2,09,1.03,162.6,M,-34.3,M,0000,0000*52
$GPRMC,161807.500,A,4306.2080,N,07725.9320,W,21.77,179.11,270823,,,D*41
$GPGGA,161807.750,4306.2066,N,07725.9320,W,2,09,1.03,162.5,M,-34.3,M,0000,0000*58
$GPRMC,161808.000,A,4306.2053,N,07725.9320,W,19.57,178.77,270823,,,D*4D
$GPGGA,161808.250,4306.2040,N,07725.9319,W,2,09,1.03,162.3,M,-34.3,M,0000,0000*5A
$GPRMC,161808.500,A,4306.2028,N,07725.9319,W,17.99,178.78,270823,,,D*4D
$GPGGA,161808.750,4306.2017,N,07725.9319,W,2,09,1.03,162.2,M,-34.3,M,0000,0000*5C
$GPRMC,161809.000,A,4306.2007,N,07725.9318,W,16.03,178.82,270823,,,D*42
$GPGGA,161809.250,4306.1998,N,07725.9317,W,2,09,1.03,161.9,M,-34.3,M,0000,0000*53
$GPRMC,161809.500,A,4306.1989,N,07725.9318,W,15.04,179.58,270823,,,D*49
$GPGGA,161809.750,4306.1980,N,07725.9319,W,2,09,1.03,162.0,M,-34.3,M,0000,0000*5B
$GPRMC,161810.000,A,4306.1972,N,07725.9319,W,13.74,179.64,270823,,,D*4F
$GPGGA,161810.250,4306.1964,N,07725.9319,W,2,09,1.03,162.2,M,-34.3,M,0000,0000*5E
$GPRMC,161810.500,A,4306.1956,N,07725.9320,W,12.97,180.87,270823,,,D*41
$GPGGA,161810.750,4306.1948,N,07725.9321,W,2,09,1.03,162.4,M,-34.3,M,0000,0000*58
$GPRMC,161811.000,A,4306.1940,N,07725.9323,W,12.15,182.07,270823,,,D*41
$GPGGA,161811.250,4306.1933,N,07725.9325,W,2,09,1.03,162.8,M,-34.3,M,0000,0000*58
$GPRMC,161811.500,A,4306.1926,N,07725.9325,W,11.17,180.93,270823,,,D*4C
$GPGGA,161811.750,4306.1920,N,07725.9326,W,2,09,1.03,162.9,M,-34.3,M,0000,0000*5D
$GPRMC,161812.000,A,4306.1914,N,07725.9326,W,9.30,180.62,270823,,,D*7A
$GPGGA,161812.250,4306.1910,N,07725.9327,W,2,09,1.03,163.1,M,-34.3,M,0000,0000*50
$GPRMC,161812.500,A,4306.1905,N,07725.9328,W,7.73,181.28,270823,,,D*77
$GPGGA,161812.750,4306.1901,N,07725.9328,W,2,09,1.03,163.2,M,-34.3,M,0000,0000*59
$GPRMC,161813.000,A,4306.1898,N,07725.9328,W,5.22,179.05,270823,,,D*78
$GPGGA,161813.250,4306.1896,N,07725.9328,W,2,09,1.03,163.3,M,-34.3,M,0000,0000*53
$GPRMC,161813.500,A,4306.1894,N,07725.9328,W,3.66,175.59,270823,,,D*72
$GPGGA,161813.750,4306.1893,N,07725.9328,W,2,09,1.02,163.4,M,-34.3,M,0000,0000*55
$GPRMC,161814.000,A,4306.1893,N,07725.9329,W,0.10,175.59,270823,,,D*74
$GPGGA,161814.250,4306.1893,N,07725.9329,W,2,09,1.02,163.6,M,-34.3,M,0000,0000*54
$GPRMC,161814.500,A,4306.1894,N,07725.9330,W,0.00,175.59,270823,,,D*7F
$GPGGA,161814.750,4306.1895,N,07725.9330,W,2,09,1.02,164.1,M,-34.3,M,0000,0000*5F
$GPRMC,161815.000,A,4306.1896,N,07725.9331,W,0.07,175.59,270823,,,D*7F
$GPGGA,161815.250,4306.1897,N,07725.9331,W,2,09,1.03,164.2,M,-34.3,M,0000,0000*5A
$GPRMC,161815.500,A,4306.1898,N,07725.9331,W,0.10,175.59,270823,,,D*72
$GPGGA,161815.750,4306.1899,N,07725.9331,W,2,09,1.03,164.3,M,-34.3,M,0000,0000*50
$GPRMC,161816.000,A,4306.1899,N,07725.9331,W,0.11,175.59,270823,,,D*74
$GPGGA,161816.250,4306.1900,N,07725.9332,W,2,09,1.03,164.4,M,-34.3,M,0000,0000*53
$GPRMC,161816.500,A,4306.1900,N,07725.9332,W,0.01,175.59,270823,,,D*72
$GPGGA,161816.750,4306.1901,N,07725.9332,W,2,09,1.02,164.6,M,-34.3,M,0000,0000*54
$GPRMC,161817.000,A,4306.1901,N,07725.9332,W,0.01,175.59,270823,,,D*77
$GPGGA,161817.250,4306.1901,N,07725.9332,W,2,09,1.02,164.7,M,-34.3,M,0000,0000*51
$GPRMC,161817.500,A,4306.1901,N,07725.9332,W,0.02,175.59,270823,,,D*71
$GPGGA,161817.750,4306.1901,N,07725.9332,W,2,09,1.02,164.7,M,-34.3,M,0000,0000*54
$GPRMC,161818.000,A,4306.1901,N,07725.9332,W,0.02,175.59,270823,,,D*7B
$GPGGA,161818.250,4306.1901,N,07725.9332,W,2,09,1.02,164.7,M,-34.3,M,0000,0000*5E
$GPRMC,161818.500,A,4306.1901,N,07725.9333,W,0.03,175.59,270823,,,D*7E
$GPGGA,161818.750,4306.1901,N,07725.9333,W,2,09,1.02,164.7,M,-34.3,M,0000,0000*5A
$GPRMC,161819.000,A,4306.1900,N,07725.9333,W,0.04,175.59,270823,,,D*7C
$GPGGA,161819.250,4306.1900,N,07725.9333,W,2,09,1.02,164.7,M,-34.3,M,0000,0000*5F
$GPRMC,161819.500,A,4306.1900,N,07725.9333,W,0.05,175.59,270823,,,D*78
$GPGGA,161819.750,4306.1899,N,07725.9333,W,2,09,1.02,164.7,M,-34.3,M,0000,0000*5B
$GPRMC,161820.000,A,4306.1899,N,07725.9334,W,0.04,175.59,270823,,,D*70
$GPGGA,161820.250,4306.1899,N,07725.9334,W,2,09,1.02,164.7,M,-34.3,M,0000,0000*53
$GPRMC,161820.500,A,4306.1899,N,07725.9334,W,0.04,175.59,270823,,,D*75
$GPGGA,161820.750,4306.1898,N,07725.9334,W,2,09,1.02,164.7,M,-34.3,M,0000,0000*57
$GPRMC,161821.000,A,4306.1898,N,07725.9334,W,0.03,175.59,270823,,,D*77
$GPGGA,161821.250,4306.1898,N,07725.9334,W,2,09,1.02,164.7,M,-34.3,M,0000,0000*53
$GPRMC,161821.500,A,4306.1898,N,07725.9334,W,0.02,175.59,270823,,,D*73
$GPGGA,161821.750,4306.1898,N,07725.9333,W,2,09,1.02,164.7,M,-34.3,M,0000,0000*51
$GPRMC,161822.000,A,4306.1897,N,07725.9333,W,0.01,175.59,270823,,,D*7E
$GPGGA,161822.250,4306.1897,N,07725.9333,W,2,09,1.02,164.7,M,-34.3,M,0000,0000*58
$GPRMC,161822.500,A,4306.1897,N,07725.9333,W,0.01,175.59,270823,,,D*7B
$GPGGA,161822.750,4306.1897,N,07725.9333,W,2,09,1.02,164.7,M,-34.3,M,0000,0000*5D
$GPRMC,161823.000,A,4306.1897,N,07725.9333,W,0.01,175.59,270823,,,D*7F
$GPGGA,161823.250,4306.1897,N,07725.9333,W,2,09,1.02,164.8,M,-34.3,M,0000,0000*56
$GPRMC,161823.500,A,4306.1897,N,07725.9333,W,0.01,175.59,270823,,,D*7A
$GPGGA,161823.750,4306.1897,N,07725.9333,W,2,09,1.02,164.8,M,-34.3,M,0000,0000*53
$GPRMC,161824.000,A,4306.1897,N,07725.9333,W,0.01,175.59,270823,,,D*78
$GPGGA,161824.250,4306.1897,N,07725.9333,W,2,09,1.02,164.8,M,-34.3,M,0000,0000*51
$GPRMC,161824.500,A,4306.1897,N,07725.9333,W,0.01,175.59,270823,,,D*7D
$GPGGA,161824.750,4306.1897,N,07725.9333,W,2,09,1.02,164.8,M,-34.3,M,0000,0000*54
$GPRMC,161825.000,A,4306.1897,N,07725.9333,W,0.01,175.59,270823,,,D*79
$GPGGA,161825.250,4306.1897,N,07725.9333,W,2,09,1.02,164.8,M,-34.3,M,0000,0000*50
$GPRMC,161825.500,A,4306.1897,N,07725.9333,W,0.01,175.59,270823,,,D*7C
$GPGGA,161825.750,4306.1897,N,07725.9332,W,2,08,1.24,164.8,M,-34.3,M,0000,0000*51
$GPRMC,161826.000,A,4306.1897,N,07725.9332,W,0.01,175.59,270823,,,D*7B
$GPGGA,161826.250,4306.1897,N,07725.9332,W,2,09,1.02,164.8,M,-34.3,M,0000,0000*52
$GPRMC,161826.500,A,4306.1897,N,07725.9332,W,0.01,175.59,270823,,,D*7E
$GPGGA,161826.750,4306.1897,N,07725.9332,W,2,09,1.02,164.8,M,-34.3,M,0000,0000*57
$GPRMC,161827.000,A,4306.1897,N,07725.9332,W,0.01,175.59,270823,,,D*7A
$GPGGA,161827.250,4306.1897,N,07725.9332,W,2,09,1.02,164.8,M,-34.3,M,0000,0000*53
$GPRMC,161827.500,A,4306.1897,N,07725.9332,W,0.01,175.59,270823,,,D*7F
$GPGGA,161827.750,4306.1897,N,07725.9332,W,2,09,1.02,164.8,M,-34.3,M,0000,0000*56
$GPRMC,161828.000,A,4306.1897,N,07725.9332,W,0.01,175.59,270823,,,D*75
$GPGGA,161828.250,4306.1897,N,07725.9332,W,2,09,1.02,164.8,M,-34.3,M,0000,0000*5C
$GPRMC,161828.500,A,4306.1897,N,07725.9331,W,0.01,175.59,270823,,,D*73
$GPGGA,161828.750,4306.1897,N,07725.9331,W,2,09,1.02,164.8,M,-34.3,M,0000,0000*5A
$GPRMC,161829.000,A,4306.1897,N,07725.9331,W,0.01,175.59,270823,,,D*77
$GPGGA,161829.250,4306.1897,N,07725.9331,W,2,09,1.03,164.8,M,-34.3,M,0000,0000*5F
$GPRMC,161829.500,A,4306.1897,N,07725.9331,W,0.01,175.59,270823,,,D*72
$GPGGA,161829.750,4306.1897,N,07725.9331,W,2,09,1.03,164.8,M,-34.3,M,0000,0000*5A
$GPRMC,161830.000,A,4306.1897,N,07725.9331,W,0.01,175.59,270823,,,D*7F
$GPGGA,161830.250,4306.1898,N,07725.9332,W,2,09,1.02,164.8,M,-34.3,M,0000,0000*5A
$GPRMC,161830.500,A,4306.1898,N,07725.9332,W,0.01,175.59,270823,,,D*76
$GPGGA,161830.750,4306.1898,N,07725.9332,W,2,09,1.02,164.8,M,-34.3,M,0000,0000*5F
$GPRMC,161831.000,A,4306.1898,N,07725.9332,W,0.01,175.59,270823,,,D*72
$GPGGA,161831.250,4306.1898,N,07725.9332,W,2,09,1.02,164.8,M,-34.3,M,0000,0000*5B
$GPRMC,161831.500,A,4306.1898,N,07725.9332,W,0.01,175.59,270823,,,D*77
$GPGGA,161831.750,4306.1898,N,07725.9332,W,2,09,1.02,164.8,M,-34.3,M,0000,0000*5E
$GPRMC,161832.000,A,4306.1898,N,07725.9332,W,0.01,175.59,270823,,,D*71
$GPGGA,161832.250,4306.1898,N,07725.9332,W,2,09,1.02,164.8,M,-34.3,M,0000,0000*58
$GPRMC,161832.500,A,4306.1898,N,07725.9332,W,0.00,175.59,270823,,,D*75
$GPGGA,161832.750,4306.1898,N,07725.9332,W,2,09,1.03,164.8,M,-34.3,M,0000,0000*5C
$GPRMC,161833.000,A,4306.1898,N,07725.9332,W,0.00,175.59,270823,,,D*71
$GPGGA,161833.250,4306.1898,N,07725.9332,W,2,09,1.02,164.8,M,-34.3,M,0000,0000*59
$GPRMC,161833.500,A,4306.1898,N,07725.9332,W,0.00,175.59,270823,,,D*74
$GPGGA,161833.750,4306.1898,N,07725.9332,W,2,09,1.03,164.8,M,-34.3,M,0000,0000*5D
$GPRMC,161834.000,A,4306.1898,N,07725.9332,W,0.01,175.59,270823,,,D*77
$GPGGA,161834.250,4306.1898,N,07725.9332,W,2,09,1.03,164.8,M,-34.3,M,0000,0000*5F
$GPRMC,161834.500,A,4306.1898,N,07725.9332,W,0.02,175.59,270823,,,D*71
$GPGGA,161834.750,4306.1898,N,07725.9332,W,2,09,1.02,164.8,M,-34.3,M,0000,0000*5B
$GPRMC,161835.000,A,4306.1898,N,07725.9332,W,0.04,175.59,270823,,,D*73
$GPGGA,161835.250,4306.1899,N,07725.9332,W,2,09,1.02,164.8,M,-34.3,M,0000,0000*5E
$GPRMC,161835.500,A,4306.1899,N,07725.9332,W,0.05,175.59,270823,,,D*76
$GPGGA,161835.750,4306.1899,N,07725.9332,W,2,09,1.02,164.8,M,-34.3,M,0000,0000*5B
$GPRMC,161836.000,A,4306.1900,N,07725.9331,W,0.06,175.59,270823,,,D*71
$GPGGA,161836.250,4306.1900,N,07725.9331,W,2,09,1.02,164.8,M,-34.3,M,0000,0000*5F
$GPRMC,161836.500,A,4306.1900,N,07725.9331,W,0.05,175.59,270823,,,D*77
$GPGGA,161836.750,4306.1901,N,07725.9331,W,2,09,1.02,164.8,M,-34.3,M,0000,0000*5B
$GPRMC,161837.000,A,4306.1901,N,07725.9331,W,0.02,175.59,270823,,,D*75
$GPGGA,161837.250,4306.1901,N,07725.9331,W,2,09,1.03,164.8,M,-34.3,M,0000,0000*5E
$GPRMC,161837.500,A,4306.1901,N,07725.9331,W,0.00,175.59,270823,,,D*72
$GPGGA,161837.750,4306.1901,N,07725.9331,W,2,09,1.02,164.8,M,-34.3,M,0000,0000*5A
$GPRMC,161838.000,A,4306.1901,N,07725.9331,W,0.00,175.59,270823,,,D*78
$GPGGA,161838.250,4306.1901,N,07725.9331,W,2,09,1.02,164.8,M,-34.3,M,0000,0000*50
$GPRMC,161838.500,A,4306.1901,N,07725.9331,W,0.04,175.59,270823,,,D*79
$GPGGA,161838.750,4306.1900,N,07725.9331,W,2,09,1.02,164.8,M,-34.3,M,0000,0000*54
$GPRMC,161839.000,A,4306.1900,N,07725.9331,W,0.07,175.59,270823,,,D*7F
$GPGGA,161839.250,4306.1899,N,07725.9331,W,2,09,1.02,164.8,M,-34.3,M,0000,0000*51
$GPRMC,161839.500,A,4306.1899,N,07725.9331,W,0.08,175.59,270823,,,D*74
$GPGGA,161839.750,4306.1898,N,07725.9332,W,2,09,1.02,164.8,M,-34.3,M,0000,0000*56
$GPRMC,161840.000,A,4306.1898,N,07725.9332,W,0.76,175.59,270823,,,D*74
$GPGGA,161840.250,4306.1897,N,07725.9332,W,2,09,1.02,164.8,M,-34.3,M,0000,0000*52
$GPRMC,161840.500,A,4306.1897,N,07725.9332,W,0.69,175.59,270823,,,D*70
$GPGGA,161840.750,4306.1897,N,07725.9333,W,2,09,1.02,164.8,M,-34.3,M,0000,0000*56
$GPRMC,161841.000,A,4306.1896,N,07725.9333,W,0.78,175.59,270823,,,D*74
$GPGGA,161841.250,4306.1896,N,07725.9333,W,2,09,1.02,164.8,M,-34.3,M,0000,0000*53
$GPRMC,161841.500,A,4306.1895,N,07725.9334,W,0.84,175.59,270823,,,D*76
$GPGGA,161841.750,4306.1895,N,07725.9334,W,2,09,1.02,164.8,M,-34.3,M,0000,0000*52
$GPRMC,161842.000,A,4306.1894,N,07725.9334,W,1.24,175.59,270823,,,D*7A
$GPGGA,161842.250,4306.1893,N,07725.9335,W,2,09,1.02,164.8,M,-34.3,M,0000,0000*53
$GPRMC,161842.500,A,4306.1893,N,07725.9335,W,1.08,175.59,270823,,,D*77
$GPGGA,161842.750,4306.1892,N,07725.9335,W,2,09,1.02,164.8,M,-34.3,M,0000,0000*57
$GPRMC,161843.000,A,4306.1889,N,07725.9335,W,4.52,182.17,270823,,,D*70
$GPGGA,161843.250,4306.1885,N,07725.9335,W,2,09,1.03,164.9,M,-34.3,M,0000,0000*55
$GPRMC,161843.500,A,4306.1881,N,07725.9334,W,5.96,181.30,270823,,,D*73
$GPGGA,161843.750,4306.1875,N,07725.9334,W,2,09,1.03,165.0,M,-34.3,M,0000,0000*56
$GPRMC,161844.000,A,4306.1870,N,07725.9334,W,7.14,181.70,270823,,,D*73
$GPGGA,161844.250,4306.1864,N,07725.9334,W,2,09,1.03,165.0,M,-34.3,M,0000,0000*54
$GPRMC,161844.500,A,4306.1857,N,07725.9334,W,8.47,182.07,270823,,,D*79
$GPGGA,161844.750,4306.1850,N,07725.9334,W,2,09,1.03,165.0,M,-34.3,M,0000,0000*56
$GPRMC,161845.000,A,4306.1843,N,07725.9335,W,9.59,181.52,270823,,,D*74
$GPGGA,161845.250,4306.1836,N,07725.9335,W,2,09,1.03,165.0,M,-34.3,M,0000,0000*53
$GPRMC,161845.500,A,4306.1828,N,07725.9335,W,10.74,182.04,270823,,,D*4B
$GPGGA,161845.750,4306.1820,N,07725.9336,W,2,09,1.03,165.0,M,-34.3,M,0000,0000*52
$GPRMC,161846.000,A,4306.1812,N,07725.9336,W,11.31,182.10,270823,,,D*42
$GPGGA,161846.250,4306.1804,N,07725.9336,W,2,09,1.03,164.9,M,-34.3,M,0000,0000*5A
$GPRMC,161846.500,A,4306.1795,N,07725.9336,W,12.13,181.50,270823,,,D*43
$GPGGA,161846.750,4306.1785,N,07725.9336,W,2,09,1.03,164.6,M,-34.3,M,0000,0000*56
$GPRMC,161847.000,A,4306.1776,N,07725.9336,W,13.20,181.95,270823,,,D*42
$GPGGA,161847.250,4306.1766,N,07725.9336,W,2,09,1.03,164.6,M,-34.3,M,0000,0000*5F
$GPRMC,161847.500,A,4306.1757,N,07725.9337,W,13.68,182.12,270823,,,D*45
$GPGGA,161847.750,4306.1747,N,07725.9337,W,2,09,1.03,164.5,M,-34.3,M,0000,0000*5B
$GPRMC,161848.000,A,4306.1737,N,07725.9337,W,14.26,182.20,270823,,,D*45
$GPGGA,161848.250,4306.1727,N,07725.9337,W,2,09,1.03,164.5,M,-34.3,M,0000,0000*57
$GPRMC,161848.500,A,4306.1716,N,07725.9337,W,15.19,181.38,270823,,,D*44
$GPGGA,161848.750,4306.1704,N,07725.9337,W,2,09,1.03,164.4,M,-34.3,M,0000,0000*52
$GPRMC,161849.000,A,4306.1692,N,07725.9336,W,16.77,181.14,270823,,,D*49
$GPGGA,161849.250,4306.1679,N,07725.9336,W,2,09,1.03,164.3,M,-34.3,M,0000,0000*5B
$GPRMC,161849.500,A,4306.1667,N,07725.9336,W,17.89,180.18,270823,,,D*4B
$GPGGA,161849.750,4306.1654,N,07725.9335,W,2,09,1.03,164.3,M,-34.3,M,0000,0000*52
$GPRMC,161850.000,A,4306.1641,N,07725.9335,W,18.78,180.74,270823,,,D*4A
$GPGGA,161850.250,4306.1627,N,07725.9335,W,2,09,1.03,164.1,M,-34.3,M,0000,0000*59
$GPRMC,161850.500,A,4306.1613,N,07725.9335,W,19.56,181.14,270823,,,D*42
$GPGGA,161850.750,4306.1599,N,07725.9335,W,2,09,1.03,163.9,M,-34.3,M,0000,0000*55
$GPRMC,161851.000,A,4306.1583,N,07725.9333,W,20.57,180.18,270823,,,D*4C
$GPGGA,161851.250,4306.1568,N,07725.9333,W,2,09,1.03,163.6,M,-34.3,M,0000,0000*56
$GPRMC,161851.500,A,4306.1553,N,07725.9332,W,21.42,179.58,270823,,,D*42
$GPGGA,161851.750,4306.1537,N,07725.9332,W,2,09,1.03,163.5,M,-34.3,M,0000,0000*5B
$GPRMC,161852.000,A,4306.1521,N,07725.9331,W,22.29,179.52,270823,,,D*46
$GPGGA,161852.250,4306.1504,N,07725.9330,W,2,09,1.03,163.2,M,-34.3,M,0000,0000*58
$GPRMC,161852.500,A,4306.1488,N,07725.9330,W,23.15,179.39,270823,,,D*43
$GPGGA,161852.750,4306.1471,N,07725.9329,W,2,09,1.03,163.1,M,-34.3,M,0000,0000*55
$GPRMC,161853.000,A,4306.1454,N,07725.9328,W,23.91,178.92,270823,,,D*43
$GPGGA,161853.250,4306.1437,N,07725.9327,W,2,09,1.03,163.0,M,-34.3,M,0000,0000*5C
$GPRMC,161853.500,A,4306.1420,N,07725.9326,W,24.47,178.98,270823,,,D*4D
$GPGGA,161853.750,4306.1402,N,07725.9326,W,2,09,1.03,162.8,M,-34.3,M,0000,0000*57
$GPRMC,161854.000,A,4306.1384,N,07725.9325,W,25.13,179.06,270823,,,D*43
$GPGGA,161854.250,4306.1366,N,07725.9324,W,2,09,1.03,162.5,M,-34.3,M,0000,0000*5F
$GPRMC,161854.500,A,4306.1348,N,07725.9323,W,25.39,179.07,270823,,,D*49
$GPGGA,161854.750,4306.1330,N,07725.9323,W,2,09,1.03,162.4,M,-34.3,M,0000,0000*5F
$GPRMC,161855.000,A,4306.1311,N,07725.9323,W,25.81,179.89,270823,,,D*44
$GPGGA,161855.250,4306.1293,N,07725.9322,W,2,09,1.03,162.2,M,-34.3,M,0000,0000*54
$GPRMC,161855.500,A,4306.1274,N,07725.9322,W,26.08,179.81,270823,,,D*48
$GPGGA,161855.750,4306.1255,N,07725.9322,W,2,09,1.03,161.9,M,-34.3,M,0000,0000*53
$GPRMC,161856.000,A,4306.1236,N,07725.9322,W,26.62,180.01,270823,,,D*4A
$GPGGA,161856.250,4306.1217,N,07725.9321,W,2,09,1.03,161.7,M,-34.3,M,0000,0000*5E
$GPRMC,161856.500,A,4306.1198,N,07725.9321,W,26.64,179.49,270823,,,D*47
$GPGGA,161856.750,4306.1178,N,07725.9320,W,2,09,1.03,161.2,M,-34.3,M,0000,0000*55
$GPRMC,161857.000,A,4306.1159,N,07725.9319,W,26.87,179.30,270823,,,D*46
$GPGGA,161857.250,4306.1139,N,07725.9319,W,2,09,1.03,160.8,M,-34.3,M,0000,0000*55
$GPRMC,161857.500,A,4306.1119,N,07725.9319,W,28.07,179.80,270823,,,D*4A
$GPGGA,161857.750,4306.1099,N,07725.9318,W,2,09,1.03,160.3,M,-34.3,M,0000,0000*51
$GPRMC,161858.000,A,4306.1079,N,07725.9317,W,28.25,179.20,270823,,,D*43
$GPGGA,161858.250,4306.1059,N,07725.9317,W,2,09,1.03,159.8,M,-34.3,M,0000,0000*59
$GPRMC,161858.500,A,4306.1038,N,07725.9317,W,29.24,179.21,270823,,,D*42
$GPGGA,161858.750,4306.1017,N,07725.9316,W,2,09,1.03,159.2,M,-34.3,M,0000,0000*5D
$GPRMC,161859.000,A,4306.0996,N,07725.9316,W,30.34,178.82,270823,,,D*4A
$GPGGA,161859.250,4306.0975,N,07725.9315,W,2,09,1.03,158.5,M,-34.3,M,0000,0000*50
$GPRMC,161859.500,A,4306.0954,N,07725.9315,W,30.54,179.13,270823,,,D*4D
$GPGGA,161859.750,4306.0933,N,07725.9314,W,2,09,1.03,157.9,M,-34.3,M,0000,0000*55
$GPRMC,161900.000,A,4306.0911,N,07725.9314,W,30.54,179.02,270823,,,D*45
$GPGGA,161900.250,4306.0890,N,07725.9313,W,2,09,1.03,157.2,M,-34.3,M,0000,0000*59
$GPRMC,161900.500,A,4306.0868,N,07725.9312,W,30.64,179.69,270823,,,D*47
$GPGGA,161900.750,4306.0846,N,07725.9312,W,2,09,1.03,156.4,M,-34.3,M,0000,0000*51
$GPRMC,161901.000,A,4306.0823,N,07725.9311,W,31.78,179.94,270823,,,D*41
$GPGGA,161901.250,4306.0800,N,07725.9310,W,2,09,1.03,155.6,M,-34.3,M,0000,0000*54
$GPRMC,161901.500,A,4306.0776,N,07725.9310,W,32.66,180.22,270823,,,D*4D
$GPGGA,161901.750,4306.0753,N,07725.9310,W,2,09,1.03,154.8,M,-34.3,M,0000,0000*57
$GPRMC,161902.000,A,4306.0730,N,07725.9310,W,32.99,180.56,270823,,,D*4A
$GPGGA,161902.250,4306.0706,N,07725.9310,W,2,09,1.03,154.0,M,-34.3,M,0000,0000*59
$GPRMC,161902.500,A,4306.0683,N,07725.9310,W,33.23,180.70,270823,,,D*42
$GPGGA,161902.750,4306.0659,N,07725.9310,W,2,09,1.03,153.3,M,-34.3,M,0000,0000*53
$GPRMC,161903.000,A,4306.0636,N,07725.9311,W,33.43,180.89,270823,,,D*49
$GPGGA,161903.250,4306.0612,N,07725.9312,W,2,09,1.03,152.9,M,-34.3,M,0000,0000*51
$GPRMC,161903.500,A,4306.0589,N,07725.9313,W,33.63,181.35,270823,,,D*4D
$GPGGA,161903.750,4306.0565,N,07725.9314,W,2,09,1.03,152.4,M,-34.3,M,0000,0000*5C
$GPRMC,161904.000,A,4306.0542,N,07725.9315,W,33.80,181.63,270823,,,D*40
$GPGGA,161904.250,4306.0518,N,07725.9316,W,2,09,1.03,152.0,M,-34.3,M,0000,0000*52
$GPRMC,161904.500,A,4306.0495,N,07725.9317,W,33.86,181.88,270823,,,D*4F
$GPGGA,161904.750,4306.0471,N,07725.9319,W,2,09,1.03,151.6,M,-34.3,M,0000,0000*53
$GPRMC,161905.000,A,4306.0448,N,07725.9320,W,33.85,181.98,270823,,,D*4D
$GPGGA,161905.250,4306.0424,N,07725.9322,W,2,09,1.03,151.2,M,-34.3,M,0000,0000*5B
$GPRMC,161905.500,A,4306.0400,N,07725.9324,W,33.88,182.61,270823,,,D*48
$GPGGA,161905.750,4306.0376,N,07725.9326,W,2,09,1.03,150.8,M,-34.3,M,0000,0000*51
$GPRMC,161906.000,A,4306.0353,N,07725.9328,W,33.87,183.31,270823,,,D*48
$GPGGA,161906.250,4306.0329,N,07725.9330,W,2,09,1.03,150.5,M,-34.3,M,0000,0000*57
$GPRMC,161906.500,A,4306.0305,N,07725.9333,W,34.10,183.57,270823,,,D*4D
$GPGGA,161906.750,4306.0281,N,07725.9335,W,2,09,1.03,150.2,M,-34.3,M,0000,0000*53
$GPRMC,161907.000,A,4306.0257,N,07725.9337,W,34.53,183.74,270823,,,D*4D
$GPGGA,161907.250,4306.0233,N,07725.9339,W,2,09,1.03,150.0,M,-34.3,M,0000,0000*50
$GPRMC,161907.500,A,4306.0208,N,07725.9341,W,34.97,183.99,270823,,,D*48
$GPGGA,161907.750,4306.0184,N,07725.9344,W,2,09,1.03,149.9,M,-34.3,M,0000,0000*51
$GPRMC,161908.000,A,4306.0160,N,07725.9347,W,35.20,184.42,270823,,,D*45
$GPGGA,161908.250,4306.0136,N,07725.9349,W,2,09,1.03,150.0,M,-34.3,M,0000,0000*5E
$GPRMC,161908.500,A,4306.0112,N,07725.9352,W,35.21,184.64,270823,,,D*44
$GPGGA,161908.750,4306.0087,N,07725.9355,W,2,09,1.03,150.1,M,-34.3,M,0000,0000*5C
$GPRMC,161909.000,A,4306.0063,N,07725.9358,W,35.20,184.78,270823,,,D*41
$GPGGA,161909.250,4306.0039,N,07725.9361,W,2,09,1.03,150.0,M,-34.3,M,0000,0000*5B
$GPRMC,161909.500,A,4306.0014,N,07725.9364,W,35.21,185.10,270823,,,D*45
$GPGGA,161909.750,4305.9990,N,07725.9367,W,2,09,1.03,150.1,M,-34.3,M,0000,0000*59
$GPRMC,161910.000,A,4305.9966,N,07725.9370,W,35.47,185.01,270823,,,D*4B
$GPGGA,161910.250,4305.9941,N,07725.9374,W,2,09,1.03,150.3,M,-34.3,M,0000,0000*58
$GPRMC,161910.500,A,4305.9917,N,07725.9377,W,35.29,185.10,270823,,,D*47
$GPGGA,161910.750,4305.9893,N,07725.9381,W,2,09,1.03,150.5,M,-34.3,M,0000,0000*5F
$GPRMC,161911.000,A,4305.9868,N,07725.9384,W,35.42,185.73,270823,,,D*4E
$GPGGA,161911.250,4305.9843,N,07725.9388,W,2,09,1.03,150.5,M,-34.3,M,0000,0000*5F
$GPRMC,161911.500,A,4305.9819,N,07725.9391,W,35.76,185.89,270823,,,D*4B
$GPGGA,161911.750,4305.9794,N,07725.9395,W,2,09,1.03,150.5,M,-34.3,M,0000,0000*53
$GPRMC,161912.000,A,4305.9769,N,07725.9398,W,35.74,185.46,270823,,,D*4D
$GPGGA,161912.250,4305.9744,N,07725.9402,W,2,09,1.03,150.6,M,-34.3,M,0000,0000*52
$GPRMC,161912.500,A,4305.9719,N,07725.9406,W,35.87,185.39,270823,,,D*4B
$GPGGA,161912.750,4305.9694,N,07725.9409,W,2,09,1.03,150.6,M,-34.3,M,0000,0000*50
$GPRMC,161913.000,A,4305.9669,N,07725.9413,W,35.80,185.38,270823,,,D*4B
$GPGGA,161913.250,4305.9645,N,07725.9417,W,2,09,1.03,150.6,M,-34.3,M,0000,0000*57
$GPRMC,161913.500,A,4305.9620,N,07725.9420,W,35.53,185.36,270823,,,D*43
$GPGGA,161913.750,4305.9596,N,07725.9423,W,2,09,1.03,150.7,M,-34.3,M,0000,0000*59
$GPRMC,161914.000,A,4305.9572,N,07725.9427,W,35.00,185.60,270823,,,D*47
$GPGGA,161914.250,4305.9548,N,07725.9430,W,2,09,1.03,150.7,M,-34.3,M,0000,0000*5A
$GPRMC,161914.500,A,4305.9524,N,07725.9434,W,34.74,185.49,270823,,,D*4A
$GPGGA,161914.750,4305.9500,N,07725.9437,W,2,09,1.03,150.7,M,-34.3,M,0000,0000*54
$GPRMC,161915.000,A,4305.9476,N,07725.9440,W,34.62,185.66,270823,,,D*41
$GPGGA,161915.250,4305.9452,N,07725.9443,W,2,09,1.03,150.7,M,-34.3,M,0000,0000*55
$GPRMC,161915.500,A,4305.9429,N,07725.9446,W,34.32,185.46,270823,,,D*4F
$GPGGA,161915.750,4305.9405,N,07725.9449,W,2,09,1.03,150.7,M,-34.3,M,0000,0000*58
$GPRMC,161916.000,A,4305.9381,N,07725.9451,W,34.23,185.38,270823,,,D*43
$GPGGA,161916.250,4305.9358,N,07725.9454,W,2,09,1.03,150.7,M,-34.3,M,0000,0000*5D
$GPRMC,161916.500,A,4305.9334,N,07725.9458,W,34.18,185.61,270823,,,D*45
$GPGGA,161916.750,4305.9311,N,07725.9461,W,2,09,1.03,150.6,M,-34.3,M,0000,0000*52
$GPRMC,161917.000,A,4305.9287,N,07725.9464,W,34.62,185.88,270823,,,D*4D
$GPGGA,161917.250,4305.9263,N,07725.9467,W,2,09,1.03,150.1,M,-34.3,M,0000,0000*53
$GPRMC,161917.500,A,4305.9239,N,07725.9471,W,34.60,185.80,270823,,,D*43
$GPGGA,161917.750,4305.9215,N,07725.9474,W,2,09,1.03,149.6,M,-34.3,M,0000,0000*5A
$GPRMC,161918.000,A,4305.9192,N,07725.9477,W,34.50,185.76,270823,,,D*47
$GPGGA,161918.250,4305.9168,N,07725.9480,W,2,09,1.03,149.1,M,-34.3,M,0000,0000*55
$GPRMC,161918.500,A,4305.9144,N,07725.9483,W,34.16,185.70,270823,,,D*46
$GPGGA,161918.750,4305.9121,N,07725.9486,W,2,09,1.03,148.7,M,-34.3,M,0000,0000*5C
$GPRMC,161919.000,A,4305.9098,N,07725.9488,W,33.89,185.50,270823,,,D*4A
$GPGGA,161919.250,4305.9074,N,07725.9491,W,2,09,1.03,148.4,M,-34.3,M,0000,0000*5C
$GPRMC,161919.500,A,4305.9051,N,07725.9495,W,33.87,185.51,270823,,,D*49
$GPGGA,161919.750,4305.9027,N,07725.9498,W,2,09,1.03,148.1,M,-34.3,M,0000,0000*53
$GPRMC,161920.000,A,4305.9004,N,07725.9501,W,33.93,185.59,270823,,,D*47
$GPGGA,161920.250,4305.8980,N,07725.9504,W,2,09,1.03,148.0,M,-34.3,M,0000,0000*5C
$GPRMC,161920.500,A,4305.8957,N,07725.9507,W,33.99,185.74,270823,,,D*4F
$GPGGA,161920.750,4305.8933,N,07725.9511,W,2,09,1.03,147.9,M,-34.3,M,0000,0000*53
$GPRMC,161921.000,A,4305.8909,N,07725.9515,W,34.07,186.64,270823,,,D*41
$GPGGA,161921.250,4305.8886,N,07725.9519,W,2,09,1.03,147.9,M,-34.3,M,0000,0000*50
$GPRMC,161921.500,A,4305.8863,N,07725.9523,W,33.69,186.98,270823,,,D*40
$GPGGA,161921.750,4305.8840,N,07725.9527,W,2,09,1.03,147.8,M,-34.3,M,0000,0000*53
$GPRMC,161922.000,A,4305.8817,N,07725.9531,W,33.50,187.78,270823,,,D*43
$GPGGA,161922.250,4305.8794,N,07725.9536,W,2,09,1.03,147.9,M,-34.3,M,0000,0000*52
$GPRMC,161922.500,A,4305.8771,N,07725.9541,W,32.54,188.03,270823,,,D*48
$GPGGA,161922.750,4305.8749,N,07725.9546,W,2,09,1.03,148.2,M,-34.3,M,0000,0000*54
$GPRMC,161923.000,A,4305.8728,N,07725.9551,W,31.74,189.39,270823,,,D*48
$GPGGA,161923.250,4305.8706,N,07725.9556,W,2,09,1.03,148.3,M,-34.3,M,0000,0000*5B
$GPRMC,161923.500,A,4305.8685,N,07725.9562,W,30.25,190.25,270823,,,D*4B
$GPGGA,161923.750,4305.8665,N,07725.9567,W,2,09,1.03,148.4,M,-34.3,M,0000,0000*5F
$GPRMC,161924.000,A,4305.8645,N,07725.9572,W,29.14,191.02,270823,,,D*4A
$GPGGA,161924.250,4305.8625,N,07725.9578,W,2,09,1.03,148.1,M,-34.3,M,0000,0000*52
$GPRMC,161924.500,A,4305.8605,N,07725.9584,W,28.77,192.02,270823,,,D*45
$GPGGA,161924.750,4305.8585,N,07725.9590,W,2,09,1.02,147.8,M,-34.3,M,0000,0000*5F
$GPRMC,161925.000,A,4305.8565,N,07725.9596,W,28.73,193.23,270823,,,D*41
$GPGGA,161925.250,4305.8545,N,07725.9602,W,2,09,1.03,147.7,M,-34.3,M,0000,0000*51
$GPRMC,161925.500,A,4305.8526,N,07725.9609,W,28.65,194.60,270823,,,D*41
$GPGGA,161925.750,4305.8507,N,07725.9616,W,2,09,1.03,147.7,M,-34.3,M,0000,0000*57
$GPRMC,161926.000,A,4305.8488,N,07725.9623,W,26.74,194.68,270823,,,D*4C
$GPGGA,161926.250,4305.8471,N,07725.9629,W,2,09,1.03,147.9,M,-34.3,M,0000,0000*53
$GPRMC,161926.500,A,4305.8454,N,07725.9635,W,23.74,195.17,270823,,,A*46
$GPGGA,161926.750,4305.8438,N,07725.9641,W,1,09,1.03,147.8,M,-34.3,M,,*57
$GPRMC,161927.000,A,4305.8423,N,07725.9646,W,22.19,193.69,270823,,,A*43
$GPGGA,161927.250,4305.8409,N,07725.9651,W,1,09,1.03,147.9,M,-34.3,M,,*51
$GPRMC,161927.500,A,4305.8396,N,07725.9658,W,19.81,197.06,270823,,,A*44
$GPGGA,161927.750,4305.8383,N,07725.9664,W,1,09,1.03,148.1,M,-34.3,M,,*50
$GPRMC,161928.000,A,4305.8371,N,07725.9669,W,18.48,196.86,270823,,,A*48
$GPGGA,161928.250,4305.8358,N,07725.9674,W,1,09,1.03,148.1,M,-34.3,M,,*5D
$GPRMC,161928.500,A,4305.8347,N,07725.9680,W,17.85,197.96,270823,,,A*41
$GPGGA,161928.750,4305.8335,N,07725.9685,W,1,09,1.03,148.1,M,-34.3,M,,*5D
$GPRMC,161929.000,A,4305.8324,N,07725.9691,W,16.56,198.52,270823,,,A*48
$GPGGA,161929.250,4305.8314,N,07725.9696,W,1,09,1.03,148.0,M,-34.3,M,,*59
$GPRMC,161929.500,A,4305.8305,N,07725.9702,W,14.39,200.27,270823,,,A*4E
$GPGGA,161929.750,4305.8296,N,07725.9707,W,1,09,1.03,148.0,M,-34.3,M,,*5E
$GPRMC,161930.000,A,4305.8289,N,07725.9712,W,11.66,201.71,270823,,,A*4A
$GPGGA,161930.250,4305.8283,N,07725.9717,W,1,09,1.03,147.8,M,-34.3,M,,*51
$GPRMC,161930.500,A,4305.8277,N,07725.9722,W,8.61,202.69,270823,,,A*78
$GPGGA,161930.750,4305.8272,N,07725.9725,W,1,09,1.03,147.7,M,-34.3,M,,*54
$GPRMC,161931.000,A,4305.8268,N,07725.9729,W,6.30,204.00,270823,,,A*7A
$GPGGA,161931.250,4305.8264,N,07725.9732,W,1,09,1.03,147.7,M,-34.3,M,,*51
$GPRMC,161931.500,A,4305.8261,N,07725.9734,W,4.77,203.54,270823,,,A*7D
$GPGGA,161931.750,4305.8258,N,07725.9736,W,1,09,1.03,147.6,M,-34.3,M,,*5E
$GPRMC,161931.999,A,4305.8256,N,07725.9738,W,3.45,202.45,270823,,,A*7E
$GPGGA,161932.249,4305.8254,N,07725.9740,W,1,09,1.02,147.4,M,-34.3,M,,*5E
$GPRMC,161932.500,A,4305.8253,N,07725.9742,W,2.51,205.54,270823,,,A*7A
$GPGGA,161932.750,4305.8252,N,07725.9743,W,1,09,1.02,147.3,M,-34.3,M,,*51
$GPRMC,161933.000,A,4305.8252,N,07725.9745,W,1.52,205.54,270823,,,A*78
$GPGGA,161933.250,4305.8252,N,07725.9745,W,1,09,1.02,147.2,M,-34.3,M,,*52
$GPRMC,161933.500,A,4305.8251,N,07725.9746,W,1.05,205.54,270823,,,A*7F
$GPGGA,161933.750,4305.8251,N,07725.9747,W,1,09,1.02,147.0,M,-34.3,M,,*54
$GPRMC,161934.000,A,4305.8251,N,07725.9747,W,0.80,205.54,270823,,,A*70
$GPGGA,161934.250,4305.8251,N,07725.9747,W,1,09,1.02,146.8,M,-34.3,M,,*5F
$GPRMC,161934.500,A,4305.8251,N,07725.9748,W,0.59,205.54,270823,,,A*7E
$GPGGA,161934.750,4305.8250,N,07725.9748,W,1,09,1.02,146.7,M,-34.3,M,,*5B
$GPRMC,161935.000,A,4305.8251,N,07725.9748,W,0.43,209.76,270823,,,A*7D
$GPGGA,161935.250,4305.8251,N,07725.9748,W,1,09,1.02,146.6,M,-34.3,M,,*5F
$GPRMC,161935.500,A,4305.8251,N,07725.9748,W,0.39,189.81,270823,,,A*76
$GPGGA,161935.750,4305.8251,N,07725.9748,W,1,09,1.02,146.4,M,-34.3,M,,*58
$GPRMC,161936.000,A,4305.8251,N,07725.9748,W,0.08,189.81,270823,,,A*72
$GPGGA,161936.250,4305.8250,N,07725.9748,W,1,09,1.02,146.2,M,-34.3,M,,*59
$GPRMC,161936.500,A,4305.8250,N,07725.9748,W,0.03,189.81,270823,,,A*7D
$GPGGA,161936.750,4305.8250,N,07725.9748,W,1,09,1.02,146.2,M,-34.3,M,,*5C
$GPRMC,161937.000,A,4305.8250,N,07725.9748,W,0.05,189.81,270823,,,A*7F
$GPGGA,161937.250,4305.8250,N,07725.9748,W,1,09,1.02,146.2,M,-34.3,M,,*58
$GPRMC,161937.500,A,4305.8250,N,07725.9748,W,0.04,189.81,270823,,,A*7B
$GPGGA,161937.750,4305.8250,N,07725.9748,W,1,09,1.02,146.2,M,-34.3,M,,*5D
$GPRMC,161938.000,A,4305.8250,N,07725.9748,W,0.01,189.81,270823,,,A*74
$GPGGA,161938.250,4305.8250,N,07725.9748,W,1,09,1.03,146.2,M,-34.3,M,,*56
$GPRMC,161938.500,A,4305.8250,N,07725.9748,W,0.06,189.81,270823,,,A*76
$GPGGA,161938.750,4305.8250,N,07725.9748,W,1,09,1.02,146.2,M,-34.3,M,,*52
$GPRMC,161939.000,A,4305.8250,N,07725.9748,W,0.03,189.81,270823,,,A*77
$GPGGA,161939.250,4305.8250,N,07725.9748,W,1,09,1.02,146.2,M,-34.3,M,,*56
$GPRMC,161939.500,A,4305.8250,N,07725.9748,W,0.03,189.81,270823,,,A*72
$GPGGA,161939.750,4305.8250,N,07725.9748,W,1,09,1.02,146.2,M,-34.3,M,,*53
$GPRMC,161940.000,A,4305.8250,N,07725.9748,W,0.01,189.81,270823,,,A*7B
$GPGGA,161940.250,4305.8250,N,07725.9748,W,1,09,1.02,146.2,M,-34.3,M,,*58
$GPRMC,161940.500,A,4305.8250,N,07725.9748,W,0.01,189.81,270823,,,A*7E
$GPGGA,161940.750,4305.8250,N,07725.9748,W,1,09,1.02,146.2,M,-34.3,M,,*5D
$GPRMC,161941.000,A,4305.8250,N,07725.9748,W,0.06,189.81,270823,,,A*7D
$GPGGA,161941.250,4305.8250,N,07725.9748,W,1,09,1.02,146.2,M,-34.3,M,,*59
$GPRMC,161941.500,A,4305.8250,N,07725.9748,W,0.01,189.81,270823,,,A*7F
$GPGGA,161941.750,4305.8250,N,07725.9747,W,1,09,1.02,146.2,M,-34.3,M,,*53
$GPRMC,161942.000,A,4305.8250,N,07725.9747,W,0.03,189.81,270823,,,A*74
$GPGGA,161942.250,4305.8250,N,07725.9747,W,1,09,1.02,146.2,M,-34.3,M,,*55
$GPRMC,161942.500,A,4305.8250,N,07725.9747,W,0.08,189.81,270823,,,A*7A
$GPGGA,161942.750,4305.8250,N,07725.9747,W,1,09,1.03,146.2,M,-34.3,M,,*51
$GPRMC,161943.000,A,4305.8250,N,07725.9748,W,0.07,189.81,270823,,,A*7E
$GPGGA,161943.250,4305.8250,N,07725.9747,W,1,09,1.02,146.2,M,-34.3,M,,*54
$GPRMC,161943.500,A,4305.8250,N,07725.9747,W,0.02,189.81,270823,,,A*71
$GPGGA,161943.750,4305.8250,N,07725.9747,W,1,09,1.02,146.2,M,-34.3,M,,*51
$GPRMC,161944.000,A,4305.8250,N,07725.9747,W,0.08,189.81,270823,,,A*79
$GPGGA,161944.250,4305.8250,N,07725.9747,W,1,09,1.02,146.2,M,-34.3,M,,*53
$GPRMC,161944.500,A,4305.8250,N,07725.9747,W,0.02,189.81,270823,,,A*76
$GPGGA,161944.750,4305.8250,N,07725.9747,W,1,09,1.02,146.2,M,-34.3,M,,*56
$GPRMC,161945.000,A,4305.8250,N,07725.9747,W,0.02,189.81,270823,,,A*72
$GPGGA,161945.250,4305.8250,N,07725.9747,W,1,09,1.02,146.2,M,-34.3,M,,*52
$GPRMC,161945.500,A,4305.8250,N,07725.9747,W,0.02,189.81,270823,,,A*77
$GPGGA,161945.750,4305.8250,N,07725.9747,W,1,09,1.02,146.2,M,-34.3,M,,*57
$GPRMC,161946.000,A,4305.8250,N,07725.9747,W,0.02,189.81,270823,,,A*71
$GPGGA,161946.250,4305.8250,N,07725.9747,W,1,09,1.03,146.2,M,-34.3,M,,*50
$GPRMC,161946.500,A,4305.8250,N,07725.9747,W,0.03,189.81,270823,,,A*75
$GPGGA,161946.750,4305.8250,N,07725.9747,W,1,09,1.03,146.1,M,-34.3,M,,*56
$GPRMC,161947.000,A,4305.8250,N,07725.9747,W,0.03,189.81,270823,,,A*71
$GPGGA,161947.250,4305.8250,N,07725.9747,W,1,09,1.03,146.1,M,-34.3,M,,*52
$GPRMC,161947.500,A,4305.8250,N,07725.9747,W,0.02,189.81,270823,,,A*75
$GPGGA,161947.750,4305.8250,N,07725.9747,W,1,09,1.03,146.1,M,-34.3,M,,*57
$GPRMC,161948.000,A,4305.8250,N,07725.9747,W,0.01,189.81,270823,,,A*7C
$GPGGA,161948.250,4305.8250,N,07725.9747,W,1,09,1.03,146.1,M,-34.3,M,,*5D
$GPRMC,161948.500,A,4305.8250,N,07725.9747,W,0.01,189.81,270823,,,A*79
$GPGGA,161948.750,4305.8250,N,07725.9747,W,1,09,1.03,146.1,M,-34.3,M,,*58
$GPRMC,161949.000,A,4305.8250,N,07725.9747,W,0.01,189.81,270823,,,A*7D
$GPGGA,161949.250,4305.8250,N,07725.9747,W,1,09,1.03,146.1,M,-34.3,M,,*5C
$GPRMC,161949.500,A,4305.8250,N,07725.9747,W,0.01,189.81,270823,,,A*78
$GPGGA,161949.750,4305.8250,N,07725.9747,W,1,09,1.03,146.1,M,-34.3,M,,*59
$GPRMC,161950.000,A,4305.8250,N,07725.9747,W,0.01,189.81,270823,,,A*75
$GPGGA,161950.250,4305.8250,N,07725.9747,W,1,09,1.03,146.1,M,-34.3,M,,*54
$GPRMC,161950.500,A,4305.8250,N,07725.9747,W,0.01,189.81,270823,,,A*70
$GPGGA,161950.750,4305.8250,N,07725.9747,W,1,09,1.03,146.1,M,-34.3,M,,*51
$GPRMC,161951.000,A,4305.8250,N,07725.9747,W,0.01,189.81,270823,,,A*74
$GPGGA,161951.250,4305.8250,N,07725.9747,W,1,09,1.03,146.1,M,-34.3,M,,*55
$GPRMC,161951.500,A,4305.8250,N,07725.9747,W,0.01,189.81,270823,,,A*71
$GPGGA,161951.750,4305.8250,N,07725.9747,W,1,09,1.03,146.1,M,-34.3,M,,*50
$GPRMC,161952.000,A,4305.8250,N,07725.9747,W,0.01,189.81,270823,,,A*77
$GPGGA,161952.250,4305.8250,N,07725.9747,W,1,09,1.03,146.1,M,-34.3,M,,*56
$GPRMC,161952.500,A,4305.8250,N,07725.9747,W,0.01,189.81,270823,,,A*72
$GPGGA,161952.750,4305.8250,N,07725.9747,W,1,09,1.03,146.1,M,-34.3,M,,*53
$GPRMC,161953.000,A,4305.8250,N,07725.9747,W,0.01,189.81,270823,,,A*76
$GPGGA,161953.250,4305.8250,N,07725.9747,W,1,09,1.03,146.1,M,-34.3,M,,*57
$GPRMC,161953.500,A,4305.8250,N,07725.9747,W,0.00,189.81,270823,,,A*72
$GPGGA,161953.750,4305.8250,N,07725.9747,W,1,09,1.03,146.1,M,-34.3,M,,*52
$GPRMC,161954.000,A,4305.8250,N,07725.9747,W,0.03,189.81,270823,,,A*73
$GPGGA,161954.250,4305.8250,N,07725.9747,W,1,09,1.03,146.1,M,-34.3,M,,*50
$GPRMC,161954.500,A,4305.8250,N,07725.9747,W,0.08,189.81,270823,,,A*7D
$GPGGA,161954.750,4305.8250,N,07725.9747,W,1,09,1.03,146.1,M,-34.3,M,,*55
$GPRMC,161955.000,A,4305.8250,N,07725.9747,W,0.66,189.81,270823,,,A*71
$GPGGA,161955.250,4305.8249,N,07725.9748,W,1,09,1.02,146.1,M,-34.3,M,,*57
$GPRMC,161955.500,A,4305.8249,N,07725.9748,W,0.38,189.81,270823,,,A*78
$GPGGA,161955.750,4305.8249,N,07725.9748,W,1,09,1.03,146.1,M,-34.3,M,,*53
$GPRMC,161956.000,A,4305.8249,N,07725.9748,W,0.05,189.81,270823,,,A*70
$GPGGA,161956.250,4305.8249,N,07725.9748,W,1,09,1.03,146.1,M,-34.3,M,,*55
$GPRMC,161956.500,A,4305.8249,N,07725.9748,W,0.03,189.81,270823,,,A*73
$GPGGA,161956.750,4305.8249,N,07725.9748,W,1,09,1.03,146.1,M,-34.3,M,,*50
$GPRMC,161957.000,A,4305.8249,N,07725.9748,W,0.01,189.81,270823,,,A*75
$GPGGA,161957.250,4305.8249,N,07725.9748,W,1,09,1.03,146.1,M,-34.3,M,,*54
$GPRMC,161957.500,A,4305.8249,N,07725.9748,W,0.02,189.81,270823,,,A*73
$GPGGA,161957.750,4305.8249,N,07725.9748,W,1,09,1.03,146.1,M,-34.3,M,,*51
$GPRMC,161958.000,A,4305.8249,N,07725.9748,W,0.10,189.81,270823,,,A*7A
$GPGGA,161958.250,4305.8249,N,07725.9748,W,1,09,1.03,146.1,M,-34.3,M,,*5B
$GPRMC,161958.500,A,4305.8249,N,07725.9748,W,1.37,210.36,270823,,,A*74
$GPGGA,161958.750,4305.8248,N,07725.9748,W,1,09,1.02,146.1,M,-34.3,M,,*5E
$GPRMC,161959.000,A,4305.8247,N,07725.9749,W,2.77,208.01,270823,,,A*75
$GPGGA,161959.250,4305.8245,N,07725.9751,W,1,09,1.02,146.0,M,-34.3,M,,*5E
$GPRMC,161959.500,A,4305.8242,N,07725.9753,W,4.40,206.77,270823,,,A*73
$GPGGA,161959.750,4305.8239,N,07725.9755,W,1,09,1.03,145.9,M,-34.3,M,,*5F
$GPRMC,162000.000,A,4305.8235,N,07725.9757,W,5.90,205.66,270823,,,A*7B
$GPGGA,162000.250,4305.8231,N,07725.9759,W,1,09,1.03,145.8,M,-34.3,M,,*59
$GPRMC,162000.500,A,4305.8227,N,07725.9762,W,7.18,205.31,270823,,,A*7B
$GPGGA,162000.750,4305.8222,N,07725.9765,W,1,09,1.03,145.6,M,-34.3,M,,*5F
$GPRMC,162001.000,A,4305.8217,N,07725.9768,W,8.52,203.35,270823,,,A*75
$GPGGA,162001.250,4305.8211,N,07725.9772,W,1,09,1.03,145.5,M,-34.3,M,,*5E
$GPRMC,162001.500,A,4305.8206,N,07725.9776,W,9.20,206.73,270823,,,A*7C
$GPGGA,162001.750,4305.8200,N,07725.9780,W,1,09,1.03,145.5,M,-34.3,M,,*56
$GPRMC,162002.000,A,4305.8194,N,07725.9784,W,9.59,208.45,270823,,,A*7A
$GPGGA,162002.250,4305.8188,N,07725.9789,W,1,09,1.03,145.4,M,-34.3,M,,*5B
$GPRMC,162002.500,A,4305.8182,N,07725.9793,W,10.21,208.22,270823,,,A*48
$GPGGA,162002.750,4305.8176,N,07725.9798,W,1,09,1.03,145.4,M,-34.3,M,,*5F
$GPRMC,162003.000,A,4305.8170,N,07725.9802,W,10.40,207.84,270823,,,A*42
$GPGGA,162003.250,4305.8163,N,07725.9807,W,1,09,1.03,145.5,M,-34.3,M,,*57
$GPRMC,162003.500,A,4305.8156,N,07725.9812,W,10.87,206.44,270823,,,A*44
$GPGGA,162003.750,4305.8149,N,07725.9816,W,1,09,1.03,145.5,M,-34.3,M,,*5A
$GPRMC,162004.000,A,4305.8141,N,07725.9820,W,11.75,204.27,270823,,,A*4A
$GPGGA,162004.250,4305.8133,N,07725.9824,W,1,09,1.03,145.5,M,-34.3,M,,*54
$GPRMC,162004.500,A,4305.8125,N,07725.9828,W,12.18,201.36,270823,,,A*48
$GPGGA,162004.750,4305.8118,N,07725.9832,W,1,08,1.17,145.6,M,-34.3,M,,*58
$GPRMC,162005.000,A,4305.8109,N,07725.9835,W,12.33,197.31,270823,,,A*4C
$GPGGA,162005.250,4305.8100,N,07725.9838,W,1,09,1.03,145.6,M,-34.3,M,,*5B
$GPRMC,162005.500,A,4305.8091,N,07725.9841,W,12.86,192.07,270823,,,A*44
$GPGGA,162005.750,4305.8082,N,07725.9843,W,1,09,1.03,145.7,M,-34.3,M,,*58
$GPRMC,162006.000,A,4305.8073,N,07725.9844,W,13.38,187.63,270823,,,A*49
$GPGGA,162006.250,4305.8062,N,07725.9845,W,1,09,1.03,145.9,M,-34.3,M,,*58
$GPRMC,162006.500,A,4305.8050,N,07725.9844,W,14.38,177.11,270823,,,A*40
$GPGGA,162006.750,4305.8040,N,07725.9842,W,1,09,1.03,146.0,M,-34.3,M,,*50
$GPRMC,162007.000,A,4305.8029,N,07725.9840,W,15.10,170.92,270823,,,A*49
$GPGGA,162007.250,4305.8019,N,07725.9837,W,1,09,1.03,146.3,M,-34.3,M,,*59
$GPRMC,162007.500,A,4305.8010,N,07725.9835,W,15.84,165.96,270823,,,A*49
$GPGGA,162007.750,4305.7998,N,07725.9830,W,1,09,1.03,146.5,M,-34.3,M,,*52
$GPRMC,162008.000,A,4305.7985,N,07725.9825,W,17.01,162.08,270823,,,A*47
$GPGGA,162008.250,4305.7973,N,07725.9819,W,1,09,1.03,146.6,M,-34.3,M,,*55
$GPRMC,162008.500,A,4305.7961,N,07725.9813,W,18.27,157.07,270823,,,A*4F
$GPGGA,162008.750,4305.7948,N,07725.9806,W,1,09,1.03,146.9,M,-34.3,M,,*59
$GPRMC,162009.000,A,4305.7936,N,07725.9797,W,19.31,153.14,270823,,,A*4A
$GPGGA,162009.250,4305.7923,N,07725.9788,W,1,09,1.03,147.1,M,-34.3,M,,*50
$GPRMC,162009.500,A,4305.7910,N,07725.9778,W,20.87,149.77,270823,,,A*43
$GPGGA,162009.750,4305.7897,N,07725.9767,W,1,09,1.03,147.4,M,-34.3,M,,*5F
$GPRMC,162010.000,A,4305.7884,N,07725.9755,W,21.94,147.80,270823,,,A*48
$GPGGA,162010.250,4305.7870,N,07725.9743,W,1,09,1.03,147.6,M,-34.3,M,,*5F
$GPRMC,162010.500,A,4305.7855,N,07725.9731,W,22.97,147.15,270823,,,A*4F
$GPGGA,162010.750,4305.7841,N,07725.9718,W,1,09,1.03,147.8,M,-34.3,M,,*58
$GPRMC,162011.000,A,4305.7827,N,07725.9706,W,23.76,146.77,270823,,,A*41
$GPGGA,162011.250,4305.7812,N,07725.9693,W,1,09,1.03,148.1,M,-34.3,M,,*5E
