Vers 81
USE_SERIAL_FEEDBACK=true
DEVELOPMENT_MODE=false
USE_RMC_ONLY=false

$GPRMC,155535.500,A,4308.3028,N,07726.2644,W,0.03,270.58,110923,,,A*7E
$GPGGA,155535.750,4308.3029,N,07726.2644,W,1,05,1.59,154.6,M,-34.4,M,,*59
$GPRMC,155536.000,A,4308.3029,N,07726.2644,W,0.01,46.52,110923,,,A*46
$GPGGA,155536.250,4308.3029,N,07726.2644,W,1,05,1.59,154.9,M,-34.4,M,,*50
$GPRMC,155536.500,A,4308.3030,N,07726.2644,W,0.01,63.73,110923,,,A*4F
$GPGGA,155536.750,4308.3030,N,07726.2644,W,1,05,1.59,155.0,M,-34.4,M,,*55
$GPRMC,155537.000,A,4308.3031,N,07726.2644,W,0.03,37.84,110923,,,A*41
$GPGGA,155537.250,4308.3032,N,07726.2644,W,1,05,1.59,155.2,M,-34.4,M,,*51
$GPRMC,155537.500,A,4308.3032,N,07726.2644,W,0.04,322.18,110923,,,A*72
$GPGGA,155537.750,4308.3033,N,07726.2644,W,1,05,1.59,155.7,M,-34.4,M,,*50
$GPRMC,155538.000,A,4308.3033,N,07726.2645,W,0.01,165.90,110923,,,A*7C
$GPGGA,155538.250,4308.3034,N,07726.2645,W,1,05,1.59,156.3,M,-34.4,M,,*5B
$GPRMC,155538.500,A,4308.3034,N,07726.2645,W,0.02,235.79,110923,,,A*7C
$GPGGA,155538.750,4308.3035,N,07726.2645,W,1,05,1.59,156.7,M,-34.4,M,,*5B
$GPRMC,155539.000,A,4308.3035,N,07726.2645,W,0.01,28.95,110923,,,A*46
$GPGGA,155539.250,4308.3036,N,07726.2645,W,1,05,1.59,156.9,M,-34.4,M,,*52
$GPRMC,155539.500,A,4308.3036,N,07726.2645,W,0.01,191.28,110923,,,A*75
$GPGGA,155539.750,4308.3037,N,07726.2645,W,1,05,1.59,157.2,M,-34.4,M,,*5C
$GPRMC,155540.000,A,4308.3038,N,07726.2645,W,0.02,79.12,110923,,,A*4D
$GPGGA,155540.250,4308.3038,N,07726.2645,W,1,05,1.59,157.3,M,-34.4,M,,*59
$GPRMC,155540.500,A,4308.3039,N,07726.2644,W,0.03,219.99,110923,,,A*7E
$GPGGA,155540.750,4308.3039,N,07726.2644,W,1,05,1.59,157.4,M,-34.4,M,,*5B
$GPRMC,155541.000,A,4308.3039,N,07726.2643,W,0.07,194.35,110923,,,A*79
$GPGGA,155541.250,4308.3040,N,07726.2643,W,1,05,1.59,157.6,M,-34.4,M,,*54
$GPRMC,155541.500,A,4308.3040,N,07726.2642,W,0.06,197.17,110923,,,A*71
$GPGGA,155541.750,4308.3040,N,07726.2642,W,1,05,1.59,157.7,M,-34.4,M,,*51
$GPRMC,155542.000,A,4308.3041,N,07726.2641,W,0.03,240.28,110923,,,A*75
$GPGGA,155542.250,4308.3041,N,07726.2641,W,1,05,1.59,157.9,M,-34.4,M,,*5B
$GPRMC,155542.500,A,4308.3041,N,07726.2641,W,0.01,113.86,110923,,,A*73
$GPGGA,155542.750,4308.3042,N,07726.2640,W,1,05,1.59,157.9,M,-34.4,M,,*5C
$GPRMC,155543.000,A,4308.3042,N,07726.2640,W,0.04,123.74,110923,,,A*7E
$GPGGA,155543.250,4308.3042,N,07726.2639,W,1,05,1.59,158.1,M,-34.4,M,,*51
$GPRMC,155543.500,A,4308.3042,N,07726.2639,W,0.06,97.87,110923,,,A*45
$GPGGA,155543.750,4308.3043,N,07726.2638,W,1,05,1.59,158.4,M,-34.4,M,,*51
$GPRMC,155544.000,A,4308.3043,N,07726.2637,W,0.35,81.39,110923,,,A*4A
$GPGGA,155544.250,4308.3043,N,07726.2637,W,1,05,1.59,158.7,M,-34.4,M,,*5F
$GPRMC,155544.500,A,4308.3043,N,07726.2636,W,0.31,79.51,110923,,,A*43
$GPGGA,155544.750,4308.3043,N,07726.2636,W,1,05,1.59,158.9,M,-34.4,M,,*55
$GPRMC,155545.000,A,4308.3043,N,07726.2635,W,0.27,80.47,110923,,,A*42
$GPGGA,155545.250,4308.3043,N,07726.2635,W,1,05,1.59,159.1,M,-34.4,M,,*5B
$GPRMC,155545.500,A,4308.3043,N,07726.2634,W,0.22,88.47,110923,,,A*4B
$GPGGA,155545.750,4308.3043,N,07726.2634,W,1,05,1.59,159.3,M,-34.4,M,,*5D
$GPRMC,155546.000,A,4308.3043,N,07726.2634,W,0.21,89.16,110923,,,A*4B
$GPGGA,155546.250,4308.3043,N,07726.2633,W,1,05,1.59,159.4,M,-34.4,M,,*5B
$GPRMC,155546.500,A,4308.3043,N,07726.2633,W,0.21,102.07,110923,,,A*7B
$GPGGA,155546.750,4308.3043,N,07726.2633,W,1,05,1.59,159.6,M,-34.4,M,,*5C
$GPRMC,155547.000,A,4308.3043,N,07726.2632,W,0.21,82.87,110923,,,A*4F
$GPGGA,155547.250,4308.3043,N,07726.2632,W,1,05,1.59,159.8,M,-34.4,M,,*57
$GPRMC,155547.500,A,4308.3042,N,07726.2632,W,0.14,110.02,110923,,,A*7A
$GPGGA,155547.750,4308.3042,N,07726.2632,W,1,05,1.59,160.1,M,-34.4,M,,*50
$GPRMC,155548.000,A,4308.3042,N,07726.2632,W,0.10,111.47,110923,,,A*74
$GPGGA,155548.250,4308.3042,N,07726.2631,W,1,05,1.59,160.1,M,-34.4,M,,*59
$GPRMC,155548.500,A,4308.3041,N,07726.2631,W,0.08,88.59,110923,,,A*46
$GPGGA,155548.750,4308.3041,N,07726.2631,W,1,05,1.59,160.2,M,-34.4,M,,*5C
$GPRMC,155549.000,A,4308.3041,N,07726.2630,W,0.07,138.22,110923,,,A*7A
$GPGGA,155549.250,4308.3040,N,07726.2630,W,1,05,1.59,160.2,M,-34.4,M,,*58
$GPRMC,155549.500,A,4308.3040,N,07726.2629,W,0.09,181.47,110923,,,A*79
$GPGGA,155549.750,4308.3040,N,07726.2630,W,1,05,1.59,160.2,M,-34.4,M,,*5D
$GPRMC,155550.000,A,4308.3039,N,07726.2629,W,0.23,200.78,110923,,,A*74
$GPGGA,155550.250,4308.3039,N,07726.2629,W,1,05,1.59,160.3,M,-34.4,M,,*57
$GPRMC,155550.500,A,4308.3038,N,07726.2629,W,0.23,200.18,110923,,,A*76
$GPGGA,155550.750,4308.3038,N,07726.2629,W,1,05,1.59,160.2,M,-34.4,M,,*52
$GPRMC,155551.000,A,4308.3038,N,07726.2628,W,0.18,204.85,110923,,,A*7B
$GPGGA,155551.250,4308.3038,N,07726.2627,W,1,05,1.59,160.2,M,-34.4,M,,*58
$GPRMC,155551.500,A,4308.3037,N,07726.2627,W,0.17,187.54,110923,,,A*75
$GPGGA,155551.750,4308.3037,N,07726.2627,W,1,05,1.59,160.2,M,-34.4,M,,*52
$GPRMC,155552.000,A,4308.3037,N,07726.2626,W,0.10,183.46,110923,,,A*72
$GPGGA,155552.250,4308.3037,N,07726.2626,W,1,05,1.59,160.2,M,-34.4,M,,*55
$GPRMC,155552.500,A,4308.3036,N,07726.2625,W,0.11,149.52,110923,,,A*77
$GPGGA,155552.750,4308.3036,N,07726.2625,W,1,05,1.59,160.2,M,-34.4,M,,*52
$GPRMC,155553.000,A,4308.3036,N,07726.2625,W,0.15,145.99,110923,,,A*7C
$GPGGA,155553.250,4308.3035,N,07726.2625,W,1,05,1.59,160.3,M,-34.4,M,,*54
$GPRMC,155553.500,A,4308.3035,N,07726.2624,W,0.09,137.90,110923,,,A*7A
$GPGGA,155553.750,4308.3035,N,07726.2624,W,1,05,1.59,160.4,M,-34.4,M,,*57
$GPRMC,155554.000,A,4308.3035,N,07726.2624,W,0.08,102.90,110923,,,A*7F
$GPGGA,155554.250,4308.3034,N,07726.2624,W,1,05,1.59,160.5,M,-34.4,M,,*55
$GPRMC,155554.500,A,4308.3033,N,07726.2623,W,0.17,132.15,110923,,,A*7B
$GPGGA,155554.750,4308.3033,N,07726.2623,W,1,05,1.59,160.6,M,-34.4,M,,*53
$GPRMC,155555.000,A,4308.3033,N,07726.2623,W,0.19,93.65,110923,,,A*4C
$GPGGA,155555.250,4308.3033,N,07726.2623,W,1,05,1.59,160.7,M,-34.4,M,,*56
$GPRMC,155555.500,A,4308.3033,N,07726.2623,W,0.18,52.75,110923,,,A*44
$GPGGA,155555.750,4308.3033,N,07726.2623,W,1,05,1.59,160.8,M,-34.4,M,,*5C
$GPRMC,155556.000,A,4308.3032,N,07726.2623,W,0.10,78.17,110923,,,A*47
$GPGGA,155556.250,4308.3031,N,07726.2622,W,1,05,1.59,160.9,M,-34.4,M,,*58
$GPRMC,155556.500,A,4308.3031,N,07726.2623,W,0.12,74.53,110923,,,A*4F
$GPGGA,155556.750,4308.3031,N,07726.2623,W,1,05,1.59,161.0,M,-34.4,M,,*54
$GPRMC,155557.000,A,4308.3030,N,07726.2623,W,0.11,68.11,110923,,,A*42
$GPGGA,155557.250,4308.3030,N,07726.2623,W,1,05,1.59,161.2,M,-34.4,M,,*53
$GPRMC,155557.500,A,4308.3029,N,07726.2624,W,0.02,45.62,110923,,,A*41
$GPGGA,155557.750,4308.3029,N,07726.2625,W,1,05,1.59,161.3,M,-34.4,M,,*59
$GPRMC,155558.000,A,4308.3029,N,07726.2625,W,0.03,317.12,110923,,,A*78
$GPGGA,155558.250,4308.3029,N,07726.2626,W,1,05,1.59,161.4,M,-34.4,M,,*57
$GPRMC,155558.500,A,4308.3028,N,07726.2627,W,0.13,285.45,110923,,,A*77
$GPGGA,155558.750,4308.3028,N,07726.2628,W,1,05,1.59,161.7,M,-34.4,M,,*5E
$GPRMC,155559.000,A,4308.3028,N,07726.2628,W,0.14,319.89,110923,,,A*7F
$GPGGA,155559.250,4308.3028,N,07726.2629,W,1,05,1.59,162.0,M,-34.4,M,,*5F
$GPRMC,155559.500,A,4308.3028,N,07726.2629,W,0.33,355.24,110923,,,A*71
$GPGGA,155559.750,4308.3030,N,07726.2629,W,1,05,1.91,162.2,M,-34.4,M,,*55
$GPRMC,155600.000,A,4308.3032,N,07726.2628,W,0.93,13.83,110923,,,A*47
$GPGGA,155600.250,4308.3033,N,07726.2628,W,1,05,1.91,162.5,M,-34.4,M,,*5A
$GPRMC,155600.500,A,4308.3035,N,07726.2628,W,1.41,13.64,110923,,,A*42
$GPGGA,155600.750,4308.3039,N,07726.2628,W,1,05,1.91,162.8,M,-34.4,M,,*58
$GPRMC,155601.000,A,4308.3042,N,07726.2628,W,2.85,6.26,110923,,,A*7F
$GPGGA,155601.250,4308.3044,N,07726.2628,W,1,05,1.91,163.0,M,-34.4,M,,*5F
$GPRMC,155601.500,A,4308.3047,N,07726.2628,W,4.18,3.09,110923,,,A*75
$GPGGA,155601.750,4308.3051,N,07726.2628,W,1,05,1.91,163.3,M,-34.4,M,,*5D
$GPRMC,155602.000,A,4308.3054,N,07726.2628,W,5.05,3.07,110923,,,A*72
$GPGGA,155602.250,4308.3058,N,07726.2628,W,1,05,1.91,163.5,M,-34.4,M,,*54
$GPRMC,155602.500,A,4308.3061,N,07726.2628,W,5.34,3.78,110923,,,A*7B
$GPGGA,155602.750,4308.3065,N,07726.2628,W,1,05,1.91,163.8,M,-34.4,M,,*52
$GPRMC,155603.000,A,4308.3069,N,07726.2628,W,5.70,2.65,110923,,,A*7A
$GPGGA,155603.250,4308.3073,N,07726.2629,W,1,05,1.91,164.0,M,-34.4,M,,*5F
$GPRMC,155603.500,A,4308.3077,N,07726.2629,W,5.94,0.67,110923,,,A*7B
$GPGGA,155603.750,4308.3081,N,07726.2629,W,1,05,1.91,164.3,M,-34.4,M,,*54
$GPRMC,155604.000,A,4308.3085,N,07726.2630,W,6.10,359.71,110923,,,A*7B
$GPGGA,155604.250,4308.3089,N,07726.2630,W,1,05,1.91,164.4,M,-34.4,M,,*51
$GPRMC,155604.500,A,4308.3093,N,07726.2631,W,5.79,358.04,110923,,,A*77
$GPGGA,155604.750,4308.3097,N,07726.2631,W,1,05,1.91,164.6,M,-34.4,M,,*58
$GPRMC,155605.000,A,4308.3100,N,07726.2631,W,5.38,4.19,110923,,,A*7B
$GPGGA,155605.250,4308.3103,N,07726.2631,W,1,05,1.91,164.7,M,-34.4,M,,*51
$GPRMC,155605.500,A,4308.3106,N,07726.2631,W,4.11,5.18,110923,,,A*72
$GPGGA,155605.750,4308.3108,N,07726.2630,W,1,05,1.91,164.8,M,-34.4,M,,*51
$GPRMC,155606.000,A,4308.3111,N,07726.2629,W,3.68,15.14,110923,,,A*4F
$GPGGA,155606.250,4308.3113,N,07726.2628,W,1,05,1.59,164.8,M,-34.4,M,,*50
$GPRMC,155606.500,A,4308.3116,N,07726.2627,W,4.04,20.57,110923,,,A*4F
$GPGGA,155606.750,4308.3119,N,07726.2625,W,1,05,1.91,164.9,M,-34.4,M,,*57
$GPRMC,155607.000,A,4308.3121,N,07726.2623,W,4.13,25.78,110923,,,A*45
$GPGGA,155607.250,4308.3124,N,07726.2622,W,1,05,1.91,165.0,M,-34.4,M,,*52
$GPRMC,155607.500,A,4308.3126,N,07726.2620,W,3.76,31.24,110923,,,A*4C
$GPGGA,155607.750,4308.3128,N,07726.2617,W,1,05,1.59,165.0,M,-34.4,M,,*59
$GPRMC,155608.000,A,4308.3129,N,07726.2614,W,3.66,46.48,110923,,,A*45
$GPGGA,155606.250,4308.3129,N,07726.2612,W,1,05,1.59,165.5,M,-34.4,M,,*5C
$GPRMC,155606.500,A,4308.3130,N,07726.2610,W,3.45,65.41,110923,,,A*4B
$GPGGA,155606.750,4308.3130,N,07726.2608,W,1,05,1.59,166.8,M,-34.4,M,,*54
$GPRMC,155607.000,A,4308.3131,N,07726.2605,W,3.52,77.83,110923,,,A*41
$GPGGA,155607.250,4308.3131,N,07726.2602,W,1,05,1.59,167.8,M,-34.4,M,,*5A
$GPRMC,155607.500,A,4308.3132,N,07726.2600,W,3.18,79.30,110923,,,A*4A
$GPGGA,155607.750,4308.3134,N,07726.2600,W,1,05,1.59,168.8,M,-34.4,M,,*57
$GPRMC,155608.000,A,4308.3135,N,07726.2601,W,2.21,79.33,110923,,,A*4E
$GPGGA,155608.250,4308.3136,N,07726.2601,W,1,05,1.59,169.4,M,-34.4,M,,*53
$GPRMC,155608.500,A,4308.3138,N,07726.2602,W,0.46,1.00,110923,,,A*79
$GPGGA,155608.750,4308.3138,N,07726.2605,W,1,05,1.91,169.6,M,-34.4,M,,*5A
$GPRMC,155609.000,A,4308.3139,N,07726.2609,W,1.91,263.98,110923,,,A*7B
$GPGGA,155609.250,4308.3139,N,07726.2613,W,1,04,2.54,169.6,M,-34.4,M,,*53
$GPRMC,155609.500,A,4308.3139,N,07726.2618,W,4.04,263.28,110923,,,A*7C
$GPGGA,155609.750,4308.3139,N,07726.2624,W,1,05,1.90,169.6,M,-34.4,M,,*58
$GPRMC,155610.000,A,4308.3140,N,07726.2632,W,7.35,266.74,110923,,,A*7A
$GPGGA,155610.250,4308.3140,N,07726.2640,W,1,05,1.59,169.5,M,-34.4,M,,*5F
$GPRMC,155610.500,A,4308.3140,N,07726.2649,W,8.99,269.25,110923,,,A*71
$GPGGA,155610.750,4308.3141,N,07726.2659,W,1,05,1.91,169.4,M,-34.4,M,,*56
$GPRMC,155611.000,A,4308.3142,N,07726.2670,W,10.13,272.65,110923,,,A*48
$GPGGA,155611.250,4308.3143,N,07726.2680,W,1,05,1.59,169.2,M,-34.4,M,,*56
$GPRMC,155611.500,A,4308.3144,N,07726.2692,W,11.11,274.44,110923,,,A*41
$GPGGA,155611.750,4308.3145,N,07726.2705,W,1,05,1.90,169.1,M,-34.4,M,,*5F
$GPRMC,155612.000,A,4308.3146,N,07726.2717,W,12.27,275.46,110923,,,A*4C
$GPGGA,155612.250,4308.3147,N,07726.2730,W,1,05,1.59,169.0,M,-34.4,M,,*59
$GPRMC,155612.500,A,4308.3149,N,07726.2743,W,12.96,277.45,110923,,,A*4C
$GPGGA,155612.750,4308.3151,N,07726.2756,W,1,05,1.91,168.9,M,-34.4,M,,*57
$GPRMC,155613.000,A,4308.3153,N,07726.2770,W,13.50,280.31,110923,,,A*43
$GPGGA,155613.250,4308.3156,N,07726.2783,W,1,05,1.59,168.8,M,-34.4,M,,*59
$GPRMC,155613.500,A,4308.3158,N,07726.2797,W,14.11,281.96,110923,,,A*4A
$GPGGA,155613.750,4308.3162,N,07726.2812,W,1,05,1.59,168.8,M,-34.4,M,,*5C
$GPRMC,155614.000,A,4308.3169,N,07726.2832,W,16.56,286.97,110923,,,A*4D
$GPGGA,155614.250,4308.3175,N,07726.2850,W,1,05,1.59,168.8,M,-34.4,M,,*5E
$GPRMC,155614.500,A,4308.3181,N,07726.2870,W,18.60,289.90,110923,,,A*4B
$GPGGA,155614.750,4308.3188,N,07726.2890,W,1,05,1.90,168.7,M,-34.4,M,,*5F
$GPRMC,155615.000,A,4308.3194,N,07726.2910,W,20.29,292.34,110923,,,A*4E
$GPGGA,155615.250,4308.3200,N,07726.2930,W,1,05,1.59,168.7,M,-34.4,M,,*56
$GPRMC,155615.500,A,4308.3207,N,07726.2949,W,21.29,294.85,110923,,,A*43
$GPGGA,155615.750,4308.3214,N,07726.2968,W,1,05,1.90,168.6,M,-34.4,M,,*5F
$GPRMC,155616.000,A,4308.3221,N,07726.2987,W,21.56,297.90,110923,,,A*4C
$GPGGA,155616.250,4308.3229,N,07726.3006,W,1,05,1.59,168.5,M,-34.4,M,,*51
$GPRMC,155616.500,A,4308.3238,N,07726.3026,W,22.59,299.55,110923,,,A*49
$GPGGA,155616.750,4308.3247,N,07726.3046,W,1,05,1.90,168.4,M,-34.4,M,,*5C
$GPRMC,155617.000,A,4308.3255,N,07726.3066,W,23.67,300.70,110923,,,A*48
$GPGGA,155617.250,4308.3265,N,07726.3086,W,1,05,1.59,168.3,M,-34.4,M,,*56
$GPRMC,155617.500,A,4308.3275,N,07726.3107,W,24.66,301.72,110923,,,A*4C
$GPGGA,155617.750,4308.3285,N,07726.3128,W,1,05,1.90,168.1,M,-34.4,M,,*5F
$GPRMC,155618.000,A,4308.3294,N,07726.3149,W,25.07,302.14,110923,,,A*46
$GPGGA,155618.250,4308.3304,N,07726.3169,W,1,05,1.59,167.8,M,-34.4,M,,*5B
$GPRMC,155618.500,A,4308.3314,N,07726.3190,W,25.33,303.03,110923,,,A*4E
$GPGGA,155618.750,4308.3324,N,07726.3211,W,1,05,1.90,167.6,M,-34.4,M,,*5B
$GPRMC,155619.000,A,4308.3334,N,07726.3233,W,25.84,303.35,110923,,,A*4B
$GPGGA,155619.250,4308.3344,N,07726.3254,W,1,05,1.59,167.3,M,-34.4,M,,*58
$GPRMC,155619.500,A,4308.3355,N,07726.3275,W,26.31,303.40,110923,,,A*44
$GPGGA,155619.750,4308.3365,N,07726.3297,W,1,05,1.59,167.1,M,-34.4,M,,*53
$GPRMC,155620.000,A,4308.3375,N,07726.3318,W,26.23,303.45,110923,,,A*45
$GPGGA,155620.250,4308.3386,N,07726.3339,W,1,05,1.59,167.0,M,-34.4,M,,*55
$GPRMC,155620.500,A,4308.3396,N,07726.3359,W,26.22,303.07,110923,,,A*4F
$GPGGA,155620.750,4308.3406,N,07726.3380,W,1,05,1.59,166.9,M,-34.4,M,,*55
$GPRMC,155621.000,A,4308.3416,N,07726.3401,W,26.18,303.31,110923,,,A*42
$GPGGA,155621.250,4308.3427,N,07726.3421,W,1,05,1.59,166.8,M,-34.4,M,,*5F
$GPRMC,155621.500,A,4308.3437,N,07726.3442,W,26.34,303.81,110923,,,A*46
$GPGGA,155621.750,4308.3448,N,07726.3462,W,1,05,1.59,166.6,M,-34.4,M,,*5A
$GPRMC,155622.000,A,4308.3460,N,07726.3482,W,26.26,305.10,110923,,,A*43
$GPGGA,155622.250,4308.3471,N,07726.3502,W,1,05,1.59,166.5,M,-34.4,M,,*52
$GPRMC,155622.500,A,4308.3483,N,07726.3522,W,26.27,306.24,110923,,,A*45
$GPGGA,155622.750,4308.3494,N,07726.3542,W,1,05,1.59,166.3,M,-34.4,M,,*5E
$GPRMC,155623.000,A,4308.3506,N,07726.3562,W,26.02,307.35,110923,,,A*4F
$GPGGA,155623.250,4308.3518,N,07726.3581,W,1,05,1.59,166.1,M,-34.4,M,,*52
$GPRMC,155623.500,A,4308.3530,N,07726.3601,W,25.35,308.71,110923,,,A*41
$GPGGA,155623.750,4308.3542,N,07726.3620,W,1,05,1.59,166.0,M,-34.4,M,,*51
$GPRMC,155624.000,A,4308.3555,N,07726.3637,W,25.27,311.81,110923,,,A*41
$GPGGA,155624.250,4308.3569,N,07726.3654,W,1,05,1.59,166.0,M,-34.4,M,,*59
$GPRMC,155624.500,A,4308.3582,N,07726.3671,W,25.31,317.08,110923,,,A*4C
$GPGGA,155624.750,4308.3596,N,07726.3686,W,1,05,1.59,166.0,M,-34.4,M,,*53
$GPRMC,155625.000,A,4308.3611,N,07726.3702,W,25.55,322.11,110923,,,A*48
$GPGGA,155625.250,4308.3625,N,07726.3716,W,1,05,1.59,165.9,M,-34.4,M,,*5E
$GPRMC,155625.500,A,4308.3641,N,07726.3730,W,26.02,326.81,110923,,,A*45
$GPGGA,155625.750,4308.3658,N,07726.3741,W,1,05,1.59,165.9,M,-34.4,M,,*53
$GPRMC,155626.000,A,4308.3675,N,07726.3753,W,26.46,332.89,110923,,,A*4C
$GPGGA,155626.250,4308.3692,N,07726.3762,W,1,05,1.59,165.8,M,-34.4,M,,*53
$GPRMC,155626.500,A,4308.3710,N,07726.3771,W,26.74,338.32,110923,,,A*40
$GPGGA,155626.750,4308.3729,N,07726.3779,W,1,05,1.59,165.8,M,-34.4,M,,*5D
$GPRMC,155627.000,A,4308.3747,N,07726.3786,W,27.20,342.45,110923,,,A*43
$GPGGA,155627.250,4308.3765,N,07726.3792,W,1,05,1.59,165.8,M,-34.4,M,,*54
$GPRMC,155627.500,A,4308.3784,N,07726.3796,W,27.20,346.81,110923,,,A*44
$GPGGA,155627.750,4308.3803,N,07726.3799,W,1,05,1.59,165.8,M,-34.4,M,,*55
$GPRMC,155628.000,A,4308.3822,N,07726.3802,W,27.29,351.12,110923,,,A*4A
$GPGGA,155628.250,4308.3841,N,07726.3803,W,1,05,1.59,165.8,M,-34.4,M,,*55
$GPRMC,155628.500,A,4308.3861,N,07726.3804,W,27.37,356.24,110923,,,A*43
$GPGGA,155628.750,4308.3881,N,07726.3803,W,1,05,1.59,165.8,M,-34.4,M,,*5C
$GPRMC,155629.000,A,4308.3899,N,07726.3802,W,27.70,0.72,110923,,,A*46
$GPGGA,155629.250,4308.3918,N,07726.3799,W,1,05,1.59,165.8,M,-34.4,M,,*55
$GPRMC,155629.500,A,4308.3937,N,07726.3796,W,27.64,5.03,110923,,,A*42
$GPGGA,155629.750,4308.3957,N,07726.3792,W,1,05,1.59,165.9,M,-34.4,M,,*51
$GPRMC,155630.000,A,4308.3977,N,07726.3787,W,28.01,8.51,110923,,,A*4D
$GPGGA,155630.250,4308.3996,N,07726.3782,W,1,05,1.59,165.9,M,-34.4,M,,*50
$GPRMC,155630.500,A,4308.4016,N,07726.3776,W,28.35,10.56,110923,,,A*76
$GPGGA,155630.750,4308.4035,N,07726.3770,W,1,05,1.59,165.9,M,-34.4,M,,*5F
$GPRMC,155631.000,A,4308.4055,N,07726.3764,W,28.45,12.19,110923,,,A*78
$GPGGA,155631.250,4308.4074,N,07726.3757,W,1,05,1.59,165.9,M,-34.4,M,,*5B
$GPRMC,155631.500,A,4308.4094,N,07726.3751,W,28.54,12.88,110923,,,A*7E
$GPGGA,155631.750,4308.4114,N,07726.3744,W,1,05,1.59,165.8,M,-34.4,M,,*5A
$GPRMC,155632.000,A,4308.4134,N,07726.3738,W,28.55,12.85,110923,,,A*70
$GPGGA,155632.250,4308.4153,N,07726.3732,W,1,05,1.59,165.7,M,-34.4,M,,*51
$GPRMC,155632.500,A,4308.4172,N,07726.3726,W,28.43,12.53,110923,,,A*74
$GPGGA,155632.750,4308.4192,N,07726.3720,W,1,05,1.59,165.7,M,-34.4,M,,*5A
$GPRMC,155633.000,A,4308.4211,N,07726.3715,W,28.29,11.45,110923,,,A*7E
$GPGGA,155633.250,4308.4230,N,07726.3710,W,1,05,1.59,165.7,M,-34.4,M,,*56
$GPRMC,155633.500,A,4308.4249,N,07726.3705,W,28.14,10.38,110923,,,A*72
$GPGGA,155633.750,4308.4267,N,07726.3700,W,1,05,1.59,165.7,M,-34.4,M,,*50
$GPRMC,155634.000,A,4308.4285,N,07726.3696,W,27.95,10.01,110923,,,A*77
$GPGGA,155634.250,4308.4304,N,07726.3691,W,1,05,1.59,165.7,M,-34.4,M,,*5F
$GPRMC,155634.500,A,4308.4321,N,07726.3686,W,26.19,9.52,110923,,,A*47
$GPGGA,155634.750,4308.4339,N,07726.3682,W,1,05,1.59,165.8,M,-34.4,M,,*59
$GPRMC,155635.000,A,4308.4357,N,07726.3678,W,25.61,8.94,110923,,,A*44
$GPGGA,155635.250,4308.4374,N,07726.3674,W,1,05,1.59,165.9,M,-34.4,M,,*5C
$GPRMC,155635.500,A,4308.4390,N,07726.3670,W,24.45,8.20,110923,,,A*4A
$GPGGA,155635.750,4308.4405,N,07726.3667,W,1,05,1.90,166.0,M,-34.4,M,,*55
$GPRMC,155636.000,A,4308.4420,N,07726.3663,W,22.75,8.24,110923,,,A*43
$GPGGA,155636.250,4308.4434,N,07726.3659,W,1,05,1.90,166.0,M,-34.4,M,,*5C
$GPRMC,155636.500,A,4308.4447,N,07726.3655,W,20.69,8.05,110923,,,A*4E
$GPGGA,155636.750,4308.4459,N,07726.3652,W,1,05,1.90,166.1,M,-34.4,M,,*58
$GPRMC,155637.000,A,4308.4471,N,07726.3649,W,18.68,8.62,110923,,,A*49
$GPGGA,155637.250,4308.4482,N,07726.3645,W,1,05,1.90,166.2,M,-34.4,M,,*5F
$GPRMC,155637.500,A,4308.4492,N,07726.3642,W,16.37,8.43,110923,,,A*4D
$GPGGA,155637.750,4308.4500,N,07726.3639,W,1,05,1.90,166.3,M,-34.4,M,,*5B
$GPRMC,155638.000,A,4308.4508,N,07726.3637,W,13.77,7.15,110923,,,A*4A
$GPGGA,155638.250,4308.4517,N,07726.3635,W,1,05,1.90,166.4,M,-34.4,M,,*5C
$GPRMC,155638.500,A,4308.4524,N,07726.3634,W,12.01,5.30,110923,,,A*47
$GPGGA,155638.750,4308.4530,N,07726.3632,W,1,05,1.90,166.5,M,-34.4,M,,*5A
$GPRMC,155639.000,A,4308.4535,N,07726.3631,W,10.06,2.56,110923,,,A*44
$GPGGA,155639.250,4308.4538,N,07726.3630,W,1,05,1.90,166.5,M,-34.4,M,,*54
$GPRMC,155639.500,A,4308.4541,N,07726.3629,W,7.71,1.89,110923,,,A*7C
$GPGGA,155639.750,4308.4543,N,07726.3629,W,1,05,1.90,166.6,M,-34.4,M,,*56
$GPRMC,155640.000,A,4308.4545,N,07726.3629,W,5.59,357.54,110923,,,A*7B
$GPGGA,155640.250,4308.4547,N,07726.3629,W,1,05,1.90,166.7,M,-34.4,M,,*58
$GPRMC,155640.500,A,4308.4548,N,07726.3629,W,3.98,357.82,110923,,,A*73
$GPGGA,155640.750,4308.4550,N,07726.3627,W,1,05,1.90,166.8,M,-34.4,M,,*5A
$GPRMC,155641.000,A,4308.4553,N,07726.3626,W,4.00,4.15,110923,,,A*7F
$GPGGA,155641.250,4308.4556,N,07726.3626,W,1,05,1.90,166.8,M,-34.4,M,,*59
$GPRMC,155641.500,A,4308.4560,N,07726.3626,W,4.65,355.51,110923,,,A*7E
$GPGGA,155641.750,4308.4565,N,07726.3627,W,1,05,1.90,166.9,M,-34.4,M,,*5C
$GPRMC,155642.000,A,4308.4572,N,07726.3629,W,6.72,346.35,110923,,,A*70
$GPGGA,155642.250,4308.4578,N,07726.3631,W,1,05,1.90,167.0,M,-34.4,M,,*59
$GPRMC,155642.500,A,4308.4584,N,07726.3637,W,8.42,332.15,110923,,,A*7F
$GPGGA,155642.750,4308.4589,N,07726.3643,W,1,05,1.59,167.1,M,-34.4,M,,*53
$GPRMC,155643.000,A,4308.4595,N,07726.3649,W,9.24,320.88,110923,,,A*74
$GPGGA,155643.250,4308.4601,N,07726.3656,W,1,05,1.59,167.0,M,-34.4,M,,*51
$GPRMC,155643.500,A,4308.4606,N,07726.3665,W,10.39,308.47,110923,,,A*4B
$GPGGA,155643.750,4308.4612,N,07726.3675,W,1,05,1.59,166.8,M,-34.4,M,,*5E
$GPRMC,155644.000,A,4308.4616,N,07726.3686,W,12.27,300.08,110923,,,A*4B
$GPGGA,155644.250,4308.4620,N,07726.3699,W,1,05,1.59,166.8,M,-34.4,M,,*5F
$GPRMC,155644.500,A,4308.4623,N,07726.3713,W,14.19,291.32,110923,,,A*4E
$GPGGA,155644.750,4308.4625,N,07726.3728,W,1,05,1.59,166.8,M,-34.4,M,,*54
$GPRMC,155645.000,A,4308.4626,N,07726.3742,W,15.26,282.12,110923,,,A*46
$GPGGA,155645.250,4308.4627,N,07726.3757,W,1,05,1.59,166.7,M,-34.4,M,,*55
$GPRMC,155645.500,A,4308.4627,N,07726.3773,W,15.97,278.74,110923,,,A*4F
$GPGGA,155645.750,4308.4626,N,07726.3789,W,1,05,1.59,166.6,M,-34.4,M,,*53
$GPRMC,155646.000,A,4308.4626,N,07726.3807,W,16.98,276.38,110923,,,A*4E
$GPGGA,155646.250,4308.4627,N,07726.3824,W,1,05,1.59,166.4,M,-34.4,M,,*5E
$GPRMC,155646.500,A,4308.4628,N,07726.3842,W,17.45,275.26,110923,,,A*49
$GPGGA,155646.750,4308.4629,N,07726.3860,W,1,05,1.90,166.3,M,-34.4,M,,*57
$GPRMC,155647.000,A,4308.4630,N,07726.3878,W,17.95,274.79,110923,,,A*4B
$GPGGA,155647.250,4308.4632,N,07726.3896,W,1,05,1.59,166.1,M,-34.4,M,,*57
$GPRMC,155647.500,A,4308.4632,N,07726.3914,W,18.04,274.85,110923,,,A*43
$GPGGA,155647.750,4308.4634,N,07726.3931,W,1,05,1.89,166.0,M,-34.4,M,,*54
$GPRMC,155648.000,A,4308.4635,N,07726.3949,W,17.96,275.70,110923,,,A*49
$GPGGA,155648.250,4308.4635,N,07726.3967,W,1,05,1.59,165.8,M,-34.4,M,,*5A
$GPRMC,155648.500,A,4308.4637,N,07726.3984,W,17.62,276.48,110923,,,A*4C
$GPGGA,155648.750,4308.4638,N,07726.4002,W,1,05,1.59,165.7,M,-34.4,M,,*50
$GPRMC,155649.000,A,4308.4640,N,07726.4020,W,17.34,277.15,110923,,,A*42
$GPGGA,155649.250,4308.4641,N,07726.4036,W,1,05,1.59,165.6,M,-34.4,M,,*5C
$GPRMC,155649.500,A,4308.4643,N,07726.4053,W,17.04,277.20,110923,,,A*45
$GPGGA,155649.750,4308.4644,N,07726.4068,W,1,05,1.59,165.4,M,-34.4,M,,*55
$GPRMC,155650.000,A,4308.4646,N,07726.4084,W,16.71,277.27,110923,,,A*43
$GPGGA,155650.250,4308.4647,N,07726.4099,W,1,05,1.59,165.3,M,-34.4,M,,*52
$GPRMC,155650.500,A,4308.4649,N,07726.4115,W,16.67,277.64,110923,,,A*40
$GPGGA,155650.750,4308.4651,N,07726.4131,W,1,05,1.59,165.2,M,-34.4,M,,*52
$GPRMC,155651.000,A,4308.4653,N,07726.4148,W,16.91,278.15,110923,,,A*47
$GPGGA,155651.250,4308.4654,N,07726.4164,W,1,05,1.59,165.1,M,-34.4,M,,*50
$GPRMC,155651.500,A,4308.4656,N,07726.4181,W,17.49,278.50,110923,,,A*47
$GPGGA,155651.750,4308.4659,N,07726.4199,W,1,05,1.59,165.0,M,-34.4,M,,*5B
$GPRMC,155652.000,A,4308.4660,N,07726.4216,W,18.24,278.88,110923,,,A*48
$GPGGA,155652.250,4308.4662,N,07726.4234,W,1,05,1.59,164.8,M,-34.4,M,,*58
$GPRMC,155652.500,A,4308.4665,N,07726.4253,W,18.85,278.81,110923,,,A*4B
$GPGGA,155652.750,4308.4667,N,07726.4272,W,1,05,1.59,164.7,M,-34.4,M,,*55
$GPRMC,155653.000,A,4308.4669,N,07726.4291,W,19.57,278.94,110923,,,A*47
$GPGGA,155653.250,4308.4671,N,07726.4311,W,1,05,1.59,164.5,M,-34.4,M,,*50
$GPRMC,155653.500,A,4308.4673,N,07726.4331,W,19.84,278.77,110923,,,A*41
$GPGGA,155653.750,4308.4675,N,07726.4350,W,1,05,1.59,164.3,M,-34.4,M,,*52
$GPRMC,155654.000,A,4308.4677,N,07726.4369,W,19.81,279.15,110923,,,A*4A
$GPGGA,155654.250,4308.4679,N,07726.4388,W,1,05,1.59,164.2,M,-34.4,M,,*58
$GPRMC,155654.500,A,4308.4681,N,07726.4407,W,19.84,279.06,110923,,,A*4E
$GPGGA,155654.750,4308.4683,N,07726.4425,W,1,05,1.59,164.0,M,-34.4,M,,*5A
$GPRMC,155655.000,A,4308.4686,N,07726.4444,W,19.60,278.68,110923,,,A*49
$GPGGA,155655.250,4308.4688,N,07726.4462,W,1,05,1.59,163.9,M,-34.4,M,,*58
$GPRMC,155655.500,A,4308.4690,N,07726.4481,W,19.39,278.57,110923,,,A*42
$GPGGA,155655.750,4308.4692,N,07726.4499,W,1,05,1.59,163.9,M,-34.4,M,,*52
$GPRMC,155656.000,A,4308.4694,N,07726.4516,W,19.06,278.21,110923,,,A*42
$GPGGA,155656.250,4308.4696,N,07726.4533,W,1,05,1.59,163.8,M,-34.4,M,,*50
$GPRMC,155656.500,A,4308.4698,N,07726.4550,W,18.69,277.75,110923,,,A*4F
$GPGGA,155656.750,4308.4700,N,07726.4566,W,1,05,1.59,163.7,M,-34.4,M,,*54
$GPRMC,155657.000,A,4308.4702,N,07726.4582,W,17.71,277.85,110923,,,A*4F
$GPGGA,155657.250,4308.4704,N,07726.4598,W,1,05,1.59,163.7,M,-34.4,M,,*55
$GPRMC,155657.500,A,4308.4706,N,07726.4614,W,17.22,277.65,110923,,,A*4A
$GPGGA,155657.750,4308.4711,N,07726.4630,W,1,05,1.59,163.5,M,-34.4,M,,*57
$GPRMC,155658.000,A,4308.4714,N,07726.4646,W,17.00,277.80,110923,,,A*4F
$GPGGA,155658.250,4308.4716,N,07726.4663,W,1,05,1.59,163.4,M,-34.4,M,,*5D
$GPRMC,155658.500,A,4308.4718,N,07726.4680,W,16.67,277.09,110923,,,A*4D
$GPGGA,155658.750,4308.4720,N,07726.4696,W,1,05,1.59,163.2,M,-34.4,M,,*51
$GPRMC,155659.000,A,4308.4721,N,07726.4712,W,16.23,276.34,110923,,,A*46
$GPGGA,155659.250,4308.4723,N,07726.4728,W,1,05,1.59,163.0,M,-34.4,M,,*50
$GPRMC,155659.500,A,4308.4726,N,07726.4743,W,15.98,276.11,110923,,,A*44
$GPGGA,155659.750,4308.4728,N,07726.4757,W,1,05,1.59,162.9,M,-34.4,M,,*5E
$GPRMC,155700.000,A,4308.4730,N,07726.4772,W,15.68,275.46,110923,,,A*47
$GPGGA,155700.250,4308.4732,N,07726.4786,W,1,05,1.59,162.9,M,-34.4,M,,*51
$GPRMC,155700.500,A,4308.4733,N,07726.4800,W,15.28,275.77,110923,,,A*4D
$GPGGA,155700.750,4308.4734,N,07726.4813,W,1,05,1.59,162.9,M,-34.4,M,,*51
$GPRMC,155701.000,A,4308.4736,N,07726.4826,W,14.72,275.61,110923,,,A*41
$GPGGA,155701.250,4308.4737,N,07726.4840,W,1,05,1.59,162.9,M,-34.4,M,,*50
$GPRMC,155701.500,A,4308.4738,N,07726.4853,W,14.38,275.36,110923,,,A*44
$GPGGA,155701.750,4308.4738,N,07726.4867,W,1,05,1.59,162.9,M,-34.4,M,,*5F
$GPRMC,155702.000,A,4308.4739,N,07726.4880,W,13.85,274.61,110923,,,A*4F
$GPGGA,155702.250,4308.4739,N,07726.4893,W,1,05,1.59,162.9,M,-34.4,M,,*53
$GPRMC,155702.500,A,4308.4740,N,07726.4905,W,13.42,274.54,110923,,,A*45
$GPGGA,155702.750,4308.4740,N,07726.4917,W,1,05,1.59,162.9,M,-34.4,M,,*55
$GPRMC,155703.000,A,4308.4740,N,07726.4930,W,13.06,274.54,110923,,,A*47
$GPGGA,155703.250,4308.4741,N,07726.4942,W,1,05,1.59,162.9,M,-34.4,M,,*50
$GPRMC,155703.500,A,4308.4741,N,07726.4954,W,12.79,275.20,110923,,,A*4A
$GPGGA,155703.750,4308.4742,N,07726.4967,W,1,05,1.89,163.0,M,-34.4,M,,*54
$GPRMC,155704.000,A,4308.4742,N,07726.4979,W,12.54,277.05,110923,,,A*4E
$GPGGA,155704.250,4308.4743,N,07726.4991,W,1,05,1.59,163.0,M,-34.4,M,,*53
$GPRMC,155704.500,A,4308.4743,N,07726.5002,W,12.44,277.14,110923,,,A*4F
$GPGGA,155704.750,4308.4743,N,07726.5014,W,1,05,1.59,163.0,M,-34.4,M,,*53
$GPRMC,155705.000,A,4308.4744,N,07726.5026,W,12.31,278.76,110923,,,A*43
$GPGGA,155705.250,4308.4745,N,07726.5038,W,1,05,1.59,163.0,M,-34.4,M,,*5F
$GPRMC,155705.500,A,4308.4744,N,07726.5050,W,12.32,280.06,110923,,,A*44
$GPGGA,155705.750,4308.4744,N,07726.5063,W,1,05,1.89,163.1,M,-34.4,M,,*59
$GPRMC,155706.000,A,4308.4743,N,07726.5078,W,12.52,281.54,110923,,,A*4F
$GPGGA,155706.250,4308.4743,N,07726.5091,W,1,05,1.59,163.1,M,-34.4,M,,*58
$GPRMC,155706.500,A,4308.4743,N,07726.5104,W,12.62,280.55,110923,,,A*43
$GPGGA,155706.750,4308.4743,N,07726.5118,W,1,05,1.59,163.0,M,-34.4,M,,*5C
$GPRMC,155707.000,A,4308.4743,N,07726.5131,W,12.86,279.84,110923,,,A*41
$GPGGA,155707.250,4308.4744,N,07726.5143,W,1,05,1.59,163.0,M,-34.4,M,,*51
$GPRMC,155707.500,A,4308.4745,N,07726.5155,W,12.22,280.14,110923,,,A*41
$GPGGA,155707.750,4308.4745,N,07726.5165,W,1,05,1.59,162.9,M,-34.4,M,,*59
$GPRMC,155708.000,A,4308.4746,N,07726.5174,W,10.86,279.11,110923,,,A*44
$GPGGA,155708.250,4308.4746,N,07726.5181,W,1,05,1.59,162.8,M,-34.4,M,,*5B
$GPRMC,155708.500,A,4308.4747,N,07726.5188,W,9.32,279.08,110923,,,A*7C
$GPGGA,155708.750,4308.4748,N,07726.5193,W,1,05,1.59,162.6,M,-34.4,M,,*5D
$GPRMC,155709.000,A,4308.4749,N,07726.5197,W,7.48,278.57,110923,,,A*70
$GPGGA,155709.250,4308.4750,N,07726.5202,W,1,05,1.59,162.5,M,-34.4,M,,*58
$GPRMC,155709.500,A,4308.4751,N,07726.5207,W,6.41,277.79,110923,,,A*7D
$GPGGA,155709.750,4308.4752,N,07726.5209,W,1,05,1.59,162.4,M,-34.4,M,,*55
$GPRMC,155710.000,A,4308.4752,N,07726.5213,W,5.49,279.44,110923,,,A*7D
$GPGGA,155710.250,4308.4753,N,07726.5217,W,1,05,1.59,162.4,M,-34.4,M,,*56
$GPRMC,155710.500,A,4308.4754,N,07726.5222,W,5.44,277.86,110923,,,A*71
$GPGGA,155710.750,4308.4755,N,07726.5226,W,1,05,1.89,162.3,M,-34.4,M,,*5D
$GPRMC,155711.000,A,4308.4756,N,07726.5231,W,5.41,276.81,110923,,,A*76
$GPGGA,155711.250,4308.4757,N,07726.5235,W,1,05,1.59,162.2,M,-34.4,M,,*55
$GPRMC,155711.500,A,4308.4758,N,07726.5238,W,5.15,273.92,110923,,,A*72
$GPGGA,155711.750,4308.4759,N,07726.5240,W,1,05,1.89,162.2,M,-34.4,M,,*51
$GPRMC,155712.000,A,4308.4760,N,07726.5241,W,4.27,272.74,110923,,,A*78
$GPGGA,155712.250,4308.4761,N,07726.5243,W,1,05,1.59,162.0,M,-34.4,M,,*50
$GPRMC,155712.500,A,4308.4762,N,07726.5245,W,4.02,265.86,110923,,,A*77
$GPGGA,155712.750,4308.4762,N,07726.5248,W,1,05,1.59,161.8,M,-34.4,M,,*56
$GPRMC,155713.000,A,4308.4762,N,07726.5251,W,4.07,253.98,110923,,,A*79
$GPGGA,155713.250,4308.4762,N,07726.5253,W,1,05,1.59,161.8,M,-34.4,M,,*58
$GPRMC,155713.500,A,4308.4761,N,07726.5254,W,4.30,240.48,110923,,,A*71
$GPGGA,155713.750,4308.4757,N,07726.5252,W,1,05,1.89,161.8,M,-34.4,M,,*57
$GPRMC,155714.000,A,4308.4753,N,07726.5252,W,4.09,207.49,110923,,,A*7C
$GPGGA,155714.250,4308.4749,N,07726.5253,W,1,05,1.59,161.8,M,-34.4,M,,*56
$GPRMC,155714.500,A,4308.4746,N,07726.5254,W,4.19,200.20,110923,,,A*72
$GPGGA,155714.750,4308.4742,N,07726.5253,W,1,05,1.89,161.8,M,-34.4,M,,*55
$GPRMC,155715.000,A,4308.4738,N,07726.5252,W,4.76,176.71,110923,,,A*76
$GPGGA,155715.250,4308.4734,N,07726.5251,W,1,05,1.59,161.9,M,-34.4,M,,*5E
$GPRMC,155715.500,A,4308.4731,N,07726.5250,W,4.94,164.59,110923,,,A*7D
$GPGGA,155715.750,4308.4728,N,07726.5246,W,1,05,1.89,161.9,M,-34.4,M,,*5D
$GPRMC,155716.000,A,4308.4725,N,07726.5242,W,4.89,145.78,110923,,,A*71
$GPGGA,155716.250,4308.4722,N,07726.5238,W,1,05,1.59,161.9,M,-34.4,M,,*55
$GPRMC,155716.500,A,4308.4720,N,07726.5233,W,5.47,133.27,110923,,,A*7F
$GPGGA,155716.750,4308.4719,N,07726.5226,W,1,05,1.89,162.0,M,-34.4,M,,*50
$GPRMC,155717.000,A,4308.4719,N,07726.5218,W,6.68,105.34,110923,,,A*71
$GPGGA,155717.250,4308.4719,N,07726.5210,W,1,05,1.59,161.9,M,-34.4,M,,*56
$GPRMC,155717.500,A,4308.4719,N,07726.5200,W,8.31,92.10,110923,,,A*46
$GPGGA,155717.750,4308.4720,N,07726.5189,W,1,05,1.89,161.7,M,-34.4,M,,*59
$GPRMC,155718.000,A,4308.4721,N,07726.5178,W,10.72,84.13,110923,,,A*71
$GPGGA,155718.250,4308.4722,N,07726.5165,W,1,05,1.59,161.5,M,-34.4,M,,*5C
$GPRMC,155718.500,A,4308.4724,N,07726.5153,W,12.44,81.34,110923,,,A*7F
$GPGGA,155718.750,4308.4725,N,07726.5137,W,1,05,1.89,161.4,M,-34.4,M,,*55
$GPRMC,155719.000,A,4308.4727,N,07726.5123,W,14.55,80.73,110923,,,A*7B
$GPGGA,155719.250,4308.4729,N,07726.5106,W,1,05,1.59,161.2,M,-34.4,M,,*54
$GPRMC,155719.500,A,4308.4730,N,07726.5089,W,16.54,82.31,110923,,,A*7E
$GPGGA,155719.750,4308.4732,N,07726.5070,W,1,05,1.89,161.2,M,-34.4,M,,*56
$GPRMC,155720.000,A,4308.4733,N,07726.5051,W,18.60,85.06,110923,,,A*7D
$GPGGA,155720.250,4308.4733,N,07726.5031,W,1,05,1.59,161.2,M,-34.4,M,,*50
$GPRMC,155720.500,A,4308.4733,N,07726.5010,W,20.23,87.70,110923,,,A*72
$GPGGA,155720.750,4308.4733,N,07726.4989,W,1,05,1.89,161.2,M,-34.4,M,,*53
$GPRMC,155721.000,A,4308.4733,N,07726.4967,W,21.26,89.83,110923,,,A*78
$GPGGA,155721.250,4308.4733,N,07726.4946,W,1,05,1.59,161.1,M,-34.4,M,,*5A
$GPRMC,155721.500,A,4308.4732,N,07726.4924,W,21.59,91.54,110923,,,A*70
$GPGGA,155721.750,4308.4732,N,07726.4902,W,1,05,1.59,161.1,M,-34.4,M,,*5E
$GPRMC,155722.000,A,4308.4730,N,07726.4880,W,22.06,92.28,110923,,,A*7A
$GPGGA,155722.250,4308.4729,N,07726.4858,W,1,05,1.59,161.0,M,-34.4,M,,*5D
$GPRMC,155722.500,A,4308.4727,N,07726.4836,W,22.13,93.57,110923,,,A*79
$GPGGA,155722.750,4308.4725,N,07726.4815,W,1,05,1.59,161.0,M,-34.4,M,,*5D
$GPRMC,155723.000,A,4308.4723,N,07726.4794,W,21.53,95.11,110923,,,A*7D
$GPGGA,155723.250,4308.4721,N,07726.4774,W,1,05,1.59,161.1,M,-34.4,M,,*54
$GPRMC,155723.500,A,4308.4718,N,07726.4754,W,20.78,97.89,110923,,,A*77
$GPGGA,155723.750,4308.4713,N,07726.4736,W,1,05,1.59,161.1,M,-34.4,M,,*56
$GPRMC,155724.000,A,4308.4705,N,07726.4719,W,19.29,107.98,110923,,,A*46
$GPGGA,155724.250,4308.4699,N,07726.4703,W,1,05,1.59,161.0,M,-34.4,M,,*50
$GPRMC,155724.500,A,4308.4691,N,07726.4688,W,17.96,118.96,110923,,,A*4C
$GPGGA,155724.750,4308.4683,N,07726.4675,W,1,05,1.89,161.1,M,-34.4,M,,*52
$GPRMC,155725.000,A,4308.4674,N,07726.4662,W,17.37,129.84,110923,,,A*4D
$GPGGA,155725.250,4308.4667,N,07726.4651,W,1,05,1.58,161.1,M,-34.4,M,,*56
$GPRMC,155725.500,A,4308.4657,N,07726.4641,W,16.39,137.99,110923,,,A*44
$GPGGA,155725.750,4308.4647,N,07726.4631,W,1,05,1.58,161.2,M,-34.4,M,,*54
$GPRMC,155726.000,A,4308.4633,N,07726.4627,W,16.86,155.89,110923,,,A*41
$GPGGA,155726.250,4308.4621,N,07726.4621,W,1,05,1.59,161.2,M,-34.4,M,,*52
$GPRMC,155726.500,A,4308.4606,N,07726.4618,W,19.10,163.60,110923,,,A*4C
$GPGGA,155726.750,4308.4590,N,07726.4614,W,1,05,1.58,161.3,M,-34.4,M,,*58
$GPRMC,155727.000,A,4308.4576,N,07726.4612,W,21.02,171.01,110923,,,A*4A
$GPGGA,155727.250,4308.4561,N,07726.4611,W,1,05,1.59,161.5,M,-34.4,M,,*50
$GPRMC,155727.500,A,4308.4547,N,07726.4614,W,21.80,179.72,110923,,,A*4D
$GPGGA,155727.750,4308.4530,N,07726.4618,W,1,05,1.59,161.7,M,-34.4,M,,*5A
$GPRMC,155728.000,A,4308.4514,N,07726.4623,W,23.49,187.32,110923,,,A*47
$GPGGA,155728.250,4308.4497,N,07726.4630,W,1,05,1.59,161.8,M,-34.4,M,,*59
$GPRMC,155728.500,A,4308.4480,N,07726.4638,W,24.99,192.79,110923,,,A*45
$GPGGA,155728.750,4308.4461,N,07726.4647,W,1,05,1.88,161.9,M,-34.4,M,,*58
$GPRMC,155729.000,A,4308.4442,N,07726.4657,W,27.42,196.97,110923,,,A*47
$GPGGA,155729.250,4308.4423,N,07726.4667,W,1,05,1.59,161.9,M,-34.4,M,,*54
$GPRMC,155729.500,A,4308.4403,N,07726.4678,W,29.65,199.68,110923,,,A*4E
$GPGGA,155729.750,4308.4382,N,07726.4689,W,1,05,1.59,161.9,M,-34.4,M,,*5D
$GPRMC,155730.000,A,4308.4360,N,07726.4701,W,32.16,200.54,110923,,,A*4C
$GPGGA,155730.250,4308.4337,N,07726.4713,W,1,05,1.59,161.9,M,-34.4,M,,*5C
$GPRMC,155730.500,A,4308.4315,N,07726.4725,W,34.15,200.21,110923,,,A*4A
$GPGGA,155730.750,4308.4291,N,07726.4737,W,1,05,1.59,161.8,M,-34.4,M,,*53
$GPRMC,155731.000,A,4308.4267,N,07726.4749,W,36.24,199.73,110923,,,A*44
$GPGGA,155731.250,4308.4241,N,07726.4761,W,1,05,1.58,161.8,M,-34.4,M,,*58
$GPRMC,155731.500,A,4308.4216,N,07726.4773,W,37.73,199.30,110923,,,A*4A
$GPGGA,155731.750,4308.4190,N,07726.4785,W,1,05,1.59,161.7,M,-34.4,M,,*56
$GPRMC,155732.000,A,4308.4164,N,07726.4798,W,39.26,199.63,110923,,,A*47
$GPGGA,155732.250,4308.4137,N,07726.4810,W,1,05,1.58,161.6,M,-34.4,M,,*5E
$GPRMC,155732.500,A,4308.4110,N,07726.4823,W,39.53,199.31,110923,,,A*4B
$GPGGA,155732.750,4308.4083,N,07726.4836,W,1,05,1.58,161.5,M,-34.4,M,,*52
$GPRMC,155733.000,A,4308.4057,N,07726.4848,W,39.33,199.29,110923,,,A*4F
$GPGGA,155733.250,4308.4030,N,07726.4860,W,1,05,1.59,161.4,M,-34.4,M,,*5D
$GPRMC,155733.500,A,4308.4003,N,07726.4871,W,39.12,198.38,110923,,,A*43
$GPGGA,155733.750,4308.3977,N,07726.4883,W,1,05,1.58,161.3,M,-34.4,M,,*5E
$GPRMC,155734.000,A,4308.3950,N,07726.4894,W,39.00,197.75,110923,,,A*47
$GPGGA,155734.250,4308.3924,N,07726.4905,W,1,05,1.58,161.1,M,-34.4,M,,*57
$GPRMC,155734.500,A,4308.3898,N,07726.4915,W,38.71,196.99,110923,,,A*4B
$GPGGA,155734.750,4308.3872,N,07726.4926,W,1,05,1.58,160.9,M,-34.4,M,,*58
$GPRMC,155735.000,A,4308.3846,N,07726.4936,W,38.19,196.33,110923,,,A*43
$GPGGA,155735.250,4308.3821,N,07726.4946,W,1,05,1.58,160.8,M,-34.4,M,,*5D
$GPRMC,155735.500,A,4308.3796,N,07726.4955,W,37.56,195.39,110923,,,A*4C
$GPGGA,155735.750,4308.3770,N,07726.4962,W,1,05,1.59,160.6,M,-34.4,M,,*5A
$GPRMC,155736.000,A,4308.3745,N,07726.4969,W,37.62,192.91,110923,,,A*49
$GPGGA,155736.250,4308.3719,N,07726.4976,W,1,05,1.58,160.5,M,-34.4,M,,*54
$GPRMC,155736.500,A,4308.3693,N,07726.4984,W,37.49,192.19,110923,,,A*4C
$GPGGA,155736.750,4308.3668,N,07726.4991,W,1,05,1.59,160.4,M,-34.4,M,,*5F
$GPRMC,155737.000,A,4308.3642,N,07726.4997,W,37.29,191.24,110923,,,A*4D
$GPGGA,155737.250,4308.3617,N,07726.5004,W,1,05,1.58,160.3,M,-34.4,M,,*51
$GPRMC,155737.500,A,4308.3591,N,07726.5010,W,37.30,190.29,110923,,,A*46
$GPGGA,155737.750,4308.3565,N,07726.5015,W,1,05,1.58,160.2,M,-34.4,M,,*53
$GPRMC,155738.000,A,4308.3540,N,07726.5022,W,37.58,189.46,110923,,,A*4E
$GPGGA,155738.250,4308.3514,N,07726.5028,W,1,05,1.58,160.1,M,-34.4,M,,*52
$GPRMC,155738.500,A,4308.3489,N,07726.5034,W,37.33,189.28,110923,,,A*4D
$GPGGA,155738.750,4308.3463,N,07726.5039,W,1,05,1.58,160.0,M,-34.4,M,,*57
$GPRMC,155739.000,A,4308.3438,N,07726.5045,W,37.14,188.58,110923,,,A*46
$GPGGA,155739.250,4308.3412,N,07726.5050,W,1,05,1.59,160.0,M,-34.4,M,,*5B
$GPRMC,155739.500,A,4308.3387,N,07726.5055,W,37.18,187.71,110923,,,A*49
$GPGGA,155739.750,4308.3361,N,07726.5059,W,1,05,1.88,160.0,M,-34.4,M,,*58
$GPRMC,155740.000,A,4308.3335,N,07726.5062,W,37.14,186.75,110923,,,A*46
$GPGGA,155740.250,4308.3309,N,07726.5066,W,1,05,1.58,160.1,M,-34.4,M,,*5D
$GPRMC,155740.500,A,4308.3282,N,07726.5071,W,37.69,186.66,110923,,,A*44
$GPGGA,155740.750,4308.3256,N,07726.5075,W,1,05,1.58,160.2,M,-34.4,M,,*52
$GPRMC,155741.000,A,4308.3229,N,07726.5078,W,38.03,185.99,110923,,,A*48
$GPGGA,155741.250,4308.3202,N,07726.5082,W,1,05,1.58,160.2,M,-34.4,M,,*5F
$GPRMC,155741.500,A,4308.3176,N,07726.5085,W,38.30,185.11,110923,,,A*46
$GPGGA,155741.750,4308.3149,N,07726.5088,W,1,05,1.58,160.4,M,-34.4,M,,*5A
$GPRMC,155742.000,A,4308.3121,N,07726.5091,W,39.60,184.25,110923,,,A*45
$GPGGA,155742.250,4308.3094,N,07726.5094,W,1,05,1.58,160.5,M,-34.4,M,,*51
$GPRMC,155742.500,A,4308.3067,N,07726.5097,W,39.86,184.06,110923,,,A*4C
$GPGGA,155742.750,4308.3040,N,07726.5100,W,1,05,1.58,160.7,M,-34.4,M,,*53
$GPRMC,155743.000,A,4308.3012,N,07726.5103,W,40.75,183.88,110923,,,A*45
$GPGGA,155743.250,4308.2984,N,07726.5105,W,1,05,1.59,160.9,M,-34.4,M,,*5D
$GPRMC,155743.500,A,4308.2956,N,07726.5107,W,40.61,183.11,110923,,,A*49
$GPGGA,155743.750,4308.2928,N,07726.5108,W,1,05,1.58,161.2,M,-34.4,M,,*58
$GPRMC,155744.000,A,4308.2900,N,07726.5108,W,40.93,181.89,110923,,,A*49
$GPGGA,155744.250,4308.2871,N,07726.5110,W,1,05,1.58,161.4,M,-34.4,M,,*58
$GPRMC,155744.500,A,4308.2842,N,07726.5111,W,41.05,181.85,110923,,,A*41
$GPGGA,155744.750,4308.2813,N,07726.5112,W,1,05,1.58,161.7,M,-34.4,M,,*58
$GPRMC,155745.000,A,4308.2784,N,07726.5113,W,41.27,181.41,110923,,,A*4A
$GPGGA,155745.250,4308.2755,N,07726.5113,W,1,05,1.58,162.1,M,-34.4,M,,*55
$GPRMC,155745.500,A,4308.2726,N,07726.5114,W,41.63,181.12,110923,,,A*46
$GPGGA,155745.750,4308.2698,N,07726.5115,W,1,05,1.59,162.5,M,-34.4,M,,*53
$GPRMC,155746.000,A,4308.2669,N,07726.5117,W,41.01,181.29,110923,,,A*45
$GPGGA,155746.250,4308.2641,N,07726.5118,W,1,05,1.59,162.9,M,-34.4,M,,*50
$GPRMC,155746.500,A,4308.2613,N,07726.5118,W,39.88,180.63,110923,,,A*43
$GPGGA,155746.750,4308.2585,N,07726.5119,W,1,05,1.58,162.8,M,-34.4,M,,*5F
$GPRMC,155747.000,A,4308.2557,N,07726.5121,W,39.51,181.09,110923,,,A*47
$GPGGA,155747.250,4308.2529,N,07726.5122,W,1,05,1.59,162.8,M,-34.4,M,,*54
$GPRMC,155747.500,A,4308.2501,N,07726.5123,W,39.74,181.44,110923,,,A*4D
$GPGGA,155747.750,4308.2472,N,07726.5125,W,1,05,1.58,162.8,M,-34.4,M,,*58
$GPRMC,155748.000,A,4308.2444,N,07726.5128,W,39.71,182.16,110923,,,A*4D
$GPGGA,155748.250,4308.2416,N,07726.5130,W,1,05,1.58,162.8,M,-34.4,M,,*54
$GPRMC,155748.500,A,4308.2388,N,07726.5132,W,39.24,182.12,110923,,,A*40
$GPGGA,155748.750,4308.2359,N,07726.5134,W,1,05,1.58,162.8,M,-34.4,M,,*59
$GPRMC,155749.000,A,4308.2331,N,07726.5136,W,38.85,182.06,110923,,,A*4D
$GPGGA,155749.250,4308.2303,N,07726.5138,W,1,05,1.59,162.7,M,-34.4,M,,*50
$GPRMC,155749.500,A,4308.2275,N,07726.5140,W,39.24,182.01,110923,,,A*45
$GPGGA,155749.750,4308.2246,N,07726.5142,W,1,05,1.59,162.5,M,-34.4,M,,*5A
$GPRMC,155750.000,A,4308.2218,N,07726.5143,W,39.64,181.57,110923,,,A*44
$GPGGA,155750.250,4308.2191,N,07726.5145,W,1,05,1.58,162.3,M,-34.4,M,,*5E
$GPRMC,155750.500,A,4308.2163,N,07726.5146,W,39.58,181.54,110923,,,A*47
$GPGGA,155750.750,4308.2134,N,07726.5148,W,1,05,1.58,162.1,M,-34.4,M,,*5B
$GPRMC,155751.000,A,4308.2105,N,07726.5150,W,39.93,181.34,110923,,,A*45
$GPGGA,155751.250,4308.2077,N,07726.5151,W,1,05,1.58,161.9,M,-34.4,M,,*5A
$GPRMC,155751.500,A,4308.2048,N,07726.5151,W,40.44,180.91,110923,,,A*43
$GPGGA,155751.750,4308.2019,N,07726.5151,W,1,05,1.58,161.8,M,-34.4,M,,*56
$GPRMC,155752.000,A,4308.1990,N,07726.5152,W,41.19,180.73,110923,,,A*4C
$GPGGA,155752.250,4308.1961,N,07726.5153,W,1,05,1.58,161.7,M,-34.4,M,,*58
$GPRMC,155752.500,A,4308.1931,N,07726.5154,W,41.54,180.95,110923,,,A*45
$GPGGA,155752.750,4308.1901,N,07726.5155,W,1,05,1.58,161.6,M,-34.4,M,,*5C
$GPRMC,155753.000,A,4308.1872,N,07726.5157,W,42.15,181.38,110923,,,A*44
$GPGGA,155753.250,4308.1842,N,07726.5158,W,1,05,1.58,161.5,M,-34.4,M,,*50
$GPRMC,155753.500,A,4308.1812,N,07726.5160,W,42.59,181.62,110923,,,A*44
$GPGGA,155753.750,4308.1781,N,07726.5162,W,1,05,1.58,161.3,M,-34.4,M,,*5A
$GPRMC,155754.000,A,4308.1751,N,07726.5164,W,43.05,181.92,110923,,,A*4D
$GPGGA,155754.250,4308.1721,N,07726.5166,W,1,05,1.58,161.2,M,-34.4,M,,*57
$GPRMC,155754.500,A,4308.1691,N,07726.5168,W,43.34,181.44,110923,,,A*40
$GPGGA,155754.750,4308.1661,N,07726.5169,W,1,05,1.88,161.2,M,-34.4,M,,*55
$GPRMC,155755.000,A,4308.1630,N,07726.5170,W,43.77,181.23,110923,,,A*40
$GPGGA,155755.250,4308.1599,N,07726.5172,W,1,05,1.58,161.1,M,-34.4,M,,*51
$GPRMC,155755.500,A,4308.1569,N,07726.5173,W,44.27,181.67,110923,,,A*4B
$GPGGA,155755.750,4308.1538,N,07726.5174,W,1,05,1.88,161.1,M,-34.4,M,,*54
$GPRMC,155756.000,A,4308.1506,N,07726.5175,W,44.42,181.82,110923,,,A*4A
$GPGGA,155756.250,4308.1475,N,07726.5176,W,1,05,1.58,161.1,M,-34.4,M,,*55
$GPRMC,155756.500,A,4308.1443,N,07726.5177,W,45.39,181.83,110923,,,A*41
$GPGGA,155756.750,4308.1412,N,07726.5178,W,1,05,1.58,161.2,M,-34.4,M,,*5C
$GPRMC,155757.000,A,4308.1381,N,07726.5180,W,45.56,182.14,110923,,,A*40
$GPGGA,155757.250,4308.1349,N,07726.5181,W,1,05,1.58,161.3,M,-34.4,M,,*56
$GPRMC,155757.500,A,4308.1318,N,07726.5183,W,45.47,182.49,110923,,,A*4E
$GPGGA,155757.750,4308.1287,N,07726.5185,W,1,05,1.58,161.4,M,-34.4,M,,*53
$GPRMC,155758.000,A,4308.1256,N,07726.5186,W,45.24,182.54,110923,,,A*43
$GPGGA,155758.250,4308.1225,N,07726.5187,W,1,05,1.58,161.5,M,-34.4,M,,*52
$GPRMC,155758.500,A,4308.1193,N,07726.5188,W,45.12,181.93,110923,,,A*4F
$GPGGA,155758.750,4308.1162,N,07726.5190,W,1,05,1.88,161.6,M,-34.4,M,,*5F
$GPRMC,155759.000,A,4308.1131,N,07726.5190,W,45.03,181.49,110923,,,A*4D
$GPGGA,155759.250,4308.1100,N,07726.5191,W,1,05,1.58,161.8,M,-34.4,M,,*5D
$GPRMC,155759.500,A,4308.1068,N,07726.5192,W,44.92,181.25,110923,,,A*44
$GPGGA,155759.750,4308.1037,N,07726.5193,W,1,05,1.58,161.9,M,-34.4,M,,*5E
$GPRMC,155800.000,A,4308.1006,N,07726.5193,W,44.72,180.40,110923,,,A*47
$GPGGA,155800.250,4308.0975,N,07726.5193,W,1,05,1.58,162.0,M,-34.4,M,,*5C
$GPRMC,155800.500,A,4308.0943,N,07726.5193,W,44.75,179.22,110923,,,A*4E
$GPGGA,155800.750,4308.0912,N,07726.5192,W,1,05,1.58,162.2,M,-34.4,M,,*5B
$GPRMC,155801.000,A,4308.0880,N,07726.5190,W,44.98,178.21,110923,,,A*46
$GPGGA,155801.250,4308.0848,N,07726.5189,W,1,05,1.58,162.3,M,-34.4,M,,*5A
$GPRMC,155801.500,A,4308.0817,N,07726.5187,W,45.21,177.76,110923,,,A*45
$GPGGA,155801.750,4308.0784,N,07726.5185,W,1,05,1.88,162.3,M,-34.4,M,,*51
$GPRMC,155802.000,A,4308.0752,N,07726.5182,W,45.52,177.36,110923,,,A*48
$GPGGA,155802.250,4308.0720,N,07726.5180,W,1,05,1.58,162.3,M,-34.4,M,,*51
$GPRMC,155802.500,A,4308.0688,N,07726.5178,W,45.83,177.27,110923,,,A*42
$GPGGA,155802.750,4308.0656,N,07726.5176,W,1,05,1.88,162.3,M,-34.4,M,,*50
$GPRMC,155803.000,A,4308.0623,N,07726.5173,W,45.89,177.29,110923,,,A*48
$GPGGA,155803.250,4308.0591,N,07726.5171,W,1,05,1.58,162.3,M,-34.4,M,,*56
$GPRMC,155803.500,A,4308.0559,N,07726.5169,W,46.10,177.44,110923,,,A*40
$GPGGA,155803.750,4308.0527,N,07726.5167,W,1,05,1.58,162.3,M,-34.4,M,,*59
$GPRMC,155804.000,A,4308.0495,N,07726.5165,W,46.11,177.92,110923,,,A*45
$GPGGA,155804.250,4308.0463,N,07726.5163,W,1,05,1.58,162.3,M,-34.4,M,,*5E
$GPRMC,155804.500,A,4308.0431,N,07726.5161,W,46.08,178.27,110923,,,A*43
$GPGGA,155804.750,4308.0399,N,07726.5159,W,1,05,1.58,162.3,M,-34.4,M,,*50
$GPRMC,155805.000,A,4308.0367,N,07726.5157,W,46.09,177.96,110923,,,A*42
$GPGGA,155805.250,4308.0335,N,07726.5154,W,1,05,1.58,162.3,M,-34.3,M,,*58
$GPRMC,155805.500,A,4308.0303,N,07726.5152,W,46.25,177.14,110923,,,A*44
$GPGGA,155805.750,4308.0271,N,07726.5148,W,1,05,1.87,162.4,M,-34.3,M,,*54
$GPRMC,155806.000,A,4308.0239,N,07726.5144,W,46.07,175.88,110923,,,A*4A
$GPGGA,155806.250,4308.0207,N,07726.5141,W,1,05,1.58,162.5,M,-34.3,M,,*59
$GPRMC,155806.500,A,4308.0175,N,07726.5135,W,46.13,174.50,110923,,,A*43
$GPGGA,155806.750,4308.0143,N,07726.5131,W,1,05,1.88,162.6,M,-34.3,M,,*56
$GPRMC,155807.000,A,4308.0111,N,07726.5126,W,46.05,174.04,110923,,,A*41
$GPGGA,155807.250,4308.0079,N,07726.5121,W,1,05,1.58,162.8,M,-34.3,M,,*58
$GPRMC,155807.500,A,4308.0047,N,07726.5115,W,46.26,173.45,110923,,,A*45
$GPGGA,155807.750,4308.0014,N,07726.5109,W,1,05,1.58,162.6,M,-34.3,M,,*52
$GPRMC,155808.000,A,4307.9982,N,07726.5103,W,46.30,172.76,110923,,,A*48
$GPGGA,155808.250,4307.9950,N,07726.5097,W,1,05,1.58,162.7,M,-34.3,M,,*50
$GPRMC,155808.500,A,4307.9919,N,07726.5090,W,46.32,171.95,110923,,,A*48
$GPGGA,155808.750,4307.9888,N,07726.5083,W,1,05,1.58,162.7,M,-34.3,M,,*54
$GPRMC,155809.000,A,4307.9857,N,07726.5077,W,46.21,171.61,110923,,,A*47
$GPGGA,155809.250,4307.9826,N,07726.5070,W,1,05,1.58,162.8,M,-34.3,M,,*57
$GPRMC,155809.500,A,4307.9795,N,07726.5063,W,46.04,171.04,110923,,,A*42
$GPGGA,155809.750,4307.9764,N,07726.5056,W,1,05,1.58,162.9,M,-34.3,M,,*5E
$GPRMC,155810.000,A,4307.9734,N,07726.5049,W,44.43,170.75,110923,,,A*4A
$GPGGA,155810.250,4307.9703,N,07726.5043,W,1,05,1.58,163.2,M,-34.3,M,,*5C
$GPRMC,155810.500,A,4307.9673,N,07726.5036,W,44.16,170.53,110923,,,A*41
$GPGGA,155810.750,4307.9643,N,07726.5029,W,1,05,1.87,163.4,M,-34.3,M,,*54
$GPRMC,155811.000,A,4307.9613,N,07726.5022,W,43.70,170.71,110923,,,A*41
$GPGGA,155811.250,4307.9583,N,07726.5015,W,1,05,1.58,163.6,M,-34.3,M,,*50
$GPRMC,155811.500,A,4307.9553,N,07726.5009,W,43.47,171.43,110923,,,A*4E
$GPGGA,155811.750,4307.9524,N,07726.5003,W,1,05,1.87,163.7,M,-34.3,M,,*5C
$GPRMC,155812.000,A,4307.9494,N,07726.4997,W,43.18,171.52,110923,,,A*47
$GPGGA,155812.250,4307.9465,N,07726.4991,W,1,05,1.58,163.9,M,-34.3,M,,*51
$GPRMC,155812.500,A,4307.9437,N,07726.4985,W,41.42,172.12,110923,,,A*42
$GPGGA,155812.750,4307.9408,N,07726.4980,W,1,05,1.87,164.0,M,-34.3,M,,*53
$GPRMC,155813.000,A,4307.9380,N,07726.4975,W,40.36,172.48,110923,,,A*4F
$GPGGA,155813.250,4307.9352,N,07726.4970,W,1,05,1.58,164.1,M,-34.3,M,,*53
$GPRMC,155813.500,A,4307.9325,N,07726.4966,W,39.27,173.82,110923,,,A*4E
$GPGGA,155813.750,4307.9298,N,07726.4963,W,1,05,1.58,164.1,M,-34.3,M,,*53
$GPRMC,155814.000,A,4307.9271,N,07726.4959,W,38.62,174.28,110923,,,A*47
$GPGGA,155814.250,4307.9244,N,07726.4956,W,1,05,1.58,164.1,M,-34.3,M,,*56
$GPRMC,155814.500,A,4307.9217,N,07726.4952,W,38.31,174.93,110923,,,A*4F
$GPGGA,155814.750,4307.9191,N,07726.4950,W,1,05,1.87,164.0,M,-34.3,M,,*5D
$GPRMC,155815.000,A,4307.9165,N,07726.4947,W,37.89,176.45,110923,,,A*4C
$GPGGA,155815.250,4307.9139,N,07726.4945,W,1,05,1.58,164.0,M,-34.3,M,,*5D
$GPRMC,155815.500,A,4307.9113,N,07726.4944,W,36.23,177.07,110923,,,A*4D
$GPGGA,155815.750,4307.9088,N,07726.4942,W,1,05,1.87,163.8,M,-34.3,M,,*59
$GPRMC,155816.000,A,4307.9064,N,07726.4941,W,35.38,177.00,110923,,,A*41
$GPGGA,155816.250,4307.9039,N,07726.4939,W,1,05,1.58,163.9,M,-34.3,M,,*5A
$GPRMC,155816.500,A,4307.9014,N,07726.4936,W,35.24,175.42,110923,,,A*4A
$GPGGA,155816.750,4307.8990,N,07726.4934,W,1,05,1.58,163.8,M,-34.3,M,,*58
$GPRMC,155817.000,A,4307.8967,N,07726.4933,W,34.93,176.18,110923,,,A*46
$GPGGA,155817.250,4307.8944,N,07726.4931,W,1,05,1.87,163.7,M,-34.3,M,,*5D
$GPRMC,155817.500,A,4307.8921,N,07726.4929,W,32.90,175.90,110923,,,A*4C
$GPGGA,155817.750,4307.8899,N,07726.4927,W,1,05,1.87,163.8,M,-34.3,M,,*51
$GPRMC,155818.000,A,4307.8877,N,07726.4925,W,31.87,175.54,110923,,,A*45
$GPGGA,155818.250,4307.8855,N,07726.4923,W,1,05,1.58,163.8,M,-34.3,M,,*5D
$GPRMC,155818.500,A,4307.8834,N,07726.4921,W,30.77,175.11,110923,,,A*4C
$GPGGA,155818.750,4307.8814,N,07726.4918,W,1,05,1.87,163.8,M,-34.3,M,,*57
$GPRMC,155819.000,A,4307.8795,N,07726.4917,W,28.73,175.17,110923,,,A*42
$GPGGA,155819.250,4307.8775,N,07726.4915,W,1,05,1.58,163.9,M,-34.3,M,,*55
$GPRMC,155819.500,A,4307.8757,N,07726.4914,W,27.02,174.80,110923,,,A*4C
$GPGGA,155819.750,4307.8739,N,07726.4912,W,1,05,1.87,163.9,M,-34.3,M,,*5D
$GPRMC,155820.000,A,4307.8722,N,07726.4910,W,25.15,174.33,110923,,,A*49
$GPGGA,155820.250,4307.8705,N,07726.4909,W,1,05,1.58,164.0,M,-34.3,M,,*5B
$GPRMC,155820.500,A,4307.8690,N,07726.4907,W,23.36,174.86,110923,,,A*4B
$GPGGA,155820.750,4307.8675,N,07726.4907,W,1,05,1.87,164.0,M,-34.3,M,,*54
$GPRMC,155821.000,A,4307.8660,N,07726.4906,W,21.63,175.58,110923,,,A*41
$GPGGA,155821.250,4307.8647,N,07726.4905,W,1,05,1.58,164.0,M,-34.3,M,,*51
$GPRMC,155821.500,A,4307.8634,N,07726.4904,W,19.88,176.00,110923,,,A*47
$GPGGA,155821.750,4307.8621,N,07726.4903,W,1,05,1.87,164.0,M,-34.3,M,,*50
$GPRMC,155822.000,A,4307.8609,N,07726.4903,W,18.23,176.73,110923,,,A*4C
$GPGGA,155822.250,4307.8597,N,07726.4902,W,1,05,1.58,163.9,M,-34.3,M,,*55
$GPRMC,155822.500,A,4307.8585,N,07726.4902,W,17.74,177.46,110923,,,A*45
$GPGGA,155822.750,4307.8574,N,07726.4902,W,1,05,1.87,163.9,M,-34.3,M,,*5F
$GPRMC,155823.000,A,4307.8563,N,07726.4901,W,16.28,176.27,110923,,,A*44
$GPGGA,155823.250,4307.8555,N,07726.4902,W,1,05,1.58,163.9,M,-34.3,M,,*5A
$GPRMC,155823.500,A,4307.8548,N,07726.4903,W,14.49,177.80,110923,,,A*43
$GPGGA,155823.750,4307.8540,N,07726.4903,W,1,05,1.58,163.9,M,-34.3,M,,*5A
$GPRMC,155824.000,A,4307.8532,N,07726.4904,W,12.93,175.91,110923,,,A*48
$GPGGA,155824.250,4307.8526,N,07726.4905,W,1,05,1.58,163.9,M,-34.3,M,,*5E
$GPRMC,155824.500,A,4307.8521,N,07726.4905,W,10.53,176.04,110923,,,A*4F
$GPGGA,155824.750,4307.8517,N,07726.4906,W,1,05,1.87,163.9,M,-34.3,M,,*58
$GPRMC,155825.000,A,4307.8514,N,07726.4907,W,8.32,183.10,110923,,,A*7E
$GPGGA,155825.250,4307.8510,N,07726.4908,W,1,05,1.58,163.8,M,-34.3,M,,*56
$GPRMC,155825.500,A,4307.8506,N,07726.4910,W,8.10,189.90,110923,,,A*7C
$GPGGA,155825.750,4307.8501,N,07726.4911,W,1,05,1.58,163.8,M,-34.3,M,,*5B
$GPRMC,155826.000,A,4307.8496,N,07726.4914,W,8.78,197.32,110923,,,A*7F
$GPGGA,155826.250,4307.8491,N,07726.4917,W,1,05,1.58,163.8,M,-34.3,M,,*53
$GPRMC,155826.500,A,4307.8486,N,07726.4922,W,10.02,208.85,110923,,,A*43
$GPGGA,155826.750,4307.8485,N,07726.4934,W,1,05,1.58,163.7,M,-34.3,M,,*5D
$GPRMC,155827.000,A,4307.8482,N,07726.4943,W,11.47,227.04,110923,,,A*40
$GPGGA,155827.250,4307.8478,N,07726.4954,W,1,05,1.58,163.6,M,-34.3,M,,*5C
$GPRMC,155827.500,A,4307.8476,N,07726.4965,W,12.26,237.39,110923,,,A*41
$GPGGA,155827.750,4307.8473,N,07726.4977,W,1,05,1.58,163.6,M,-34.3,M,,*53
$GPRMC,155828.000,A,4307.8472,N,07726.4992,W,14.16,248.86,110923,,,A*4E
$GPGGA,155828.250,4307.8470,N,07726.5007,W,1,05,1.58,163.6,M,-34.3,M,,*55
$GPRMC,155828.500,A,4307.8468,N,07726.5023,W,16.21,256.46,110923,,,A*47
$GPGGA,155828.750,4307.8468,N,07726.5041,W,1,05,1.87,163.7,M,-34.3,M,,*58
$GPRMC,155829.000,A,4307.8468,N,07726.5060,W,18.60,263.78,110923,,,A*44
$GPGGA,155829.250,4307.8468,N,07726.5080,W,1,05,1.58,163.7,M,-34.3,M,,*53
$GPRMC,155829.500,A,4307.8468,N,07726.5101,W,20.69,268.18,110923,,,A*48
$GPGGA,155829.750,4307.8470,N,07726.5125,W,1,05,1.87,163.7,M,-34.3,M,,*53
$GPRMC,155830.000,A,4307.8471,N,07726.5148,W,23.22,270.71,110923,,,A*4A
$GPGGA,155830.250,4307.8472,N,07726.5172,W,1,05,1.58,163.6,M,-34.3,M,,*5D
$GPRMC,155830.500,A,4307.8472,N,07726.5197,W,25.08,270.46,110923,,,A*44
$GPGGA,155830.750,4307.8473,N,07726.5222,W,1,05,1.87,163.5,M,-34.3,M,,*5E
$GPRMC,155831.000,A,4307.8473,N,07726.5248,W,26.58,269.40,110923,,,A*48
$GPGGA,155831.250,4307.8474,N,07726.5275,W,1,05,1.58,163.4,M,-34.3,M,,*5C
$GPRMC,155831.500,A,4307.8475,N,07726.5302,W,28.09,269.32,110923,,,A*4B
$GPGGA,155831.750,4307.8475,N,07726.5330,W,1,05,1.58,163.3,M,-34.3,M,,*5F
$GPRMC,155832.000,A,4307.8476,N,07726.5359,W,29.76,269.34,110923,,,A*4F
$GPGGA,155832.250,4307.8476,N,07726.5388,W,1,05,1.58,163.2,M,-34.3,M,,*58
$GPRMC,155832.500,A,4307.8477,N,07726.5419,W,31.25,270.06,110923,,,A*4E
$GPGGA,155832.750,4307.8477,N,07726.5449,W,1,05,1.58,163.2,M,-34.3,M,,*56
$GPRMC,155833.000,A,4307.8478,N,07726.5481,W,31.91,270.28,110923,,,A*47
$GPGGA,155833.250,4307.8478,N,07726.5512,W,1,05,1.58,163.1,M,-34.3,M,,*51
$GPRMC,155833.500,A,4307.8479,N,07726.5544,W,33.91,270.32,110923,,,A*42
$GPGGA,155833.750,4307.8479,N,07726.5577,W,1,05,1.58,163.0,M,-34.3,M,,*57
$GPRMC,155834.000,A,4307.8480,N,07726.5610,W,34.13,269.91,110923,,,A*48
$GPGGA,155834.250,4307.8480,N,07726.5643,W,1,05,1.58,162.8,M,-34.3,M,,*5E
$GPRMC,155834.500,A,4307.8481,N,07726.5675,W,34.50,270.29,110923,,,A*43
$GPGGA,155834.750,4307.8481,N,07726.5708,W,1,05,1.58,162.5,M,-34.3,M,,*59
$GPRMC,155835.000,A,4307.8482,N,07726.5740,W,34.36,270.23,110923,,,A*49
$GPGGA,155835.250,4307.8482,N,07726.5773,W,1,05,1.58,162.5,M,-34.3,M,,*52
$GPRMC,155835.500,A,4307.8482,N,07726.5806,W,33.70,270.17,110923,,,A*43
$GPGGA,155835.750,4307.8483,N,07726.5838,W,1,05,1.58,162.2,M,-34.3,M,,*51
$GPRMC,155836.000,A,4307.8483,N,07726.5871,W,33.93,270.30,110923,,,A*4C
$GPGGA,155836.250,4307.8483,N,07726.5904,W,1,05,1.58,162.1,M,-34.3,M,,*5A
$GPRMC,155836.500,A,4307.8483,N,07726.5936,W,34.02,270.06,110923,,,A*41
$GPGGA,155836.750,4307.8484,N,07726.5969,W,1,05,1.58,162.0,M,-34.3,M,,*52
$GPRMC,155837.000,A,4307.8484,N,07726.6002,W,34.00,269.81,110923,,,A*4A
$GPGGA,155837.250,4307.8484,N,07726.6035,W,1,05,1.58,161.9,M,-34.3,M,,*5F
$GPRMC,155837.500,A,4307.8485,N,07726.6067,W,33.81,269.91,110923,,,A*42
$GPGGA,155837.750,4307.8485,N,07726.6100,W,1,05,1.58,161.8,M,-34.3,M,,*5D
$GPRMC,155838.000,A,4307.8485,N,07726.6133,W,33.46,269.84,110923,,,A*47
$GPGGA,155838.250,4307.8485,N,07726.6165,W,1,05,1.58,161.8,M,-34.3,M,,*54
$GPRMC,155838.500,A,4307.8485,N,07726.6197,W,33.12,269.91,110923,,,A*49
$GPGGA,155838.750,4307.8485,N,07726.6229,W,1,05,1.58,161.7,M,-34.3,M,,*55
$GPRMC,155839.000,A,4307.8486,N,07726.6260,W,32.76,269.85,110923,,,A*43
$GPGGA,155839.250,4307.8486,N,07726.6292,W,1,05,1.58,161.6,M,-34.3,M,,*53
$GPRMC,155839.500,A,4307.8486,N,07726.6323,W,32.45,269.48,110923,,,A*41
$GPGGA,155839.750,4307.8486,N,07726.6354,W,1,05,1.58,161.4,M,-34.3,M,,*5F
$GPRMC,155840.000,A,4307.8486,N,07726.6385,W,32.14,269.73,110923,,,A*4A
$GPGGA,155840.250,4307.8486,N,07726.6416,W,1,05,1.58,161.3,M,-34.3,M,,*52
$GPRMC,155840.500,A,4307.8486,N,07726.6446,W,31.85,269.84,110923,,,A*44
$GPGGA,155840.750,4307.8486,N,07726.6477,W,1,05,1.58,161.2,M,-34.3,M,,*51
$GPRMC,155841.000,A,4307.8487,N,07726.6507,W,31.57,270.02,110923,,,A*4C
$GPGGA,155841.250,4307.8487,N,07726.6537,W,1,05,1.58,161.1,M,-34.3,M,,*52
$GPRMC,155841.500,A,4307.8487,N,07726.6567,W,31.30,270.10,110923,,,A*4D
$GPGGA,155841.750,4307.8487,N,07726.6597,W,1,05,1.58,161.0,M,-34.3,M,,*5C
$GPRMC,155842.000,A,4307.8487,N,07726.6627,W,31.16,270.08,110923,,,A*41
$GPGGA,155842.250,4307.8488,N,07726.6657,W,1,05,1.58,160.8,M,-34.3,M,,*53
$GPRMC,155842.500,A,4307.8488,N,07726.6686,W,31.04,270.27,110923,,,A*4E
$GPGGA,155842.750,4307.8488,N,07726.6715,W,1,05,1.58,160.7,M,-34.3,M,,*5E
$GPRMC,155843.000,A,4307.8489,N,07726.6744,W,30.15,270.39,110923,,,A*4A
$GPGGA,155843.250,4307.8489,N,07726.6773,W,1,05,1.58,160.6,M,-34.3,M,,*5A
$GPRMC,155843.500,A,4307.8489,N,07726.6802,W,29.94,270.46,110923,,,A*4B
$GPGGA,155843.750,4307.8490,N,07726.6830,W,1,05,1.58,160.5,M,-34.3,M,,*5C
$GPRMC,155844.000,A,4307.8490,N,07726.6859,W,29.71,270.93,110923,,,A*4C
$GPGGA,155844.250,4307.8491,N,07726.6887,W,1,05,1.58,160.4,M,-34.3,M,,*52
$GPRMC,155844.500,A,4307.8491,N,07726.6915,W,29.30,270.71,110923,,,A*48
$GPGGA,155844.750,4307.8492,N,07726.6943,W,1,05,1.58,160.2,M,-34.3,M,,*5B
$GPRMC,155845.000,A,4307.8493,N,07726.6971,W,29.17,271.34,110923,,,A*49
$GPGGA,155845.250,4307.8493,N,07726.6998,W,1,05,1.58,160.1,M,-34.3,M,,*5B
$GPRMC,155845.500,A,4307.8494,N,07726.7026,W,28.92,271.57,110923,,,A*48
$GPGGA,155845.750,4307.8494,N,07726.7053,W,1,05,1.58,159.9,M,-34.3,M,,*54
$GPRMC,155846.000,A,4307.8495,N,07726.7080,W,28.65,271.45,110923,,,A*48
$GPGGA,155846.250,4307.8495,N,07726.7107,W,1,05,1.58,159.8,M,-34.3,M,,*52
$GPRMC,155846.500,A,4307.8496,N,07726.7134,W,28.31,271.32,110923,,,A*41
$GPGGA,155846.750,4307.8497,N,07726.7161,W,1,05,1.58,159.6,M,-34.3,M,,*5B
$GPRMC,155847.000,A,4307.8498,N,07726.7188,W,28.22,271.80,110923,,,A*47
$GPGGA,155847.250,4307.8498,N,07726.7214,W,1,05,1.58,159.5,M,-34.3,M,,*52
$GPRMC,155847.500,A,4307.8499,N,07726.7240,W,27.67,271.77,110923,,,A*42
$GPGGA,155847.750,4307.8500,N,07726.7267,W,1,05,1.87,159.4,M,-34.3,M,,*50
$GPRMC,155848.000,A,4307.8501,N,07726.7293,W,27.40,272.10,110923,,,A*41
$GPGGA,155848.250,4307.8502,N,07726.7318,W,1,05,1.86,159.4,M,-34.3,M,,*50
$GPRMC,155848.500,A,4307.8502,N,07726.7344,W,27.13,272.36,110923,,,A*4E
$GPGGA,155848.750,4307.8503,N,07726.7369,W,1,05,1.58,159.3,M,-34.3,M,,*56
$GPRMC,155849.000,A,4307.8504,N,07726.7393,W,25.21,271.71,110923,,,A*45
$GPGGA,155849.250,4307.8505,N,07726.7417,W,1,05,1.58,159.3,M,-34.3,M,,*5A
$GPRMC,155849.500,A,4307.8505,N,07726.7440,W,23.95,272.08,110923,,,A*4C
$GPGGA,155849.750,4307.8506,N,07726.7462,W,1,05,1.58,159.3,M,-34.3,M,,*5E
$GPRMC,155850.000,A,4307.8507,N,07726.7484,W,22.86,271.66,110923,,,A*43
$GPGGA,155850.250,4307.8507,N,07726.7506,W,1,05,1.58,159.3,M,-34.3,M,,*51
$GPRMC,155850.500,A,4307.8508,N,07726.7527,W,21.79,272.10,110923,,,A*40
$GPGGA,155850.750,4307.8509,N,07726.7547,W,1,05,1.58,159.2,M,-34.3,M,,*5E
$GPRMC,155851.000,A,4307.8509,N,07726.7567,W,20.73,271.87,110923,,,A*47
$GPGGA,155851.250,4307.8510,N,07726.7587,W,1,05,1.58,159.2,M,-34.3,M,,*5E
$GPRMC,155851.500,A,4307.8511,N,07726.7606,W,19.89,271.97,110923,,,A*41
$GPGGA,155851.750,4307.8511,N,07726.7624,W,1,05,1.58,159.1,M,-34.3,M,,*53
$GPRMC,155852.000,A,4307.8512,N,07726.7643,W,19.22,272.20,110923,,,A*4B
$GPGGA,155852.250,4307.8513,N,07726.7661,W,1,05,1.58,159.0,M,-34.3,M,,*57
$GPRMC,155852.500,A,4307.8513,N,07726.7679,W,18.45,272.67,110923,,,A*45
$GPGGA,155852.750,4307.8514,N,07726.7696,W,1,05,1.58,159.0,M,-34.3,M,,*5D
$GPRMC,155853.000,A,4307.8514,N,07726.7713,W,17.74,272.04,110923,,,A*43
$GPGGA,155853.250,4307.8515,N,07726.7730,W,1,05,1.58,158.9,M,-34.3,M,,*5D
$GPRMC,155853.500,A,4307.8515,N,07726.7746,W,16.74,271.91,110923,,,A*49
$GPGGA,155853.750,4307.8516,N,07726.7761,W,1,05,1.58,158.9,M,-34.3,M,,*5F
$GPRMC,155854.000,A,4307.8517,N,07726.7776,W,15.90,272.45,110923,,,A*49
$GPGGA,155854.250,4307.8517,N,07726.7791,W,1,05,1.58,158.9,M,-34.3,M,,*53
$GPRMC,155854.500,A,4307.8518,N,07726.7805,W,15.13,271.68,110923,,,A*4F
$GPGGA,155854.750,4307.8518,N,07726.7819,W,1,05,1.86,158.8,M,-34.3,M,,*54
$GPRMC,155855.000,A,4307.8519,N,07726.7832,W,14.25,272.12,110923,,,A*44
$GPGGA,155855.250,4307.8520,N,07726.7846,W,1,05,1.86,158.8,M,-34.3,M,,*51
$GPRMC,155855.500,A,4307.8521,N,07726.7859,W,13.47,272.05,110923,,,A*42
$GPGGA,155855.750,4307.8521,N,07726.7872,W,1,05,1.58,158.7,M,-34.3,M,,*5E
$GPRMC,155856.000,A,4307.8522,N,07726.7884,W,12.46,270.23,110923,,,A*41
$GPGGA,155856.250,4307.8523,N,07726.7895,W,1,05,1.58,158.6,M,-34.3,M,,*52
$GPRMC,155856.500,A,4307.8523,N,07726.7907,W,11.55,268.21,110923,,,A*45
$GPGGA,155856.750,4307.8523,N,07726.7918,W,1,05,1.86,158.6,M,-34.3,M,,*50
$GPRMC,155857.000,A,4307.8523,N,07726.7928,W,10.76,262.43,110923,,,A*42
$GPGGA,155857.250,4307.8523,N,07726.7938,W,1,05,1.58,158.4,M,-34.3,M,,*57
$GPRMC,155857.500,A,4307.8522,N,07726.7947,W,9.80,265.01,110923,,,A*7F
$GPGGA,155857.750,4307.8522,N,07726.7956,W,1,05,1.58,158.3,M,-34.3,M,,*5C
$GPRMC,155858.000,A,4307.8523,N,07726.7965,W,8.44,275.83,110923,,,A*76
$GPGGA,155858.250,4307.8524,N,07726.7972,W,1,05,1.58,158.2,M,-34.3,M,,*57
$GPRMC,155858.500,A,4307.8524,N,07726.7978,W,6.35,273.02,110923,,,A*7F
$GPGGA,155858.750,4307.8524,N,07726.7983,W,1,05,1.86,158.0,M,-34.3,M,,*5D
$GPRMC,155859.000,A,4307.8524,N,07726.7988,W,4.54,268.23,110923,,,A*78
