Vers 81
USE_SERIAL_FEEDBACK=true
DEVELOPMENT_MODE=false
USE_RMC_ONLY=false

$GPRMC,224127.500,A,4305.1948,N,07740.8440,W,0.03,52.12,110923,,,A*4C
$GPGGA,224127.750,4305.1947,N,07740.8439,W,1,04,3.71,154.9,M,-34.4,M,,*51
$GPRMC,224128.000,A,4305.1946,N,07740.8438,W,0.02,189.29,110923,,,A*79
$GPGGA,224128.250,4305.1946,N,07740.8438,W,1,04,3.71,155.0,M,-34.4,M,,*53
$GPRMC,224128.500,A,4305.1945,N,07740.8438,W,0.14,181.86,110923,,,A*75
$GPGGA,224128.750,4305.1944,N,07740.8438,W,1,04,3.71,155.0,M,-34.4,M,,*54
$GPRMC,224129.000,A,4305.1944,N,07740.8438,W,0.24,202.01,110923,,,A*74
$GPGGA,224129.250,4305.1944,N,07740.8438,W,1,04,3.71,155.0,M,-34.4,M,,*50
$GPRMC,224129.500,A,4305.1944,N,07740.8438,W,0.32,220.82,110923,,,A*7D
$GPGGA,224129.750,4305.1945,N,07740.8438,W,1,04,3.71,155.0,M,-34.4,M,,*54
$GPRMC,224130.000,A,4305.1947,N,07740.8437,W,0.21,219.54,110923,,,A*7F
$GPGGA,224130.250,4305.1947,N,07740.8436,W,1,04,3.71,155.2,M,-34.4,M,,*57
$GPRMC,224130.500,A,4305.1947,N,07740.8436,W,0.06,292.48,110923,,,A*70
$GPGGA,224130.750,4305.1948,N,07740.8435,W,1,04,3.71,155.1,M,-34.4,M,,*5D
$GPRMC,224131.000,A,4305.1949,N,07740.8435,W,0.13,341.67,110923,,,A*7F
$GPGGA,224131.250,4305.1948,N,07740.8436,W,1,04,3.71,155.1,M,-34.4,M,,*5A
$GPRMC,224131.500,A,4305.1947,N,07740.8436,W,0.12,268.25,110923,,,A*7A
$GPGGA,224131.750,4305.1946,N,07740.8436,W,1,04,3.71,155.1,M,-34.4,M,,*51
$GPRMC,224132.000,A,4305.1945,N,07740.8436,W,0.15,209.62,110923,,,A*7D
$GPGGA,224132.250,4305.1922,N,07740.8421,W,1,05,3.10,160.9,M,-34.4,M,,*5B
$GPRMC,224132.500,A,4305.1909,N,07740.8412,W,0.04,15.68,110923,,,A*43
$GPGGA,224132.750,4305.1900,N,07740.8407,W,1,05,3.10,166.7,M,-34.4,M,,*52
$GPRMC,224133.000,A,4305.1894,N,07740.8404,W,0.10,332.14,110923,,,A*7D
$GPGGA,224133.250,4305.1888,N,07740.8400,W,1,05,3.10,169.9,M,-34.4,M,,*51
$GPRMC,224133.500,A,4305.1884,N,07740.8397,W,0.06,179.99,110923,,,A*7B
$GPGGA,224133.750,4305.1882,N,07740.8395,W,1,05,3.11,171.5,M,-34.4,M,,*51
$GPRMC,224134.000,A,4305.1879,N,07740.8395,W,0.04,340.72,110923,,,A*76
$GPGGA,224134.250,4305.1878,N,07740.8393,W,1,05,3.10,172.1,M,-34.4,M,,*56
$GPRMC,224134.500,A,4305.1875,N,07740.8393,W,0.16,355.01,110923,,,A*7A
$GPGGA,224134.750,4305.1874,N,07740.8392,W,1,05,3.42,171.8,M,-34.4,M,,*53
$GPRMC,224135.000,A,4305.1873,N,07740.8392,W,0.19,11.61,110923,,,A*43
$GPGGA,224135.250,4305.1871,N,07740.8392,W,1,05,3.42,171.8,M,-34.4,M,,*52
$GPRMC,224135.500,A,4305.1870,N,07740.8393,W,0.17,6.89,110923,,,A*7A
$GPGGA,224135.750,4305.1868,N,07740.8394,W,1,05,3.42,171.5,M,-34.4,M,,*54
$GPRMC,224136.000,A,4305.1867,N,07740.8395,W,0.11,311.61,110923,,,A*79
$GPGGA,224136.250,4305.1868,N,07740.8396,W,1,05,3.10,171.6,M,-34.4,M,,*54
$GPRMC,224136.500,A,4305.1868,N,07740.8398,W,0.16,297.31,110923,,,A*73
$GPGGA,224136.750,4305.1870,N,07740.8399,W,1,05,3.10,171.4,M,-34.4,M,,*55
$GPRMC,224137.000,A,4305.1870,N,07740.8400,W,0.20,280.89,110923,,,A*78
$GPGGA,224137.250,4305.1871,N,07740.8402,W,1,05,3.11,170.9,M,-34.4,M,,*58
$GPRMC,224137.500,A,4305.1872,N,07740.8404,W,0.24,275.86,110923,,,A*7A
$GPGGA,224137.750,4305.1873,N,07740.8406,W,1,05,3.11,170.3,M,-34.4,M,,*51
$GPRMC,224138.000,A,4305.1874,N,07740.8408,W,0.23,279.45,110923,,,A*7E
$GPGGA,224138.250,4305.1873,N,07740.8409,W,1,05,3.11,170.1,M,-34.4,M,,*56
$GPRMC,224138.500,A,4305.1872,N,07740.8409,W,0.20,242.35,110923,,,A*70
$GPGGA,224138.750,4305.1872,N,07740.8410,W,1,05,3.11,170.0,M,-34.4,M,,*5B
$GPRMC,224139.000,A,4305.1873,N,07740.8411,W,0.09,222.18,110923,,,A*7E
$GPGGA,224139.250,4305.1874,N,07740.8412,W,1,05,3.10,169.7,M,-34.4,M,,*55
$GPRMC,224139.500,A,4305.1874,N,07740.8413,W,0.06,175.52,110923,,,A*7E
$GPGGA,224139.750,4305.1874,N,07740.8414,W,1,05,3.10,169.5,M,-34.4,M,,*54
$GPRMC,224140.000,A,4305.1875,N,07740.8415,W,0.05,120.37,110923,,,A*72
$GPGGA,224140.250,4305.1876,N,07740.8416,W,1,05,3.11,169.3,M,-34.4,M,,*58
$GPRMC,224140.500,A,4305.1877,N,07740.8417,W,0.02,14.33,110923,,,A*42
$GPGGA,224140.750,4305.1878,N,07740.8417,W,1,05,3.42,169.1,M,-34.4,M,,*56
$GPRMC,224141.000,A,4305.1879,N,07740.8419,W,0.06,359.31,110923,,,A*7A
$GPGGA,224141.250,4305.1880,N,07740.8420,W,1,05,3.42,168.6,M,-34.4,M,,*57
$GPRMC,224141.500,A,4305.1881,N,07740.8421,W,0.01,214.24,110923,,,A*78
$GPGGA,224141.750,4305.1881,N,07740.8422,W,1,05,3.11,168.4,M,-34.4,M,,*55
$GPRMC,224142.000,A,4305.1882,N,07740.8422,W,0.06,161.12,110923,,,A*7D
$GPGGA,224142.250,4305.1882,N,07740.8423,W,1,05,3.11,168.4,M,-34.4,M,,*51
$GPRMC,224142.500,A,4305.1883,N,07740.8424,W,0.11,208.94,110923,,,A*7B
$GPGGA,224142.750,4305.1884,N,07740.8425,W,1,05,3.11,168.4,M,-34.4,M,,*54
$GPRMC,224143.000,A,4305.1884,N,07740.8425,W,0.11,227.16,110923,,,A*7E
$GPGGA,224143.250,4305.1885,N,07740.8424,W,1,05,3.11,168.7,M,-34.4,M,,*53
$GPRMC,224143.500,A,4305.1886,N,07740.8424,W,0.08,188.43,110923,,,A*76
$GPGGA,224143.750,4305.1887,N,07740.8424,W,1,05,3.11,169.1,M,-34.4,M,,*53
$GPRMC,224144.000,A,4305.1887,N,07740.8425,W,0.06,233.26,110923,,,A*7A
$GPGGA,224144.250,4305.1887,N,07740.8425,W,1,05,3.11,169.4,M,-34.4,M,,*55
$GPRMC,224144.500,A,4305.1887,N,07740.8425,W,0.06,201.46,110923,,,A*78
$GPGGA,224144.750,4305.1887,N,07740.8425,W,1,05,3.11,169.8,M,-34.4,M,,*5C
$GPRMC,224145.000,A,4305.1887,N,07740.8425,W,0.05,221.16,110923,,,A*78
$GPGGA,224145.250,4305.1888,N,07740.8425,W,1,05,3.11,170.1,M,-34.4,M,,*56
$GPRMC,224145.500,A,4305.1888,N,07740.8425,W,0.07,305.19,110923,,,A*78
$GPGGA,224145.750,4305.1889,N,07740.8425,W,1,05,3.11,170.6,M,-34.4,M,,*55
$GPRMC,224146.000,A,4305.1888,N,07740.8426,W,0.15,300.28,110923,,,A*79
$GPGGA,224146.250,4305.1889,N,07740.8426,W,1,05,3.11,171.0,M,-34.4,M,,*57
$GPRMC,224146.500,A,4305.1889,N,07740.8426,W,0.12,316.59,110923,,,A*7B
$GPGGA,224146.750,4305.1888,N,07740.8427,W,1,05,3.11,171.4,M,-34.4,M,,*56
$GPRMC,224147.000,A,4305.1888,N,07740.8427,W,0.06,278.13,110923,,,A*7D
$GPGGA,224147.250,4305.1888,N,07740.8427,W,1,05,3.11,171.8,M,-34.4,M,,*5E
$GPRMC,224147.500,A,4305.1888,N,07740.8427,W,0.04,206.39,110923,,,A*7B
$GPGGA,224147.750,4305.1889,N,07740.8428,W,1,05,3.11,172.3,M,-34.4,M,,*5D
$GPRMC,224148.000,A,4305.1889,N,07740.8428,W,0.06,260.04,110923,,,A*73
$GPGGA,224148.250,4305.1889,N,07740.8428,W,1,05,3.11,172.7,M,-34.4,M,,*53
$GPRMC,224148.500,A,4305.1891,N,07740.8429,W,0.17,300.49,110923,,,A*70
$GPGGA,224148.750,4305.1893,N,07740.8428,W,1,05,3.11,173.0,M,-34.4,M,,*5B
$GPRMC,224149.000,A,4305.1894,N,07740.8428,W,0.22,335.05,110923,,,A*78
$GPGGA,224149.250,4305.1895,N,07740.8429,W,1,05,3.11,173.4,M,-34.4,M,,*5C
$GPRMC,224149.500,A,4305.1896,N,07740.8429,W,0.30,334.20,110923,,,A*7B
$GPGGA,224149.750,4305.1898,N,07740.8429,W,1,05,3.11,173.8,M,-34.4,M,,*58
$GPRMC,224150.000,A,4305.1899,N,07740.8429,W,0.38,338.95,110923,,,A*73
$GPGGA,224150.250,4305.1900,N,07740.8429,W,1,05,3.11,173.9,M,-34.4,M,,*54
$GPRMC,224150.500,A,4305.1902,N,07740.8429,W,0.39,349.28,110923,,,A*74
$GPGGA,224150.750,4305.1902,N,07740.8429,W,1,05,3.42,174.0,M,-34.4,M,,*5B
$GPRMC,224151.000,A,4305.1903,N,07740.8429,W,0.34,346.26,110923,,,A*7D
$GPGGA,224151.250,4305.1904,N,07740.8430,W,1,05,3.42,174.0,M,-34.4,M,,*51
$GPRMC,224151.500,A,4305.1906,N,07740.8430,W,0.40,347.90,110923,,,A*7A
$GPGGA,224151.750,4305.1907,N,07740.8430,W,1,05,3.42,174.0,M,-34.4,M,,*57
$GPRMC,224152.000,A,4305.1908,N,07740.8430,W,0.38,355.96,110923,,,A*78
$GPGGA,224152.250,4305.1910,N,07740.8430,W,1,05,3.42,173.9,M,-34.4,M,,*59
$GPRMC,224152.500,A,4305.1911,N,07740.8430,W,0.36,15.76,110923,,,A*42
$GPGGA,224152.750,4305.1913,N,07740.8430,W,1,05,3.11,173.7,M,-34.4,M,,*57
$GPRMC,224153.000,A,4305.1913,N,07740.8431,W,0.32,24.74,110923,,,A*41
$GPGGA,224153.250,4305.1916,N,07740.8431,W,1,05,3.11,173.7,M,-34.4,M,,*57
$GPRMC,224153.500,A,4305.1918,N,07740.8432,W,0.44,357.94,110923,,,A*74
$GPGGA,224153.750,4305.1921,N,07740.8431,W,1,05,3.42,173.7,M,-34.4,M,,*50
$GPRMC,224154.000,A,4305.1921,N,07740.8431,W,0.49,9.61,110923,,,A*70
$GPGGA,224154.250,4305.1922,N,07740.8432,W,1,05,3.42,173.6,M,-34.4,M,,*53
$GPRMC,224154.500,A,4305.1922,N,07740.8433,W,0.41,8.52,110923,,,A*7D
$GPGGA,224154.750,4305.1923,N,07740.8433,W,1,05,3.42,173.4,M,-34.4,M,,*54
$GPRMC,224155.000,A,4305.1925,N,07740.8433,W,0.40,17.60,110923,,,A*40
$GPGGA,224155.250,4305.1926,N,07740.8433,W,1,05,3.11,173.3,M,-34.4,M,,*54
$GPRMC,224155.500,A,4305.1927,N,07740.8433,W,0.37,25.01,110923,,,A*41
$GPGGA,224155.750,4305.1929,N,07740.8433,W,1,05,3.11,173.1,M,-34.4,M,,*5C
$GPRMC,224156.000,A,4305.1930,N,07740.8432,W,0.47,23.11,110923,,,A*40
$GPGGA,224156.250,4305.1921,N,07740.8438,W,1,06,1.36,172.4,M,-34.4,M,,*59
$GPRMC,224156.500,A,4305.1916,N,07740.8440,W,0.19,21.50,110923,,,A*48
$GPGGA,224156.750,4305.1915,N,07740.8441,W,1,06,1.36,172.0,M,-34.4,M,,*51
$GPRMC,224157.000,A,4305.1913,N,07740.8443,W,0.16,18.33,110923,,,A*4A
$GPGGA,224157.250,4305.1911,N,07740.8444,W,1,06,1.36,171.7,M,-34.4,M,,*50
$GPRMC,224157.500,A,4305.1908,N,07740.8445,W,0.24,21.13,110923,,,A*4A
$GPGGA,224157.750,4305.1905,N,07740.8447,W,1,06,1.36,171.4,M,-34.4,M,,*50
$GPRMC,224158.000,A,4305.1903,N,07740.8448,W,0.08,357.74,110923,,,A*7B
$GPGGA,224158.250,4305.1900,N,07740.8449,W,1,06,1.41,171.1,M,-34.4,M,,*54
$GPRMC,224158.500,A,4305.1896,N,07740.8451,W,0.08,70.17,110923,,,A*48
$GPGGA,224158.750,4305.1894,N,07740.8452,W,1,06,1.36,171.0,M,-34.4,M,,*56
$GPRMC,224159.000,A,4305.1893,N,07740.8452,W,0.03,289.43,110923,,,A*74
$GPGGA,224159.250,4305.1892,N,07740.8453,W,1,06,1.36,171.2,M,-34.4,M,,*57
$GPRMC,224159.500,A,4305.1891,N,07740.8453,W,0.07,228.38,110923,,,A*71
$GPGGA,224159.750,4305.1891,N,07740.8453,W,1,06,1.36,171.2,M,-34.4,M,,*51
$GPRMC,224200.000,A,4305.1891,N,07740.8453,W,0.15,179.56,110923,,,A*77
$GPGGA,224200.250,4305.1891,N,07740.8453,W,1,06,1.36,171.2,M,-34.4,M,,*5B
$GPRMC,224200.500,A,4305.1890,N,07740.8453,W,0.10,214.98,110923,,,A*7C
$GPGGA,224200.750,4305.1890,N,07740.8453,W,1,06,1.36,171.2,M,-34.4,M,,*5F
$GPRMC,224201.000,A,4305.1890,N,07740.8453,W,0.10,213.42,110923,,,A*78
$GPGGA,224201.250,4305.1890,N,07740.8453,W,1,06,1.36,171.2,M,-34.4,M,,*5B
$GPRMC,224201.500,A,4305.1890,N,07740.8453,W,0.06,217.61,110923,,,A*7F
$GPGGA,224201.750,4305.1890,N,07740.8453,W,1,06,1.36,171.2,M,-34.4,M,,*5E
$GPRMC,224202.000,A,4305.1890,N,07740.8453,W,0.04,251.43,110923,,,A*79
$GPGGA,224202.250,4305.1890,N,07740.8453,W,1,06,1.36,171.2,M,-34.4,M,,*58
$GPRMC,224202.500,A,4305.1890,N,07740.8453,W,0.09,290.21,110923,,,A*78
$GPGGA,224202.750,4305.1890,N,07740.8454,W,1,06,1.36,171.3,M,-34.4,M,,*5B
$GPRMC,224203.000,A,4305.1890,N,07740.8454,W,0.08,335.24,110923,,,A*71
$GPGGA,224203.250,4305.1890,N,07740.8454,W,1,06,1.36,171.3,M,-34.4,M,,*5F
$GPRMC,224203.500,A,4305.1890,N,07740.8454,W,0.06,337.36,110923,,,A*7B
$GPGGA,224203.750,4305.1890,N,07740.8454,W,1,06,1.36,171.3,M,-34.4,M,,*5A
$GPRMC,224204.000,A,4305.1890,N,07740.8454,W,0.03,339.48,110923,,,A*7B
$GPGGA,224204.250,4305.1890,N,07740.8454,W,1,06,1.36,171.3,M,-34.4,M,,*58
$GPRMC,224204.500,A,4305.1890,N,07740.8454,W,0.01,354.43,110923,,,A*7C
$GPGGA,224204.750,4305.1890,N,07740.8454,W,1,06,1.41,171.3,M,-34.4,M,,*5D
$GPRMC,224205.000,A,4305.1890,N,07740.8454,W,0.07,287.66,110923,,,A*76
$GPGGA,224205.250,4305.1890,N,07740.8454,W,1,06,1.36,171.3,M,-34.4,M,,*59
$GPRMC,224205.500,A,4305.1890,N,07740.8454,W,0.00,312.22,110923,,,A*79
$GPGGA,224205.750,4305.1890,N,07740.8454,W,1,06,1.36,171.3,M,-34.4,M,,*5C
$GPRMC,224206.000,A,4305.1890,N,07740.8454,W,0.02,138.41,110923,,,A*72
$GPGGA,224206.250,4305.1890,N,07740.8454,W,1,06,1.36,171.3,M,-34.4,M,,*5A
$GPRMC,224206.500,A,4305.1890,N,07740.8454,W,0.04,139.83,110923,,,A*7E
$GPGGA,224206.750,4305.1890,N,07740.8454,W,1,06,1.36,171.3,M,-34.4,M,,*5F
$GPRMC,224207.000,A,4305.1890,N,07740.8454,W,0.03,353.10,110923,,,A*79
$GPGGA,224207.250,4305.1890,N,07740.8454,W,1,06,1.41,171.3,M,-34.4,M,,*5B
$GPRMC,224207.500,A,4305.1890,N,07740.8453,W,0.01,153.41,110923,,,A*7F
$GPGGA,224207.750,4305.1890,N,07740.8453,W,1,06,1.36,171.3,M,-34.4,M,,*59
$GPRMC,224208.000,A,4305.1890,N,07740.8453,W,0.02,251.38,110923,,,A*79
$GPGGA,224208.250,4305.1890,N,07740.8453,W,1,06,1.36,171.3,M,-34.4,M,,*53
$GPRMC,224208.500,A,4305.1890,N,07740.8453,W,0.03,27.24,110923,,,A*43
$GPGGA,224208.750,4305.1890,N,07740.8453,W,1,06,1.36,171.3,M,-34.4,M,,*56
$GPRMC,224209.000,A,4305.1890,N,07740.8453,W,0.00,156.38,110923,,,A*7E
$GPGGA,224209.250,4305.1890,N,07740.8453,W,1,06,1.36,171.3,M,-34.4,M,,*52
$GPRMC,224209.500,A,4305.1890,N,07740.8453,W,0.03,65.53,110923,,,A*44
$GPGGA,224209.750,4305.1890,N,07740.8453,W,1,06,1.36,171.3,M,-34.4,M,,*57
$GPRMC,224210.000,A,4305.1889,N,07740.8453,W,0.02,7.38,110923,,,A*79
$GPGGA,224210.250,4305.1889,N,07740.8453,W,1,06,1.41,171.3,M,-34.4,M,,*52
$GPRMC,224210.500,A,4305.1889,N,07740.8453,W,0.02,60.23,110923,,,A*47
$GPGGA,224210.750,4305.1889,N,07740.8453,W,1,06,1.36,171.3,M,-34.4,M,,*57
$GPRMC,224211.000,A,4305.1889,N,07740.8453,W,0.01,40.96,110923,,,A*4C
$GPGGA,224211.250,4305.1889,N,07740.8453,W,1,06,1.41,171.3,M,-34.4,M,,*53
$GPRMC,224211.500,A,4305.1889,N,07740.8453,W,0.01,288.39,110923,,,A*7A
$GPGGA,224211.750,4305.1889,N,07740.8453,W,1,06,1.41,171.3,M,-34.4,M,,*56
$GPRMC,224212.000,A,4305.1889,N,07740.8453,W,0.01,145.88,110923,,,A*74
$GPGGA,224212.250,4305.1889,N,07740.8453,W,1,06,1.41,171.3,M,-34.4,M,,*50
$GPRMC,224212.500,A,4305.1889,N,07740.8453,W,0.02,55.57,110923,,,A*40
$GPGGA,224212.750,4305.1889,N,07740.8453,W,1,06,1.41,171.3,M,-34.4,M,,*55
$GPRMC,224213.000,A,4305.1889,N,07740.8453,W,0.01,271.68,110923,,,A*7F
$GPGGA,224213.250,4305.1889,N,07740.8453,W,1,06,1.41,171.3,M,-34.4,M,,*51
$GPRMC,224213.500,A,4305.1889,N,07740.8453,W,0.00,45.71,110923,,,A*46
$GPGGA,224213.750,4305.1889,N,07740.8453,W,1,06,1.41,171.3,M,-34.4,M,,*54
$GPRMC,224214.000,A,4305.1889,N,07740.8453,W,0.00,85.72,110923,,,A*4B
$GPGGA,224214.250,4305.1889,N,07740.8453,W,1,06,1.41,171.3,M,-34.4,M,,*56
$GPRMC,224214.500,A,4305.1889,N,07740.8453,W,0.00,341.28,110923,,,A*7A
$GPGGA,224214.750,4305.1889,N,07740.8453,W,1,06,1.41,171.3,M,-34.4,M,,*53
$GPRMC,224215.000,A,4305.1889,N,07740.8453,W,0.00,88.36,110923,,,A*47
$GPGGA,224215.250,4305.1889,N,07740.8453,W,1,06,1.41,171.3,M,-34.4,M,,*57
$GPRMC,224215.500,A,4305.1889,N,07740.8453,W,0.00,308.66,110923,,,A*7C
$GPGGA,224215.750,4305.1889,N,07740.8453,W,1,06,1.41,171.3,M,-34.4,M,,*52
$GPRMC,224216.000,A,4305.1889,N,07740.8453,W,0.00,311.94,110923,,,A*7F
$GPGGA,224216.250,4305.1889,N,07740.8453,W,1,06,1.41,171.3,M,-34.4,M,,*54
$GPRMC,224216.500,A,4305.1889,N,07740.8453,W,0.01,98.57,110923,,,A*46
$GPGGA,224216.750,4305.1889,N,07740.8453,W,1,06,1.41,171.4,M,-34.4,M,,*56
$GPRMC,224217.000,A,4305.1889,N,07740.8453,W,0.00,44.71,110923,,,A*46
$GPGGA,224217.250,4305.1889,N,07740.8453,W,1,06,1.41,171.4,M,-34.4,M,,*52
$GPRMC,224217.500,A,4305.1889,N,07740.8453,W,0.00,167.33,110923,,,A*75
$GPGGA,224217.750,4305.1889,N,07740.8453,W,1,06,1.41,171.4,M,-34.4,M,,*57
$GPRMC,224218.000,A,4305.1889,N,07740.8453,W,0.00,182.36,110923,,,A*71
$GPGGA,224218.250,4305.1889,N,07740.8453,W,1,06,1.41,171.4,M,-34.4,M,,*5D
$GPRMC,224218.500,A,4305.1889,N,07740.8453,W,0.00,58.43,110923,,,A*40
$GPGGA,224218.750,4305.1889,N,07740.8453,W,1,06,1.41,171.4,M,-34.4,M,,*58
$GPRMC,224219.000,A,4305.1889,N,07740.8453,W,0.00,323.22,110923,,,A*7C
$GPGGA,224219.250,4305.1889,N,07740.8453,W,1,06,1.41,171.4,M,-34.4,M,,*5C
$GPRMC,224219.500,A,4305.1889,N,07740.8453,W,0.00,114.61,110923,,,A*78
$GPGGA,224219.750,4305.1889,N,07740.8453,W,1,06,1.41,171.4,M,-34.4,M,,*59
$GPRMC,224220.000,A,4305.1889,N,07740.8453,W,0.00,65.60,110923,,,A*41
$GPGGA,224220.250,4305.1889,N,07740.8453,W,1,06,1.41,171.4,M,-34.4,M,,*56
$GPRMC,224220.500,A,4305.1889,N,07740.8453,W,0.01,201.52,110923,,,A*74
$GPGGA,224220.750,4305.1889,N,07740.8453,W,1,06,1.41,171.4,M,-34.4,M,,*53
$GPRMC,224221.000,A,4305.1889,N,07740.8453,W,0.01,117.45,110923,,,A*72
$GPGGA,224221.250,4305.1889,N,07740.8453,W,1,06,1.41,171.4,M,-34.4,M,,*57
$GPRMC,224221.500,A,4305.1889,N,07740.8453,W,0.01,29.82,110923,,,A*40
$GPGGA,224221.750,4305.1889,N,07740.8453,W,1,06,1.41,171.4,M,-34.4,M,,*52
$GPRMC,224222.000,A,4305.1889,N,07740.8453,W,0.00,39.57,110923,,,A*4E
$GPGGA,224222.250,4305.1889,N,07740.8453,W,1,06,1.41,171.4,M,-34.4,M,,*54
$GPRMC,224222.500,A,4305.1889,N,07740.8453,W,0.00,15.29,110923,,,A*4C
$GPGGA,224222.750,4305.1889,N,07740.8453,W,1,06,1.41,171.4,M,-34.4,M,,*51
$GPRMC,224223.000,A,4305.1889,N,07740.8453,W,0.01,347.60,110923,,,A*70
$GPGGA,224223.250,4305.1889,N,07740.8453,W,1,06,1.41,171.4,M,-34.4,M,,*55
$GPRMC,224223.500,A,4305.1889,N,07740.8453,W,0.00,350.43,110923,,,A*73
$GPGGA,224223.750,4305.1889,N,07740.8453,W,1,06,1.41,171.4,M,-34.4,M,,*50
$GPRMC,224224.000,A,4305.1889,N,07740.8453,W,0.01,93.22,110923,,,A*4B
$GPGGA,224224.250,4305.1889,N,07740.8453,W,1,06,1.41,171.4,M,-34.4,M,,*52
$GPRMC,224224.500,A,4305.1889,N,07740.8453,W,0.00,330.48,110923,,,A*79
$GPGGA,224224.750,4305.1889,N,07740.8453,W,1,06,1.41,171.4,M,-34.4,M,,*57
$GPRMC,224225.000,A,4305.1889,N,07740.8453,W,0.00,83.06,110923,,,A*4C
$GPGGA,224225.250,4305.1889,N,07740.8453,W,1,06,1.41,171.4,M,-34.4,M,,*53
$GPRMC,224225.500,A,4305.1889,N,07740.8453,W,0.01,139.08,110923,,,A*76
$GPGGA,224225.750,4305.1889,N,07740.8453,W,1,06,1.41,171.4,M,-34.4,M,,*56
$GPRMC,224226.000,A,4305.1889,N,07740.8453,W,0.00,77.87,110923,,,A*4D
$GPGGA,224226.250,4305.1889,N,07740.8453,W,1,06,1.41,171.4,M,-34.4,M,,*50
$GPRMC,224226.500,A,4305.1889,N,07740.8453,W,0.00,27.69,110923,,,A*4D
$GPGGA,224226.750,4305.1889,N,07740.8453,W,1,06,1.41,171.4,M,-34.4,M,,*55
$GPRMC,224227.000,A,4305.1889,N,07740.8453,W,0.00,4.55,110923,,,A*77
$GPGGA,224227.250,4305.1889,N,07740.8453,W,1,06,1.41,171.4,M,-34.4,M,,*51
$GPRMC,224227.500,A,4305.1889,N,07740.8453,W,0.00,358.04,110923,,,A*7C
$GPGGA,224227.750,4305.1889,N,07740.8453,W,1,06,1.41,171.4,M,-34.4,M,,*54
$GPRMC,224228.000,A,4305.1889,N,07740.8453,W,0.00,84.41,110923,,,A*45
$GPGGA,224228.250,4305.1889,N,07740.8453,W,1,06,1.41,171.4,M,-34.4,M,,*5E
$GPRMC,224228.500,A,4305.1889,N,07740.8453,W,0.01,107.36,110923,,,A*7B
$GPGGA,224228.750,4305.1889,N,07740.8453,W,1,06,1.41,171.4,M,-34.4,M,,*5B
$GPRMC,224229.000,A,4305.1889,N,07740.8453,W,0.01,48.52,110923,,,A*47
$GPGGA,224229.250,4305.1889,N,07740.8453,W,1,06,1.41,171.4,M,-34.4,M,,*5F
$GPRMC,224229.500,A,4305.1889,N,07740.8453,W,0.01,266.81,110923,,,A*72
$GPGGA,224229.750,4305.1889,N,07740.8453,W,1,06,1.41,171.4,M,-34.4,M,,*5A
$GPRMC,224230.000,A,4305.1889,N,07740.8453,W,0.01,355.16,110923,,,A*70
$GPGGA,224230.250,4305.1889,N,07740.8453,W,1,06,1.41,171.4,M,-34.4,M,,*57
$GPRMC,224230.500,A,4305.1889,N,07740.8453,W,0.00,125.17,110923,,,A*70
$GPGGA,224230.750,4305.1889,N,07740.8453,W,1,06,1.41,171.4,M,-34.4,M,,*52
$GPRMC,224231.000,A,4305.1889,N,07740.8453,W,0.01,32.08,110923,,,A*4C
$GPGGA,224231.250,4305.1889,N,07740.8453,W,1,06,1.41,171.4,M,-34.4,M,,*56
$GPRMC,224231.500,A,4305.1889,N,07740.8453,W,0.00,138.56,110923,,,A*78
$GPGGA,224231.750,4305.1889,N,07740.8453,W,1,06,1.41,171.4,M,-34.4,M,,*53
$GPRMC,224232.000,A,4305.1889,N,07740.8453,W,0.00,1.59,110923,,,A*7A
$GPGGA,224232.250,4305.1889,N,07740.8453,W,1,07,1.23,171.4,M,-34.4,M,,*50
$GPRMC,224232.500,A,4305.1889,N,07740.8453,W,0.00,49.32,110923,,,A*4E
$GPGGA,224232.750,4305.1889,N,07740.8453,W,1,07,1.23,171.4,M,-34.4,M,,*55
$GPRMC,224233.000,A,4305.1889,N,07740.8453,W,0.01,284.63,110923,,,A*7C
$GPGGA,224233.250,4305.1889,N,07740.8453,W,1,07,1.23,171.4,M,-34.4,M,,*51
$GPRMC,224233.500,A,4305.1889,N,07740.8453,W,0.00,141.02,110923,,,A*75
$GPGGA,224233.750,4305.1889,N,07740.8453,W,1,07,1.23,171.4,M,-34.4,M,,*54
$GPRMC,224234.000,A,4305.1889,N,07740.8453,W,0.00,294.12,110923,,,A*7D
$GPGGA,224234.250,4305.1889,N,07740.8453,W,1,07,1.23,171.4,M,-34.4,M,,*56
$GPRMC,224234.500,A,4305.1889,N,07740.8453,W,0.00,23.74,110923,,,A*46
$GPGGA,224234.750,4305.1889,N,07740.8453,W,1,07,1.23,171.4,M,-34.4,M,,*53
$GPRMC,224235.000,A,4305.1889,N,07740.8453,W,0.00,125.36,110923,,,A*73
$GPGGA,224235.250,4305.1889,N,07740.8453,W,1,07,1.23,171.4,M,-34.4,M,,*57
$GPRMC,224235.500,A,4305.1889,N,07740.8453,W,0.00,3.00,110923,,,A*76
$GPGGA,224235.750,4305.1889,N,07740.8453,W,1,07,1.23,171.4,M,-34.4,M,,*52
$GPRMC,224236.000,A,4305.1889,N,07740.8453,W,0.01,319.17,110923,,,A*7F
$GPGGA,224236.250,4305.1889,N,07740.8453,W,1,07,1.23,171.4,M,-34.4,M,,*54
$GPRMC,224236.500,A,4305.1889,N,07740.8453,W,0.01,90.41,110923,,,A*4B
$GPGGA,224236.750,4305.1889,N,07740.8453,W,1,07,1.23,171.4,M,-34.4,M,,*51
$GPRMC,224237.000,A,4305.1889,N,07740.8453,W,0.00,121.64,110923,,,A*72
$GPGGA,224237.250,4305.1889,N,07740.8453,W,1,07,1.23,171.4,M,-34.4,M,,*55
$GPRMC,224237.500,A,4305.1889,N,07740.8453,W,0.01,244.20,110923,,,A*76
$GPGGA,224237.750,4305.1889,N,07740.8453,W,1,07,1.23,171.4,M,-34.4,M,,*50
$GPRMC,224238.000,A,4305.1889,N,07740.8452,W,0.00,91.79,110923,,,A*4A
$GPGGA,224238.250,4305.1889,N,07740.8452,W,1,07,1.23,171.4,M,-34.4,M,,*5B
$GPRMC,224238.500,A,4305.1889,N,07740.8452,W,0.01,116.04,110923,,,A*7A
$GPGGA,224238.750,4305.1889,N,07740.8452,W,1,07,1.23,171.4,M,-34.4,M,,*5E
$GPRMC,224239.000,A,4305.1889,N,07740.8452,W,0.00,105.18,110923,,,A*70
$GPGGA,224239.250,4305.1889,N,07740.8452,W,1,07,1.23,171.4,M,-34.4,M,,*5A
$GPRMC,224239.500,A,4305.1889,N,07740.8452,W,0.00,53.08,110923,,,A*46
$GPGGA,224239.750,4305.1889,N,07740.8452,W,1,07,1.23,171.4,M,-34.4,M,,*5F
$GPRMC,224240.000,A,4305.1889,N,07740.8452,W,0.00,266.85,110923,,,A*7C
$GPGGA,224240.250,4305.1889,N,07740.8452,W,1,07,1.23,171.4,M,-34.4,M,,*54
$GPRMC,224240.500,A,4305.1889,N,07740.8452,W,0.01,95.81,110923,,,A*42
$GPGGA,224240.750,4305.1888,N,07740.8452,W,1,07,1.23,171.4,M,-34.4,M,,*50
$GPRMC,224241.000,A,4305.1888,N,07740.8452,W,0.00,197.92,110923,,,A*77
$GPGGA,224241.250,4305.1888,N,07740.8452,W,1,07,1.23,171.4,M,-34.4,M,,*54
$GPRMC,224241.500,A,4305.1888,N,07740.8452,W,0.01,332.25,110923,,,A*72
$GPGGA,224241.750,4305.1888,N,07740.8452,W,1,07,1.23,171.4,M,-34.4,M,,*51
$GPRMC,224242.000,A,4305.1888,N,07740.8452,W,0.00,44.80,110923,,,A*48
$GPGGA,224242.250,4305.1888,N,07740.8452,W,1,07,1.23,171.4,M,-34.4,M,,*57
$GPRMC,224242.500,A,4305.1888,N,07740.8452,W,0.01,77.46,110923,,,A*46
$GPGGA,224242.750,4305.1888,N,07740.8452,W,1,07,1.23,171.4,M,-34.4,M,,*52
$GPRMC,224243.000,A,4305.1888,N,07740.8452,W,0.00,44.45,110923,,,A*40
$GPGGA,224243.250,4305.1888,N,07740.8452,W,1,07,1.23,171.4,M,-34.4,M,,*56
$GPRMC,224243.500,A,4305.1888,N,07740.8452,W,0.00,152.48,110923,,,A*7E
$GPGGA,224243.750,4305.1888,N,07740.8452,W,1,07,1.23,171.4,M,-34.4,M,,*53
$GPRMC,224244.000,A,4305.1888,N,07740.8452,W,0.00,0.00,110923,,,A*76
$GPGGA,224244.250,4305.1888,N,07740.8452,W,1,07,1.23,171.4,M,-34.4,M,,*51
$GPRMC,224244.500,A,4305.1888,N,07740.8452,W,0.01,215.67,110923,,,A*75
$GPGGA,224244.750,4305.1888,N,07740.8452,W,1,07,1.23,171.4,M,-34.4,M,,*54
$GPRMC,224245.000,A,4305.1888,N,07740.8452,W,0.00,108.81,110923,,,A*77
$GPGGA,224245.250,4305.1888,N,07740.8452,W,1,07,1.23,171.4,M,-34.4,M,,*50
$GPRMC,224245.500,A,4305.1888,N,07740.8452,W,0.01,80.15,110923,,,A*4F
$GPGGA,224245.750,4305.1888,N,07740.8452,W,1,07,1.23,171.4,M,-34.4,M,,*55
$GPRMC,224246.000,A,4305.1888,N,07740.8452,W,0.00,22.01,110923,,,A*45
$GPGGA,224246.250,4305.1888,N,07740.8452,W,1,07,1.23,171.4,M,-34.4,M,,*53
$GPRMC,224246.500,A,4305.1888,N,07740.8452,W,0.00,54.41,110923,,,A*45
$GPGGA,224246.750,4305.1888,N,07740.8452,W,1,07,1.23,171.4,M,-34.4,M,,*56
$GPRMC,224247.000,A,4305.1888,N,07740.8452,W,0.01,312.48,110923,,,A*78
$GPGGA,224247.250,4305.1888,N,07740.8452,W,1,07,1.23,171.4,M,-34.4,M,,*52
$GPRMC,224247.500,A,4305.1888,N,07740.8452,W,0.01,94.51,110923,,,A*48
$GPGGA,224247.750,4305.1888,N,07740.8452,W,1,07,1.23,171.4,M,-34.4,M,,*57
$GPRMC,224248.000,A,4305.1888,N,07740.8452,W,0.01,254.18,110923,,,A*71
$GPGGA,224248.250,4305.1888,N,07740.8452,W,1,07,1.23,171.4,M,-34.4,M,,*5D
$GPRMC,224248.500,A,4305.1888,N,07740.8452,W,0.00,0.00,110923,,,A*7F
$GPGGA,224248.750,4305.1888,N,07740.8452,W,1,07,1.23,171.4,M,-34.4,M,,*58
$GPRMC,224249.000,A,4305.1888,N,07740.8452,W,0.01,56.39,110923,,,A*43
$GPGGA,224249.250,4305.1888,N,07740.8452,W,1,07,1.23,171.4,M,-34.4,M,,*5C
$GPRMC,224249.500,A,4305.1888,N,07740.8452,W,0.00,248.26,110923,,,A*74
$GPGGA,224249.750,4305.1888,N,07740.8452,W,1,07,1.23,171.4,M,-34.4,M,,*59
$GPRMC,224250.000,A,4305.1888,N,07740.8452,W,0.00,121.42,110923,,,A*77
$GPGGA,224250.250,4305.1888,N,07740.8452,W,1,07,1.23,171.4,M,-34.4,M,,*54
$GPRMC,224250.500,A,4305.1888,N,07740.8452,W,0.00,300.23,110923,,,A*74
$GPGGA,224250.750,4305.1888,N,07740.8452,W,1,07,1.23,171.5,M,-34.4,M,,*50
$GPRMC,224251.000,A,4305.1888,N,07740.8452,W,0.01,265.56,110923,,,A*71
$GPGGA,224251.250,4305.1888,N,07740.8452,W,1,07,1.23,171.5,M,-34.4,M,,*54
$GPRMC,224251.500,A,4305.1888,N,07740.8452,W,0.00,293.49,110923,,,A*72
$GPGGA,224251.750,4305.1888,N,07740.8452,W,1,07,1.23,171.5,M,-34.4,M,,*51
$GPRMC,224252.000,A,4305.1888,N,07740.8452,W,0.01,69.47,110923,,,A*4C
$GPGGA,224252.250,4305.1888,N,07740.8452,W,1,07,1.23,171.5,M,-34.4,M,,*57
$GPRMC,224252.500,A,4305.1888,N,07740.8452,W,0.00,8.01,110923,,,A*7D
$GPGGA,224252.750,4305.1888,N,07740.8452,W,1,07,1.23,171.5,M,-34.4,M,,*52
$GPRMC,224253.000,A,4305.1888,N,07740.8452,W,0.01,294.15,110923,,,A*7A
$GPGGA,224253.250,4305.1888,N,07740.8452,W,1,07,1.23,171.5,M,-34.4,M,,*56
$GPRMC,224253.500,A,4305.1888,N,07740.8452,W,0.00,111.03,110923,,,A*77
$GPGGA,224253.750,4305.1888,N,07740.8452,W,1,07,1.23,171.5,M,-34.4,M,,*53
$GPRMC,224254.000,A,4305.1888,N,07740.8452,W,0.00,90.01,110923,,,A*4F
$GPGGA,224254.250,4305.1888,N,07740.8452,W,1,07,1.23,171.5,M,-34.4,M,,*51
$GPRMC,224254.500,A,4305.1888,N,07740.8452,W,0.01,328.99,110923,,,A*7A
$GPGGA,224254.750,4305.1888,N,07740.8452,W,1,07,1.23,171.5,M,-34.4,M,,*54
$GPRMC,224255.000,A,4305.1888,N,07740.8452,W,0.00,0.00,110923,,,A*76
$GPGGA,224255.250,4305.1888,N,07740.8452,W,1,07,1.23,171.5,M,-34.4,M,,*50
$GPRMC,224255.500,A,4305.1888,N,07740.8452,W,0.00,305.39,110923,,,A*7F
$GPGGA,224255.750,4305.1888,N,07740.8452,W,1,07,1.23,171.5,M,-34.4,M,,*55
$GPRMC,224256.000,A,4305.1888,N,07740.8452,W,0.01,328.05,110923,,,A*78
$GPGGA,224256.250,4305.1888,N,07740.8452,W,1,07,1.23,171.5,M,-34.4,M,,*53
$GPRMC,224256.500,A,4305.1888,N,07740.8452,W,0.00,0.00,110923,,,A*70
$GPGGA,224256.750,4305.1888,N,07740.8452,W,1,07,1.23,171.5,M,-34.4,M,,*56
$GPRMC,224257.000,A,4305.1888,N,07740.8452,W,0.00,327.54,110923,,,A*73
$GPGGA,224257.250,4305.1888,N,07740.8452,W,1,07,1.23,171.5,M,-34.4,M,,*52
$GPRMC,224257.500,A,4305.1888,N,07740.8452,W,0.00,243.88,110923,,,A*74
$GPGGA,224257.750,4305.1888,N,07740.8452,W,1,07,1.23,171.5,M,-34.4,M,,*57
$GPRMC,224258.000,A,4305.1888,N,07740.8452,W,0.01,70.17,110923,,,A*4B
$GPGGA,224258.250,4305.1888,N,07740.8452,W,1,07,1.23,171.5,M,-34.4,M,,*5D
$GPRMC,224258.500,A,4305.1888,N,07740.8452,W,0.00,304.62,110923,,,A*7D
$GPGGA,224258.750,4305.1888,N,07740.8452,W,1,07,1.23,171.5,M,-34.4,M,,*58
$GPRMC,224259.000,A,4305.1888,N,07740.8452,W,0.01,322.38,110923,,,A*73
$GPGGA,224259.250,4305.1888,N,07740.8452,W,1,07,1.23,171.5,M,-34.4,M,,*5C
$GPRMC,224259.500,A,4305.1888,N,07740.8452,W,0.00,203.17,110923,,,A*78
$GPGGA,224259.750,4305.1888,N,07740.8452,W,1,07,1.23,171.5,M,-34.4,M,,*59
$GPRMC,224300.000,A,4305.1888,N,07740.8452,W,0.00,255.36,110923,,,A*70
$GPGGA,224300.250,4305.1888,N,07740.8452,W,1,07,1.23,171.5,M,-34.4,M,,*51
$GPRMC,224300.500,A,4305.1888,N,07740.8452,W,0.01,135.39,110923,,,A*7E
$GPGGA,224300.750,4305.1888,N,07740.8452,W,1,07,1.23,171.5,M,-34.4,M,,*54
$GPRMC,224301.000,A,4305.1888,N,07740.8452,W,0.00,84.66,110923,,,A*4A
$GPGGA,224301.250,4305.1888,N,07740.8452,W,1,07,1.23,171.5,M,-34.4,M,,*50
$GPRMC,224301.500,A,4305.1888,N,07740.8452,W,0.01,53.33,110923,,,A*44
$GPGGA,224301.750,4305.1888,N,07740.8452,W,1,07,1.23,171.5,M,-34.4,M,,*55
$GPRMC,224302.000,A,4305.1888,N,07740.8452,W,0.00,122.91,110923,,,A*7C
$GPGGA,224302.250,4305.1888,N,07740.8452,W,1,07,1.23,171.5,M,-34.4,M,,*53
$GPRMC,224302.500,A,4305.1888,N,07740.8452,W,0.00,24.32,110923,,,A*47
$GPGGA,224302.750,4305.1888,N,07740.8452,W,1,07,1.23,171.5,M,-34.4,M,,*56
$GPRMC,224303.000,A,4305.1888,N,07740.8452,W,0.00,0.00,110923,,,A*74
$GPGGA,224303.250,4305.1888,N,07740.8452,W,1,07,1.23,171.5,M,-34.4,M,,*52
$GPRMC,224303.500,A,4305.1888,N,07740.8452,W,0.00,138.64,110923,,,A*79
$GPGGA,224303.750,4305.1888,N,07740.8452,W,1,07,1.23,171.5,M,-34.4,M,,*57
$GPRMC,224304.000,A,4305.1888,N,07740.8452,W,0.00,221.88,110923,,,A*72
$GPGGA,224304.250,4305.1888,N,07740.8452,W,1,07,1.23,171.5,M,-34.4,M,,*55
$GPRMC,224304.500,A,4305.1888,N,07740.8452,W,0.01,166.98,110923,,,A*77
$GPGGA,224304.750,4305.1888,N,07740.8452,W,1,07,1.23,171.5,M,-34.4,M,,*50
$GPRMC,224305.000,A,4305.1888,N,07740.8452,W,0.01,351.90,110923,,,A*7D
$GPGGA,224305.250,4305.1888,N,07740.8452,W,1,07,1.23,171.5,M,-34.4,M,,*54
$GPRMC,224305.500,A,4305.1888,N,07740.8452,W,0.00,68.88,110923,,,A*49
$GPGGA,224305.750,4305.1888,N,07740.8452,W,1,07,1.23,171.5,M,-34.4,M,,*51
$GPRMC,224306.000,A,4305.1888,N,07740.8452,W,0.01,169.33,110923,,,A*7E
$GPGGA,224306.250,4305.1888,N,07740.8452,W,1,07,1.23,171.5,M,-34.4,M,,*57
$GPRMC,224306.500,A,4305.1888,N,07740.8452,W,0.01,116.91,110923,,,A*7B
$GPGGA,224306.750,4305.1888,N,07740.8452,W,1,07,1.23,171.5,M,-34.4,M,,*52
$GPRMC,224307.000,A,4305.1888,N,07740.8452,W,0.01,48.72,110923,,,A*48
$GPGGA,224307.250,4305.1888,N,07740.8452,W,1,07,1.23,171.5,M,-34.4,M,,*56
$GPRMC,224307.500,A,4305.1888,N,07740.8452,W,0.01,169.83,110923,,,A*71
$GPGGA,224307.750,4305.1888,N,07740.8452,W,1,07,1.23,171.5,M,-34.4,M,,*53
$GPRMC,224308.000,A,4305.1888,N,07740.8452,W,0.01,335.41,110923,,,A*7E
$GPGGA,224308.250,4305.1888,N,07740.8452,W,1,07,1.23,171.5,M,-34.4,M,,*59
$GPRMC,224308.500,A,4305.1888,N,07740.8452,W,0.00,276.66,110923,,,A*79
$GPGGA,224308.750,4305.1888,N,07740.8452,W,1,07,1.23,171.5,M,-34.4,M,,*5C
$GPRMC,224309.000,A,4305.1888,N,07740.8452,W,0.01,239.94,110923,,,A*7A
$GPGGA,224309.250,4305.1888,N,07740.8452,W,1,07,1.23,171.5,M,-34.4,M,,*58
$GPRMC,224309.500,A,4305.1888,N,07740.8452,W,0.00,152.90,110923,,,A*74
$GPGGA,224309.750,4305.1888,N,07740.8452,W,1,07,1.23,171.5,M,-34.4,M,,*5D
$GPRMC,224310.000,A,4305.1888,N,07740.8452,W,0.00,207.44,110923,,,A*73
$GPGGA,224310.250,4305.1887,N,07740.8452,W,1,07,1.23,171.5,M,-34.4,M,,*5F
$GPRMC,224310.500,A,4305.1887,N,07740.8452,W,0.01,262.04,110923,,,A*7F
$GPGGA,224310.750,4305.1887,N,07740.8452,W,1,07,1.23,171.5,M,-34.4,M,,*5A
$GPRMC,224311.000,A,4305.1887,N,07740.8452,W,0.00,330.11,110923,,,A*78
$GPGGA,224311.250,4305.1887,N,07740.8452,W,1,07,1.23,171.5,M,-34.4,M,,*5E
$GPRMC,224311.500,A,4305.1887,N,07740.8452,W,0.01,122.85,110923,,,A*70
$GPGGA,224311.750,4305.1887,N,07740.8452,W,1,07,1.23,171.5,M,-34.4,M,,*5B
$GPRMC,224312.000,A,4305.1887,N,07740.8452,W,0.01,294.29,110923,,,A*7E
$GPGGA,224312.250,4305.1887,N,07740.8452,W,1,07,1.23,171.5,M,-34.4,M,,*5D
$GPRMC,224312.500,A,4305.1887,N,07740.8452,W,0.00,290.09,110923,,,A*7C
$GPGGA,224312.750,4305.1887,N,07740.8452,W,1,07,1.23,171.5,M,-34.4,M,,*58
$GPRMC,224313.000,A,4305.1887,N,07740.8452,W,0.01,111.68,110923,,,A*74
$GPGGA,224313.250,4305.1887,N,07740.8452,W,1,07,1.23,171.5,M,-34.4,M,,*5C
$GPRMC,224313.500,A,4305.1887,N,07740.8452,W,0.01,57.35,110923,,,A*4A
$GPGGA,224313.750,4305.1887,N,07740.8452,W,1,07,1.23,171.5,M,-34.4,M,,*59
$GPRMC,224314.000,A,4305.1887,N,07740.8452,W,0.00,266.07,110923,,,A*78
$GPGGA,224314.250,4305.1887,N,07740.8452,W,1,07,1.23,171.5,M,-34.4,M,,*5B
$GPRMC,224314.500,A,4305.1887,N,07740.8452,W,0.00,76.75,110923,,,A*4B
$GPGGA,224314.750,4305.1887,N,07740.8452,W,1,08,1.09,171.5,M,-34.4,M,,*59
$GPRMC,224315.000,A,4305.1887,N,07740.8452,W,0.00,206.37,110923,,,A*7C
$GPGGA,224315.250,4305.1887,N,07740.8452,W,1,08,1.09,171.5,M,-34.4,M,,*5D
$GPRMC,224315.500,A,4305.1887,N,07740.8452,W,0.01,290.92,110923,,,A*78
$GPGGA,224315.750,4305.1887,N,07740.8452,W,1,08,1.09,171.5,M,-34.4,M,,*58
$GPRMC,224316.000,A,4305.1887,N,07740.8452,W,0.00,18.17,110923,,,A*40
$GPGGA,224316.250,4305.1887,N,07740.8452,W,1,08,1.09,171.6,M,-34.4,M,,*5D
$GPRMC,224316.500,A,4305.1887,N,07740.8452,W,0.01,194.59,110923,,,A*7B
$GPGGA,224316.750,4305.1887,N,07740.8452,W,1,08,1.09,171.6,M,-34.4,M,,*58
$GPRMC,224317.000,A,4305.1887,N,07740.8452,W,0.00,235.20,110923,,,A*78
$GPGGA,224317.250,4305.1887,N,07740.8452,W,1,08,1.09,171.6,M,-34.4,M,,*5C
$GPRMC,224317.500,A,4305.1887,N,07740.8452,W,0.00,214.70,110923,,,A*7B
$GPGGA,224317.750,4305.1887,N,07740.8452,W,1,08,1.09,171.6,M,-34.4,M,,*59
$GPRMC,224318.000,A,4305.1887,N,07740.8452,W,0.00,225.02,110923,,,A*76
$GPGGA,224318.250,4305.1887,N,07740.8453,W,1,08,1.09,171.6,M,-34.4,M,,*52
$GPRMC,224318.500,A,4305.1887,N,07740.8453,W,0.00,327.57,110923,,,A*71
$GPGGA,224318.750,4305.1887,N,07740.8453,W,1,08,1.09,171.6,M,-34.4,M,,*57
$GPRMC,224319.000,A,4305.1887,N,07740.8453,W,0.00,19.46,110923,,,A*4B
$GPGGA,224319.250,4305.1887,N,07740.8453,W,1,08,1.09,171.6,M,-34.4,M,,*53
$GPRMC,224319.500,A,4305.1887,N,07740.8453,W,0.03,178.51,110923,,,A*7D
$GPGGA,224319.750,4305.1887,N,07740.8453,W,1,08,1.09,171.6,M,-34.4,M,,*56
$GPRMC,224320.000,A,4305.1887,N,07740.8453,W,0.09,176.83,110923,,,A*79
$GPGGA,224320.250,4305.1887,N,07740.8453,W,1,08,1.09,171.6,M,-34.4,M,,*59
$GPRMC,224320.500,A,4305.1887,N,07740.8453,W,0.08,130.83,110923,,,A*7F
$GPGGA,224320.750,4305.1887,N,07740.8453,W,1,08,1.09,171.6,M,-34.4,M,,*5C
$GPRMC,224321.000,A,4305.1887,N,07740.8452,W,0.32,148.97,110923,,,A*79
$GPGGA,224321.250,4305.1887,N,07740.8452,W,1,08,1.08,171.6,M,-34.4,M,,*58
$GPRMC,224321.500,A,4305.1885,N,07740.8451,W,2.73,164.24,110923,,,A*7C
$GPGGA,224321.750,4305.1882,N,07740.8451,W,1,08,1.08,171.4,M,-34.4,M,,*59
$GPRMC,224322.000,A,4305.1880,N,07740.8450,W,3.67,156.16,110923,,,A*7A
$GPGGA,224322.250,4305.1877,N,07740.8449,W,1,08,1.08,171.1,M,-34.4,M,,*59
$GPRMC,224322.500,A,4305.1874,N,07740.8448,W,3.68,154.29,110923,,,A*7C
$GPGGA,224322.750,4305.1869,N,07740.8447,W,1,08,1.08,170.9,M,-34.4,M,,*54
$GPRMC,224323.000,A,4305.1865,N,07740.8447,W,3.66,143.63,110923,,,A*71
$GPGGA,224323.250,4305.1861,N,07740.8446,W,1,08,1.08,170.6,M,-34.4,M,,*56
$GPRMC,224323.500,A,4305.1857,N,07740.8443,W,4.39,129.69,110923,,,A*7A
$GPGGA,224323.750,4305.1853,N,07740.8440,W,1,08,1.09,170.6,M,-34.4,M,,*55
$GPRMC,224324.000,A,4305.1850,N,07740.8436,W,4.03,125.66,110923,,,A*77
$GPGGA,224324.250,4305.1847,N,07740.8432,W,1,08,1.09,170.5,M,-34.4,M,,*54
$GPRMC,224324.500,A,4305.1844,N,07740.8429,W,3.39,123.43,110923,,,A*76
$GPGGA,224324.750,4305.1842,N,07740.8427,W,1,08,1.08,170.5,M,-34.4,M,,*51
$GPRMC,224325.000,A,4305.1839,N,07740.8426,W,2.05,117.44,110923,,,A*79
$GPGGA,224325.250,4305.1837,N,07740.8426,W,1,08,1.08,170.5,M,-34.4,M,,*56
$GPRMC,224325.500,A,4305.1836,N,07740.8427,W,0.59,103.25,110923,,,A*7B
$GPGGA,224325.750,4305.1834,N,07740.8429,W,1,08,1.08,170.5,M,-34.4,M,,*5F
$GPRMC,224326.000,A,4305.1833,N,07740.8431,W,0.34,239.28,110923,,,A*73
$GPGGA,224326.250,4305.1831,N,07740.8434,W,1,08,1.08,170.5,M,-34.4,M,,*50
$GPRMC,224326.500,A,4305.1830,N,07740.8437,W,1.60,276.41,110923,,,A*77
$GPGGA,224326.750,4305.1830,N,07740.8440,W,1,08,1.08,170.5,M,-34.4,M,,*57
$GPRMC,224327.000,A,4305.1830,N,07740.8444,W,4.26,283.84,110923,,,A*73
$GPGGA,224327.250,4305.1830,N,07740.8449,W,1,08,1.09,170.6,M,-34.4,M,,*58
$GPRMC,224327.500,A,4305.1830,N,07740.8455,W,6.35,286.64,110923,,,A*7D
$GPGGA,224327.750,4305.1830,N,07740.8463,W,1,08,1.09,170.6,M,-34.4,M,,*55
$GPRMC,224328.000,A,4305.1831,N,07740.8471,W,7.93,283.38,110923,,,A*71
$GPGGA,224328.250,4305.1831,N,07740.8480,W,1,08,1.09,170.6,M,-34.4,M,,*53
$GPRMC,224328.500,A,4305.1831,N,07740.8490,W,9.29,280.12,110923,,,A*7F
$GPGGA,224328.750,4305.1831,N,07740.8500,W,1,08,1.09,170.7,M,-34.4,M,,*5E
$GPRMC,224329.000,A,4305.1831,N,07740.8510,W,9.93,276.41,110923,,,A*7C
$GPGGA,224329.250,4305.1831,N,07740.8520,W,1,08,1.09,170.8,M,-34.4,M,,*57
$GPRMC,224329.500,A,4305.1831,N,07740.8531,W,11.41,274.22,110923,,,A*4B
$GPGGA,224329.750,4305.1831,N,07740.8543,W,1,08,1.09,170.9,M,-34.4,M,,*56
$GPRMC,224330.000,A,4305.1830,N,07740.8555,W,11.98,270.53,110923,,,A*43
$GPGGA,224330.250,4305.1829,N,07740.8566,W,1,08,1.09,171.1,M,-34.4,M,,*5C
$GPRMC,224330.500,A,4305.1828,N,07740.8577,W,12.29,267.52,110923,,,A*41
$GPGGA,224330.750,4305.1826,N,07740.8588,W,1,08,1.09,171.5,M,-34.4,M,,*52
$GPRMC,224331.000,A,4305.1825,N,07740.8600,W,12.30,264.99,110923,,,A*47
$GPGGA,224331.250,4305.1823,N,07740.8611,W,1,08,1.09,171.7,M,-34.4,M,,*52
$GPRMC,224331.500,A,4305.1821,N,07740.8622,W,12.12,263.33,110923,,,A*41
$GPGGA,224331.750,4305.1819,N,07740.8633,W,1,08,1.09,172.0,M,-34.4,M,,*5A
$GPRMC,224332.000,A,4305.1817,N,07740.8644,W,12.05,261.89,110923,,,A*47
$GPGGA,224332.250,4305.1815,N,07740.8655,W,1,08,1.09,172.3,M,-34.4,M,,*53
$GPRMC,224332.500,A,4305.1813,N,07740.8666,W,11.85,261.55,110923,,,A*4C
$GPGGA,224332.750,4305.1811,N,07740.8677,W,1,08,1.09,172.6,M,-34.4,M,,*57
$GPRMC,224333.000,A,4305.1809,N,07740.8687,W,11.65,262.13,110923,,,A*43
$GPGGA,224333.250,4305.1805,N,07740.8697,W,1,08,1.09,172.9,M,-34.4,M,,*57
$GPRMC,224333.500,A,4305.1802,N,07740.8707,W,11.09,262.73,110923,,,A*48
$GPGGA,224333.750,4305.1800,N,07740.8717,W,1,08,1.09,173.2,M,-34.4,M,,*54
$GPRMC,224334.000,A,4305.1800,N,07740.8725,W,10.92,264.23,110923,,,A*48
$GPGGA,224334.250,4305.1800,N,07740.8735,W,1,08,1.09,173.5,M,-34.4,M,,*51
$GPRMC,224334.500,A,4305.1800,N,07740.8744,W,10.85,266.69,110923,,,A*40
$GPGGA,224334.750,4305.1800,N,07740.8753,W,1,08,1.09,173.7,M,-34.4,M,,*56
$GPRMC,224335.000,A,4305.1800,N,07740.8763,W,10.52,267.20,110923,,,A*47
$GPGGA,224335.250,4305.1800,N,07740.8772,W,1,08,1.09,174.0,M,-34.4,M,,*51
$GPRMC,224335.500,A,4305.1799,N,07740.8781,W,10.26,268.70,110923,,,A*48
$GPGGA,224335.750,4305.1799,N,07740.8789,W,1,08,1.09,174.3,M,-34.4,M,,*5C
$GPRMC,224336.000,A,4305.1800,N,07740.8799,W,10.30,270.50,110923,,,A*44
$GPGGA,224336.250,4305.1800,N,07740.8809,W,1,08,1.09,174.6,M,-34.4,M,,*57
$GPRMC,224336.500,A,4305.1800,N,07740.8819,W,10.09,274.50,110923,,,A*48
$GPGGA,224336.750,4305.1800,N,07740.8828,W,1,08,1.09,174.7,M,-34.4,M,,*50
$GPRMC,224337.000,A,4305.1801,N,07740.8837,W,9.88,278.43,110923,,,A*7E
$GPGGA,224337.250,4305.1804,N,07740.8846,W,1,08,1.09,175.0,M,-34.4,M,,*5E
$GPRMC,224337.500,A,4305.1806,N,07740.8854,W,9.23,289.06,110923,,,A*77
$GPGGA,224337.750,4305.1810,N,07740.8862,W,1,08,1.09,175.0,M,-34.4,M,,*58
$GPRMC,224338.000,A,4305.1814,N,07740.8870,W,9.16,301.53,110923,,,A*7F
$GPGGA,224338.250,4305.1818,N,07740.8877,W,1,08,1.09,175.2,M,-34.4,M,,*5C
$GPRMC,224338.500,A,4305.1823,N,07740.8882,W,9.36,313.94,110923,,,A*79
$GPGGA,224338.750,4305.1829,N,07740.8887,W,1,08,1.09,175.5,M,-34.4,M,,*53
$GPRMC,224339.000,A,4305.1837,N,07740.8892,W,9.93,328.85,110923,,,A*7E
$GPGGA,224339.250,4305.1846,N,07740.8894,W,1,08,1.09,175.6,M,-34.4,M,,*5F
$GPRMC,224339.500,A,4305.1856,N,07740.8896,W,11.13,345.73,110923,,,A*4B
$GPGGA,224339.750,4305.1865,N,07740.8897,W,1,08,1.09,175.6,M,-34.4,M,,*58
$GPRMC,224340.000,A,4305.1875,N,07740.8897,W,12.30,355.70,110923,,,A*40
$GPGGA,224340.250,4305.1885,N,07740.8896,W,1,08,1.09,175.8,M,-34.4,M,,*52
$GPRMC,224340.500,A,4305.1896,N,07740.8894,W,13.97,3.58,110923,,,A*4D
$GPGGA,224340.750,4305.1907,N,07740.8892,W,1,08,1.09,175.7,M,-34.4,M,,*57
$GPRMC,224341.000,A,4305.1918,N,07740.8889,W,14.54,4.53,110923,,,A*46
$GPGGA,224341.250,4305.1931,N,07740.8886,W,1,08,1.09,175.7,M,-34.4,M,,*53
$GPRMC,224341.500,A,4305.1943,N,07740.8884,W,15.41,4.02,110923,,,A*41
$GPGGA,224341.750,4305.1956,N,07740.8881,W,1,08,1.09,175.5,M,-34.4,M,,*52
$GPRMC,224342.000,A,4305.1969,N,07740.8880,W,16.19,3.29,110923,,,A*4B
$GPGGA,224342.250,4305.1982,N,07740.8877,W,1,08,1.09,175.1,M,-34.4,M,,*50
$GPRMC,224342.500,A,4305.1995,N,07740.8875,W,16.99,3.13,110923,,,A*46
$GPGGA,224342.750,4305.2007,N,07740.8874,W,1,08,1.09,174.7,M,-34.4,M,,*56
$GPRMC,224343.000,A,4305.2020,N,07740.8873,W,17.48,1.20,110923,,,A*4F
$GPGGA,224343.250,4305.2033,N,07740.8871,W,1,08,1.09,174.4,M,-34.4,M,,*53
$GPRMC,224343.500,A,4305.2046,N,07740.8870,W,17.57,0.69,110923,,,A*4B
$GPGGA,224343.750,4305.2059,N,07740.8868,W,1,08,1.09,174.3,M,-34.4,M,,*55
$GPRMC,224344.000,A,4305.2072,N,07740.8868,W,17.78,359.40,110923,,,A*4E
$GPGGA,224344.250,4305.2085,N,07740.8868,W,1,08,1.09,174.3,M,-34.4,M,,*56
$GPRMC,224344.500,A,4305.2098,N,07740.8868,W,17.85,358.93,110923,,,A*42
$GPGGA,224344.750,4305.2111,N,07740.8868,W,1,08,1.09,174.3,M,-34.4,M,,*5F
$GPRMC,224345.000,A,4305.2124,N,07740.8869,W,17.92,357.90,110923,,,A*4B
$GPGGA,224345.250,4305.2136,N,07740.8869,W,1,08,1.09,174.2,M,-34.4,M,,*5E
$GPRMC,224345.500,A,4305.2149,N,07740.8870,W,17.98,357.79,110923,,,A*40
$GPGGA,224345.750,4305.2162,N,07740.8870,W,1,08,1.09,174.1,M,-34.4,M,,*51
$GPRMC,224346.000,A,4305.2174,N,07740.8870,W,17.94,356.87,110923,,,A*44
$GPGGA,224346.250,4305.2187,N,07740.8871,W,1,08,1.09,174.1,M,-34.4,M,,*5D
$GPRMC,224346.500,A,4305.2199,N,07740.8872,W,17.79,355.72,110923,,,A*4A
$GPGGA,224346.750,4305.2212,N,07740.8873,W,1,08,1.09,174.0,M,-34.4,M,,*54
$GPRMC,224347.000,A,4305.2224,N,07740.8875,W,17.82,354.92,110923,,,A*47
$GPGGA,224347.250,4305.2237,N,07740.8876,W,1,08,1.09,173.9,M,-34.4,M,,*5C
$GPRMC,224347.500,A,4305.2249,N,07740.8878,W,17.71,354.18,110923,,,A*4A
$GPGGA,224347.750,4305.2261,N,07740.8880,W,1,08,1.09,173.8,M,-34.4,M,,*52
$GPRMC,224348.000,A,4305.2273,N,07740.8882,W,17.48,353.42,110923,,,A*4E
$GPGGA,224348.250,4305.2285,N,07740.8884,W,1,08,1.09,173.8,M,-34.4,M,,*56
$GPRMC,224348.500,A,4305.2297,N,07740.8886,W,17.01,352.62,110923,,,A*4B
$GPGGA,224348.750,4305.2307,N,07740.8890,W,1,08,1.09,173.7,M,-34.4,M,,*52
$GPRMC,224349.000,A,4305.2318,N,07740.8892,W,16.28,351.90,110923,,,A*48
$GPGGA,224349.250,4305.2329,N,07740.8894,W,1,08,1.09,173.6,M,-34.4,M,,*5F
$GPRMC,224349.500,A,4305.2339,N,07740.8896,W,14.92,351.86,110923,,,A*4E
$GPGGA,224349.750,4305.2348,N,07740.8899,W,1,08,1.09,173.5,M,-34.4,M,,*53
$GPRMC,224350.000,A,4305.2356,N,07740.8902,W,13.03,351.58,110923,,,A*4A
$GPGGA,224350.250,4305.2364,N,07740.8905,W,1,08,1.09,173.5,M,-34.4,M,,*54
$GPRMC,224350.500,A,4305.2370,N,07740.8907,W,10.85,350.67,110923,,,A*4E
$GPGGA,224350.750,4305.2376,N,07740.8909,W,1,08,1.09,173.5,M,-34.4,M,,*5E
$GPRMC,224351.000,A,4305.2382,N,07740.8910,W,9.15,352.09,110923,,,A*7A
$GPGGA,224351.250,4305.2386,N,07740.8910,W,1,08,1.09,173.4,M,-34.4,M,,*5C
$GPRMC,224351.500,A,4305.2390,N,07740.8911,W,6.72,356.24,110923,,,A*78
$GPGGA,224351.750,4305.2391,N,07740.8913,W,1,08,1.09,173.5,M,-34.4,M,,*5D
$GPRMC,224352.000,A,4305.2391,N,07740.8915,W,3.53,349.59,110923,,,A*79
$GPGGA,224352.250,4305.2393,N,07740.8916,W,1,08,1.09,173.6,M,-34.4,M,,*5F
$GPRMC,224352.500,A,4305.2395,N,07740.8917,W,3.53,345.48,110923,,,A*76
$GPGGA,224352.750,4305.2398,N,07740.8919,W,1,08,1.09,173.6,M,-34.4,M,,*5E
$GPRMC,224353.000,A,4305.2400,N,07740.8921,W,3.95,343.15,110923,,,A*78
$GPGGA,224353.250,4305.2403,N,07740.8923,W,1,08,1.09,173.6,M,-34.4,M,,*56
$GPRMC,224353.500,A,4305.2407,N,07740.8925,W,5.27,338.31,110923,,,A*7B
$GPGGA,224353.750,4305.2410,N,07740.8928,W,1,08,1.09,173.7,M,-34.4,M,,*5B
$GPRMC,224354.000,A,4305.2414,N,07740.8931,W,5.99,333.91,110923,,,A*7A
$GPGGA,224354.250,4305.2418,N,07740.8935,W,1,07,1.24,173.8,M,-34.4,M,,*52
$GPRMC,224354.500,A,4305.2423,N,07740.8940,W,8.20,322.98,110923,,,A*7B
$GPGGA,224354.750,4305.2427,N,07740.8945,W,1,07,1.24,173.7,M,-34.4,M,,*53
$GPRMC,224355.000,A,4305.2431,N,07740.8950,W,8.80,314.75,110923,,,A*71
$GPGGA,224355.250,4305.2435,N,07740.8958,W,1,08,1.09,173.8,M,-34.4,M,,*57
$GPRMC,224355.500,A,4305.2437,N,07740.8966,W,10.34,301.68,110923,,,A*49
$GPGGA,224355.750,4305.2439,N,07740.8976,W,1,08,1.09,173.8,M,-34.4,M,,*52
$GPRMC,224356.000,A,4305.2441,N,07740.8987,W,11.62,290.73,110923,,,A*40
$GPGGA,224356.250,4305.2442,N,07740.8999,W,1,08,1.09,173.9,M,-34.4,M,,*58
$GPRMC,224356.500,A,4305.2442,N,07740.9011,W,13.18,281.70,110923,,,A*4D
$GPGGA,224356.750,4305.2443,N,07740.9024,W,1,08,1.09,174.0,M,-34.4,M,,*5C
$GPRMC,224357.000,A,4305.2443,N,07740.9038,W,13.65,277.24,110923,,,A*41
$GPGGA,224357.250,4305.2442,N,07740.9053,W,1,08,1.09,174.1,M,-34.4,M,,*58
$GPRMC,224357.500,A,4305.2441,N,07740.9068,W,14.72,269.71,110923,,,A*4D
$GPGGA,224357.750,4305.2439,N,07740.9083,W,1,08,1.09,174.1,M,-34.4,M,,*5C
$GPRMC,224358.000,A,4305.2437,N,07740.9098,W,15.48,264.63,110923,,,A*4F
$GPGGA,224358.250,4305.2432,N,07740.9116,W,1,08,1.09,174.2,M,-34.4,M,,*53
$GPRMC,224358.500,A,4305.2425,N,07740.9133,W,17.26,254.92,110923,,,A*4E
$GPGGA,224358.750,4305.2418,N,07740.9151,W,1,08,1.09,174.3,M,-34.4,M,,*5C
$GPRMC,224359.000,A,4305.2412,N,07740.9169,W,18.58,249.71,110923,,,A*46
$GPGGA,224359.250,4305.2404,N,07740.9188,W,1,08,1.09,174.4,M,-34.4,M,,*56
$GPRMC,224359.500,A,4305.2398,N,07740.9206,W,20.12,246.38,110923,,,A*4B
$GPGGA,224359.750,4305.2391,N,07740.9225,W,1,08,1.09,174.5,M,-34.4,M,,*5D
$GPRMC,224400.000,A,4305.2383,N,07740.9244,W,21.20,244.82,110923,,,A*4A
$GPGGA,224400.250,4305.2376,N,07740.9264,W,1,08,1.09,174.6,M,-34.4,M,,*5C
$GPRMC,224400.500,A,4305.2368,N,07740.9283,W,22.19,243.64,110923,,,A*47
$GPGGA,224400.750,4305.2360,N,07740.9303,W,1,08,1.09,174.8,M,-34.4,M,,*50
$GPRMC,224401.000,A,4305.2352,N,07740.9323,W,22.62,242.93,110923,,,A*44
$GPGGA,224401.250,4305.2344,N,07740.9343,W,1,07,1.16,174.9,M,-34.4,M,,*56
$GPRMC,224401.500,A,4305.2336,N,07740.9363,W,22.87,242.33,110923,,,A*46
$GPGGA,224401.750,4305.2327,N,07740.9383,W,1,07,1.16,175.1,M,-34.4,M,,*53
$GPRMC,224402.000,A,4305.2320,N,07740.9403,W,22.90,241.68,110923,,,A*4D
$GPGGA,224402.250,4305.2312,N,07740.9423,W,1,07,1.16,175.2,M,-34.4,M,,*5D
$GPRMC,224402.500,A,4305.2304,N,07740.9442,W,22.87,240.76,110923,,,A*43
$GPGGA,224402.750,4305.2296,N,07740.9461,W,1,07,1.22,175.3,M,-34.4,M,,*55
$GPRMC,224403.000,A,4305.2288,N,07740.9480,W,22.85,240.18,110923,,,A*46
$GPGGA,224403.250,4305.2280,N,07740.9500,W,1,07,1.22,175.5,M,-34.4,M,,*56
$GPRMC,224403.500,A,4305.2272,N,07740.9519,W,22.89,239.64,110923,,,A*4E
$GPGGA,224403.750,4305.2263,N,07740.9537,W,1,08,1.10,175.6,M,-34.4,M,,*57
$GPRMC,224404.000,A,4305.2255,N,07740.9556,W,22.86,238.78,110923,,,A*41
$GPGGA,224404.250,4305.2246,N,07740.9574,W,1,08,1.10,175.7,M,-34.4,M,,*54
$GPRMC,224404.500,A,4305.2237,N,07740.9592,W,22.77,237.95,110923,,,A*4A
$GPGGA,224404.750,4305.2228,N,07740.9610,W,1,08,1.10,175.9,M,-34.4,M,,*56
$GPRMC,224405.000,A,4305.2219,N,07740.9628,W,22.76,237.49,110923,,,A*40
$GPGGA,224405.250,4305.2210,N,07740.9646,W,1,08,1.10,176.1,M,-34.4,M,,*51
$GPRMC,224405.500,A,4305.2201,N,07740.9663,W,23.02,236.76,110923,,,A*4C
$GPGGA,224405.750,4305.2191,N,07740.9681,W,1,08,1.10,176.2,M,-34.4,M,,*56
$GPRMC,224406.000,A,4305.2181,N,07740.9698,W,23.07,235.33,110923,,,A*42
$GPGGA,224406.250,4305.2171,N,07740.9715,W,1,08,1.10,176.3,M,-34.4,M,,*53
$GPRMC,224406.500,A,4305.2161,N,07740.9732,W,22.90,233.96,110923,,,A*4E
$GPGGA,224406.750,4305.2152,N,07740.9749,W,1,08,1.10,176.5,M,-34.4,M,,*58
$GPRMC,224407.000,A,4305.2142,N,07740.9766,W,22.88,233.09,110923,,,A*45
$GPGGA,224407.250,4305.2133,N,07740.9783,W,1,08,1.10,176.6,M,-34.4,M,,*5E
$GPRMC,224407.500,A,4305.2123,N,07740.9800,W,22.93,232.37,110923,,,A*4E
$GPGGA,224407.750,4305.2113,N,07740.9817,W,1,08,1.10,176.7,M,-34.4,M,,*5A
$GPRMC,224408.000,A,4305.2103,N,07740.9834,W,23.03,231.80,110923,,,A*46
$GPGGA,224408.250,4305.2093,N,07740.9851,W,1,08,1.10,176.8,M,-34.4,M,,*54
$GPRMC,224408.500,A,4305.2083,N,07740.9868,W,23.28,231.57,110923,,,A*40
$GPGGA,224408.750,4305.2073,N,07740.9885,W,1,08,1.10,177.0,M,-34.4,M,,*5F
$GPRMC,224409.000,A,4305.2062,N,07740.9902,W,23.61,231.29,110923,,,A*42
$GPGGA,224409.250,4305.2052,N,07740.9919,W,1,08,1.10,177.1,M,-34.4,M,,*5D
$GPRMC,224409.500,A,4305.2041,N,07740.9937,W,23.85,230.66,110923,,,A*40
$GPGGA,224409.750,4305.2030,N,07740.9954,W,1,08,1.10,177.3,M,-34.4,M,,*57
$GPRMC,224410.000,A,4305.2020,N,07740.9972,W,23.98,230.00,110923,,,A*47
$GPGGA,224410.250,4305.2009,N,07740.9988,W,1,08,1.10,177.5,M,-34.4,M,,*57
$GPRMC,224410.500,A,4305.1997,N,07741.0005,W,24.23,229.27,110923,,,A*4F
$GPGGA,224410.750,4305.1986,N,07741.0023,W,1,08,1.10,177.6,M,-34.4,M,,*5C
$GPRMC,224411.000,A,4305.1975,N,07741.0040,W,24.55,228.42,110923,,,A*45
$GPGGA,224411.250,4305.1963,N,07741.0057,W,1,08,1.10,177.8,M,-34.4,M,,*5E
$GPRMC,224411.500,A,4305.1951,N,07741.0074,W,24.80,227.64,110923,,,A*42
$GPGGA,224411.750,4305.1939,N,07741.0091,W,1,08,1.10,178.0,M,-34.4,M,,*59
$GPRMC,224412.000,A,4305.1926,N,07741.0109,W,24.94,226.61,110923,,,A*4E
$GPGGA,224412.250,4305.1914,N,07741.0126,W,1,08,1.10,178.2,M,-34.4,M,,*5F
$GPRMC,224412.500,A,4305.1901,N,07741.0142,W,24.96,225.33,110923,,,A*47
$GPGGA,224412.750,4305.1888,N,07741.0159,W,1,08,1.10,178.3,M,-34.4,M,,*57
$GPRMC,224413.000,A,4305.1876,N,07741.0176,W,24.96,224.49,110923,,,A*49
$GPGGA,224413.250,4305.1863,N,07741.0192,W,1,08,1.10,178.4,M,-34.4,M,,*56
$GPRMC,224413.500,A,4305.1850,N,07741.0209,W,24.93,223.50,110923,,,A*49
$GPGGA,224413.750,4305.1836,N,07741.0225,W,1,08,1.10,178.5,M,-34.4,M,,*5D
$GPRMC,224414.000,A,4305.1823,N,07741.0241,W,24.99,222.45,110923,,,A*4C
$GPGGA,224414.250,4305.1810,N,07741.0257,W,1,08,1.10,178.6,M,-34.4,M,,*5D
$GPRMC,224414.500,A,4305.1796,N,07741.0274,W,25.06,221.47,110923,,,A*48
$GPGGA,224414.750,4305.1782,N,07741.0290,W,1,08,1.10,178.7,M,-34.4,M,,*56
$GPRMC,224415.000,A,4305.1768,N,07741.0305,W,25.09,220.42,110923,,,A*41
$GPGGA,224415.250,4305.1754,N,07741.0321,W,1,08,1.10,178.9,M,-34.4,M,,*5C
$GPRMC,224415.500,A,4305.1739,N,07741.0335,W,25.16,219.00,110923,,,A*41
$GPGGA,224415.750,4305.1725,N,07741.0350,W,1,08,1.10,179.0,M,-34.4,M,,*51
$GPRMC,224416.000,A,4305.1711,N,07741.0364,W,25.21,217.72,110923,,,A*46
$GPGGA,224416.250,4305.1697,N,07741.0379,W,1,08,1.10,179.0,M,-34.4,M,,*54
$GPRMC,224416.500,A,4305.1682,N,07741.0393,W,25.14,217.03,110923,,,A*40
$GPGGA,224416.750,4305.1668,N,07741.0407,W,1,08,1.10,179.0,M,-34.4,M,,*5F
$GPRMC,224417.000,A,4305.1654,N,07741.0421,W,25.03,216.57,110923,,,A*47
$GPGGA,224417.250,4305.1640,N,07741.0434,W,1,08,1.10,178.9,M,-34.4,M,,*59
$GPRMC,224417.500,A,4305.1625,N,07741.0448,W,24.55,215.89,110923,,,A*49
$GPGGA,224417.750,4305.1612,N,07741.0462,W,1,08,1.10,178.6,M,-34.4,M,,*57
$GPRMC,224418.000,A,4305.1598,N,07741.0476,W,24.22,215.81,110923,,,A*43
$GPGGA,224418.250,4305.1585,N,07741.0489,W,1,07,1.78,178.5,M,-34.4,M,,*57
$GPRMC,224418.500,A,4305.1571,N,07741.0503,W,23.99,215.54,110923,,,A*4D
$GPGGA,224418.750,4305.1557,N,07741.0516,W,1,08,1.10,178.3,M,-34.4,M,,*5D
$GPRMC,224419.000,A,4305.1544,N,07741.0530,W,23.78,215.55,110923,,,A*41
$GPGGA,224419.250,4305.1530,N,07741.0543,W,1,08,1.08,178.1,M,-34.4,M,,*53
$GPRMC,224419.500,A,4305.1518,N,07741.0556,W,23.42,215.44,110923,,,A*44
$GPGGA,224419.750,4305.1504,N,07741.0569,W,1,08,1.10,177.8,M,-34.4,M,,*56
$GPRMC,224420.000,A,4305.1491,N,07741.0582,W,23.29,214.79,110923,,,A*40
$GPGGA,224420.250,4305.1478,N,07741.0595,W,1,08,1.10,177.7,M,-34.4,M,,*5F
$GPRMC,224420.500,A,4305.1466,N,07741.0607,W,22.99,214.63,110923,,,A*42
$GPGGA,224420.750,4305.1454,N,07741.0619,W,1,08,1.10,177.6,M,-34.4,M,,*52
$GPRMC,224421.000,A,4305.1442,N,07741.0631,W,22.68,214.51,110923,,,A*4A
$GPGGA,224421.250,4305.1430,N,07741.0644,W,1,08,1.10,177.6,M,-34.4,M,,*5C
$GPRMC,224421.500,A,4305.1418,N,07741.0655,W,22.11,214.35,110923,,,A*4E
$GPGGA,224421.750,4305.1407,N,07741.0667,W,1,08,1.10,177.5,M,-34.4,M,,*5F
$GPRMC,224422.000,A,4305.1395,N,07741.0679,W,21.82,214.26,110923,,,A*4F
$GPGGA,224422.250,4305.1383,N,07741.0691,W,1,08,1.10,177.3,M,-34.4,M,,*5D
$GPRMC,224422.500,A,4305.1371,N,07741.0702,W,21.33,214.07,110923,,,A*44
$GPGGA,224422.750,4305.1360,N,07741.0712,W,1,08,1.10,177.2,M,-34.4,M,,*5E
$GPRMC,224423.000,A,4305.1349,N,07741.0723,W,20.45,214.34,110923,,,A*48
$GPGGA,224423.250,4305.1339,N,07741.0733,W,1,08,1.10,177.2,M,-34.4,M,,*55
$GPRMC,224423.500,A,4305.1329,N,07741.0744,W,18.81,215.39,110923,,,A*45
$GPGGA,224423.750,4305.1319,N,07741.0754,W,1,08,1.10,177.0,M,-34.4,M,,*51
$GPRMC,224424.000,A,4305.1309,N,07741.0763,W,17.47,215.58,110923,,,A*42
$GPGGA,224424.250,4305.1300,N,07741.0773,W,1,08,1.10,177.0,M,-34.4,M,,*5E
$GPRMC,224424.500,A,4305.1292,N,07741.0783,W,16.07,218.16,110923,,,A*48
$GPGGA,224424.750,4305.1284,N,07741.0793,W,1,08,1.10,177.1,M,-34.4,M,,*59
$GPRMC,224425.000,A,4305.1276,N,07741.0803,W,15.56,220.69,110923,,,A*45
$GPGGA,224425.250,4305.1269,N,07741.0813,W,1,07,1.22,177.1,M,-34.4,M,,*57
$GPRMC,224425.500,A,4305.1262,N,07741.0824,W,13.97,224.73,110923,,,A*44
$GPGGA,224425.750,4305.1257,N,07741.0835,W,1,08,1.10,177.2,M,-34.4,M,,*56
$GPRMC,224426.000,A,4305.1252,N,07741.0847,W,14.04,230.20,110923,,,A*4A
$GPGGA,224426.250,4305.1248,N,07741.0860,W,1,08,1.10,177.3,M,-34.4,M,,*5F
$GPRMC,224426.500,A,4305.1244,N,07741.0871,W,13.81,240.30,110923,,,A*41
$GPGGA,224426.750,4305.1242,N,07741.0885,W,1,08,1.10,177.2,M,-34.4,M,,*5A
$GPRMC,224427.000,A,4305.1241,N,07741.0899,W,13.94,252.00,110923,,,A*42
$GPGGA,224427.250,4305.1241,N,07741.0913,W,1,08,1.10,177.3,M,-34.4,M,,*52
$GPRMC,224427.500,A,4305.1241,N,07741.0927,W,14.38,266.00,110923,,,A*45
$GPGGA,224427.750,4305.1242,N,07741.0941,W,1,08,1.10,177.2,M,-34.4,M,,*52
$GPRMC,224428.000,A,4305.1243,N,07741.0955,W,15.04,273.63,110923,,,A*47
$GPGGA,224428.250,4305.1245,N,07741.0969,W,1,08,1.10,177.2,M,-34.4,M,,*55
$GPRMC,224428.500,A,4305.1247,N,07741.0983,W,15.56,282.07,110923,,,A*46
$GPGGA,224428.750,4305.1251,N,07741.0997,W,1,08,1.10,177.2,M,-34.4,M,,*54
$GPRMC,224429.000,A,4305.1254,N,07741.1011,W,15.61,286.98,110923,,,A*45
$GPGGA,224429.250,4305.1258,N,07741.1024,W,1,08,1.10,176.9,M,-34.4,M,,*53
$GPRMC,224429.500,A,4305.1262,N,07741.1037,W,15.87,290.79,110923,,,A*41
$GPGGA,224429.750,4305.1268,N,07741.1051,W,1,08,1.10,176.8,M,-34.4,M,,*56
$GPRMC,224430.000,A,4305.1272,N,07741.1065,W,15.81,292.30,110923,,,A*43
$GPGGA,224430.250,4305.1278,N,07741.1079,W,1,08,1.10,176.8,M,-34.4,M,,*50
$GPRMC,224430.500,A,4305.1284,N,07741.1092,W,15.37,293.85,110923,,,A*45
$GPGGA,224430.750,4305.1290,N,07741.1105,W,1,08,1.10,176.7,M,-34.4,M,,*56
$GPRMC,224431.000,A,4305.1295,N,07741.1118,W,15.10,294.35,110923,,,A*4B
$GPGGA,224431.250,4305.1301,N,07741.1131,W,1,08,1.08,176.7,M,-34.4,M,,*55
$GPRMC,224431.500,A,4305.1306,N,07741.1143,W,14.65,295.66,110923,,,A*4F
$GPGGA,224431.750,4305.1312,N,07741.1155,W,1,08,1.10,176.7,M,-34.4,M,,*59
$GPRMC,224432.000,A,4305.1316,N,07741.1167,W,14.27,296.52,110923,,,A*4C
$GPGGA,224432.250,4305.1324,N,07741.1176,W,1,08,1.10,176.5,M,-34.4,M,,*59
$GPRMC,224432.500,A,4305.1330,N,07741.1185,W,13.75,297.37,110923,,,A*43
$GPGGA,224432.750,4305.1335,N,07741.1196,W,1,08,1.10,176.5,M,-34.4,M,,*52
$GPRMC,224433.000,A,4305.1341,N,07741.1207,W,13.32,298.77,110923,,,A*40
$GPGGA,224433.250,4305.1347,N,07741.1217,W,1,08,1.10,176.5,M,-34.4,M,,*59
$GPRMC,224433.500,A,4305.1352,N,07741.1227,W,12.03,301.88,110923,,,A*47
$GPGGA,224433.750,4305.1357,N,07741.1235,W,1,08,1.10,176.4,M,-34.4,M,,*5C
$GPRMC,224434.000,A,4305.1363,N,07741.1242,W,10.07,309.32,110923,,,A*4B
$GPGGA,224434.250,4305.1368,N,07741.1248,W,1,08,1.10,176.4,M,-34.4,M,,*58
$GPRMC,224434.500,A,4305.1372,N,07741.1252,W,7.50,317.03,110923,,,A*76
$GPGGA,224434.750,4305.1377,N,07741.1255,W,1,07,1.24,176.2,M,-34.4,M,,*51
$GPRMC,224435.000,A,4305.1380,N,07741.1258,W,6.22,322.20,110923,,,A*76
$GPGGA,224435.250,4305.1384,N,07741.1260,W,1,07,1.24,176.2,M,-34.4,M,,*5F
$GPRMC,224435.500,A,4305.1387,N,07741.1262,W,5.14,326.37,110923,,,A*79
$GPGGA,224435.750,4305.1391,N,07741.1264,W,1,08,1.10,176.2,M,-34.4,M,,*52
$GPRMC,224436.000,A,4305.1393,N,07741.1265,W,4.10,329.17,110923,,,A*75
$GPGGA,224436.250,4305.1396,N,07741.1266,W,1,08,1.08,176.2,M,-34.4,M,,*58
$GPRMC,224436.500,A,4305.1398,N,07741.1267,W,2.95,332.35,110923,,,A*78
$GPGGA,224436.750,4305.1399,N,07741.1267,W,1,08,1.08,176.3,M,-34.4,M,,*52
$GPRMC,224437.000,A,4305.1400,N,07741.1267,W,1.80,332.35,110923,,,A*7D
$GPGGA,224437.250,4305.1401,N,07741.1266,W,1,08,1.10,176.3,M,-34.4,M,,*58
$GPRMC,224437.500,A,4305.1402,N,07741.1265,W,1.31,332.35,110923,,,A*72
$GPGGA,224437.750,4305.1402,N,07741.1265,W,1,08,1.10,176.4,M,-34.4,M,,*5A
$GPRMC,224438.000,A,4305.1402,N,07741.1265,W,1.00,332.35,110923,,,A*7A
$GPGGA,224438.250,4305.1403,N,07741.1264,W,1,08,1.10,176.4,M,-34.4,M,,*50
$GPRMC,224438.500,A,4305.1403,N,07741.1264,W,0.94,332.35,110923,,,A*73
$GPGGA,224438.750,4305.1404,N,07741.1263,W,1,08,1.10,176.5,M,-34.4,M,,*54
$GPRMC,224439.000,A,4305.1404,N,07741.1263,W,0.88,332.35,110923,,,A*7A
$GPGGA,224439.250,4305.1405,N,07741.1263,W,1,08,1.10,176.5,M,-34.4,M,,*51
$GPRMC,224439.500,A,4305.1406,N,07741.1263,W,0.83,332.35,110923,,,A*76
$GPGGA,224439.750,4305.1407,N,07741.1263,W,1,08,1.10,176.5,M,-34.4,M,,*56
$GPRMC,224440.000,A,4305.1408,N,07741.1264,W,0.87,332.35,110923,,,A*70
$GPGGA,224440.250,4305.1412,N,07741.1266,W,1,08,1.10,176.3,M,-34.4,M,,*5A
$GPRMC,224440.500,A,4305.1413,N,07741.1267,W,1.67,332.35,110923,,,A*73
$GPGGA,224440.750,4305.1414,N,07741.1268,W,1,08,1.08,176.2,M,-34.4,M,,*5F
$GPRMC,224441.000,A,4305.1415,N,07741.1269,W,2.12,328.99,110923,,,A*73
$GPGGA,224441.250,4305.1419,N,07741.1269,W,1,08,1.08,176.1,M,-34.4,M,,*54
$GPRMC,224441.500,A,4305.1422,N,07741.1269,W,1.98,337.47,110923,,,A*7E
$GPGGA,224441.750,4305.1425,N,07741.1267,W,1,08,1.08,176.0,M,-34.4,M,,*51
$GPRMC,224442.000,A,4305.1427,N,07741.1267,W,1.34,329.37,110923,,,A*7D
$GPGGA,224442.250,4305.1428,N,07741.1266,W,1,08,1.08,175.9,M,-34.4,M,,*51
$GPRMC,224442.500,A,4305.1428,N,07741.1264,W,0.68,329.53,110923,,,A*7E
$GPGGA,224442.750,4305.1428,N,07741.1263,W,1,08,1.08,175.8,M,-34.4,M,,*50
$GPRMC,224443.000,A,4305.1428,N,07741.1261,W,0.38,329.53,110923,,,A*7A
$GPGGA,224443.250,4305.1429,N,07741.1260,W,1,08,1.08,176.0,M,-34.4,M,,*5D
$GPRMC,224443.500,A,4305.1429,N,07741.1258,W,0.16,329.53,110923,,,A*78
$GPGGA,224443.750,4305.1429,N,07741.1257,W,1,08,1.08,176.1,M,-34.4,M,,*5D
$GPRMC,224444.000,A,4305.1429,N,07741.1255,W,0.15,329.53,110923,,,A*74
$GPGGA,224444.250,4305.1429,N,07741.1254,W,1,08,1.08,176.2,M,-34.4,M,,*5F
$GPRMC,224444.500,A,4305.1429,N,07741.1252,W,0.20,177.19,110923,,,A*77
$GPGGA,224444.750,4305.1428,N,07741.1252,W,1,08,1.08,176.2,M,-34.4,M,,*5D
$GPRMC,224445.000,A,4305.1427,N,07741.1251,W,0.22,162.57,110923,,,A*72
$GPGGA,224445.250,4305.1427,N,07741.1251,W,1,08,1.08,176.3,M,-34.4,M,,*54
$GPRMC,224445.500,A,4305.1427,N,07741.1250,W,0.04,162.57,110923,,,A*72
$GPGGA,224445.750,4305.1427,N,07741.1251,W,1,08,1.08,176.3,M,-34.4,M,,*51
$GPRMC,224446.000,A,4305.1427,N,07741.1251,W,0.27,162.57,110923,,,A*74
$GPGGA,224446.250,4305.1428,N,07741.1251,W,1,08,1.10,176.4,M,-34.4,M,,*56
$GPRMC,224446.500,A,4305.1428,N,07741.1251,W,0.66,346.27,110923,,,A*78
$GPGGA,224446.750,4305.1429,N,07741.1251,W,1,08,1.10,176.4,M,-34.4,M,,*52
$GPRMC,224447.000,A,4305.1430,N,07741.1252,W,1.57,337.55,110923,,,A*76
$GPGGA,224447.250,4305.1433,N,07741.1252,W,1,08,1.08,176.5,M,-34.4,M,,*56
$GPRMC,224447.500,A,4305.1438,N,07741.1255,W,4.46,330.25,110923,,,A*79
$GPGGA,224447.750,4305.1447,N,07741.1255,W,1,07,1.24,176.7,M,-34.4,M,,*54
$GPRMC,224448.000,A,4305.1454,N,07741.1255,W,9.01,356.20,110923,,,A*72
$GPGGA,224448.250,4305.1462,N,07741.1254,W,1,07,1.24,176.9,M,-34.4,M,,*56
$GPRMC,224448.500,A,4305.1469,N,07741.1254,W,10.90,4.33,110923,,,A*4E
$GPGGA,224448.750,4305.1477,N,07741.1252,W,1,08,1.10,177.0,M,-34.4,M,,*51
$GPRMC,224449.000,A,4305.1485,N,07741.1250,W,11.71,11.38,110923,,,A*7D
$GPGGA,224449.250,4305.1494,N,07741.1244,W,1,08,1.10,177.3,M,-34.4,M,,*5C
$GPRMC,224449.500,A,4305.1504,N,07741.1239,W,13.47,19.09,110923,,,A*72
$GPGGA,224449.750,4305.1514,N,07741.1234,W,1,08,1.10,177.5,M,-34.4,M,,*51
$GPRMC,224450.000,A,4305.1525,N,07741.1229,W,15.03,22.17,110923,,,A*7C
$GPGGA,224450.250,4305.1535,N,07741.1223,W,1,08,1.08,177.6,M,-34.4,M,,*53
$GPRMC,224450.500,A,4305.1545,N,07741.1215,W,16.76,26.01,110923,,,A*72
$GPGGA,224450.750,4305.1556,N,07741.1206,W,1,08,1.10,177.7,M,-34.4,M,,*5C
$GPRMC,224451.000,A,4305.1566,N,07741.1198,W,18.15,28.57,110923,,,A*77
$GPGGA,224451.250,4305.1578,N,07741.1189,W,1,08,1.10,177.8,M,-34.4,M,,*5F
$GPRMC,224451.500,A,4305.1590,N,07741.1179,W,19.72,30.07,110923,,,A*78
$GPGGA,224451.750,4305.1602,N,07741.1168,W,1,08,1.10,177.9,M,-34.4,M,,*5A
$GPRMC,224452.000,A,4305.1615,N,07741.1158,W,20.95,30.57,110923,,,A*75
$GPGGA,224452.250,4305.1628,N,07741.1147,W,1,08,1.08,177.9,M,-34.4,M,,*50
$GPRMC,224452.500,A,4305.1641,N,07741.1136,W,22.15,30.75,110923,,,A*73
$GPGGA,224452.750,4305.1654,N,07741.1123,W,1,08,1.10,177.9,M,-34.4,M,,*55
$GPRMC,224453.000,A,4305.1667,N,07741.1111,W,23.08,31.41,110923,,,A*7D
$GPGGA,224453.250,4305.1681,N,07741.1099,W,1,08,1.10,177.9,M,-34.4,M,,*59
$GPRMC,224453.500,A,4305.1695,N,07741.1086,W,24.13,32.58,110923,,,A*7C
$GPGGA,224453.750,4305.1708,N,07741.1072,W,1,08,1.10,177.9,M,-34.4,M,,*59
