Vers 81
USE_SERIAL_FEEDBACK=true
DEVELOPMENT_MODE=false
USE_RMC_ONLY=false

$GPRMC,210633.250,A,4305.1621,N,07740.8729,W,0.05,171.60,031023,,,D*7A
$GPGGA,210633.500,4305.1621,N,07740.8729,W,2,07,1.20,167.6,M,-34.4,M,0000,0000*57
$GPRMC,210633.750,A,4305.1621,N,07740.8729,W,0.01,171.60,031023,,,D*7B
$GPGGA,210634.000,4305.1621,N,07740.8729,W,2,07,1.20,167.6,M,-34.4,M,0000,0000*55
$GPRMC,210634.250,A,4305.1621,N,07740.8729,W,0.01,171.60,031023,,,D*79
$GPGGA,210634.500,4305.1621,N,07740.8729,W,2,07,1.20,167.6,M,-34.4,M,0000,0000*50
$GPRMC,210634.750,A,4305.1621,N,07740.8729,W,0.01,171.60,031023,,,D*7C
$GPGGA,210635.000,4305.1621,N,07740.8729,W,2,07,1.20,167.6,M,-34.4,M,0000,0000*54
$GPRMC,210635.250,A,4305.1621,N,07740.8729,W,0.00,171.60,031023,,,D*79
$GPGGA,210635.500,4305.1621,N,07740.8729,W,2,07,1.20,167.6,M,-34.4,M,0000,0000*51
$GPRMC,210635.750,A,4305.1621,N,07740.8729,W,0.00,171.60,031023,,,D*7C
$GPGGA,210636.000,4305.1621,N,07740.8729,W,2,07,1.20,167.6,M,-34.4,M,0000,0000*57
$GPRMC,210636.250,A,4305.1621,N,07740.8729,W,0.00,171.60,031023,,,D*7A
$GPGGA,210636.500,4305.1621,N,07740.8729,W,2,07,1.20,167.6,M,-34.4,M,0000,0000*52
$GPRMC,210636.750,A,4305.1621,N,07740.8729,W,0.00,171.60,031023,,,D*7F
$GPGGA,210637.000,4305.1621,N,07740.8729,W,2,07,1.20,167.6,M,-34.4,M,0000,0000*56
$GPRMC,210637.250,A,4305.1621,N,07740.8729,W,0.00,171.60,031023,,,D*7B
$GPGGA,210637.500,4305.1621,N,07740.8729,W,2,07,1.20,167.6,M,-34.4,M,0000,0000*53
$GPRMC,210637.750,A,4305.1621,N,07740.8729,W,0.00,171.60,031023,,,D*7E
$GPGGA,210638.000,4305.1621,N,07740.8729,W,2,07,1.20,167.6,M,-34.4,M,0000,0000*59
$GPRMC,210638.250,A,4305.1621,N,07740.8729,W,0.00,171.60,031023,,,D*74
$GPGGA,210638.500,4305.1621,N,07740.8729,W,2,07,1.20,167.6,M,-34.4,M,0000,0000*5C
$GPRMC,210638.750,A,4305.1621,N,07740.8729,W,0.00,171.60,031023,,,D*71
$GPGGA,210639.000,4305.1621,N,07740.8729,W,2,07,1.20,167.6,M,-34.4,M,0000,0000*58
$GPRMC,210639.250,A,4305.1621,N,07740.8729,W,0.00,171.60,031023,,,D*75
$GPGGA,210639.500,4305.1621,N,07740.8729,W,2,07,1.20,167.6,M,-34.4,M,0000,0000*5D
$GPRMC,210639.750,A,4305.1621,N,07740.8729,W,0.00,171.60,031023,,,D*70
$GPGGA,210640.000,4305.1621,N,07740.8729,W,2,07,1.20,167.6,M,-34.4,M,0000,0000*56
$GPRMC,210640.250,A,4305.1621,N,07740.8729,W,0.00,171.60,031023,,,D*7B
$GPGGA,210640.500,4305.1621,N,07740.8729,W,2,07,1.20,167.6,M,-34.4,M,0000,0000*53
$GPRMC,210640.750,A,4305.1621,N,07740.8729,W,0.00,171.60,031023,,,D*7E
$GPGGA,210641.000,4305.1621,N,07740.8729,W,2,07,1.20,167.6,M,-34.4,M,0000,0000*57
$GPRMC,210641.250,A,4305.1621,N,07740.8729,W,0.00,171.60,031023,,,D*7A
$GPGGA,210641.500,4305.1621,N,07740.8729,W,2,07,1.20,167.6,M,-34.4,M,0000,0000*52
$GPRMC,210641.750,A,4305.1621,N,07740.8729,W,0.00,171.60,031023,,,D*7F
$GPGGA,210642.000,4305.1621,N,07740.8729,W,2,07,1.20,167.6,M,-34.4,M,0000,0000*54
$GPRMC,210642.250,A,4305.1621,N,07740.8729,W,0.00,171.60,031023,,,D*79
$GPGGA,210642.500,4305.1621,N,07740.8729,W,2,07,1.20,167.6,M,-34.4,M,0000,0000*51
$GPRMC,210642.750,A,4305.1621,N,07740.8729,W,0.00,171.60,031023,,,D*7C
$GPGGA,210643.000,4305.1621,N,07740.8729,W,2,07,1.20,167.6,M,-34.4,M,0000,0000*55
$GPRMC,210643.250,A,4305.1621,N,07740.8729,W,0.00,171.60,031023,,,D*78
$GPGGA,210643.500,4305.1621,N,07740.8729,W,2,07,1.20,167.6,M,-34.4,M,0000,0000*50
$GPRMC,210643.750,A,4305.1621,N,07740.8729,W,0.00,171.60,031023,,,D*7D
$GPGGA,210644.000,4305.1621,N,07740.8729,W,2,07,1.20,167.6,M,-34.4,M,0000,0000*52
$GPRMC,210644.250,A,4305.1621,N,07740.8729,W,0.00,171.60,031023,,,D*7F
$GPGGA,210644.500,4305.1621,N,07740.8729,W,2,07,1.20,167.6,M,-34.4,M,0000,0000*57
$GPRMC,210644.750,A,4305.1621,N,07740.8729,W,0.00,171.60,031023,,,D*7A
$GPGGA,210645.000,4305.1621,N,07740.8729,W,2,07,1.20,167.6,M,-34.4,M,0000,0000*53
$GPRMC,210645.250,A,4305.1621,N,07740.8729,W,0.00,171.60,031023,,,D*7E
$GPGGA,210645.500,4305.1621,N,07740.8729,W,2,07,1.20,167.6,M,-34.4,M,0000,0000*56
$GPRMC,210645.750,A,4305.1621,N,07740.8729,W,0.00,171.60,031023,,,D*7B
$GPGGA,210646.000,4305.1621,N,07740.8729,W,2,07,1.20,167.6,M,-34.4,M,0000,0000*50
$GPRMC,210646.250,A,4305.1621,N,07740.8729,W,0.00,171.60,031023,,,D*7D
$GPGGA,210646.500,4305.1621,N,07740.8729,W,2,07,1.20,167.6,M,-34.4,M,0000,0000*55
$GPRMC,210646.750,A,4305.1621,N,07740.8729,W,0.00,171.60,031023,,,D*78
$GPGGA,210647.000,4305.1621,N,07740.8729,W,2,07,1.20,167.6,M,-34.4,M,0000,0000*51
$GPRMC,210647.250,A,4305.1621,N,07740.8729,W,0.00,171.60,031023,,,D*7C
$GPGGA,210647.500,4305.1621,N,07740.8729,W,2,07,1.20,167.6,M,-34.4,M,0000,0000*54
$GPRMC,210647.750,A,4305.1621,N,07740.8729,W,0.00,171.60,031023,,,D*79
$GPGGA,210648.000,4305.1621,N,07740.8729,W,2,07,1.20,167.6,M,-34.4,M,0000,0000*5E
$GPRMC,210648.250,A,4305.1621,N,07740.8729,W,0.00,171.60,031023,,,D*73
$GPGGA,210648.500,4305.1621,N,07740.8729,W,2,07,1.20,167.6,M,-34.4,M,0000,0000*5B
$GPRMC,210648.750,A,4305.1621,N,07740.8729,W,0.00,171.60,031023,,,D*76
$GPGGA,210649.000,4305.1621,N,07740.8729,W,2,07,1.20,167.6,M,-34.4,M,0000,0000*5F
$GPRMC,210649.250,A,4305.1621,N,07740.8729,W,0.00,171.60,031023,,,D*72
$GPGGA,210649.500,4305.1621,N,07740.8729,W,2,07,1.20,167.6,M,-34.4,M,0000,0000*5A
$GPRMC,210649.750,A,4305.1621,N,07740.8729,W,0.00,171.60,031023,,,D*77
$GPGGA,210650.000,4305.1621,N,07740.8729,W,2,07,1.20,167.6,M,-34.4,M,0000,0000*57
$GPRMC,210650.250,A,4305.1621,N,07740.8729,W,0.00,171.60,031023,,,D*7A
$GPGGA,210650.500,4305.1621,N,07740.8729,W,2,07,1.20,167.6,M,-34.4,M,0000,0000*52
$GPRMC,210650.750,A,4305.1621,N,07740.8729,W,0.01,171.60,031023,,,D*7E
$GPGGA,210651.000,4305.1621,N,07740.8729,W,2,07,1.20,167.6,M,-34.4,M,0000,0000*56
$GPRMC,210651.250,A,4305.1621,N,07740.8729,W,0.00,171.60,031023,,,D*7B
$GPGGA,210651.500,4305.1621,N,07740.8729,W,2,07,1.20,167.6,M,-34.4,M,0000,0000*53
$GPRMC,210651.750,A,4305.1621,N,07740.8729,W,0.00,171.60,031023,,,D*7E
$GPGGA,210652.000,4305.1621,N,07740.8729,W,2,07,1.20,167.6,M,-34.4,M,0000,0000*55
$GPRMC,210652.250,A,4305.1621,N,07740.8729,W,0.00,171.60,031023,,,D*78
$GPGGA,210652.500,4305.1621,N,07740.8729,W,2,07,1.20,167.6,M,-34.4,M,0000,0000*50
$GPRMC,210652.750,A,4305.1621,N,07740.8729,W,0.00,171.60,031023,,,D*7D
$GPGGA,210653.000,4305.1621,N,07740.8729,W,2,07,1.20,167.6,M,-34.4,M,0000,0000*54
$GPRMC,210653.250,A,4305.1621,N,07740.8729,W,0.00,171.60,031023,,,D*79
$GPGGA,210653.500,4305.1621,N,07740.8729,W,2,07,1.20,167.6,M,-34.4,M,0000,0000*51
$GPRMC,210653.750,A,4305.1621,N,07740.8729,W,0.00,171.60,031023,,,D*7C
$GPGGA,210654.000,4305.1621,N,07740.8729,W,2,07,1.20,167.6,M,-34.4,M,0000,0000*53
$GPRMC,210654.250,A,4305.1621,N,07740.8729,W,0.01,171.60,031023,,,D*7F
$GPGGA,210654.500,4305.1621,N,07740.8729,W,2,07,1.20,167.6,M,-34.4,M,0000,0000*56
$GPRMC,210654.750,A,4305.1621,N,07740.8729,W,0.00,171.60,031023,,,D*7B
$GPGGA,210655.000,4305.1621,N,07740.8729,W,2,07,1.20,167.6,M,-34.4,M,0000,0000*52
$GPRMC,210655.250,A,4305.1621,N,07740.8729,W,0.00,171.60,031023,,,D*7F
$GPGGA,210655.500,4305.1621,N,07740.8729,W,2,07,1.20,167.6,M,-34.4,M,0000,0000*57
$GPRMC,210655.750,A,4305.1621,N,07740.8729,W,0.00,171.60,031023,,,D*7A
$GPGGA,210656.000,4305.1621,N,07740.8729,W,2,07,1.20,167.6,M,-34.4,M,0000,0000*51
$GPRMC,210656.250,A,4305.1621,N,07740.8729,W,0.00,171.60,031023,,,D*7C
$GPGGA,210656.500,4305.1621,N,07740.8729,W,2,07,1.20,167.6,M,-34.4,M,0000,0000*54
$GPRMC,210656.750,A,4305.1621,N,07740.8729,W,0.00,171.60,031023,,,D*79
$GPGGA,210657.000,4305.1621,N,07740.8729,W,2,07,1.20,167.6,M,-34.4,M,0000,0000*50
$GPRMC,210657.250,A,4305.1621,N,07740.8729,W,0.00,171.60,031023,,,D*7D
$GPGGA,210657.500,4305.1621,N,07740.8729,W,2,07,1.20,167.6,M,-34.4,M,0000,0000*55
$GPRMC,210657.750,A,4305.1621,N,07740.8729,W,0.00,171.60,031023,,,D*78
$GPGGA,210658.000,4305.1621,N,07740.8729,W,2,07,1.20,167.6,M,-34.4,M,0000,0000*5F
$GPRMC,210658.250,A,4305.1621,N,07740.8729,W,0.00,171.60,031023,,,D*72
$GPGGA,210658.500,4305.1621,N,07740.8729,W,2,07,1.20,167.6,M,-34.4,M,0000,0000*5A
$GPRMC,210658.750,A,4305.1621,N,07740.8729,W,0.00,171.60,031023,,,D*77
$GPGGA,210659.000,4305.1621,N,07740.8729,W,2,07,1.20,167.6,M,-34.4,M,0000,0000*5E
$GPRMC,210659.250,A,4305.1621,N,07740.8729,W,0.00,171.60,031023,,,D*73
$GPGGA,210659.500,4305.1621,N,07740.8729,W,2,07,1.20,167.6,M,-34.4,M,0000,0000*5B
$GPRMC,210659.750,A,4305.1621,N,07740.8729,W,0.00,171.60,031023,,,D*76
$GPGGA,210700.000,4305.1621,N,07740.8729,W,2,07,1.20,167.6,M,-34.4,M,0000,0000*53
$GPRMC,210700.250,A,4305.1621,N,07740.8729,W,0.00,171.60,031023,,,D*7E
$GPGGA,210700.500,4305.1621,N,07740.8729,W,2,07,1.20,167.6,M,-34.4,M,0000,0000*56
$GPRMC,210700.750,A,4305.1621,N,07740.8729,W,0.00,171.60,031023,,,D*7B
$GPGGA,210701.000,4305.1621,N,07740.8729,W,2,07,1.20,167.6,M,-34.4,M,0000,0000*52
$GPRMC,210701.250,A,4305.1621,N,07740.8729,W,0.00,171.60,031023,,,D*7F
$GPGGA,210701.500,4305.1621,N,07740.8729,W,2,07,1.20,167.6,M,-34.4,M,0000,0000*57
$GPRMC,210701.750,A,4305.1621,N,07740.8729,W,0.00,171.60,031023,,,D*7A
$GPGGA,210702.000,4305.1621,N,07740.8729,W,2,07,1.20,167.6,M,-34.4,M,0000,0000*51
$GPRMC,210702.250,A,4305.1621,N,07740.8729,W,0.00,171.60,031023,,,D*7C
$GPGGA,210702.500,4305.1621,N,07740.8729,W,2,07,1.20,167.6,M,-34.4,M,0000,0000*54
$GPRMC,210702.750,A,4305.1621,N,07740.8729,W,0.00,171.60,031023,,,D*79
$GPGGA,210703.000,4305.1621,N,07740.8729,W,2,07,1.20,167.6,M,-34.4,M,0000,0000*50
$GPRMC,210703.250,A,4305.1621,N,07740.8729,W,0.00,171.60,031023,,,D*7D
$GPGGA,210703.500,4305.1621,N,07740.8729,W,2,07,1.20,167.6,M,-34.4,M,0000,0000*55
$GPRMC,210703.750,A,4305.1621,N,07740.8729,W,0.00,171.60,031023,,,D*78
$GPGGA,210704.000,4305.1621,N,07740.8729,W,2,07,1.20,167.6,M,-34.4,M,0000,0000*57
$GPRMC,210704.250,A,4305.1621,N,07740.8729,W,0.00,171.60,031023,,,D*7A
$GPGGA,210704.500,4305.1621,N,07740.8729,W,2,07,1.20,167.6,M,-34.4,M,0000,0000*52
$GPRMC,210704.750,A,4305.1621,N,07740.8729,W,0.00,171.60,031023,,,D*7F
$GPGGA,210705.000,4305.1621,N,07740.8729,W,2,07,1.20,167.6,M,-34.4,M,0000,0000*56
$GPRMC,210705.250,A,4305.1621,N,07740.8729,W,0.00,171.60,031023,,,D*7B
$GPGGA,210705.500,4305.1621,N,07740.8729,W,2,07,1.20,167.6,M,-34.4,M,0000,0000*53
$GPRMC,210705.750,A,4305.1621,N,07740.8729,W,0.00,171.60,031023,,,D*7E
$GPGGA,210706.000,4305.1621,N,07740.8729,W,2,07,1.20,167.6,M,-34.4,M,0000,0000*55
$GPRMC,210706.250,A,4305.1621,N,07740.8729,W,0.00,171.60,031023,,,D*78
$GPGGA,210706.500,4305.1621,N,07740.8729,W,2,07,1.20,167.6,M,-34.4,M,0000,0000*50
$GPRMC,210706.750,A,4305.1621,N,07740.8729,W,0.00,171.60,031023,,,D*7D
$GPGGA,210707.000,4305.1621,N,07740.8729,W,2,07,1.20,167.6,M,-34.4,M,0000,0000*54
$GPRMC,210707.250,A,4305.1621,N,07740.8729,W,0.00,171.60,031023,,,D*79
$GPGGA,210707.500,4305.1621,N,07740.8729,W,2,07,1.20,167.6,M,-34.4,M,0000,0000*51
$GPRMC,210707.750,A,4305.1621,N,07740.8729,W,0.00,171.60,031023,,,D*7C
$GPGGA,210708.000,4305.1621,N,07740.8729,W,2,07,1.20,167.6,M,-34.4,M,0000,0000*5B
$GPRMC,210708.250,A,4305.1621,N,07740.8729,W,0.00,171.60,031023,,,D*76
$GPGGA,210708.500,4305.1621,N,07740.8729,W,2,07,1.20,167.6,M,-34.4,M,0000,0000*5E
$GPRMC,210708.750,A,4305.1621,N,07740.8729,W,0.00,171.60,031023,,,D*73
$GPGGA,210709.000,4305.1621,N,07740.8729,W,2,07,1.20,167.6,M,-34.4,M,0000,0000*5A
$GPRMC,210709.250,A,4305.1621,N,07740.8729,W,0.00,171.60,031023,,,D*77
$GPGGA,210709.500,4305.1621,N,07740.8729,W,2,07,1.20,167.6,M,-34.4,M,0000,0000*5F
$GPRMC,210709.750,A,4305.1621,N,07740.8729,W,0.00,171.60,031023,,,D*72
$GPGGA,210710.000,4305.1621,N,07740.8729,W,2,07,1.20,167.6,M,-34.4,M,0000,0000*52
$GPRMC,210710.250,A,4305.1621,N,07740.8729,W,0.00,171.60,031023,,,D*7F
$GPGGA,210710.500,4305.1621,N,07740.8729,W,2,07,1.20,167.6,M,-34.4,M,0000,0000*57
$GPRMC,210710.750,A,4305.1621,N,07740.8729,W,0.00,171.60,031023,,,D*7A
$GPGGA,210711.000,4305.1621,N,07740.8729,W,2,07,1.20,167.6,M,-34.4,M,0000,0000*53
$GPRMC,210711.250,A,4305.1621,N,07740.8729,W,0.00,171.60,031023,,,D*7E
$GPGGA,210711.500,4305.1621,N,07740.8729,W,2,07,1.20,167.6,M,-34.4,M,0000,0000*56
$GPRMC,210711.750,A,4305.1621,N,07740.8729,W,0.00,171.60,031023,,,D*7B
$GPGGA,210712.000,4305.1621,N,07740.8729,W,2,07,1.20,167.6,M,-34.4,M,0000,0000*50
$GPRMC,210712.250,A,4305.1621,N,07740.8729,W,0.00,171.60,031023,,,D*7D
$GPGGA,210712.500,4305.1621,N,07740.8729,W,2,07,1.20,167.6,M,-34.4,M,0000,0000*55
$GPRMC,210712.750,A,4305.1621,N,07740.8729,W,0.00,171.60,031023,,,D*78
$GPGGA,210713.000,4305.1621,N,07740.8729,W,2,07,1.20,167.6,M,-34.4,M,0000,0000*51
$GPRMC,210713.250,A,4305.1621,N,07740.8729,W,0.00,171.60,031023,,,D*7C
$GPGGA,210713.500,4305.1621,N,07740.8729,W,2,07,1.20,167.6,M,-34.4,M,0000,0000*54
$GPRMC,210713.750,A,4305.1621,N,07740.8729,W,0.00,171.60,031023,,,D*79
$GPGGA,210714.000,4305.1621,N,07740.8729,W,2,07,1.20,167.6,M,-34.4,M,0000,0000*56
$GPRMC,210714.250,A,4305.1621,N,07740.8729,W,0.00,171.60,031023,,,D*7B
$GPGGA,210714.500,4305.1621,N,07740.8729,W,2,07,1.20,167.6,M,-34.4,M,0000,0000*53
$GPRMC,210714.750,A,4305.1621,N,07740.8729,W,0.01,171.60,031023,,,D*7F
$GPGGA,210715.000,4305.1621,N,07740.8729,W,2,07,1.20,167.6,M,-34.4,M,0000,0000*57
$GPRMC,210715.250,A,4305.1621,N,07740.8729,W,0.00,171.60,031023,,,D*7A
$GPGGA,210715.500,4305.1621,N,07740.8729,W,2,07,1.20,167.6,M,-34.4,M,0000,0000*52
$GPRMC,210715.750,A,4305.1621,N,07740.8729,W,0.01,171.60,031023,,,D*7E
$GPGGA,210716.000,4305.1621,N,07740.8729,W,2,07,1.20,167.6,M,-34.4,M,0000,0000*54
$GPRMC,210716.250,A,4305.1621,N,07740.8729,W,0.00,171.60,031023,,,D*79
$GPGGA,210716.500,4305.1621,N,07740.8729,W,2,07,1.20,167.6,M,-34.4,M,0000,0000*51
$GPRMC,210716.750,A,4305.1621,N,07740.8729,W,0.00,171.60,031023,,,D*7C
$GPGGA,210717.000,4305.1621,N,07740.8729,W,2,07,1.20,167.6,M,-34.4,M,0000,0000*55
$GPRMC,210717.250,A,4305.1621,N,07740.8729,W,0.00,171.60,031023,,,D*78
$GPGGA,210717.500,4305.1621,N,07740.8729,W,2,07,1.20,167.6,M,-34.4,M,0000,0000*50
$GPRMC,210717.750,A,4305.1621,N,07740.8729,W,0.00,171.60,031023,,,D*7D
$GPGGA,210718.000,4305.1621,N,07740.8729,W,2,07,1.20,167.6,M,-34.4,M,0000,0000*5A
$GPRMC,210718.250,A,4305.1621,N,07740.8729,W,0.00,171.60,031023,,,D*77
$GPGGA,210718.500,4305.1621,N,07740.8729,W,2,07,1.20,167.6,M,-34.4,M,0000,0000*5F
$GPRMC,210718.750,A,4305.1621,N,07740.8729,W,0.00,171.60,031023,,,D*72
$GPGGA,210719.000,4305.1621,N,07740.8729,W,2,07,1.20,167.6,M,-34.4,M,0000,0000*5B
$GPRMC,210719.250,A,4305.1621,N,07740.8729,W,0.00,171.60,031023,,,D*76
$GPGGA,210719.500,4305.1621,N,07740.8729,W,2,07,1.20,167.6,M,-34.4,M,0000,0000*5E
$GPRMC,210719.750,A,4305.1621,N,07740.8729,W,0.01,171.60,031023,,,D*72
$GPGGA,210720.000,4305.1621,N,07740.8729,W,2,07,1.20,167.6,M,-34.4,M,0000,0000*51
$GPRMC,210720.250,A,4305.1621,N,07740.8729,W,0.00,171.60,031023,,,D*7C
$GPGGA,210720.500,4305.1621,N,07740.8729,W,2,07,1.20,167.6,M,-34.4,M,0000,0000*54
$GPRMC,210720.750,A,4305.1621,N,07740.8729,W,0.00,171.60,031023,,,D*79
$GPGGA,210721.000,4305.1621,N,07740.8729,W,2,07,1.20,167.6,M,-34.4,M,0000,0000*50
$GPRMC,210721.250,A,4305.1621,N,07740.8729,W,0.01,171.60,031023,,,D*7C
$GPGGA,210721.500,4305.1621,N,07740.8729,W,2,07,1.20,167.6,M,-34.4,M,0000,0000*55
$GPRMC,210721.750,A,4305.1621,N,07740.8729,W,0.01,171.60,031023,,,D*79
$GPGGA,210722.000,4305.1621,N,07740.8729,W,2,07,1.20,167.6,M,-34.4,M,0000,0000*53
$GPRMC,210722.250,A,4305.1621,N,07740.8729,W,0.00,171.60,031023,,,D*7E
$GPGGA,210722.500,4305.1621,N,07740.8729,W,2,07,1.20,167.6,M,-34.4,M,0000,0000*56
$GPRMC,210722.750,A,4305.1621,N,07740.8729,W,0.01,171.60,031023,,,D*7A
$GPGGA,210723.000,4305.1621,N,07740.8729,W,2,07,1.20,167.6,M,-34.4,M,0000,0000*52
$GPRMC,210723.250,A,4305.1621,N,07740.8729,W,0.01,171.60,031023,,,D*7E
$GPGGA,210723.500,4305.1621,N,07740.8729,W,2,07,1.20,167.6,M,-34.4,M,0000,0000*57
$GPRMC,210723.750,A,4305.1621,N,07740.8729,W,0.01,171.60,031023,,,D*7B
$GPGGA,210724.000,4305.1621,N,07740.8729,W,2,07,1.20,167.6,M,-34.4,M,0000,0000*55
$GPRMC,210724.250,A,4305.1621,N,07740.8729,W,0.00,171.60,031023,,,D*78
$GPGGA,210724.500,4305.1621,N,07740.8729,W,2,07,1.20,167.6,M,-34.4,M,0000,0000*50
$GPRMC,210724.750,A,4305.1621,N,07740.8729,W,0.01,171.60,031023,,,D*7C
$GPGGA,210725.000,4305.1621,N,07740.8729,W,2,07,1.20,167.6,M,-34.4,M,0000,0000*54
$GPRMC,210725.250,A,4305.1621,N,07740.8729,W,0.01,171.60,031023,,,D*78
$GPGGA,210725.500,4305.1621,N,07740.8729,W,2,07,1.20,167.6,M,-34.4,M,0000,0000*51
$GPRMC,210725.750,A,4305.1621,N,07740.8729,W,0.00,171.60,031023,,,D*7C
$GPGGA,210726.000,4305.1621,N,07740.8729,W,2,07,1.20,167.6,M,-34.4,M,0000,0000*57
$GPRMC,210726.250,A,4305.1621,N,07740.8729,W,0.00,171.60,031023,,,D*7A
$GPGGA,210726.500,4305.1621,N,07740.8729,W,2,07,1.20,167.6,M,-34.4,M,0000,0000*52
$GPRMC,210726.750,A,4305.1621,N,07740.8729,W,0.00,171.60,031023,,,D*7F
$GPGGA,210727.000,4305.1621,N,07740.8729,W,2,07,1.20,167.6,M,-34.4,M,0000,0000*56
$GPRMC,210727.250,A,4305.1621,N,07740.8729,W,0.00,171.60,031023,,,D*7B
$GPGGA,210727.500,4305.1621,N,07740.8729,W,2,07,1.20,167.6,M,-34.4,M,0000,0000*53
$GPRMC,210727.750,A,4305.1621,N,07740.8729,W,0.00,171.60,031023,,,D*7E
$GPGGA,210728.000,4305.1621,N,07740.8729,W,2,07,1.20,167.6,M,-34.4,M,0000,0000*59
$GPRMC,210728.250,A,4305.1621,N,07740.8729,W,0.00,171.60,031023,,,D*74
$GPGGA,210728.500,4305.1621,N,07740.8729,W,2,07,1.20,167.7,M,-34.4,M,0000,0000*5D
$GPRMC,210728.750,A,4305.1621,N,07740.8730,W,0.01,171.60,031023,,,D*78
$GPGGA,210729.000,4305.1621,N,07740.8730,W,2,07,1.20,167.7,M,-34.4,M,0000,0000*51
$GPRMC,210729.250,A,4305.1621,N,07740.8730,W,0.01,171.60,031023,,,D*7C
$GPGGA,210729.500,4305.1621,N,07740.8730,W,2,07,1.20,167.7,M,-34.4,M,0000,0000*54
$GPRMC,210729.750,A,4305.1621,N,07740.8730,W,0.00,171.60,031023,,,D*78
$GPGGA,210730.000,4305.1621,N,07740.8730,W,2,07,1.20,167.7,M,-34.4,M,0000,0000*59
$GPRMC,210730.250,A,4305.1621,N,07740.8730,W,0.00,171.60,031023,,,D*75
$GPGGA,210730.500,4305.1621,N,07740.8730,W,2,07,1.20,167.7,M,-34.4,M,0000,0000*5C
$GPRMC,210730.750,A,4305.1621,N,07740.8730,W,0.00,171.60,031023,,,D*70
$GPGGA,210731.000,4305.1621,N,07740.8730,W,2,07,1.20,167.7,M,-34.4,M,0000,0000*58
$GPRMC,210731.250,A,4305.1621,N,07740.8730,W,0.00,171.60,031023,,,D*74
$GPGGA,210731.500,4305.1621,N,07740.8730,W,2,07,1.20,167.7,M,-34.4,M,0000,0000*5D
$GPRMC,210731.750,A,4305.1621,N,07740.8730,W,0.00,171.60,031023,,,D*71
$GPGGA,210732.000,4305.1621,N,07740.8730,W,2,07,1.20,167.7,M,-34.4,M,0000,0000*5B
$GPRMC,210732.250,A,4305.1621,N,07740.8730,W,0.01,171.60,031023,,,D*76
$GPGGA,210732.500,4305.1621,N,07740.8730,W,2,07,1.20,167.7,M,-34.4,M,0000,0000*5E
$GPRMC,210732.750,A,4305.1621,N,07740.8730,W,0.01,171.60,031023,,,D*73
$GPGGA,210733.000,4305.1621,N,07740.8730,W,2,07,1.20,167.7,M,-34.4,M,0000,0000*5A
$GPRMC,210733.250,A,4305.1621,N,07740.8730,W,0.00,171.60,031023,,,D*76
$GPGGA,210733.500,4305.1621,N,07740.8730,W,2,07,1.20,167.7,M,-34.4,M,0000,0000*5F
$GPRMC,210733.750,A,4305.1621,N,07740.8730,W,0.00,171.60,031023,,,D*73
$GPGGA,210734.000,4305.1621,N,07740.8730,W,2,07,1.20,167.7,M,-34.4,M,0000,0000*5D
$GPRMC,210734.250,A,4305.1621,N,07740.8730,W,0.00,171.60,031023,,,D*71
$GPGGA,210734.500,4305.1621,N,07740.8730,W,2,07,1.21,167.7,M,-34.4,M,0000,0000*59
$GPRMC,210734.750,A,4305.1621,N,07740.8730,W,0.01,171.60,031023,,,D*75
$GPGGA,210735.000,4305.1621,N,07740.8730,W,2,07,1.20,167.7,M,-34.4,M,0000,0000*5C
$GPRMC,210735.250,A,4305.1621,N,07740.8730,W,0.00,171.60,031023,,,D*70
$GPGGA,210735.500,4305.1621,N,07740.8730,W,2,07,1.20,167.7,M,-34.4,M,0000,0000*59
$GPRMC,210735.750,A,4305.1621,N,07740.8730,W,0.00,171.60,031023,,,D*75
$GPGGA,210736.000,4305.1621,N,07740.8730,W,2,07,1.21,167.7,M,-34.4,M,0000,0000*5E
$GPRMC,210736.250,A,4305.1621,N,07740.8730,W,0.00,171.60,031023,,,D*73
$GPGGA,210736.500,4305.1621,N,07740.8730,W,2,07,1.20,167.7,M,-34.4,M,0000,0000*5A
$GPRMC,210736.750,A,4305.1621,N,07740.8730,W,0.01,171.60,031023,,,D*77
$GPGGA,210737.000,4305.1621,N,07740.8730,W,2,07,1.21,167.7,M,-34.4,M,0000,0000*5F
$GPRMC,210737.250,A,4305.1621,N,07740.8730,W,0.01,171.60,031023,,,D*73
$GPGGA,210737.500,4305.1621,N,07740.8730,W,2,07,1.21,167.7,M,-34.4,M,0000,0000*5A
$GPRMC,210737.750,A,4305.1621,N,07740.8730,W,0.01,171.60,031023,,,D*76
$GPGGA,210738.000,4305.1621,N,07740.8730,W,2,07,1.21,167.7,M,-34.4,M,0000,0000*50
$GPRMC,210738.250,A,4305.1621,N,07740.8730,W,0.00,171.60,031023,,,D*7D
$GPGGA,210738.500,4305.1621,N,07740.8730,W,2,07,1.21,167.7,M,-34.4,M,0000,0000*55
$GPRMC,210738.750,A,4305.1621,N,07740.8730,W,0.01,171.60,031023,,,D*79
$GPGGA,210739.000,4305.1621,N,07740.8730,W,2,07,1.21,167.7,M,-34.4,M,0000,0000*51
$GPRMC,210739.250,A,4305.1621,N,07740.8730,W,0.01,171.60,031023,,,D*7D
$GPGGA,210739.500,4305.1621,N,07740.8730,W,2,07,1.21,167.7,M,-34.4,M,0000,0000*54
$GPRMC,210739.750,A,4305.1621,N,07740.8730,W,0.01,171.60,031023,,,D*78
$GPGGA,210740.000,4305.1621,N,07740.8730,W,2,07,1.21,167.7,M,-34.4,M,0000,0000*5F
$GPRMC,210740.250,A,4305.1621,N,07740.8730,W,0.01,171.60,031023,,,D*73
$GPGGA,210740.500,4305.1621,N,07740.8730,W,2,07,1.21,167.7,M,-34.4,M,0000,0000*5A
$GPRMC,210740.750,A,4305.1621,N,07740.8730,W,0.01,171.60,031023,,,D*76
$GPGGA,210741.000,4305.1621,N,07740.8730,W,2,07,1.21,167.7,M,-34.4,M,0000,0000*5E
$GPRMC,210741.250,A,4305.1621,N,07740.8730,W,0.01,171.60,031023,,,D*72
$GPGGA,210741.500,4305.1621,N,07740.8730,W,2,07,1.21,167.7,M,-34.4,M,0000,0000*5B
$GPRMC,210741.750,A,4305.1621,N,07740.8730,W,0.01,171.60,031023,,,D*77
$GPGGA,210742.000,4305.1621,N,07740.8730,W,2,07,1.21,167.7,M,-34.4,M,0000,0000*5D
$GPRMC,210742.250,A,4305.1621,N,07740.8730,W,0.01,171.60,031023,,,D*71
$GPGGA,210742.500,4305.1621,N,07740.8730,W,2,07,1.21,167.7,M,-34.4,M,0000,0000*58
$GPRMC,210742.750,A,4305.1621,N,07740.8730,W,0.00,171.60,031023,,,D*75
$GPGGA,210743.000,4305.1621,N,07740.8730,W,2,07,1.21,167.7,M,-34.4,M,0000,0000*5C
$GPRMC,210743.250,A,4305.1621,N,07740.8730,W,0.00,171.60,031023,,,D*71
$GPGGA,210743.500,4305.1621,N,07740.8730,W,2,07,1.21,167.7,M,-34.4,M,0000,0000*59
$GPRMC,210743.750,A,4305.1621,N,07740.8730,W,0.00,171.60,031023,,,D*74
$GPGGA,210744.000,4305.1621,N,07740.8730,W,2,07,1.21,167.7,M,-34.4,M,0000,0000*5B
$GPRMC,210744.250,A,4305.1621,N,07740.8730,W,0.00,171.60,031023,,,D*76
$GPGGA,210744.500,4305.1621,N,07740.8730,W,2,07,1.21,167.7,M,-34.4,M,0000,0000*5E
$GPRMC,210744.750,A,4305.1621,N,07740.8730,W,0.00,171.60,031023,,,D*73
$GPGGA,210745.000,4305.1621,N,07740.8730,W,2,07,1.21,167.7,M,-34.4,M,0000,0000*5A
$GPRMC,210745.250,A,4305.1621,N,07740.8730,W,0.00,171.60,031023,,,D*77
$GPGGA,210745.500,4305.1621,N,07740.8730,W,2,07,1.21,167.7,M,-34.4,M,0000,0000*5F
$GPRMC,210745.750,A,4305.1621,N,07740.8730,W,0.00,171.60,031023,,,D*72
$GPGGA,210746.000,4305.1621,N,07740.8730,W,2,07,1.21,167.7,M,-34.4,M,0000,0000*59
$GPRMC,210746.250,A,4305.1621,N,07740.8730,W,0.01,171.60,031023,,,D*75
$GPGGA,210746.500,4305.1621,N,07740.8730,W,2,07,1.21,167.7,M,-34.4,M,0000,0000*5C
$GPRMC,210746.750,A,4305.1621,N,07740.8730,W,0.01,171.60,031023,,,D*70
$GPGGA,210747.000,4305.1621,N,07740.8730,W,2,07,1.21,167.7,M,-34.4,M,0000,0000*58
$GPRMC,210747.250,A,4305.1621,N,07740.8730,W,0.01,171.60,031023,,,D*74
$GPGGA,210747.500,4305.1621,N,07740.8730,W,2,07,1.21,167.7,M,-34.4,M,0000,0000*5D
$GPRMC,210747.750,A,4305.1621,N,07740.8730,W,0.01,171.60,031023,,,D*71
$GPGGA,210748.000,4305.1621,N,07740.8730,W,2,07,1.21,167.7,M,-34.4,M,0000,0000*57
$GPRMC,210748.250,A,4305.1621,N,07740.8730,W,0.01,171.60,031023,,,D*7B
$GPGGA,210748.500,4305.1621,N,07740.8730,W,2,07,1.21,167.7,M,-34.4,M,0000,0000*52
$GPRMC,210748.750,A,4305.1621,N,07740.8730,W,0.01,171.60,031023,,,D*7E
$GPGGA,210749.000,4305.1621,N,07740.8730,W,2,07,1.21,167.7,M,-34.4,M,0000,0000*56
$GPRMC,210749.250,A,4305.1621,N,07740.8730,W,0.01,171.60,031023,,,D*7A
$GPGGA,210749.500,4305.1621,N,07740.8730,W,2,07,1.21,167.7,M,-34.4,M,0000,0000*53
$GPRMC,210749.750,A,4305.1621,N,07740.8730,W,0.01,171.60,031023,,,D*7F
$GPGGA,210750.000,4305.1621,N,07740.8730,W,2,07,1.21,167.7,M,-34.4,M,0000,0000*5E
$GPRMC,210750.250,A,4305.1621,N,07740.8730,W,0.01,171.60,031023,,,D*72
$GPGGA,210750.500,4305.1621,N,07740.8730,W,2,07,1.21,167.7,M,-34.4,M,0000,0000*5B
$GPRMC,210750.750,A,4305.1621,N,07740.8730,W,0.01,171.60,031023,,,D*77
$GPGGA,210751.000,4305.1621,N,07740.8730,W,2,07,1.21,167.7,M,-34.4,M,0000,0000*5F
$GPRMC,210751.250,A,4305.1621,N,07740.8730,W,0.01,171.60,031023,,,D*73
$GPGGA,210751.500,4305.1621,N,07740.8730,W,2,07,1.21,167.7,M,-34.4,M,0000,0000*5A
$GPRMC,210751.750,A,4305.1621,N,07740.8730,W,0.00,171.60,031023,,,D*77
$GPGGA,210752.000,4305.1621,N,07740.8730,W,2,07,1.21,167.7,M,-34.4,M,0000,0000*5C
$GPRMC,210752.250,A,4305.1621,N,07740.8730,W,0.00,171.60,031023,,,D*71
$GPGGA,210752.500,4305.1621,N,07740.8730,W,2,07,1.21,167.7,M,-34.4,M,0000,0000*59
$GPRMC,210752.750,A,4305.1621,N,07740.8730,W,0.00,171.60,031023,,,D*74
$GPGGA,210753.000,4305.1621,N,07740.8730,W,2,07,1.21,167.7,M,-34.4,M,0000,0000*5D
$GPRMC,210753.250,A,4305.1621,N,07740.8730,W,0.00,171.60,031023,,,D*70
$GPGGA,210753.500,4305.1621,N,07740.8730,W,2,07,1.21,167.7,M,-34.4,M,0000,0000*58
$GPRMC,210753.750,A,4305.1621,N,07740.8730,W,0.00,171.60,031023,,,D*75
$GPGGA,210754.000,4305.1621,N,07740.8730,W,2,07,1.21,167.7,M,-34.4,M,0000,0000*5A
$GPRMC,210754.250,A,4305.1621,N,07740.8730,W,0.01,171.60,031023,,,D*76
$GPGGA,210754.500,4305.1621,N,07740.8730,W,2,07,1.21,167.7,M,-34.4,M,0000,0000*5F
$GPRMC,210754.750,A,4305.1621,N,07740.8730,W,0.01,171.60,031023,,,D*73
$GPGGA,210755.000,4305.1620,N,07740.8730,W,2,07,1.21,167.7,M,-34.4,M,0000,0000*5A
$GPRMC,210755.250,A,4305.1620,N,07740.8730,W,0.00,171.60,031023,,,D*77
$GPGGA,210755.500,4305.1620,N,07740.8730,W,2,07,1.21,167.7,M,-34.4,M,0000,0000*5F
$GPRMC,210755.750,A,4305.1620,N,07740.8730,W,0.00,171.60,031023,,,D*72
$GPGGA,210756.000,4305.1620,N,07740.8730,W,2,07,1.21,167.7,M,-34.4,M,0000,0000*59
$GPRMC,210756.250,A,4305.1620,N,07740.8730,W,0.00,171.60,031023,,,D*74
$GPGGA,210756.500,4305.1620,N,07740.8730,W,2,07,1.21,167.7,M,-34.4,M,0000,0000*5C
$GPRMC,210756.750,A,4305.1620,N,07740.8730,W,0.01,171.60,031023,,,D*70
$GPGGA,210757.000,4305.1620,N,07740.8730,W,2,07,1.21,167.7,M,-34.4,M,0000,0000*58
$GPRMC,210757.250,A,4305.1620,N,07740.8730,W,0.00,171.60,031023,,,D*75
$GPGGA,210757.500,4305.1620,N,07740.8730,W,2,07,1.21,167.7,M,-34.4,M,0000,0000*5D
$GPRMC,210757.750,A,4305.1620,N,07740.8730,W,0.00,171.60,031023,,,D*70
$GPGGA,210758.000,4305.1620,N,07740.8730,W,2,07,1.21,167.7,M,-34.4,M,0000,0000*57
$GPRMC,210758.250,A,4305.1620,N,07740.8730,W,0.01,171.60,031023,,,D*7B
$GPGGA,210758.500,4305.1620,N,07740.8730,W,2,07,1.21,167.7,M,-34.4,M,0000,0000*52
$GPRMC,210758.750,A,4305.1620,N,07740.8730,W,0.01,171.60,031023,,,D*7E
$GPGGA,210759.000,4305.1620,N,07740.8730,W,2,07,1.21,167.7,M,-34.4,M,0000,0000*56
$GPRMC,210759.250,A,4305.1620,N,07740.8730,W,0.00,171.60,031023,,,D*7B
$GPGGA,210759.500,4305.1620,N,07740.8730,W,2,07,1.21,167.7,M,-34.4,M,0000,0000*53
$GPRMC,210759.750,A,4305.1620,N,07740.8730,W,0.01,171.60,031023,,,D*7F
$GPGGA,210800.000,4305.1620,N,07740.8730,W,2,07,1.21,167.7,M,-34.4,M,0000,0000*55
$GPRMC,210800.250,A,4305.1620,N,07740.8730,W,0.01,171.60,031023,,,D*79
$GPGGA,210800.500,4305.1620,N,07740.8730,W,2,07,1.21,167.7,M,-34.4,M,0000,0000*50
$GPRMC,210800.750,A,4305.1620,N,07740.8730,W,0.01,171.60,031023,,,D*7C
$GPGGA,210801.000,4305.1620,N,07740.8730,W,2,07,1.21,167.7,M,-34.4,M,0000,0000*54
$GPRMC,210801.250,A,4305.1620,N,07740.8730,W,0.01,171.60,031023,,,D*78
$GPGGA,210801.500,4305.1620,N,07740.8730,W,2,07,1.21,167.7,M,-34.4,M,0000,0000*51
$GPRMC,210801.750,A,4305.1620,N,07740.8730,W,0.01,171.60,031023,,,D*7D
$GPGGA,210802.000,4305.1620,N,07740.8730,W,2,07,1.21,167.7,M,-34.4,M,0000,0000*57
$GPRMC,210802.250,A,4305.1620,N,07740.8730,W,0.01,171.60,031023,,,D*7B
$GPGGA,210802.500,4305.1620,N,07740.8730,W,2,07,1.21,167.7,M,-34.4,M,0000,0000*52
$GPRMC,210802.750,A,4305.1620,N,07740.8730,W,0.01,171.60,031023,,,D*7E
$GPGGA,210803.000,4305.1620,N,07740.8730,W,2,07,1.21,167.7,M,-34.4,M,0000,0000*56
$GPRMC,210803.250,A,4305.1620,N,07740.8730,W,0.01,171.60,031023,,,D*7A
$GPGGA,210803.500,4305.1620,N,07740.8730,W,2,07,1.21,167.7,M,-34.4,M,0000,0000*53
$GPRMC,210803.750,A,4305.1620,N,07740.8730,W,0.01,171.60,031023,,,D*7F
$GPGGA,210804.000,4305.1620,N,07740.8730,W,2,07,1.21,167.7,M,-34.4,M,0000,0000*51
$GPRMC,210804.250,A,4305.1620,N,07740.8730,W,0.01,171.60,031023,,,D*7D
$GPGGA,210804.500,4305.1620,N,07740.8730,W,2,07,1.21,167.7,M,-34.4,M,0000,0000*54
$GPRMC,210804.750,A,4305.1620,N,07740.8730,W,0.00,171.60,031023,,,D*79
$GPGGA,210805.000,4305.1620,N,07740.8730,W,2,07,1.21,167.7,M,-34.4,M,0000,0000*50
$GPRMC,210805.250,A,4305.1620,N,07740.8730,W,0.01,171.60,031023,,,D*7C
$GPGGA,210805.500,4305.1620,N,07740.8730,W,2,07,1.21,167.7,M,-34.4,M,0000,0000*55
$GPRMC,210805.750,A,4305.1620,N,07740.8730,W,0.01,171.60,031023,,,D*79
$GPGGA,210806.000,4305.1620,N,07740.8730,W,2,07,1.21,167.7,M,-34.4,M,0000,0000*53
$GPRMC,210806.250,A,4305.1620,N,07740.8730,W,0.01,171.60,031023,,,D*7F
$GPGGA,210806.500,4305.1620,N,07740.8730,W,2,07,1.21,167.7,M,-34.4,M,0000,0000*56
$GPRMC,210806.750,A,4305.1620,N,07740.8730,W,0.01,171.60,031023,,,D*7A
$GPGGA,210807.000,4305.1620,N,07740.8730,W,2,07,1.21,167.7,M,-34.4,M,0000,0000*52
$GPRMC,210807.250,A,4305.1620,N,07740.8730,W,0.01,171.60,031023,,,D*7E
$GPGGA,210807.500,4305.1620,N,07740.8730,W,2,07,1.21,167.7,M,-34.4,M,0000,0000*57
$GPRMC,210807.750,A,4305.1620,N,07740.8730,W,0.00,171.60,031023,,,D*7A
$GPGGA,210808.000,4305.1620,N,07740.8730,W,2,07,1.21,167.7,M,-34.4,M,0000,0000*5D
$GPRMC,210808.250,A,4305.1620,N,07740.8730,W,0.00,171.60,031023,,,D*70
$GPGGA,210808.500,4305.1620,N,07740.8730,W,2,07,1.21,167.7,M,-34.4,M,0000,0000*58
$GPRMC,210808.750,A,4305.1620,N,07740.8730,W,0.01,171.60,031023,,,D*74
$GPGGA,210809.000,4305.1620,N,07740.8730,W,2,07,1.21,167.7,M,-34.4,M,0000,0000*5C
$GPRMC,210809.250,A,4305.1620,N,07740.8730,W,0.00,171.60,031023,,,D*71
$GPGGA,210809.500,4305.1620,N,07740.8730,W,2,07,1.21,167.7,M,-34.4,M,0000,0000*59
$GPRMC,210809.750,A,4305.1620,N,07740.8730,W,0.01,171.60,031023,,,D*75
$GPGGA,210810.000,4305.1620,N,07740.8730,W,2,07,1.21,167.7,M,-34.4,M,0000,0000*54
$GPRMC,210810.250,A,4305.1620,N,07740.8730,W,0.01,171.60,031023,,,D*78
$GPGGA,210810.500,4305.1620,N,07740.8730,W,2,07,1.21,167.7,M,-34.4,M,0000,0000*51
$GPRMC,210810.750,A,4305.1620,N,07740.8730,W,0.01,171.60,031023,,,D*7D
$GPGGA,210811.000,4305.1620,N,07740.8730,W,2,07,1.21,167.7,M,-34.4,M,0000,0000*55
$GPRMC,210811.250,A,4305.1620,N,07740.8730,W,0.01,171.60,031023,,,D*79
$GPGGA,210811.500,4305.1620,N,07740.8730,W,2,07,1.21,167.7,M,-34.4,M,0000,0000*50
$GPRMC,210811.750,A,4305.1620,N,07740.8730,W,0.01,171.60,031023,,,D*7C
$GPGGA,210812.000,4305.1620,N,07740.8730,W,2,07,1.21,167.7,M,-34.4,M,0000,0000*56
$GPRMC,210812.250,A,4305.1620,N,07740.8730,W,0.01,171.60,031023,,,D*7A
$GPGGA,210812.500,4305.1620,N,07740.8730,W,2,07,1.21,167.7,M,-34.4,M,0000,0000*53
$GPRMC,210812.750,A,4305.1620,N,07740.8730,W,0.01,171.60,031023,,,D*7F
$GPGGA,210813.000,4305.1620,N,07740.8730,W,2,07,1.21,167.8,M,-34.4,M,0000,0000*58
$GPRMC,210813.250,A,4305.1620,N,07740.8730,W,0.01,171.60,031023,,,D*7B
$GPGGA,210813.500,4305.1620,N,07740.8730,W,2,07,1.21,167.8,M,-34.4,M,0000,0000*5D
$GPRMC,210813.750,A,4305.1620,N,07740.8730,W,0.01,171.60,031023,,,D*7E
$GPGGA,210814.000,4305.1620,N,07740.8730,W,2,07,1.21,167.8,M,-34.4,M,0000,0000*5F
$GPRMC,210814.250,A,4305.1620,N,07740.8730,W,0.01,171.60,031023,,,D*7C
$GPGGA,210814.500,4305.1620,N,07740.8730,W,2,07,1.21,167.8,M,-34.4,M,0000,0000*5A
$GPRMC,210814.750,A,4305.1620,N,07740.8730,W,0.00,171.60,031023,,,D*78
$GPGGA,210815.000,4305.1620,N,07740.8730,W,2,07,1.21,167.8,M,-34.4,M,0000,0000*5E
$GPRMC,210815.250,A,4305.1620,N,07740.8730,W,0.01,171.60,031023,,,D*7D
$GPGGA,210815.500,4305.1620,N,07740.8730,W,2,07,1.21,167.8,M,-34.4,M,0000,0000*5B
$GPRMC,210815.750,A,4305.1620,N,07740.8730,W,0.01,171.60,031023,,,D*78
$GPGGA,210816.000,4305.1620,N,07740.8730,W,2,07,1.21,167.8,M,-34.4,M,0000,0000*5D
$GPRMC,210816.250,A,4305.1620,N,07740.8730,W,0.01,171.60,031023,,,D*7E
$GPGGA,210816.500,4305.1620,N,07740.8730,W,2,07,1.21,167.8,M,-34.4,M,0000,0000*58
$GPRMC,210816.750,A,4305.1620,N,07740.8730,W,0.01,171.60,031023,,,D*7B
$GPGGA,210817.000,4305.1620,N,07740.8730,W,2,08,1.07,167.8,M,-34.4,M,0000,0000*57
$GPRMC,210817.250,A,4305.1620,N,07740.8730,W,0.00,171.60,031023,,,D*7E
$GPGGA,210817.500,4305.1620,N,07740.8730,W,2,08,1.07,167.8,M,-34.4,M,0000,0000*52
$GPRMC,210817.750,A,4305.1620,N,07740.8730,W,0.00,171.60,031023,,,D*7B
$GPGGA,210818.000,4305.1620,N,07740.8730,W,2,08,1.07,167.8,M,-34.4,M,0000,0000*58
$GPRMC,210818.250,A,4305.1620,N,07740.8730,W,0.00,171.60,031023,,,D*71
$GPGGA,210818.500,4305.1620,N,07740.8730,W,2,08,1.07,167.8,M,-34.4,M,0000,0000*5D
$GPRMC,210818.750,A,4305.1620,N,07740.8730,W,0.01,171.60,031023,,,D*75
$GPGGA,210819.000,4305.1620,N,07740.8730,W,2,08,1.07,167.8,M,-34.4,M,0000,0000*59
$GPRMC,210819.250,A,4305.1620,N,07740.8730,W,0.00,171.60,031023,,,D*70
$GPGGA,210819.500,4305.1620,N,07740.8730,W,2,08,1.07,167.8,M,-34.4,M,0000,0000*5C
$GPRMC,210819.750,A,4305.1620,N,07740.8730,W,0.01,171.60,031023,,,D*74
$GPGGA,210820.000,4305.1620,N,07740.8730,W,2,08,1.07,167.8,M,-34.4,M,0000,0000*53
$GPRMC,210820.250,A,4305.1620,N,07740.8730,W,0.00,171.60,031023,,,D*7A
$GPGGA,210820.500,4305.1620,N,07740.8730,W,2,08,1.07,167.8,M,-34.4,M,0000,0000*56
$GPRMC,210820.750,A,4305.1620,N,07740.8730,W,0.00,171.60,031023,,,D*7F
$GPGGA,210821.000,4305.1620,N,07740.8730,W,2,08,1.07,167.8,M,-34.4,M,0000,0000*52
$GPRMC,210821.250,A,4305.1620,N,07740.8730,W,0.00,171.60,031023,,,D*7B
$GPGGA,210821.500,4305.1620,N,07740.8730,W,2,08,1.07,167.8,M,-34.4,M,0000,0000*57
$GPRMC,210821.750,A,4305.1620,N,07740.8730,W,0.00,171.60,031023,,,D*7E
$GPGGA,210822.000,4305.1620,N,07740.8730,W,2,08,1.07,167.8,M,-34.4,M,0000,0000*51
$GPRMC,210822.250,A,4305.1620,N,07740.8730,W,0.00,171.60,031023,,,D*78
$GPGGA,210822.500,4305.1620,N,07740.8730,W,2,08,1.07,167.8,M,-34.4,M,0000,0000*54
$GPRMC,210822.750,A,4305.1620,N,07740.8730,W,0.00,171.60,031023,,,D*7D
$GPGGA,210823.000,4305.1620,N,07740.8730,W,2,08,1.07,167.8,M,-34.4,M,0000,0000*50
$GPRMC,210823.250,A,4305.1620,N,07740.8730,W,0.00,171.60,031023,,,D*79
$GPGGA,210823.500,4305.1620,N,07740.8730,W,2,08,1.07,167.8,M,-34.4,M,0000,0000*55
$GPRMC,210823.750,A,4305.1620,N,07740.8730,W,0.00,171.60,031023,,,D*7C
$GPGGA,210824.000,4305.1620,N,07740.8730,W,2,08,1.07,167.8,M,-34.4,M,0000,0000*57
$GPRMC,210824.250,A,4305.1620,N,07740.8730,W,0.00,171.60,031023,,,D*7E
$GPGGA,210824.500,4305.1620,N,07740.8730,W,2,08,1.07,167.8,M,-34.4,M,0000,0000*52
$GPRMC,210824.750,A,4305.1620,N,07740.8730,W,0.01,171.60,031023,,,D*7A
$GPGGA,210825.000,4305.1620,N,07740.8730,W,2,08,1.07,167.8,M,-34.4,M,0000,0000*56
$GPRMC,210825.250,A,4305.1620,N,07740.8730,W,0.00,171.60,031023,,,D*7F
$GPGGA,210825.500,4305.1620,N,07740.8730,W,2,08,1.07,167.8,M,-34.4,M,0000,0000*53
$GPRMC,210825.750,A,4305.1620,N,07740.8730,W,0.00,171.60,031023,,,D*7A
$GPGGA,210826.000,4305.1620,N,07740.8730,W,2,08,1.07,167.8,M,-34.4,M,0000,0000*55
$GPRMC,210826.250,A,4305.1620,N,07740.8730,W,0.00,171.60,031023,,,D*7C
$GPGGA,210826.500,4305.1620,N,07740.8730,W,2,08,1.07,167.8,M,-34.4,M,0000,0000*50
$GPRMC,210826.750,A,4305.1620,N,07740.8730,W,0.00,171.60,031023,,,D*79
$GPGGA,210827.000,4305.1620,N,07740.8730,W,2,08,1.07,167.8,M,-34.4,M,0000,0000*54
$GPRMC,210827.250,A,4305.1620,N,07740.8730,W,0.00,171.60,031023,,,D*7D
$GPGGA,210827.500,4305.1620,N,07740.8730,W,2,08,1.07,167.8,M,-34.4,M,0000,0000*51
$GPRMC,210827.750,A,4305.1620,N,07740.8730,W,0.01,171.60,031023,,,D*79
$GPGGA,210828.000,4305.1620,N,07740.8730,W,2,08,1.07,167.8,M,-34.4,M,0000,0000*5B
$GPRMC,210828.250,A,4305.1620,N,07740.8730,W,0.00,171.60,031023,,,D*72
$GPGGA,210828.500,4305.1620,N,07740.8730,W,2,08,1.07,167.8,M,-34.4,M,0000,0000*5E
$GPRMC,210828.750,A,4305.1620,N,07740.8730,W,0.00,171.60,031023,,,D*77
$GPGGA,210829.000,4305.1620,N,07740.8730,W,2,08,1.07,167.8,M,-34.4,M,0000,0000*5A
$GPRMC,210829.250,A,4305.1620,N,07740.8730,W,0.00,171.60,031023,,,D*73
$GPGGA,210829.500,4305.1620,N,07740.8730,W,2,08,1.07,167.8,M,-34.4,M,0000,0000*5F
$GPRMC,210829.750,A,4305.1620,N,07740.8730,W,0.00,171.60,031023,,,D*76
$GPGGA,210830.000,4305.1620,N,07740.8730,W,2,08,1.07,167.8,M,-34.4,M,0000,0000*52
$GPRMC,210830.250,A,4305.1620,N,07740.8730,W,0.00,171.60,031023,,,D*7B
$GPGGA,210830.500,4305.1620,N,07740.8730,W,2,08,1.07,167.8,M,-34.4,M,0000,0000*57
$GPRMC,210830.750,A,4305.1620,N,07740.8730,W,0.00,171.60,031023,,,D*7E
$GPGGA,210831.000,4305.1620,N,07740.8730,W,2,08,1.07,167.8,M,-34.4,M,0000,0000*53
$GPRMC,210831.250,A,4305.1620,N,07740.8730,W,0.00,171.60,031023,,,D*7A
$GPGGA,210831.500,4305.1620,N,07740.8730,W,2,08,1.07,167.8,M,-34.4,M,0000,0000*56
$GPRMC,210831.750,A,4305.1620,N,07740.8730,W,0.00,171.60,031023,,,D*7F
$GPGGA,210832.000,4305.1620,N,07740.8730,W,2,08,1.07,167.8,M,-34.4,M,0000,0000*50
$GPRMC,210832.250,A,4305.1620,N,07740.8730,W,0.00,171.60,031023,,,D*79
$GPGGA,210832.500,4305.1620,N,07740.8730,W,2,08,1.07,167.8,M,-34.4,M,0000,0000*55
$GPRMC,210832.750,A,4305.1620,N,07740.8730,W,0.00,171.60,031023,,,D*7C
$GPGGA,210833.000,4305.1620,N,07740.8730,W,2,08,1.07,167.8,M,-34.4,M,0000,0000*51
$GPRMC,210833.250,A,4305.1620,N,07740.8730,W,0.01,171.60,031023,,,D*79
$GPGGA,210833.500,4305.1620,N,07740.8730,W,2,08,1.07,167.8,M,-34.4,M,0000,0000*54
$GPRMC,210833.750,A,4305.1620,N,07740.8730,W,0.01,171.60,031023,,,D*7C
$GPGGA,210834.000,4305.1620,N,07740.8730,W,2,08,1.07,167.8,M,-34.4,M,0000,0000*56
$GPRMC,210834.250,A,4305.1620,N,07740.8730,W,0.00,171.60,031023,,,D*7F
$GPGGA,210834.500,4305.1620,N,07740.8730,W,2,08,1.07,167.8,M,-34.4,M,0000,0000*53
$GPRMC,210834.750,A,4305.1620,N,07740.8730,W,0.00,171.60,031023,,,D*7A
$GPGGA,210835.000,4305.1620,N,07740.8730,W,2,08,1.07,167.8,M,-34.4,M,0000,0000*57
$GPRMC,210835.250,A,4305.1620,N,07740.8730,W,0.00,171.60,031023,,,D*7E
$GPGGA,210835.500,4305.1620,N,07740.8730,W,2,08,1.07,167.8,M,-34.4,M,0000,0000*52
$GPRMC,210835.750,A,4305.1620,N,07740.8730,W,0.01,171.60,031023,,,D*7A
$GPGGA,210836.000,4305.1620,N,07740.8730,W,2,08,1.07,167.8,M,-34.4,M,0000,0000*54
$GPRMC,210836.250,A,4305.1620,N,07740.8730,W,0.00,171.60,031023,,,D*7D
$GPGGA,210836.500,4305.1620,N,07740.8730,W,2,08,1.07,167.8,M,-34.4,M,0000,0000*51
$GPRMC,210836.750,A,4305.1620,N,07740.8730,W,0.00,171.60,031023,,,D*78
$GPGGA,210837.000,4305.1620,N,07740.8730,W,2,08,1.07,167.8,M,-34.4,M,0000,0000*55
$GPRMC,210837.250,A,4305.1620,N,07740.8730,W,0.00,171.60,031023,,,D*7C
$GPGGA,210837.500,4305.1620,N,07740.8730,W,2,08,1.07,167.8,M,-34.4,M,0000,0000*50
$GPRMC,210837.750,A,4305.1620,N,07740.8730,W,0.00,171.60,031023,,,D*79
$GPGGA,210838.000,4305.1620,N,07740.8730,W,2,08,1.07,167.8,M,-34.4,M,0000,0000*5A
$GPRMC,210838.250,A,4305.1620,N,07740.8730,W,0.00,171.60,031023,,,D*73
$GPGGA,210838.500,4305.1620,N,07740.8730,W,2,08,1.07,167.9,M,-34.4,M,0000,0000*5E
$GPRMC,210838.750,A,4305.1620,N,07740.8730,W,0.00,171.60,031023,,,D*76
$GPGGA,210839.000,4305.1620,N,07740.8730,W,2,08,1.07,167.9,M,-34.4,M,0000,0000*5A
$GPRMC,210839.250,A,4305.1620,N,07740.8730,W,0.00,171.60,031023,,,D*72
$GPGGA,210839.500,4305.1620,N,07740.8730,W,2,08,1.07,167.9,M,-34.4,M,0000,0000*5F
$GPRMC,210839.750,A,4305.1620,N,07740.8730,W,0.00,171.60,031023,,,D*77
$GPGGA,210840.000,4305.1620,N,07740.8730,W,2,08,1.07,167.9,M,-34.4,M,0000,0000*54
$GPRMC,210840.250,A,4305.1620,N,07740.8730,W,0.00,171.60,031023,,,D*7C
$GPGGA,210840.500,4305.1620,N,07740.8730,W,2,08,1.07,167.9,M,-34.4,M,0000,0000*51
$GPRMC,210840.750,A,4305.1620,N,07740.8730,W,0.00,171.60,031023,,,D*79
$GPGGA,210841.000,4305.1620,N,07740.8730,W,2,08,1.07,167.9,M,-34.4,M,0000,0000*55
$GPRMC,210841.250,A,4305.1620,N,07740.8730,W,0.00,171.60,031023,,,D*7D
$GPGGA,210841.500,4305.1620,N,07740.8730,W,2,08,1.07,167.9,M,-34.4,M,0000,0000*50
$GPRMC,210841.750,A,4305.1620,N,07740.8730,W,0.00,171.60,031023,,,D*78
$GPGGA,210842.000,4305.1620,N,07740.8730,W,2,08,1.07,167.9,M,-34.4,M,0000,0000*56
$GPRMC,210842.250,A,4305.1620,N,07740.8730,W,0.00,171.60,031023,,,D*7E
$GPGGA,210842.500,4305.1620,N,07740.8730,W,2,08,1.07,167.9,M,-34.4,M,0000,0000*53
$GPRMC,210842.750,A,4305.1620,N,07740.8730,W,0.00,171.60,031023,,,D*7B
$GPGGA,210843.000,4305.1620,N,07740.8730,W,2,08,1.07,167.9,M,-34.4,M,0000,0000*57
$GPRMC,210843.250,A,4305.1620,N,07740.8730,W,0.00,171.60,031023,,,D*7F
$GPGGA,210843.500,4305.1620,N,07740.8730,W,2,08,1.07,167.9,M,-34.4,M,0000,0000*52
$GPRMC,210843.750,A,4305.1620,N,07740.8730,W,0.01,171.60,031023,,,D*7B
$GPGGA,210844.000,4305.1619,N,07740.8730,W,2,08,1.07,167.9,M,-34.4,M,0000,0000*5A
$GPRMC,210844.250,A,4305.1619,N,07740.8730,W,0.01,171.60,031023,,,D*73
$GPGGA,210844.500,4305.1619,N,07740.8730,W,2,08,1.07,167.9,M,-34.4,M,0000,0000*5F
$GPRMC,210844.750,A,4305.1619,N,07740.8730,W,0.01,171.60,031023,,,D*76
$GPGGA,210845.000,4305.1619,N,07740.8730,W,2,08,1.07,167.9,M,-34.4,M,0000,0000*5B
$GPRMC,210845.250,A,4305.1619,N,07740.8730,W,0.00,171.60,031023,,,D*73
$GPGGA,210845.500,4305.1619,N,07740.8730,W,2,08,1.07,167.9,M,-34.4,M,0000,0000*5E
$GPRMC,210845.750,A,4305.1619,N,07740.8730,W,0.00,171.60,031023,,,D*76
$GPGGA,210846.000,4305.1619,N,07740.8730,W,2,08,1.07,167.9,M,-34.4,M,0000,0000*58
$GPRMC,210846.250,A,4305.1619,N,07740.8730,W,0.00,171.60,031023,,,D*70
$GPGGA,210846.500,4305.1619,N,07740.8730,W,2,08,1.07,167.9,M,-34.4,M,0000,0000*5D
$GPRMC,210846.750,A,4305.1619,N,07740.8730,W,0.00,171.60,031023,,,D*75
$GPGGA,210847.000,4305.1619,N,07740.8730,W,2,08,1.07,167.9,M,-34.4,M,0000,0000*59
$GPRMC,210847.250,A,4305.1619,N,07740.8730,W,0.00,171.60,031023,,,D*71
$GPGGA,210847.500,4305.1619,N,07740.8730,W,2,08,1.07,167.9,M,-34.4,M,0000,0000*5C
$GPRMC,210847.750,A,4305.1619,N,07740.8730,W,0.00,171.60,031023,,,D*74
$GPGGA,210848.000,4305.1619,N,07740.8730,W,2,08,1.07,167.9,M,-34.4,M,0000,0000*56
$GPRMC,210848.250,A,4305.1619,N,07740.8730,W,0.00,171.60,031023,,,D*7E
$GPGGA,210848.500,4305.1619,N,07740.8730,W,2,08,1.07,167.9,M,-34.4,M,0000,0000*53
$GPRMC,210848.750,A,4305.1619,N,07740.8730,W,0.00,171.60,031023,,,D*7B
$GPGGA,210849.000,4305.1619,N,07740.8730,W,2,08,1.07,167.9,M,-34.4,M,0000,0000*57
$GPRMC,210849.250,A,4305.1619,N,07740.8730,W,0.00,171.60,031023,,,D*7F
$GPGGA,210849.500,4305.1619,N,07740.8730,W,2,08,1.07,167.9,M,-34.4,M,0000,0000*52
$GPRMC,210849.750,A,4305.1619,N,07740.8730,W,0.00,171.60,031023,,,D*7A
$GPGGA,210850.000,4305.1619,N,07740.8730,W,2,08,1.07,167.9,M,-34.4,M,0000,0000*5F
$GPRMC,210850.250,A,4305.1619,N,07740.8730,W,0.00,171.60,031023,,,D*77
$GPGGA,210850.500,4305.1619,N,07740.8730,W,2,08,1.07,167.9,M,-34.4,M,0000,0000*5A
$GPRMC,210850.750,A,4305.1619,N,07740.8730,W,0.00,171.60,031023,,,D*72
$GPGGA,210851.000,4305.1619,N,07740.8730,W,2,08,1.07,167.9,M,-34.4,M,0000,0000*5E
$GPRMC,210851.250,A,4305.1619,N,07740.8730,W,0.00,171.60,031023,,,D*76
$GPGGA,210851.500,4305.1619,N,07740.8730,W,2,08,1.07,167.9,M,-34.4,M,0000,0000*5B
$GPRMC,210851.750,A,4305.1619,N,07740.8730,W,0.00,171.60,031023,,,D*73
$GPGGA,210852.000,4305.1619,N,07740.8730,W,2,08,1.07,167.9,M,-34.4,M,0000,0000*5D
$GPRMC,210852.250,A,4305.1619,N,07740.8730,W,0.01,171.60,031023,,,D*74
$GPGGA,210852.500,4305.1619,N,07740.8730,W,2,08,1.07,167.9,M,-34.4,M,0000,0000*58
$GPRMC,210852.750,A,4305.1619,N,07740.8730,W,0.00,171.60,031023,,,D*70
$GPGGA,210853.000,4305.1619,N,07740.8730,W,2,08,1.07,167.9,M,-34.4,M,0000,0000*5C
$GPRMC,210853.250,A,4305.1619,N,07740.8730,W,0.00,171.60,031023,,,D*74
$GPGGA,210853.500,4305.1619,N,07740.8730,W,2,08,1.07,167.9,M,-34.4,M,0000,0000*59
$GPRMC,210853.750,A,4305.1619,N,07740.8730,W,0.00,171.60,031023,,,D*71
$GPGGA,210854.000,4305.1619,N,07740.8730,W,2,08,1.07,167.9,M,-34.4,M,0000,0000*5B
$GPRMC,210854.250,A,4305.1619,N,07740.8730,W,0.00,171.60,031023,,,D*73
$GPGGA,210854.500,4305.1619,N,07740.8730,W,2,08,1.07,167.9,M,-34.4,M,0000,0000*5E
$GPRMC,210854.750,A,4305.1619,N,07740.8730,W,0.00,171.60,031023,,,D*76
$GPGGA,210855.000,4305.1619,N,07740.8730,W,2,08,1.07,167.9,M,-34.4,M,0000,0000*5A
$GPRMC,210855.250,A,4305.1619,N,07740.8730,W,0.00,171.60,031023,,,D*72
$GPGGA,210855.500,4305.1619,N,07740.8730,W,2,08,1.07,167.9,M,-34.4,M,0000,0000*5F
$GPRMC,210855.750,A,4305.1619,N,07740.8730,W,0.00,171.60,031023,,,D*77
$GPGGA,210856.000,4305.1619,N,07740.8730,W,2,08,1.07,167.9,M,-34.4,M,0000,0000*59
$GPRMC,210856.250,A,4305.1619,N,07740.8730,W,0.00,171.60,031023,,,D*71
$GPGGA,210856.500,4305.1619,N,07740.8730,W,2,08,1.07,167.9,M,-34.4,M,0000,0000*5C
$GPRMC,210856.750,A,4305.1619,N,07740.8730,W,0.00,171.60,031023,,,D*74
$GPGGA,210857.000,4305.1619,N,07740.8730,W,2,08,1.07,167.9,M,-34.4,M,0000,0000*58
$GPRMC,210857.250,A,4305.1619,N,07740.8730,W,0.00,171.60,031023,,,D*70
$GPGGA,210857.500,4305.1619,N,07740.8730,W,2,08,1.07,167.9,M,-34.4,M,0000,0000*5D
$GPRMC,210857.750,A,4305.1619,N,07740.8729,W,0.01,171.60,031023,,,D*7C
$GPGGA,210858.000,4305.1619,N,07740.8729,W,2,08,1.07,167.9,M,-34.4,M,0000,0000*5F
$GPRMC,210858.250,A,4305.1619,N,07740.8729,W,0.00,171.60,031023,,,D*77
$GPGGA,210858.500,4305.1619,N,07740.8729,W,2,08,1.07,167.9,M,-34.4,M,0000,0000*5A
$GPGGA,210859.000,4305.1619,N,07740.8729,W,2,08,1.07,167.9,M,-34.4,M,0000,0000*5E
$GPRMC,210859.000,A,4305.1619,N,07740.8729,W,0.01,171.60,031023D*70
$GPGGA,210859.250,4305.1619,N,07740.8729,W,2,08,1.07,167.9,M,-34.4,M,0000,0000*59
$GPRMC,210859.250,A,4305.1619,N,07740.8729,W,0.01,171.60,031023,D*77
$GPGGA,210859.500,4305.1619,N,07740.8729,W,2,08,1.07,167.9,M,-34.4,M,0000,0000*5B
$GPRMC,210859.500,A,4305.1619,N,07740.8729,W,0.00,171.60,031023,D*74
$GPGGA,210859.750,4305.1619,N,07740.8729,W,2,08,1.07,167.9,M,-34.4,M,0000,0000*5C
$GPRMC,210859.750,A,4305.1619,N,07740.8729,W,0.00,171.60,031023$GPGGA,210900.000,4305.1619,N,07740.8729,W,2,08,1.07,167.9,M,-34.4,M,0000,0000*53
$GPRMC,210900.250,A,4305.1619,N,07740.8729,W,0.01,171.60,031023,,,D*7A
$GPGGA,210900.500,4305.1619,N,07740.8729,W,2,08,1.07,167.9,M,-34.4,M,0000,0000*56
$GPRMC,210900.750,A,4305.1619,N,07740.8729,W,0.01,171.60,031023,,,D*7F
$GPGGA,210901.000,4305.1619,N,07740.8729,W,2,08,1.07,167.9,M,-34.4,M,0000,0000*52
$GPRMC,210901.250,A,4305.1619,N,07740.8729,W,0.01,171.60,031023,,,D*7B
$GPGGA,210901.500,4305.1619,N,07740.8729,W,2,08,1.07,167.9,M,-34.4,M,0000,0000*57
$GPRMC,210901.750,A,4305.1619,N,07740.8729,W,0.00,171.60,031023,,,D*7F
$GPGGA,210902.000,4305.1619,N,07740.8729,W,2,08,1.07,167.9,M,-34.4,M,0000,0000*51
$GPRMC,210902.250,A,4305.1619,N,07740.8729,W,0.00,171.60,031023,,,D*79
$GPGGA,210902.500,4305.1619,N,07740.8729,W,2,08,1.07,167.9,M,-34.4,M,0000,0000*54
$GPRMC,210902.750,A,4305.1619,N,07740.8729,W,0.00,171.60,031023,,,D*7C
$GPGGA,210903.000,4305.1619,N,07740.8729,W,2,08,1.07,167.9,M,-34.4,M,0000,0000*50
$GPRMC,210903.250,A,4305.1619,N,07740.8729,W,0.00,171.60,031023,,,D*78
$GPGGA,210903.500,4305.1619,N,07740.8729,W,2,08,1.07,167.9,M,-34.4,M,0000,0000*55
$GPRMC,210903.750,A,4305.1619,N,07740.8729,W,0.01,171.60,031023,,,D*7C
$GPGGA,210904.000,4305.1619,N,07740.8729,W,2,08,1.07,167.9,M,-34.4,M,0000,0000*57
$GPRMC,210904.250,A,4305.1619,N,07740.8729,W,0.01,171.60,031023,,,D*7E
$GPGGA,210904.500,4305.1619,N,07740.8729,W,2,07,1.21,167.9,M,-34.4,M,0000,0000*59
$GPRMC,210904.750,A,4305.1619,N,07740.8729,W,0.00,171.60,031023,,,D*7A
$GPGGA,210905.000,4305.1619,N,07740.8729,W,2,07,1.21,167.9,M,-34.4,M,0000,0000*5D
$GPRMC,210905.250,A,4305.1619,N,07740.8729,W,0.00,171.60,031023,,,D*7E
$GPGGA,210905.500,4305.1619,N,07740.8729,W,2,07,1.21,167.9,M,-34.4,M,0000,0000*58
$GPRMC,210905.750,A,4305.1619,N,07740.8729,W,0.01,171.60,031023,,,D*7A
$GPGGA,210906.000,4305.1619,N,07740.8729,W,2,07,1.21,167.9,M,-34.4,M,0000,0000*5E
$GPRMC,210906.250,A,4305.1619,N,07740.8729,W,0.00,171.60,031023,,,D*7D
$GPGGA,210906.500,4305.1619,N,07740.8729,W,2,07,1.21,167.9,M,-34.4,M,0000,0000*5B
$GPRMC,210906.750,A,4305.1619,N,07740.8729,W,0.00,171.60,031023,,,D*78
$GPGGA,210907.000,4305.1619,N,07740.8729,W,2,07,1.21,167.9,M,-34.4,M,0000,0000*5F
$GPRMC,210907.250,A,4305.1619,N,07740.8729,W,0.00,171.60,031023,,,D*7C
$GPGGA,210907.500,4305.1619,N,07740.8729,W,2,07,1.21,167.9,M,-34.4,M,0000,0000*5A
$GPRMC,210907.750,A,4305.1619,N,07740.8729,W,0.01,171.60,031023,,,D*78
$GPGGA,210908.000,4305.1619,N,07740.8729,W,2,07,1.21,167.9,M,-34.4,M,0000,0000*50
$GPRMC,210908.250,A,4305.1619,N,07740.8729,W,0.01,171.60,031023,,,D*72
$GPGGA,210908.500,4305.1619,N,07740.8729,W,2,07,1.21,167.9,M,-34.4,M,0000,0000*55
$GPRMC,210908.750,A,4305.1619,N,07740.8729,W,0.03,171.60,031023,,,D*75
$GPGGA,210909.000,4305.1620,N,07740.8729,W,2,07,1.21,167.9,M,-34.4,M,0000,0000*5B
$GPRMC,210909.250,A,4305.1620,N,07740.8729,W,0.02,171.60,031023,,,D*7A
$GPGGA,210909.500,4305.1620,N,07740.8729,W,2,07,1.21,167.9,M,-34.4,M,0000,0000*5E
$GPRMC,210909.750,A,4305.1620,N,07740.8729,W,0.04,171.60,031023,,,D*79
$GPGGA,210910.000,4305.1620,N,07740.8729,W,2,07,1.21,167.9,M,-34.4,M,0000,0000*53
$GPRMC,210910.250,A,4305.1620,N,07740.8729,W,0.13,171.60,031023,,,D*72
$GPGGA,210910.500,4305.1620,N,07740.8730,W,2,07,1.16,167.9,M,-34.4,M,0000,0000*5A
$GPRMC,210910.750,A,4305.1620,N,07740.8730,W,0.28,332.05,031023,,,D*71
$GPGGA,210911.000,4305.1620,N,07740.8730,W,2,07,1.16,167.9,M,-34.4,M,0000,0000*5E
$GPRMC,210911.250,A,4305.1620,N,07740.8730,W,0.43,339.19,031023,,,D*7E
$GPGGA,210911.500,4305.1621,N,07740.8730,W,2,07,1.16,167.9,M,-34.4,M,0000,0000*5A
$GPRMC,210911.750,A,4305.1621,N,07740.8730,W,0.58,339.19,031023,,,D*70
$GPGGA,210912.000,4305.1621,N,07740.8730,W,2,07,1.16,167.9,M,-34.4,M,0000,0000*5C
$GPRMC,210912.250,A,4305.1623,N,07740.8730,W,0.69,347.08,031023,,,D*7F
$GPGGA,210912.500,4305.1624,N,07740.8730,W,2,07,1.21,168.0,M,-34.4,M,0000,0000*5E
$GPRMC,210912.750,A,4305.1625,N,07740.8729,W,0.78,353.14,031023,,,D*7C
$GPGGA,210913.000,4305.1627,N,07740.8729,W,2,07,1.21,168.0,M,-34.4,M,0000,0000*51
$GPRMC,210913.250,A,4305.1628,N,07740.8729,W,0.87,356.30,031023,,,D*76
$GPGGA,210913.500,4305.1629,N,07740.8729,W,2,07,1.21,168.1,M,-34.4,M,0000,0000*5B
$GPRMC,210913.750,A,4305.1630,N,07740.8729,W,0.92,358.88,031023,,,D*73
$GPGGA,210914.000,4305.1630,N,07740.8728,W,2,07,1.21,168.2,M,-34.4,M,0000,0000*53
$GPRMC,210914.250,A,4305.1631,N,07740.8728,W,0.88,359.83,031023,,,D*70
$GPGGA,210914.500,4305.1631,N,07740.8727,W,2,07,1.21,168.3,M,-34.4,M,0000,0000*59
$GPRMC,210914.750,A,4305.1632,N,07740.8727,W,0.83,1.15,031023,,,D*73
$GPGGA,210915.000,4305.1632,N,07740.8726,W,2,07,1.21,168.4,M,-34.4,M,0000,0000*58
$GPRMC,210915.250,A,4305.1633,N,07740.8725,W,0.78,2.86,031023,,,D*79
$GPGGA,210915.500,4305.1634,N,07740.8725,W,2,07,1.21,168.5,M,-34.4,M,0000,0000*59
$GPRMC,210915.750,A,4305.1634,N,07740.8724,W,0.74,4.67,031023,,,D*7F
$GPGGA,210916.000,4305.1635,N,07740.8724,W,2,07,1.21,168.5,M,-34.4,M,0000,0000*5F
$GPRMC,210916.250,A,4305.1636,N,07740.8724,W,0.74,6.28,031023,,,D*72
$GPGGA,210916.500,4305.1637,N,07740.8723,W,2,07,1.21,168.6,M,-34.4,M,0000,0000*5C
$GPRMC,210916.750,A,4305.1639,N,07740.8723,W,0.78,7.84,031023,,,D*74
$GPGGA,210917.000,4305.1640,N,07740.8722,W,2,07,1.21,168.6,M,-34.4,M,0000,0000*59
$GPRMC,210917.250,A,4305.1641,N,07740.8722,W,1.15,9.44,031023,,,D*76
$GPGGA,210917.500,4305.1642,N,07740.8721,W,2,07,1.16,168.6,M,-34.4,M,0000,0000*59
$GPRMC,210917.750,A,4305.1643,N,07740.8719,W,1.21,11.77,031023,,,D*47
$GPGGA,210918.000,4305.1643,N,07740.8718,W,2,07,1.16,168.7,M,-34.4,M,0000,0000*59
$GPRMC,210918.250,A,4305.1644,N,07740.8716,W,1.30,15.62,031023,,,D*45
$GPGGA,210918.500,4305.1645,N,07740.8715,W,2,07,1.16,168.7,M,-34.4,M,0000,0000*57
$GPRMC,210918.750,A,4305.1646,N,07740.8714,W,1.33,18.96,031023,,,D*45
$GPGGA,210919.000,4305.1646,N,07740.8713,W,2,07,1.16,168.7,M,-34.4,M,0000,0000*56
$GPRMC,210919.250,A,4305.1647,N,07740.8713,W,1.13,21.29,031023,,,D*4B
$GPGGA,210919.500,4305.1647,N,07740.8712,W,2,07,1.21,168.6,M,-34.4,M,0000,0000*56
$GPRMC,210919.750,A,4305.1647,N,07740.8712,W,0.88,22.70,031023,,,D*43
$GPGGA,210920.000,4305.1647,N,07740.8712,W,2,07,1.21,168.5,M,-34.4,M,0000,0000*5A
$GPRMC,210920.250,A,4305.1647,N,07740.8712,W,0.65,23.21,031023,,,D*4A
$GPGGA,210920.500,4305.1647,N,07740.8712,W,2,07,1.21,168.4,M,-34.4,M,0000,0000*5E
$GPRMC,210920.750,A,4305.1647,N,07740.8713,W,0.44,22.39,031023,,,D*45
$GPGGA,210921.000,4305.1646,N,07740.8714,W,2,07,1.21,168.4,M,-34.4,M,0000,0000*5D
$GPRMC,210921.250,A,4305.1646,N,07740.8716,W,0.39,19.52,031023,,,D*4A
$GPGGA,210921.500,4305.1644,N,07740.8718,W,2,07,1.16,168.3,M,-34.4,M,0000,0000*55
$GPRMC,210921.750,A,4305.1642,N,07740.8723,W,1.36,9.91,031023,,,D*7D
$GPGGA,210922.000,4305.1642,N,07740.8727,W,2,07,1.16,168.3,M,-34.4,M,0000,0000*59
$GPRMC,210922.250,A,4305.1640,N,07740.8731,W,3.36,254.84,031023,,,D*76
$GPGGA,210922.500,4305.1640,N,07740.8735,W,2,07,1.16,168.2,M,-34.4,M,0000,0000*5C
$GPRMC,210922.750,A,4305.1642,N,07740.8736,W,5.56,262.06,031023,,,D*79
$GPGGA,210923.000,4305.1643,N,07740.8738,W,2,07,1.21,168.0,M,-34.4,M,0000,0000*50
$GPRMC,210923.250,A,4305.1644,N,07740.8742,W,6.26,267.68,031023,,,D*71
$GPGGA,210923.500,4305.1645,N,07740.8747,W,2,07,1.21,168.0,M,-34.4,M,0000,0000*5B
$GPRMC,210923.750,A,4305.1646,N,07740.8753,W,6.83,273.00,031023,,,D*72
$GPGGA,210924.000,4305.1648,N,07740.8759,W,2,07,1.21,168.0,M,-34.4,M,0000,0000*5B
$GPRMC,210924.250,A,4305.1649,N,07740.8765,W,6.87,277.39,031023,,,D*70
$GPGGA,210924.500,4305.1650,N,07740.8772,W,2,07,1.21,168.0,M,-34.4,M,0000,0000*5E
$GPRMC,210924.750,A,4305.1652,N,07740.8777,W,6.88,280.33,031023,,,D*71
$GPGGA,210925.000,4305.1654,N,07740.8783,W,2,07,1.21,168.0,M,-34.4,M,0000,0000*50
$GPRMC,210925.250,A,4305.1655,N,07740.8788,W,6.82,278.89,031023,,,D*7E
$GPGGA,210925.500,4305.1656,N,07740.8794,W,2,07,1.21,167.9,M,-34.4,M,0000,0000*57
$GPRMC,210925.750,A,4305.1657,N,07740.8801,W,6.85,274.78,031023,,,D*72
$GPGGA,210926.000,4305.1657,N,07740.8808,W,2,07,1.21,167.8,M,-34.4,M,0000,0000*5B
$GPRMC,210926.250,A,4305.1657,N,07740.8815,W,7.10,267.87,031023,,,D*7E
$GPGGA,210926.500,4305.1656,N,07740.8822,W,2,07,1.21,167.8,M,-34.4,M,0000,0000*57
$GPRMC,210926.750,A,4305.1654,N,07740.8828,W,6.93,255.33,031023,,,D*72
$GPGGA,210927.000,4305.1651,N,07740.8834,W,2,07,1.21,167.8,M,-34.4,M,0000,0000*53
$GPRMC,210927.250,A,4305.1650,N,07740.8840,W,6.65,242.78,031023,,,D*7C
$GPGGA,210927.500,4305.1646,N,07740.8846,W,2,07,1.21,167.7,M,-34.4,M,0000,0000*5A
$GPRMC,210927.750,A,4305.1643,N,07740.8852,W,7.44,223.37,031023,,,D*76
$GPGGA,210928.000,4305.1639,N,07740.8856,W,2,07,1.21,167.8,M,-34.4,M,0000,0000*56
$GPRMC,210928.250,A,4305.1634,N,07740.8859,W,7.53,209.62,031023,,,D*79
$GPGGA,210928.500,4305.1629,N,07740.8862,W,2,07,1.21,167.9,M,-34.4,M,0000,0000*54
$GPRMC,210928.750,A,4305.1624,N,07740.8865,W,8.03,198.75,031023,,,D*75
$GPGGA,210929.000,4305.1617,N,07740.8867,W,2,07,1.21,168.0,M,-34.4,M,0000,0000*5E
$GPRMC,210929.250,A,4305.1611,N,07740.8869,W,8.59,190.42,031023,,,D*78
$GPGGA,210929.500,4305.1605,N,07740.8870,W,2,07,1.21,168.0,M,-34.4,M,0000,0000*5E
$GPRMC,210929.750,A,4305.1598,N,07740.8871,W,8.94,185.48,031023,,,D*79
$GPGGA,210930.000,4305.1591,N,07740.8872,W,2,07,1.21,168.1,M,-34.4,M,0000,0000*5E
$GPRMC,210930.250,A,4305.1585,N,07740.8872,W,9.18,180.91,031023,,,D*7F
$GPGGA,210930.500,4305.1576,N,07740.8872,W,2,07,1.21,168.2,M,-34.4,M,0000,0000*51
$GPRMC,210930.750,A,4305.1568,N,07740.8873,W,8.93,178.83,031023,,,D*7E
$GPGGA,210931.000,4305.1561,N,07740.8873,W,2,07,1.21,168.4,M,-34.4,M,0000,0000*54
$GPRMC,210931.250,A,4305.1555,N,07740.8875,W,8.43,179.95,031023,,,D*79
$GPGGA,210931.500,4305.1548,N,07740.8876,W,2,07,1.21,168.5,M,-34.4,M,0000,0000*5E
$GPRMC,210931.750,A,4305.1542,N,07740.8877,W,8.24,187.60,031023,,,D*72
$GPGGA,210932.000,4305.1536,N,07740.8879,W,2,07,1.21,168.5,M,-34.4,M,0000,0000*5E
$GPRMC,210932.250,A,4305.1530,N,07740.8880,W,7.97,192.27,031023,,,D*79
$GPGGA,210932.500,4305.1525,N,07740.8882,W,2,07,1.21,168.6,M,-34.4,M,0000,0000*5E
$GPRMC,210932.750,A,4305.1520,N,07740.8884,W,7.94,198.11,031023,,,D*75
$GPGGA,210933.000,4305.1514,N,07740.8888,W,2,07,1.21,168.7,M,-34.4,M,0000,0000*53
$GPRMC,210933.250,A,4305.1509,N,07740.8891,W,8.13,204.96,031023,,,D*77
$GPGGA,210933.500,4305.1505,N,07740.8895,W,2,07,1.21,168.7,M,-34.4,M,0000,0000*5A
$GPRMC,210933.750,A,4305.1500,N,07740.8899,W,8.23,211.33,031023,,,D*7B
$GPGGA,210934.000,4305.1496,N,07740.8903,W,2,07,1.21,168.8,M,-34.4,M,0000,0000*52
$GPRMC,210934.250,A,4305.1491,N,07740.8908,W,8.48,216.79,031023,,,D*7D
$GPGGA,210934.500,4305.1486,N,07740.8914,W,2,07,1.21,168.8,M,-34.4,M,0000,0000*50
$GPRMC,210934.750,A,4305.1483,N,07740.8920,W,8.80,222.94,031023,,,D*71
$GPGGA,210935.000,4305.1479,N,07740.8927,W,2,07,1.21,169.0,M,-34.4,M,0000,0000*5D
$GPRMC,210935.250,A,4305.1476,N,07740.8935,W,9.21,235.37,031023,,,D*7E
$GPGGA,210935.500,4305.1474,N,07740.8944,W,2,07,1.21,169.1,M,-34.4,M,0000,0000*51
$GPRMC,210935.750,A,4305.1472,N,07740.8954,W,10.42,247.84,031023,,,D*48
$GPGGA,210936.000,4305.1471,N,07740.8962,W,2,07,1.21,169.1,M,-34.4,M,0000,0000*56
$GPRMC,210936.250,A,4305.1470,N,07740.8971,W,10.51,255.66,031023,,,D*46
$GPGGA,210936.500,4305.1469,N,07740.8980,W,2,07,1.21,169.0,M,-34.4,M,0000,0000*57
$GPRMC,210936.750,A,4305.1468,N,07740.8989,W,10.88,260.69,031023,,,D*40
$GPGGA,210937.000,4305.1468,N,07740.8999,W,2,07,1.21,168.8,M,-34.4,M,0000,0000*53
$GPRMC,210937.250,A,4305.1467,N,07740.9009,W,11.22,264.82,031023,,,D*4B
$GPGGA,210937.500,4305.1467,N,07740.9020,W,2,08,1.08,168.7,M,-34.4,M,0000,0000*58
$GPRMC,210937.750,A,4305.1467,N,07740.9031,W,11.56,268.81,031023,,,D*49
$GPGGA,210938.000,4305.1468,N,07740.9043,W,2,08,1.08,168.5,M,-34.4,M,0000,0000*5A
$GPRMC,210938.250,A,4305.1468,N,07740.9054,W,11.59,273.66,031023,,,D*43
$GPGGA,210938.500,4305.1469,N,07740.9068,W,2,08,1.08,168.4,M,-34.4,M,0000,0000*56
$GPRMC,210938.750,A,4305.1471,N,07740.9081,W,11.85,280.50,031023,,,D*4E
$GPGGA,210939.000,4305.1474,N,07740.9093,W,2,08,1.08,168.3,M,-34.4,M,0000,0000*5D
$GPRMC,210939.250,A,4305.1476,N,07740.9104,W,11.92,283.08,031023,,,D*49
$GPGGA,210939.500,4305.1479,N,07740.9116,W,2,08,1.08,168.3,M,-34.4,M,0000,0000*59
$GPRMC,210939.750,A,4305.1482,N,07740.9127,W,12.07,284.03,031023,,,D*45
$GPGGA,210940.000,4305.1484,N,07740.9138,W,2,08,1.08,168.3,M,-34.4,M,0000,0000*5C
$GPRMC,210940.250,A,4305.1486,N,07740.9148,W,11.87,285.43,031023,,,D*4D
$GPGGA,210940.500,4305.1488,N,07740.9159,W,2,08,1.08,168.2,M,-34.4,M,0000,0000*53
$GPRMC,210940.750,A,4305.1490,N,07740.9171,W,11.88,285.52,031023,,,D*4A
$GPGGA,210941.000,4305.1493,N,07740.9182,W,2,08,1.08,168.2,M,-34.4,M,0000,0000*5B
$GPRMC,210941.250,A,4305.1495,N,07740.9193,W,11.92,285.56,031023,,,D*48
$GPGGA,210941.500,4305.1498,N,07740.9204,W,2,08,1.08,168.2,M,-34.4,M,0000,0000*58
$GPRMC,210941.750,A,4305.1499,N,07740.9215,W,12.27,284.47,031023,,,D*40
$GPGGA,210942.000,4305.1502,N,07740.9228,W,2,08,1.08,168.2,M,-34.4,M,0000,0000*52
$GPRMC,210942.250,A,4305.1504,N,07740.9240,W,12.68,282.55,031023,,,D*4D
$GPGGA,210942.500,4305.1505,N,07740.9252,W,2,08,1.08,168.1,M,-34.4,M,0000,0000*5E
$GPRMC,210942.750,A,4305.1507,N,07740.9265,W,13.11,281.69,031023,,,D*4F
$GPGGA,210943.000,4305.1507,N,07740.9276,W,2,08,1.08,168.0,M,-34.4,M,0000,0000*5F
$GPRMC,210943.250,A,4305.1508,N,07740.9288,W,13.10,280.74,031023,,,D*4B
$GPGGA,210943.500,4305.1510,N,07740.9300,W,2,08,1.08,167.9,M,-34.4,M,0000,0000*5A
$GPRMC,210943.750,A,4305.1511,N,07740.9313,W,13.45,280.33,031023,,,D*46
$GPGGA,210944.000,4305.1512,N,07740.9324,W,2,08,1.08,167.7,M,-34.4,M,0000,0000*52
$GPRMC,210944.250,A,4305.1513,N,07740.9336,W,13.50,279.19,031023,,,D*4B
$GPGGA,210944.500,4305.1514,N,07740.9348,W,2,08,1.08,167.7,M,-34.4,M,0000,0000*5B
$GPRMC,210944.750,A,4305.1514,N,07740.9361,W,13.97,277.88,031023,,,D*46
$GPGGA,210945.000,4305.1515,N,07740.9373,W,2,08,1.08,167.4,M,-34.4,M,0000,0000*55
$GPRMC,210945.250,A,4305.1516,N,07740.9386,W,14.53,277.72,031023,,,D*43
$GPGGA,210945.500,4305.1517,N,07740.9400,W,2,08,1.08,167.2,M,-34.4,M,0000,0000*57
$GPRMC,210945.750,A,4305.1518,N,07740.9414,W,14.89,278.99,031023,,,D*49
$GPGGA,210946.000,4305.1519,N,07740.9428,W,2,08,1.08,167.0,M,-34.4,M,0000,0000*57
$GPRMC,210946.250,A,4305.1520,N,07740.9442,W,14.85,278.47,031023,,,D*48
$GPGGA,210946.500,4305.1522,N,07740.9455,W,2,08,1.08,166.9,M,-34.4,M,0000,0000*58
$GPRMC,210946.750,A,4305.1522,N,07740.9470,W,14.43,274.48,031023,,,D*47
$GPGGA,210947.000,4305.1522,N,07740.9484,W,2,08,1.08,166.8,M,-34.4,M,0000,0000*51
$GPRMC,210947.250,A,4305.1523,N,07740.9499,W,14.18,271.52,031023,,,D*45
$GPGGA,210947.500,4305.1522,N,07740.9513,W,2,08,1.08,166.8,M,-34.4,M,0000,0000*5B
$GPRMC,210947.750,A,4305.1522,N,07740.9527,W,14.00,269.86,031023,,,D*4C
$GPGGA,210948.000,4305.1521,N,07740.9541,W,2,08,1.08,166.8,M,-34.4,M,0000,0000*55
