Vers 81
USE_SERIAL_FEEDBACK=true
DEVELOPMENT_MODE=false
USE_RMC_ONLY=false

$GPRMC,210737.000,A,4305.1756,N,07740.8715,W,0.24,159.62,260923,,,A*77
$GPGGA,210737.250,4305.1756,N,07740.8714,W,1,04,2.09,184.9,M,-34.4,M,,*55
$GPRMC,210737.500,A,4305.1757,N,07740.8712,W,0.15,126.30,260923,,,A*79
$GPGGA,210737.750,4305.1758,N,07740.8710,W,1,04,2.09,185.9,M,-34.4,M,,*5B
$GPRMC,210738.000,A,4305.1759,N,07740.8708,W,0.22,106.01,260923,,,A*72
$GPGGA,210738.250,4305.1758,N,07740.8707,W,1,04,2.09,186.4,M,-34.4,M,,*59
$GPRMC,210738.500,A,4305.1756,N,07740.8707,W,0.09,133.34,260923,,,A*7E
$GPGGA,210738.750,4305.1755,N,07740.8706,W,1,04,2.09,186.3,M,-34.4,M,,*57
$GPRMC,210739.000,A,4305.1755,N,07740.8705,W,0.06,61.39,260923,,,A*4F
$GPGGA,210739.250,4305.1753,N,07740.8704,W,1,04,2.09,186.2,M,-34.4,M,,*56
$GPRMC,210739.500,A,4305.1751,N,07740.8704,W,0.04,104.83,260923,,,A*7E
$GPGGA,210739.750,4305.1749,N,07740.8704,W,1,04,2.09,185.9,M,-34.4,M,,*50
$GPRMC,210740.000,A,4305.1747,N,07740.8704,W,0.10,26.76,260923,,,A*4C
$GPGGA,210740.250,4305.1744,N,07740.8704,W,1,04,2.09,185.2,M,-34.4,M,,*5D
$GPRMC,210740.500,A,4305.1742,N,07740.8703,W,0.14,47.50,260923,,,A*4C
$GPGGA,210740.750,4305.1741,N,07740.8703,W,1,04,2.09,184.7,M,-34.4,M,,*5E
$GPRMC,210741.000,A,4305.1739,N,07740.8703,W,0.06,30.60,260923,,,A*44
$GPGGA,210741.250,4305.1737,N,07740.8703,W,1,04,2.09,184.3,M,-34.4,M,,*5F
$GPRMC,210741.500,A,4305.1735,N,07740.8703,W,0.10,90.24,260923,,,A*40
$GPGGA,210741.750,4305.1733,N,07740.8703,W,1,04,2.09,183.8,M,-34.4,M,,*52
$GPRMC,210742.000,A,4305.1732,N,07740.8703,W,0.10,125.15,260923,,,A*7C
$GPGGA,210742.250,4305.1730,N,07740.8703,W,1,04,2.09,183.4,M,-34.4,M,,*5B
$GPRMC,210742.500,A,4305.1729,N,07740.8703,W,0.04,84.07,260923,,,A*4F
$GPGGA,210742.750,4305.1727,N,07740.8704,W,1,04,2.09,182.9,M,-34.4,M,,*53
$GPRMC,210743.000,A,4305.1725,N,07740.8705,W,0.07,266.45,260923,,,A*7A
$GPGGA,210743.250,4305.1723,N,07740.8705,W,1,04,2.09,182.3,M,-34.4,M,,*58
$GPRMC,210743.500,A,4305.1722,N,07740.8705,W,0.04,203.61,260923,,,A*7E
$GPGGA,210743.750,4305.1720,N,07740.8705,W,1,04,2.09,181.9,M,-34.4,M,,*57
$GPRMC,210744.000,A,4305.1718,N,07740.8705,W,0.13,178.20,260923,,,A*79
$GPGGA,210744.250,4305.1716,N,07740.8705,W,1,04,2.09,181.5,M,-34.4,M,,*5C
$GPRMC,210744.500,A,4305.1716,N,07740.8705,W,0.06,144.84,260923,,,A*77
$GPGGA,210744.750,4305.1715,N,07740.8705,W,1,04,2.09,181.2,M,-34.4,M,,*5D
$GPRMC,210745.000,A,4305.1714,N,07740.8706,W,0.06,351.66,260923,,,A*78
$GPGGA,210745.250,4305.1712,N,07740.8705,W,1,04,9.08,180.9,M,-34.4,M,,*5E
$GPRMC,210745.500,A,4305.1710,N,07740.8706,W,0.09,178.99,260923,,,A*7F
$GPGGA,210745.750,4305.1707,N,07740.8705,W,1,04,2.09,180.3,M,-34.4,M,,*5F
$GPRMC,210746.000,A,4305.1706,N,07740.8706,W,0.09,152.63,260923,,,A*73
$GPGGA,210746.250,4305.1704,N,07740.8706,W,1,04,2.09,179.8,M,-34.4,M,,*54
$GPRMC,210746.500,A,4305.1702,N,07740.8706,W,0.08,122.42,260923,,,A*77
$GPGGA,210746.750,4305.1700,N,07740.8706,W,1,04,2.09,179.2,M,-34.4,M,,*5F
$GPRMC,210747.000,A,4305.1699,N,07740.8707,W,0.02,345.89,260923,,,A*7F
$GPGGA,210747.250,4305.1697,N,07740.8707,W,1,04,9.07,178.7,M,-34.4,M,,*54
$GPRMC,210747.500,A,4305.1695,N,07740.8707,W,0.06,175.33,260923,,,A*72
$GPGGA,210747.750,4305.1693,N,07740.8707,W,1,04,2.09,178.2,M,-34.4,M,,*55
$GPRMC,210748.000,A,4305.1691,N,07740.8707,W,0.19,126.37,260923,,,A*70
$GPGGA,210748.250,4305.1690,N,07740.8706,W,1,04,2.09,177.7,M,-34.4,M,,*57
$GPRMC,210748.500,A,4305.1689,N,07740.8706,W,0.24,111.81,260923,,,A*7A
$GPGGA,210748.750,4305.1688,N,07740.8707,W,1,04,2.09,177.4,M,-34.4,M,,*59
$GPRMC,210749.000,A,4305.1687,N,07740.8707,W,0.17,134.20,260923,,,A*7D
$GPGGA,210749.250,4305.1686,N,07740.8707,W,1,04,2.09,177.1,M,-34.4,M,,*56
$GPRMC,210749.500,A,4305.1686,N,07740.8707,W,0.14,145.72,260923,,,A*7B
$GPGGA,210749.750,4305.1686,N,07740.8707,W,1,04,2.09,177.0,M,-34.4,M,,*52
$GPRMC,210750.000,A,4305.1686,N,07740.8707,W,0.12,150.40,260923,,,A*75
$GPGGA,210750.250,4305.1685,N,07740.8707,W,1,04,2.09,176.9,M,-34.4,M,,*54
$GPRMC,210750.500,A,4305.1684,N,07740.8707,W,0.09,157.99,260923,,,A*7B
$GPGGA,210750.750,4305.1684,N,07740.8707,W,1,04,2.09,176.7,M,-34.4,M,,*5E
$GPRMC,210751.000,A,4305.1684,N,07740.8707,W,0.08,138.24,260923,,,A*71
$GPGGA,210751.250,4305.1683,N,07740.8707,W,1,04,2.09,176.6,M,-34.4,M,,*5C
$GPRMC,210751.500,A,4305.1683,N,07740.8707,W,0.07,133.67,260923,,,A*70
$GPGGA,210751.750,4305.1684,N,07740.8707,W,1,04,2.09,176.5,M,-34.4,M,,*5D
$GPRMC,210752.000,A,4305.1684,N,07740.8707,W,0.01,241.69,260923,,,A*7F
$GPGGA,210752.250,4305.1684,N,07740.8707,W,1,04,2.09,176.5,M,-34.4,M,,*5B
$GPRMC,210752.500,A,4305.1684,N,07740.8706,W,0.01,130.59,260923,,,A*7D
$GPGGA,210752.750,4305.1684,N,07740.8706,W,1,04,2.09,176.5,M,-34.4,M,,*5F
$GPRMC,210753.000,A,4305.1684,N,07740.8706,W,0.02,279.96,260923,,,A*77
$GPGGA,210753.250,4305.1683,N,07740.8706,W,1,04,2.09,176.4,M,-34.4,M,,*5D
$GPRMC,210753.500,A,4305.1684,N,07740.8706,W,0.02,145.81,260923,,,A*78
$GPGGA,210753.750,4305.1685,N,07740.8705,W,1,04,2.09,176.5,M,-34.4,M,,*5C
$GPRMC,210754.000,A,4305.1684,N,07740.8705,W,0.02,129.67,260923,,,A*7B
$GPGGA,210754.250,4305.1686,N,07740.8705,W,1,04,2.09,176.8,M,-34.4,M,,*50
$GPRMC,210754.500,A,4305.1686,N,07740.8704,W,0.04,81.62,260923,,,A*4D
$GPGGA,210754.750,4305.1687,N,07740.8704,W,1,04,2.09,176.8,M,-34.4,M,,*55
$GPRMC,210755.000,A,4305.1687,N,07740.8704,W,0.05,139.13,260923,,,A*7D
$GPGGA,210755.250,4305.1688,N,07740.8703,W,1,04,2.09,177.1,M,-34.4,M,,*51
$GPRMC,210755.500,A,4305.1688,N,07740.8703,W,0.01,113.65,260923,,,A*7D
$GPGGA,210755.750,4305.1690,N,07740.8702,W,1,04,2.09,177.4,M,-34.4,M,,*59
$GPRMC,210756.000,A,4305.1690,N,07740.8702,W,0.02,40.27,260923,,,A*41
$GPGGA,210756.250,4305.1692,N,07740.8702,W,1,04,2.09,177.7,M,-34.4,M,,*5E
$GPRMC,210756.500,A,4305.1693,N,07740.8701,W,0.05,132.28,260923,,,A*78
$GPGGA,210756.750,4305.1694,N,07740.8701,W,1,04,2.09,178.1,M,-34.4,M,,*57
$GPRMC,210757.000,A,4305.1695,N,07740.8701,W,0.02,115.37,260923,,,A*76
$GPGGA,210757.250,4305.1696,N,07740.8700,W,1,04,2.09,178.4,M,-34.4,M,,*55
$GPRMC,210757.500,A,4305.1696,N,07740.8700,W,0.01,247.94,260923,,,A*7F
$GPGGA,210757.750,4305.1697,N,07740.8700,W,1,04,2.09,178.8,M,-34.4,M,,*5D
$GPRMC,210758.000,A,4305.1698,N,07740.8700,W,0.03,128.93,260923,,,A*74
$GPGGA,210758.250,4305.1699,N,07740.8699,W,1,04,2.09,179.1,M,-34.4,M,,*50
$GPRMC,210758.500,A,4305.1700,N,07740.8699,W,0.01,358.27,260923,,,A*78
$GPGGA,210758.750,4305.1701,N,07740.8699,W,1,04,8.95,179.4,M,-34.4,M,,*5F
$GPRMC,210759.000,A,4305.1701,N,07740.8699,W,0.01,185.76,260923,,,A*7B
$GPGGA,210759.250,4305.1702,N,07740.8699,W,1,04,2.09,179.5,M,-34.4,M,,*56
$GPRMC,210759.500,A,4305.1703,N,07740.8698,W,0.04,285.07,260923,,,A*7D
$GPGGA,210759.750,4305.1703,N,07740.8698,W,1,04,2.09,179.9,M,-34.4,M,,*5F
$GPRMC,210800.000,A,4305.1704,N,07740.8698,W,0.04,151.54,260923,,,A*70
$GPGGA,210800.250,4305.1705,N,07740.8698,W,1,04,2.09,180.1,M,-34.4,M,,*51
$GPRMC,210800.500,A,4305.1706,N,07740.8698,W,0.03,234.56,260923,,,A*72
$GPGGA,210800.750,4305.1707,N,07740.8697,W,1,04,2.09,180.5,M,-34.4,M,,*5D
$GPRMC,210801.000,A,4305.1707,N,07740.8697,W,0.03,169.63,260923,,,A*75
$GPGGA,210801.250,4305.1708,N,07740.8697,W,1,04,2.09,180.7,M,-34.4,M,,*54
$GPRMC,210801.500,A,4305.1710,N,07740.8697,W,0.01,203.64,260923,,,A*7C
$GPGGA,210801.750,4305.1710,N,07740.8697,W,1,04,2.09,181.1,M,-34.4,M,,*5F
$GPRMC,210802.000,A,4305.1711,N,07740.8696,W,0.05,80.99,260923,,,A*45
$GPGGA,210802.250,4305.1682,N,07740.8703,W,1,06,1.63,176.3,M,-34.4,M,,*58
$GPRMC,210802.500,A,4305.1667,N,07740.8706,W,0.01,347.51,260923,,,A*70
$GPGGA,210802.750,4305.1657,N,07740.8708,W,1,06,3.06,172.0,M,-34.4,M,,*58
$GPRMC,210803.000,A,4305.1644,N,07740.8710,W,0.01,18.45,260923,,,A*4E
$GPGGA,210803.250,4305.1638,N,07740.8711,W,1,06,1.63,168.8,M,-34.4,M,,*5F
$GPRMC,210803.500,A,4305.1630,N,07740.8713,W,0.02,69.19,260923,,,A*47
$GPGGA,210803.750,4305.1624,N,07740.8714,W,1,06,1.63,166.3,M,-34.4,M,,*57
$GPRMC,210804.000,A,4305.1620,N,07740.8715,W,0.14,331.27,260923,,,A*76
$GPGGA,210804.250,4305.1617,N,07740.8716,W,1,06,1.63,165.0,M,-34.4,M,,*57
$GPRMC,210804.500,A,4305.1614,N,07740.8717,W,0.14,334.73,260923,,,A*72
$GPGGA,210804.750,4305.1613,N,07740.8717,W,1,06,1.63,164.4,M,-34.4,M,,*52
$GPRMC,210805.000,A,4305.1612,N,07740.8717,W,0.11,351.25,260923,,,A*75
$GPGGA,210805.250,4305.1611,N,07740.8718,W,1,06,3.07,164.1,M,-34.4,M,,*5E
$GPRMC,210805.500,A,4305.1610,N,07740.8717,W,0.08,17.19,260923,,,A*44
$GPGGA,210805.750,4305.1609,N,07740.8717,W,1,06,1.63,163.9,M,-34.4,M,,*52
$GPRMC,210806.000,A,4305.1608,N,07740.8718,W,0.04,30.35,260923,,,A*43
$GPGGA,210806.250,4305.1608,N,07740.8718,W,1,06,1.63,163.6,M,-34.4,M,,*55
$GPRMC,210806.500,A,4305.1607,N,07740.8718,W,0.08,335.27,260923,,,A*70
$GPGGA,210806.750,4305.1605,N,07740.8718,W,1,06,1.63,163.2,M,-34.4,M,,*59
$GPRMC,210807.000,A,4305.1604,N,07740.8719,W,0.03,17.89,260923,,,A*4A
$GPGGA,210807.250,4305.1604,N,07740.8719,W,1,06,1.63,163.1,M,-34.4,M,,*5E
$GPRMC,210807.500,A,4305.1604,N,07740.8719,W,0.11,202.28,260923,,,A*71
$GPGGA,210807.750,4305.1604,N,07740.8719,W,1,06,1.63,163.1,M,-34.4,M,,*5B
$GPRMC,210808.000,A,4305.1604,N,07740.8719,W,0.11,141.05,260923,,,A*70
$GPGGA,210808.250,4305.1604,N,07740.8719,W,1,06,1.63,163.1,M,-34.4,M,,*51
$GPRMC,210808.500,A,4305.1604,N,07740.8719,W,0.08,140.53,260923,,,A*7F
$GPGGA,210808.750,4305.1604,N,07740.8719,W,1,06,1.63,163.1,M,-34.4,M,,*54
$GPRMC,210809.000,A,4305.1604,N,07740.8719,W,0.06,169.16,260923,,,A*7F
$GPGGA,210809.250,4305.1604,N,07740.8718,W,1,06,1.63,163.1,M,-34.4,M,,*51
$GPRMC,210809.500,A,4305.1603,N,07740.8718,W,0.06,162.17,260923,,,A*76
$GPGGA,210809.750,4305.1603,N,07740.8718,W,1,06,1.63,163.1,M,-34.4,M,,*53
$GPRMC,210810.000,A,4305.1603,N,07740.8718,W,0.05,182.28,260923,,,A*7A
$GPGGA,210810.250,4305.1603,N,07740.8718,W,1,06,1.63,163.1,M,-34.4,M,,*5E
$GPRMC,210810.500,A,4305.1603,N,07740.8718,W,0.04,352.09,260923,,,A*72
$GPGGA,210810.750,4305.1603,N,07740.8718,W,1,06,3.07,163.1,M,-34.4,M,,*5B
$GPRMC,210811.000,A,4305.1603,N,07740.8718,W,0.02,226.62,260923,,,A*7F
$GPGGA,210811.250,4305.1603,N,07740.8718,W,1,06,1.63,163.0,M,-34.4,M,,*5E
$GPRMC,210811.500,A,4305.1603,N,07740.8718,W,0.02,165.61,260923,,,A*7D
$GPGGA,210811.750,4305.1603,N,07740.8718,W,1,06,1.63,163.0,M,-34.4,M,,*5B
$GPRMC,210812.000,A,4305.1603,N,07740.8718,W,0.03,28.29,260923,,,A*4E
$GPGGA,210812.250,4305.1603,N,07740.8718,W,1,06,1.63,163.0,M,-34.4,M,,*5D
$GPRMC,210812.500,A,4305.1603,N,07740.8718,W,0.04,3.34,260923,,,A*79
$GPGGA,210812.750,4305.1603,N,07740.8718,W,1,06,3.07,163.0,M,-34.4,M,,*58
$GPRMC,210813.000,A,4305.1603,N,07740.8718,W,0.07,329.87,260923,,,A*7D
$GPGGA,210813.250,4305.1603,N,07740.8718,W,1,06,1.63,163.0,M,-34.4,M,,*5C
$GPRMC,210813.500,A,4305.1603,N,07740.8719,W,0.02,166.75,260923,,,A*78
$GPGGA,210813.750,4305.1603,N,07740.8719,W,1,06,1.63,163.0,M,-34.4,M,,*58
$GPRMC,210814.000,A,4305.1603,N,07740.8719,W,0.03,218.50,260923,,,A*76
$GPGGA,210814.250,4305.1603,N,07740.8719,W,1,06,1.63,163.0,M,-34.4,M,,*5A
$GPRMC,210814.500,A,4305.1603,N,07740.8719,W,0.02,98.07,260923,,,A*4A
$GPGGA,210814.750,4305.1603,N,07740.8719,W,1,06,1.63,163.0,M,-34.4,M,,*5F
$GPRMC,210815.000,A,4305.1603,N,07740.8719,W,0.01,290.96,260923,,,A*7F
$GPGGA,210815.250,4305.1603,N,07740.8719,W,1,06,1.63,163.0,M,-34.4,M,,*5B
$GPRMC,210815.500,A,4305.1603,N,07740.8719,W,0.03,180.86,260923,,,A*7B
$GPGGA,210815.750,4305.1603,N,07740.8719,W,1,06,1.63,163.0,M,-34.4,M,,*5E
$GPRMC,210816.000,A,4305.1603,N,07740.8719,W,0.01,86.65,260923,,,A*45
$GPGGA,210816.250,4305.1603,N,07740.8719,W,1,06,1.63,163.0,M,-34.4,M,,*58
$GPRMC,210816.500,A,4305.1603,N,07740.8719,W,0.00,105.48,260923,,,A*74
$GPGGA,210816.750,4305.1603,N,07740.8719,W,1,06,1.63,163.0,M,-34.4,M,,*5D
$GPRMC,210817.000,A,4305.1603,N,07740.8719,W,0.03,134.37,260923,,,A*79
$GPGGA,210817.250,4305.1603,N,07740.8719,W,1,06,1.63,163.0,M,-34.4,M,,*59
$GPRMC,210817.500,A,4305.1603,N,07740.8719,W,0.02,279.23,260923,,,A*72
$GPGGA,210817.750,4305.1603,N,07740.8719,W,1,06,1.63,163.0,M,-34.4,M,,*5C
$GPRMC,210818.000,A,4305.1603,N,07740.8719,W,0.02,156.10,260923,,,A*76
$GPGGA,210818.250,4305.1603,N,07740.8719,W,1,06,1.63,163.0,M,-34.4,M,,*56
$GPRMC,210818.500,A,4305.1603,N,07740.8719,W,0.04,86.04,260923,,,A*4C
$GPGGA,210818.750,4305.1603,N,07740.8719,W,1,06,1.63,163.0,M,-34.4,M,,*53
$GPRMC,210819.000,A,4305.1603,N,07740.8719,W,0.01,233.10,260923,,,A*74
$GPGGA,210819.250,4305.1603,N,07740.8719,W,1,06,1.63,163.0,M,-34.4,M,,*57
$GPRMC,210819.500,A,4305.1603,N,07740.8719,W,0.01,308.60,260923,,,A*7F
$GPGGA,210819.750,4305.1603,N,07740.8719,W,1,06,1.63,163.0,M,-34.4,M,,*52
$GPRMC,210820.000,A,4305.1603,N,07740.8719,W,0.03,269.47,260923,,,A*71
$GPGGA,210820.250,4305.1603,N,07740.8719,W,1,06,1.63,163.0,M,-34.4,M,,*5D
$GPRMC,210820.500,A,4305.1603,N,07740.8719,W,0.03,240.30,260923,,,A*7F
$GPGGA,210820.750,4305.1603,N,07740.8719,W,1,06,1.63,162.9,M,-34.4,M,,*50
$GPRMC,210821.000,A,4305.1603,N,07740.8719,W,0.02,30.06,260923,,,A*4A
$GPGGA,210821.250,4305.1603,N,07740.8719,W,1,06,1.63,162.9,M,-34.4,M,,*54
$GPRMC,210821.500,A,4305.1603,N,07740.8719,W,0.02,192.12,260923,,,A*73
$GPGGA,210821.750,4305.1603,N,07740.8719,W,1,06,1.63,162.9,M,-34.4,M,,*51
$GPRMC,210822.000,A,4305.1603,N,07740.8719,W,0.04,284.55,260923,,,A*74
$GPGGA,210822.250,4305.1603,N,07740.8719,W,1,06,1.63,162.9,M,-34.4,M,,*57
$GPRMC,210822.500,A,4305.1603,N,07740.8719,W,0.02,141.01,260923,,,A*7C
$GPGGA,210822.750,4305.1603,N,07740.8719,W,1,06,1.63,162.9,M,-34.4,M,,*52
$GPRMC,210823.000,A,4305.1603,N,07740.8719,W,0.02,243.77,260923,,,A*78
$GPGGA,210823.250,4305.1603,N,07740.8719,W,1,06,1.63,162.9,M,-34.4,M,,*56
$GPRMC,210823.500,A,4305.1603,N,07740.8719,W,0.06,118.29,260923,,,A*7F
$GPGGA,210823.750,4305.1603,N,07740.8719,W,1,06,1.63,162.9,M,-34.4,M,,*53
$GPRMC,210824.000,A,4305.1602,N,07740.8719,W,0.04,244.49,260923,,,A*72
$GPGGA,210824.250,4305.1602,N,07740.8719,W,1,06,1.63,162.9,M,-34.4,M,,*50
$GPRMC,210824.500,A,4305.1602,N,07740.8719,W,0.01,43.80,260923,,,A*42
$GPGGA,210824.750,4305.1602,N,07740.8719,W,1,06,1.63,162.9,M,-34.4,M,,*55
$GPRMC,210825.000,A,4305.1602,N,07740.8719,W,0.03,261.98,260923,,,A*7F
$GPGGA,210825.250,4305.1602,N,07740.8719,W,1,06,1.63,162.9,M,-34.4,M,,*51
$GPRMC,210825.500,A,4305.1602,N,07740.8719,W,0.04,338.12,260923,,,A*72
$GPGGA,210825.750,4305.1602,N,07740.8719,W,1,06,1.63,162.9,M,-34.4,M,,*54
$GPRMC,210826.000,A,4305.1602,N,07740.8719,W,0.04,168.40,260923,,,A*74
$GPGGA,210826.250,4305.1602,N,07740.8719,W,1,06,1.63,162.9,M,-34.4,M,,*52
$GPRMC,210826.500,A,4305.1602,N,07740.8719,W,0.03,287.10,260923,,,A*71
$GPGGA,210826.750,4305.1602,N,07740.8719,W,1,06,1.63,162.9,M,-34.4,M,,*57
$GPRMC,210827.000,A,4305.1602,N,07740.8719,W,0.04,283.62,260923,,,A*73
$GPGGA,210827.250,4305.1602,N,07740.8719,W,1,06,1.63,162.9,M,-34.4,M,,*53
$GPRMC,210827.500,A,4305.1602,N,07740.8719,W,0.02,237.35,260923,,,A*7D
$GPGGA,210827.750,4305.1602,N,07740.8719,W,1,06,1.63,162.9,M,-34.4,M,,*56
$GPRMC,210828.000,A,4305.1602,N,07740.8719,W,0.08,172.62,260923,,,A*7D
$GPGGA,210828.250,4305.1602,N,07740.8719,W,1,06,1.63,162.9,M,-34.4,M,,*5C
$GPRMC,210828.500,A,4305.1602,N,07740.8719,W,0.06,65.05,260923,,,A*40
$GPGGA,210828.750,4305.1602,N,07740.8719,W,1,06,1.63,162.9,M,-34.4,M,,*59
$GPRMC,210829.000,A,4305.1602,N,07740.8719,W,0.09,47.38,260923,,,A*45
$GPGGA,210829.250,4305.1602,N,07740.8719,W,1,06,1.63,162.9,M,-34.4,M,,*5D
$GPRMC,210829.500,A,4305.1602,N,07740.8719,W,0.06,45.76,260923,,,A*47
$GPGGA,210829.750,4305.1602,N,07740.8719,W,1,06,1.63,162.9,M,-34.4,M,,*58
$GPRMC,210830.000,A,4305.1602,N,07740.8719,W,0.04,121.90,260923,,,A*73
$GPGGA,210830.250,4305.1602,N,07740.8719,W,1,06,1.63,162.9,M,-34.4,M,,*55
$GPRMC,210830.500,A,4305.1602,N,07740.8718,W,0.12,157.25,260923,,,A*7F
$GPGGA,210830.750,4305.1602,N,07740.8718,W,1,06,1.63,162.9,M,-34.4,M,,*51
$GPRMC,210831.000,A,4305.1602,N,07740.8718,W,0.20,174.95,260923,,,A*70
$GPGGA,210831.250,4305.1602,N,07740.8718,W,1,06,1.63,162.9,M,-34.4,M,,*55
$GPRMC,210831.500,A,4305.1602,N,07740.8718,W,0.18,169.56,260923,,,A*7D
$GPGGA,210831.750,4305.1602,N,07740.8718,W,1,06,1.63,162.9,M,-34.4,M,,*50
$GPRMC,210832.000,A,4305.1602,N,07740.8718,W,0.19,150.99,260923,,,A*73
$GPGGA,210832.250,4305.1601,N,07740.8718,W,1,06,1.63,162.9,M,-34.4,M,,*55
$GPRMC,210832.500,A,4305.1601,N,07740.8718,W,0.18,154.37,260923,,,A*74
$GPGGA,210832.750,4305.1601,N,07740.8718,W,1,06,1.63,162.9,M,-34.4,M,,*50
$GPRMC,210833.000,A,4305.1601,N,07740.8718,W,0.13,164.57,260923,,,A*7E
$GPGGA,210833.250,4305.1601,N,07740.8718,W,1,06,1.63,162.9,M,-34.4,M,,*54
$GPRMC,210833.500,A,4305.1601,N,07740.8718,W,0.11,143.02,260923,,,A*7C
$GPGGA,210833.750,4305.1601,N,07740.8718,W,1,06,1.63,162.9,M,-34.4,M,,*51
$GPRMC,210834.000,A,4305.1601,N,07740.8718,W,0.10,151.06,260923,,,A*78
$GPGGA,210834.250,4305.1601,N,07740.8718,W,1,06,1.63,162.9,M,-34.4,M,,*53
$GPRMC,210834.500,A,4305.1601,N,07740.8718,W,0.09,168.35,260923,,,A*7F
$GPGGA,210834.750,4305.1601,N,07740.8718,W,1,06,1.63,162.9,M,-34.4,M,,*56
$GPRMC,210835.000,A,4305.1601,N,07740.8718,W,0.10,178.86,260923,,,A*7A
$GPGGA,210835.250,4305.1600,N,07740.8718,W,1,06,1.63,162.9,M,-34.4,M,,*53
$GPRMC,210835.500,A,4305.1600,N,07740.8718,W,0.15,204.49,260923,,,A*70
$GPGGA,210835.750,4305.1600,N,07740.8718,W,1,06,1.63,162.9,M,-34.4,M,,*56
$GPRMC,210836.000,A,4305.1600,N,07740.8718,W,0.07,146.95,260923,,,A*71
$GPGGA,210836.250,4305.1600,N,07740.8718,W,1,06,1.63,162.9,M,-34.4,M,,*50
$GPRMC,210836.500,A,4305.1600,N,07740.8718,W,0.07,156.00,260923,,,A*79
$GPGGA,210836.750,4305.1600,N,07740.8718,W,1,06,1.63,162.9,M,-34.4,M,,*55
$GPRMC,210837.000,A,4305.1600,N,07740.8718,W,0.11,202.15,260923,,,A*7C
$GPGGA,210837.250,4305.1600,N,07740.8718,W,1,06,1.63,162.9,M,-34.4,M,,*51
$GPRMC,210837.500,A,4305.1600,N,07740.8718,W,0.14,223.52,260923,,,A*7C
$GPGGA,210837.750,4305.1600,N,07740.8718,W,1,06,1.63,162.9,M,-34.4,M,,*54
$GPRMC,210838.000,A,4305.1600,N,07740.8718,W,0.18,195.84,260923,,,A*7F
$GPGGA,210838.250,4305.1599,N,07740.8718,W,1,06,1.63,162.9,M,-34.4,M,,*5D
$GPRMC,210838.500,A,4305.1599,N,07740.8718,W,0.09,201.02,260923,,,A*79
$GPGGA,210838.750,4305.1599,N,07740.8718,W,1,06,1.63,162.9,M,-34.4,M,,*58
$GPRMC,210839.000,A,4305.1599,N,07740.8718,W,0.04,198.63,260923,,,A*74
$GPGGA,210839.250,4305.1599,N,07740.8718,W,1,06,1.63,162.9,M,-34.4,M,,*5C
$GPRMC,210839.500,A,4305.1599,N,07740.8718,W,0.10,177.56,260923,,,A*73
$GPGGA,210839.750,4305.1599,N,07740.8718,W,1,06,1.63,162.9,M,-34.4,M,,*59
$GPRMC,210840.000,A,4305.1599,N,07740.8718,W,0.11,187.41,260923,,,A*70
$GPGGA,210840.250,4305.1599,N,07740.8718,W,1,06,1.63,162.9,M,-34.4,M,,*52
$GPRMC,210840.500,A,4305.1599,N,07740.8718,W,0.12,218.05,260923,,,A*73
$GPGGA,210840.750,4305.1599,N,07740.8718,W,1,06,1.63,162.9,M,-34.4,M,,*57
$GPRMC,210841.000,A,4305.1599,N,07740.8718,W,0.09,177.40,260923,,,A*76
$GPGGA,210841.250,4305.1599,N,07740.8718,W,1,06,1.63,162.9,M,-34.4,M,,*53
$GPRMC,210841.500,A,4305.1599,N,07740.8718,W,0.12,208.34,260923,,,A*71
$GPGGA,210841.750,4305.1598,N,07740.8718,W,1,06,1.63,162.9,M,-34.4,M,,*57
$GPRMC,210842.000,A,4305.1598,N,07740.8718,W,0.11,170.41,260923,,,A*7B
$GPGGA,210842.250,4305.1598,N,07740.8718,W,1,06,1.63,162.9,M,-34.4,M,,*51
$GPRMC,210842.500,A,4305.1598,N,07740.8718,W,0.13,164.50,260923,,,A*79
$GPGGA,210842.750,4305.1598,N,07740.8718,W,1,06,1.63,162.9,M,-34.4,M,,*54
$GPRMC,210843.000,A,4305.1598,N,07740.8718,W,0.14,150.31,260923,,,A*7A
$GPGGA,210843.250,4305.1598,N,07740.8718,W,1,06,1.63,162.9,M,-34.4,M,,*50
$GPRMC,210843.500,A,4305.1598,N,07740.8718,W,0.19,147.47,260923,,,A*75
$GPGGA,210843.750,4305.1598,N,07740.8718,W,1,06,1.63,162.9,M,-34.4,M,,*55
$GPRMC,210844.000,A,4305.1598,N,07740.8718,W,0.11,170.21,260923,,,A*7B
$GPGGA,210844.250,4305.1598,N,07740.8718,W,1,06,1.63,162.9,M,-34.4,M,,*57
$GPRMC,210844.500,A,4305.1597,N,07740.8718,W,0.14,209.91,260923,,,A*72
$GPGGA,210844.750,4305.1597,N,07740.8718,W,1,06,1.63,162.9,M,-34.4,M,,*5D
$GPRMC,210845.000,A,4305.1597,N,07740.8718,W,0.12,283.62,260923,,,A*7E
$GPGGA,210845.250,4305.1597,N,07740.8718,W,1,06,1.63,162.9,M,-34.4,M,,*59
$GPRMC,210845.500,A,4305.1597,N,07740.8718,W,0.09,291.00,260923,,,A*76
$GPGGA,210845.750,4305.1597,N,07740.8718,W,1,06,1.63,162.9,M,-34.4,M,,*5C
$GPRMC,210846.000,A,4305.1597,N,07740.8718,W,0.11,290.84,260923,,,A*74
$GPGGA,210846.250,4305.1597,N,07740.8718,W,1,06,1.63,162.9,M,-34.4,M,,*5A
$GPRMC,210846.500,A,4305.1597,N,07740.8719,W,0.17,277.24,260923,,,A*75
$GPGGA,210846.750,4305.1597,N,07740.8719,W,1,06,1.63,162.9,M,-34.4,M,,*5E
$GPRMC,210847.000,A,4305.1597,N,07740.8719,W,0.11,267.32,260923,,,A*71
$GPGGA,210847.250,4305.1597,N,07740.8719,W,1,06,1.63,162.9,M,-34.4,M,,*5A
$GPRMC,210847.500,A,4305.1597,N,07740.8719,W,0.07,292.35,260923,,,A*7E
$GPGGA,210847.750,4305.1597,N,07740.8719,W,1,06,1.63,162.9,M,-34.4,M,,*5F
$GPRMC,210848.000,A,4305.1597,N,07740.8719,W,0.06,277.59,260923,,,A*74
$GPGGA,210848.250,4305.1597,N,07740.8719,W,1,06,1.63,162.9,M,-34.4,M,,*55
$GPRMC,210848.500,A,4305.1597,N,07740.8719,W,0.06,301.30,260923,,,A*7E
$GPGGA,210848.750,4305.1597,N,07740.8719,W,1,06,1.63,162.9,M,-34.4,M,,*50
$GPRMC,210849.000,A,4305.1597,N,07740.8719,W,0.04,341.99,260923,,,A*7F
$GPGGA,210849.250,4305.1597,N,07740.8719,W,1,06,1.63,162.9,M,-34.4,M,,*54
$GPRMC,210849.500,A,4305.1597,N,07740.8719,W,0.07,239.30,260923,,,A*74
$GPGGA,210849.750,4305.1597,N,07740.8720,W,1,06,1.63,162.9,M,-34.4,M,,*5B
$GPRMC,210850.000,A,4305.1597,N,07740.8720,W,0.07,171.43,260923,,,A*78
$GPGGA,210850.250,4305.1597,N,07740.8720,W,1,06,1.63,162.9,M,-34.4,M,,*56
$GPRMC,210850.500,A,4305.1597,N,07740.8720,W,0.00,311.70,260923,,,A*7E
$GPGGA,210850.750,4305.1597,N,07740.8720,W,1,06,1.63,162.9,M,-34.4,M,,*53
$GPRMC,210851.000,A,4305.1597,N,07740.8720,W,0.11,234.68,260923,,,A*75
$GPGGA,210851.250,4305.1597,N,07740.8720,W,1,06,1.63,162.9,M,-34.4,M,,*57
$GPRMC,210851.500,A,4305.1597,N,07740.8720,W,0.08,258.36,260923,,,A*79
$GPGGA,210851.750,4305.1597,N,07740.8720,W,1,06,1.63,162.9,M,-34.4,M,,*52
$GPRMC,210852.000,A,4305.1597,N,07740.8720,W,0.25,298.49,260923,,,A*74
$GPGGA,210852.250,4305.1597,N,07740.8720,W,1,06,1.63,162.9,M,-34.4,M,,*54
$GPRMC,210852.500,A,4305.1597,N,07740.8720,W,0.15,295.13,260923,,,A*70
$GPGGA,210852.750,4305.1597,N,07740.8720,W,1,06,1.63,162.9,M,-34.4,M,,*51
$GPRMC,210853.000,A,4305.1597,N,07740.8721,W,0.11,246.90,260923,,,A*74
$GPGGA,210853.250,4305.1597,N,07740.8721,W,1,06,1.63,162.9,M,-34.4,M,,*54
$GPRMC,210853.500,A,4305.1597,N,07740.8721,W,0.04,216.82,260923,,,A*73
$GPGGA,210853.750,4305.1597,N,07740.8721,W,1,06,1.63,162.9,M,-34.4,M,,*51
$GPRMC,210854.000,A,4305.1597,N,07740.8721,W,0.08,269.61,260923,,,A*78
$GPGGA,210854.250,4305.1597,N,07740.8721,W,1,06,1.63,162.8,M,-34.4,M,,*52
$GPRMC,210854.500,A,4305.1597,N,07740.8721,W,0.09,210.43,260923,,,A*72
$GPGGA,210854.750,4305.1597,N,07740.8721,W,1,06,1.63,162.8,M,-34.4,M,,*57
$GPRMC,210855.000,A,4305.1597,N,07740.8721,W,0.26,143.37,260923,,,A*7D
$GPGGA,210855.250,4305.1597,N,07740.8721,W,1,06,1.63,162.8,M,-34.4,M,,*53
$GPRMC,210855.500,A,4305.1597,N,07740.8720,W,0.23,139.77,260923,,,A*75
$GPGGA,210855.750,4305.1596,N,07740.8720,W,1,06,1.63,162.8,M,-34.4,M,,*56
$GPRMC,210856.000,A,4305.1596,N,07740.8720,W,0.19,135.40,260923,,,A*73
$GPGGA,210856.250,4305.1596,N,07740.8720,W,1,06,1.63,162.8,M,-34.4,M,,*50
$GPRMC,210856.500,A,4305.1596,N,07740.8720,W,0.18,133.33,260923,,,A*75
$GPGGA,210856.750,4305.1596,N,07740.8720,W,1,06,1.63,162.8,M,-34.4,M,,*55
$GPRMC,210857.000,A,4305.1596,N,07740.8720,W,0.28,150.25,260923,,,A*70
$GPGGA,210857.250,4305.1596,N,07740.8719,W,1,06,1.63,162.8,M,-34.4,M,,*5B
$GPRMC,210857.500,A,4305.1596,N,07740.8719,W,0.20,141.98,260923,,,A*71
$GPGGA,210857.750,4305.1595,N,07740.8719,W,1,06,1.63,162.8,M,-34.4,M,,*5D
$GPRMC,210858.000,A,4305.1595,N,07740.8719,W,0.26,169.48,260923,,,A*79
$GPGGA,210858.250,4305.1595,N,07740.8719,W,1,06,1.63,162.8,M,-34.4,M,,*57
$GPRMC,210858.500,A,4305.1595,N,07740.8719,W,0.19,172.18,260923,,,A*7F
$GPGGA,210858.750,4305.1595,N,07740.8719,W,1,06,1.63,162.8,M,-34.4,M,,*52
$GPRMC,210859.000,A,4305.1595,N,07740.8719,W,0.06,183.37,260923,,,A*76
$GPGGA,210859.250,4305.1595,N,07740.8719,W,1,06,1.63,162.8,M,-34.4,M,,*56
$GPRMC,210859.500,A,4305.1595,N,07740.8719,W,0.07,198.71,260923,,,A*7A
$GPGGA,210859.750,4305.1595,N,07740.8719,W,1,06,1.63,162.8,M,-34.4,M,,*53
$GPRMC,210900.000,A,4305.1595,N,07740.8719,W,0.05,83.21,260923,,,A*4E
$GPGGA,210900.250,4305.1595,N,07740.8719,W,1,06,1.63,162.8,M,-34.4,M,,*5B
$GPRMC,210900.500,A,4305.1595,N,07740.8719,W,0.10,83.95,260923,,,A*40
$GPGGA,210900.750,4305.1595,N,07740.8719,W,1,06,1.63,162.8,M,-34.4,M,,*5E
$GPRMC,210901.000,A,4305.1595,N,07740.8719,W,0.25,184.61,260923,,,A*7F
$GPGGA,210901.250,4305.1594,N,07740.8719,W,1,06,1.63,162.8,M,-34.4,M,,*5B
$GPRMC,210901.500,A,4305.1594,N,07740.8719,W,0.21,327.79,260923,,,A*7D
$GPGGA,210901.750,4305.1594,N,07740.8719,W,1,06,1.63,162.8,M,-34.4,M,,*5E
$GPRMC,210902.000,A,4305.1595,N,07740.8719,W,0.23,332.10,260923,,,A*73
$GPGGA,210902.250,4305.1595,N,07740.8719,W,1,07,1.38,162.8,M,-34.4,M,,*56
$GPRMC,210902.500,A,4305.1595,N,07740.8719,W,0.18,346.45,260923,,,A*7D
$GPGGA,210902.750,4305.1595,N,07740.8719,W,1,07,1.50,162.8,M,-34.4,M,,*5D
$GPRMC,210903.000,A,4305.1595,N,07740.8719,W,0.20,348.65,260923,,,A*7E
$GPGGA,210903.250,4305.1595,N,07740.8719,W,1,07,1.50,162.8,M,-34.4,M,,*59
$GPRMC,210903.500,A,4305.1595,N,07740.8719,W,0.26,338.33,260923,,,A*79
$GPGGA,210903.750,4305.1595,N,07740.8720,W,1,07,1.38,162.8,M,-34.4,M,,*58
$GPRMC,210904.000,A,4305.1596,N,07740.8720,W,0.31,344.55,260923,,,A*7F
$GPGGA,210904.250,4305.1596,N,07740.8720,W,1,07,1.38,162.8,M,-34.4,M,,*59
$GPRMC,210904.500,A,4305.1596,N,07740.8720,W,0.15,292.83,260923,,,A*7D
$GPGGA,210904.750,4305.1596,N,07740.8720,W,1,07,1.38,162.8,M,-34.4,M,,*5C
$GPRMC,210905.000,A,4305.1596,N,07740.8720,W,0.49,265.87,260923,,,A*7C
$GPGGA,210905.250,4305.1596,N,07740.8721,W,1,07,1.38,162.8,M,-34.4,M,,*59
$GPRMC,210905.500,A,4305.1596,N,07740.8721,W,0.54,275.28,260923,,,A*70
$GPGGA,210905.750,4305.1596,N,07740.8722,W,1,07,1.38,162.8,M,-34.4,M,,*5F
$GPRMC,210906.000,A,4305.1596,N,07740.8722,W,0.38,283.10,260923,,,A*7D
$GPGGA,210906.250,4305.1596,N,07740.8723,W,1,07,1.38,162.8,M,-34.4,M,,*58
$GPRMC,210906.500,A,4305.1596,N,07740.8723,W,0.06,354.94,260923,,,A*73
$GPGGA,210906.750,4305.1596,N,07740.8723,W,1,07,1.50,162.8,M,-34.4,M,,*53
$GPRMC,210907.000,A,4305.1596,N,07740.8723,W,0.12,51.02,260923,,,A*4B
$GPGGA,210907.250,4305.1596,N,07740.8723,W,1,07,1.38,162.8,M,-34.4,M,,*59
$GPRMC,210907.500,A,4305.1596,N,07740.8723,W,0.12,80.13,260923,,,A*42
$GPGGA,210907.750,4305.1596,N,07740.8722,W,1,07,1.38,162.8,M,-34.4,M,,*5D
$GPRMC,210908.000,A,4305.1596,N,07740.8722,W,0.09,94.11,260923,,,A*44
$GPGGA,210908.250,4305.1596,N,07740.8722,W,1,07,1.38,162.8,M,-34.4,M,,*57
$GPRMC,210908.500,A,4305.1596,N,07740.8722,W,0.06,84.43,260923,,,A*48
$GPGGA,210908.750,4305.1596,N,07740.8722,W,1,07,1.38,162.8,M,-34.4,M,,*52
$GPRMC,210909.000,A,4305.1596,N,07740.8722,W,0.07,68.13,260923,,,A*4A
$GPGGA,210909.250,4305.1596,N,07740.8722,W,1,07,1.38,162.8,M,-34.4,M,,*56
$GPRMC,210909.500,A,4305.1596,N,07740.8722,W,0.04,191.92,260923,,,A*72
$GPGGA,210909.750,4305.1596,N,07740.8722,W,1,07,1.38,162.8,M,-34.4,M,,*53
$GPRMC,210910.000,A,4305.1596,N,07740.8722,W,0.10,161.39,260923,,,A*74
$GPGGA,210910.250,4305.1596,N,07740.8722,W,1,07,1.38,162.8,M,-34.4,M,,*5E
$GPRMC,210910.500,A,4305.1596,N,07740.8722,W,0.07,149.71,260923,,,A*71
$GPGGA,210910.750,4305.1596,N,07740.8722,W,1,07,1.38,162.8,M,-34.4,M,,*5B
$GPRMC,210911.000,A,4305.1596,N,07740.8722,W,0.08,75.37,260923,,,A*46
$GPGGA,210911.250,4305.1596,N,07740.8722,W,1,07,1.38,162.8,M,-34.4,M,,*5F
$GPRMC,210911.500,A,4305.1596,N,07740.8722,W,0.10,8.53,260923,,,A*72
$GPGGA,210911.750,4305.1596,N,07740.8722,W,1,06,2.74,162.8,M,-34.4,M,,*50
$GPRMC,210912.000,A,4305.1596,N,07740.8722,W,0.18,337.67,260923,,,A*74
$GPGGA,210912.250,4305.1597,N,07740.8722,W,1,06,2.35,162.8,M,-34.4,M,,*52
$GPRMC,210912.500,A,4305.1597,N,07740.8722,W,0.17,333.08,260923,,,A*72
$GPGGA,210912.750,4305.1597,N,07740.8722,W,1,07,1.38,162.8,M,-34.4,M,,*58
$GPRMC,210913.000,A,4305.1597,N,07740.8722,W,0.18,297.99,260923,,,A*7E
$GPGGA,210913.250,4305.1597,N,07740.8722,W,1,06,2.35,162.8,M,-34.4,M,,*53
$GPRMC,210913.500,A,4305.1597,N,07740.8722,W,0.19,296.91,260923,,,A*73
$GPGGA,210913.750,4305.1597,N,07740.8723,W,1,07,1.38,162.8,M,-34.4,M,,*58
$GPRMC,210914.000,A,4305.1597,N,07740.8723,W,0.14,318.61,260923,,,A*75
$GPGGA,210914.250,4305.1597,N,07740.8723,W,1,07,1.38,162.8,M,-34.4,M,,*5A
$GPRMC,210914.500,A,4305.1597,N,07740.8723,W,0.11,349.12,260923,,,A*75
$GPGGA,210914.750,4305.1597,N,07740.8723,W,1,07,1.49,162.8,M,-34.4,M,,*59
$GPRMC,210915.000,A,4305.1598,N,07740.8723,W,0.16,349.29,260923,,,A*71
$GPGGA,210915.250,4305.1598,N,07740.8723,W,1,07,1.49,162.8,M,-34.4,M,,*52
$GPRMC,210915.500,A,4305.1598,N,07740.8723,W,0.19,4.05,260923,,,A*7F
$GPGGA,210915.750,4305.1598,N,07740.8723,W,1,07,1.49,162.8,M,-34.4,M,,*57
$GPRMC,210916.000,A,4305.1598,N,07740.8723,W,0.12,42.00,260923,,,A*45
$GPGGA,210916.250,4305.1598,N,07740.8723,W,1,07,1.38,162.8,M,-34.4,M,,*57
$GPRMC,210916.500,A,4305.1598,N,07740.8723,W,0.16,52.17,260923,,,A*43
$GPGGA,210916.750,4305.1598,N,07740.8723,W,1,07,1.38,162.8,M,-34.4,M,,*52
$GPRMC,210917.000,A,4305.1598,N,07740.8723,W,0.20,15.14,260923,,,A*42
$GPGGA,210917.250,4305.1599,N,07740.8723,W,1,07,1.38,162.8,M,-34.4,M,,*57
$GPRMC,210917.500,A,4305.1599,N,07740.8723,W,0.24,355.31,260923,,,A*72
$GPGGA,210917.750,4305.1599,N,07740.8723,W,1,07,1.49,162.8,M,-34.4,M,,*54
$GPRMC,210918.000,A,4305.1599,N,07740.8723,W,0.22,337.72,260923,,,A*7D
$GPGGA,210918.250,4305.1599,N,07740.8723,W,1,07,1.38,162.8,M,-34.4,M,,*58
$GPRMC,210918.500,A,4305.1599,N,07740.8723,W,0.18,328.78,260923,,,A*75
$GPGGA,210918.750,4305.1599,N,07740.8723,W,1,07,1.38,162.8,M,-34.4,M,,*5D
$GPRMC,210919.000,A,4305.1599,N,07740.8723,W,0.13,330.06,260923,,,A*7A
$GPGGA,210919.250,4305.1600,N,07740.8723,W,1,07,1.38,162.8,M,-34.4,M,,*5A
$GPRMC,210919.500,A,4305.1600,N,07740.8723,W,0.13,280.83,260923,,,A*7B
$GPGGA,210919.750,4305.1600,N,07740.8723,W,1,07,1.38,162.8,M,-34.4,M,,*5F
$GPRMC,210920.000,A,4305.1600,N,07740.8724,W,0.18,273.53,260923,,,A*79
$GPGGA,210920.250,4305.1600,N,07740.8724,W,1,07,1.38,162.8,M,-34.4,M,,*57
$GPRMC,210920.500,A,4305.1600,N,07740.8724,W,0.11,288.55,260923,,,A*77
$GPGGA,210920.750,4305.1600,N,07740.8724,W,1,07,1.38,162.8,M,-34.4,M,,*52
$GPRMC,210921.000,A,4305.1600,N,07740.8724,W,0.05,294.43,260923,,,A*7C
$GPGGA,210921.250,4305.1600,N,07740.8724,W,1,07,1.38,162.8,M,-34.4,M,,*56
$GPRMC,210921.500,A,4305.1600,N,07740.8724,W,0.04,238.88,260923,,,A*79
$GPGGA,210921.750,4305.1600,N,07740.8724,W,1,07,1.38,162.8,M,-34.4,M,,*53
$GPRMC,210922.000,A,4305.1600,N,07740.8724,W,0.08,213.79,260923,,,A*74
$GPGGA,210922.250,4305.1600,N,07740.8724,W,1,07,1.38,162.8,M,-34.4,M,,*55
$GPRMC,210922.500,A,4305.1600,N,07740.8724,W,0.07,186.94,260923,,,A*72
$GPGGA,210922.750,4305.1600,N,07740.8724,W,1,07,1.38,162.8,M,-34.4,M,,*50
$GPRMC,210923.000,A,4305.1599,N,07740.8724,W,0.12,128.74,260923,,,A*7B
$GPGGA,210923.250,4305.1599,N,07740.8724,W,1,07,1.38,162.8,M,-34.4,M,,*57
$GPRMC,210923.500,A,4305.1599,N,07740.8724,W,0.05,138.73,260923,,,A*7E
$GPGGA,210923.750,4305.1599,N,07740.8724,W,1,07,1.38,162.8,M,-34.4,M,,*52
$GPRMC,210924.000,A,4305.1599,N,07740.8724,W,0.06,95.09,260923,,,A*44
$GPGGA,210924.250,4305.1599,N,07740.8724,W,1,07,1.38,162.8,M,-34.4,M,,*50
$GPRMC,210924.500,A,4305.1599,N,07740.8724,W,0.07,76.64,260923,,,A*46
$GPGGA,210924.750,4305.1599,N,07740.8724,W,1,07,1.38,162.8,M,-34.4,M,,*55
$GPRMC,210925.000,A,4305.1599,N,07740.8724,W,0.07,75.83,260923,,,A*48
$GPGGA,210925.250,4305.1599,N,07740.8724,W,1,07,1.38,162.8,M,-34.4,M,,*51
$GPRMC,210925.500,A,4305.1599,N,07740.8724,W,0.09,125.64,260923,,,A*7E
$GPGGA,210925.750,4305.1599,N,07740.8724,W,1,07,1.38,162.8,M,-34.4,M,,*54
$GPRMC,210926.000,A,4305.1599,N,07740.8724,W,0.08,255.72,260923,,,A*7A
$GPGGA,210926.250,4305.1599,N,07740.8724,W,1,07,1.38,162.8,M,-34.4,M,,*52
$GPRMC,210926.500,A,4305.1599,N,07740.8724,W,0.08,235.18,260923,,,A*75
$GPGGA,210926.750,4305.1599,N,07740.8724,W,1,07,1.38,162.8,M,-34.4,M,,*57
$GPRMC,210927.000,A,4305.1599,N,07740.8724,W,0.10,167.06,260923,,,A*73
$GPGGA,210927.250,4305.1599,N,07740.8724,W,1,07,1.38,162.8,M,-34.4,M,,*53
$GPRMC,210927.500,A,4305.1599,N,07740.8724,W,0.07,185.28,260923,,,A*70
$GPGGA,210927.750,4305.1599,N,07740.8724,W,1,07,1.38,162.8,M,-34.4,M,,*56
$GPRMC,210928.000,A,4305.1599,N,07740.8724,W,0.10,158.93,260923,,,A*7C
$GPGGA,210928.250,4305.1599,N,07740.8724,W,1,06,2.34,162.8,M,-34.4,M,,*52
$GPRMC,210928.500,A,4305.1599,N,07740.8724,W,0.14,149.20,260923,,,A*75
$GPGGA,210928.750,4305.1599,N,07740.8724,W,1,07,1.38,162.8,M,-34.4,M,,*59
$GPRMC,210929.000,A,4305.1599,N,07740.8724,W,0.15,140.74,260923,,,A*78
$GPGGA,210929.250,4305.1599,N,07740.8724,W,1,07,1.38,162.8,M,-34.4,M,,*5D
$GPRMC,210929.500,A,4305.1599,N,07740.8724,W,0.12,168.23,260923,,,A*72
$GPGGA,210929.750,4305.1598,N,07740.8724,W,1,07,1.38,162.8,M,-34.4,M,,*59
$GPRMC,210930.000,A,4305.1598,N,07740.8724,W,0.19,196.18,260923,,,A*7C
$GPGGA,210930.250,4305.1598,N,07740.8724,W,1,07,1.38,162.8,M,-34.4,M,,*54
$GPRMC,210930.500,A,4305.1598,N,07740.8724,W,0.21,192.44,260923,,,A*7F
$GPGGA,210930.750,4305.1598,N,07740.8724,W,1,07,1.38,162.8,M,-34.4,M,,*51
$GPRMC,210931.000,A,4305.1598,N,07740.8724,W,0.29,198.06,260923,,,A*7F
$GPGGA,210931.250,4305.1598,N,07740.8724,W,1,07,1.38,162.8,M,-34.4,M,,*55
$GPRMC,210931.500,A,4305.1597,N,07740.8724,W,0.33,195.48,260923,,,A*79
$GPGGA,210931.750,4305.1597,N,07740.8724,W,1,07,1.38,162.8,M,-34.4,M,,*5F
$GPRMC,210932.000,A,4305.1597,N,07740.8724,W,0.31,189.84,260923,,,A*70
$GPGGA,210932.250,4305.1597,N,07740.8724,W,1,06,2.34,162.8,M,-34.4,M,,*57
$GPRMC,210932.500,A,4305.1596,N,07740.8724,W,0.26,197.11,260923,,,A*71
$GPGGA,210932.750,4305.1596,N,07740.8725,W,1,07,1.38,162.8,M,-34.4,M,,*5C
$GPRMC,210933.000,A,4305.1596,N,07740.8725,W,0.24,216.32,260923,,,A*7D
$GPGGA,210933.250,4305.1596,N,07740.8725,W,1,07,1.38,162.8,M,-34.4,M,,*58
$GPRMC,210933.500,A,4305.1596,N,07740.8725,W,0.27,244.13,260923,,,A*7F
$GPGGA,210933.750,4305.1596,N,07740.8725,W,1,07,1.38,162.8,M,-34.4,M,,*5D
$GPRMC,210934.000,A,4305.1596,N,07740.8725,W,0.20,251.58,260923,,,A*71
$GPGGA,210934.250,4305.1596,N,07740.8726,W,1,07,1.38,162.8,M,-34.4,M,,*5C
$GPRMC,210934.500,A,4305.1596,N,07740.8726,W,0.19,236.24,260923,,,A*77
$GPGGA,210934.750,4305.1596,N,07740.8726,W,1,07,1.38,162.8,M,-34.4,M,,*59
$GPRMC,210935.000,A,4305.1595,N,07740.8726,W,0.22,207.86,260923,,,A*72
$GPGGA,210935.250,4305.1595,N,07740.8726,W,1,07,1.38,162.8,M,-34.4,M,,*5E
$GPRMC,210935.500,A,4305.1595,N,07740.8726,W,0.25,206.05,260923,,,A*7A
$GPGGA,210935.750,4305.1595,N,07740.8726,W,1,07,1.38,162.8,M,-34.4,M,,*5B
$GPRMC,210936.000,A,4305.1595,N,07740.8727,W,0.25,203.01,260923,,,A*7C
$GPGGA,210936.250,4305.1595,N,07740.8727,W,1,07,1.38,162.8,M,-34.4,M,,*5C
$GPRMC,210936.500,A,4305.1595,N,07740.8727,W,0.24,199.29,260923,,,A*72
$GPGGA,210936.750,4305.1594,N,07740.8727,W,1,07,1.38,162.8,M,-34.4,M,,*58
$GPRMC,210937.000,A,4305.1594,N,07740.8727,W,0.25,181.09,260923,,,A*7D
$GPGGA,210937.250,4305.1594,N,07740.8727,W,1,07,1.38,162.8,M,-34.4,M,,*5C
$GPRMC,210937.500,A,4305.1594,N,07740.8727,W,0.19,181.05,260923,,,A*7B
$GPGGA,210937.750,4305.1594,N,07740.8727,W,1,07,1.38,162.8,M,-34.4,M,,*59
$GPRMC,210938.000,A,4305.1594,N,07740.8727,W,0.13,189.50,260923,,,A*73
$GPGGA,210938.250,4305.1594,N,07740.8727,W,1,07,1.38,162.8,M,-34.4,M,,*53
$GPRMC,210938.500,A,4305.1594,N,07740.8727,W,0.18,174.56,260923,,,A*79
$GPGGA,210938.750,4305.1593,N,07740.8727,W,1,07,1.38,162.8,M,-34.4,M,,*51
$GPRMC,210939.000,A,4305.1593,N,07740.8727,W,0.21,170.18,260923,,,A*7E
$GPGGA,210939.250,4305.1593,N,07740.8727,W,1,07,1.38,162.8,M,-34.4,M,,*55
$GPRMC,210939.500,A,4305.1593,N,07740.8727,W,0.24,180.58,260923,,,A*75
$GPGGA,210939.750,4305.1593,N,07740.8727,W,1,07,1.38,162.8,M,-34.4,M,,*50
$GPRMC,210940.000,A,4305.1593,N,07740.8727,W,0.25,183.87,260923,,,A*7E
$GPGGA,210940.250,4305.1592,N,07740.8727,W,1,07,1.38,162.8,M,-34.4,M,,*5A
$GPRMC,210940.500,A,4305.1592,N,07740.8727,W,0.21,167.64,260923,,,A*79
$GPGGA,210940.750,4305.1592,N,07740.8727,W,1,07,1.38,162.8,M,-34.4,M,,*5F
$GPRMC,210941.000,A,4305.1592,N,07740.8727,W,0.08,209.05,260923,,,A*7A
$GPGGA,210941.250,4305.1592,N,07740.8727,W,1,07,1.38,162.8,M,-34.4,M,,*5B
$GPRMC,210941.500,A,4305.1592,N,07740.8727,W,0.08,215.09,260923,,,A*7E
$GPGGA,210941.750,4305.1592,N,07740.8727,W,1,07,1.38,162.8,M,-34.4,M,,*5E
$GPRMC,210942.000,A,4305.1592,N,07740.8727,W,0.12,191.30,260923,,,A*76
$GPGGA,210942.250,4305.1592,N,07740.8727,W,1,06,2.34,162.8,M,-34.4,M,,*56
$GPRMC,210942.500,A,4305.1592,N,07740.8727,W,0.13,182.76,260923,,,A*72
$GPGGA,210942.750,4305.1592,N,07740.8727,W,1,06,2.34,162.8,M,-34.4,M,,*53
$GPRMC,210943.000,A,4305.1592,N,07740.8727,W,0.12,169.78,260923,,,A*7C
$GPGGA,210943.250,4305.1591,N,07740.8727,W,1,07,1.38,162.8,M,-34.4,M,,*5A
$GPRMC,210943.500,A,4305.1591,N,07740.8727,W,0.21,189.33,260923,,,A*7B
$GPGGA,210943.750,4305.1591,N,07740.8727,W,1,07,1.38,162.8,M,-34.4,M,,*5F
$GPRMC,210944.000,A,4305.1591,N,07740.8727,W,0.15,226.68,260923,,,A*76
$GPGGA,210944.250,4305.1591,N,07740.8728,W,1,07,1.38,162.8,M,-34.4,M,,*52
$GPRMC,210944.500,A,4305.1591,N,07740.8728,W,0.12,220.30,260923,,,A*70
$GPGGA,210944.750,4305.1591,N,07740.8728,W,1,06,2.33,162.8,M,-34.4,M,,*5E
$GPRMC,210945.000,A,4305.1591,N,07740.8728,W,0.11,238.20,260923,,,A*7F
$GPGGA,210945.250,4305.1591,N,07740.8728,W,1,06,2.33,162.8,M,-34.4,M,,*5A
$GPRMC,210945.500,A,4305.1591,N,07740.8728,W,0.08,237.72,260923,,,A*7A
$GPGGA,210945.750,4305.1591,N,07740.8728,W,1,06,2.33,162.8,M,-34.4,M,,*5F
$GPRMC,210946.000,A,4305.1591,N,07740.8728,W,0.16,268.98,260923,,,A*7D
$GPGGA,210946.250,4305.1591,N,07740.8728,W,1,06,2.34,162.8,M,-34.4,M,,*5E
$GPRMC,210946.500,A,4305.1591,N,07740.8729,W,0.20,287.10,260923,,,A*7D
$GPGGA,210946.750,4305.1591,N,07740.8729,W,1,06,2.33,162.8,M,-34.4,M,,*5D
$GPRMC,210947.000,A,4305.1591,N,07740.8729,W,0.19,294.07,260923,,,A*77
$GPGGA,210947.250,4305.1591,N,07740.8729,W,1,06,2.33,162.8,M,-34.4,M,,*59
$GPRMC,210947.500,A,4305.1591,N,07740.8729,W,0.20,284.30,260923,,,A*7D
$GPGGA,210947.750,4305.1591,N,07740.8730,W,1,07,1.38,162.8,M,-34.4,M,,*5D
$GPRMC,210948.000,A,4305.1591,N,07740.8730,W,0.08,234.65,260923,,,A*7E
$GPGGA,210948.250,4305.1591,N,07740.8730,W,1,06,2.33,162.8,M,-34.4,M,,*5E
$GPRMC,210948.500,A,4305.1591,N,07740.8730,W,0.09,219.69,260923,,,A*79
$GPGGA,210948.750,4305.1591,N,07740.8730,W,1,06,2.33,162.8,M,-34.4,M,,*5B
$GPRMC,210949.000,A,4305.1591,N,07740.8730,W,0.14,241.59,260923,,,A*7F
$GPGGA,210949.250,4305.1591,N,07740.8730,W,1,07,1.38,162.8,M,-34.4,M,,*56
$GPRMC,210949.500,A,4305.1591,N,07740.8730,W,0.16,234.69,260923,,,A*79
$GPGGA,210949.750,4305.1591,N,07740.8731,W,1,07,1.38,162.8,M,-34.4,M,,*52
$GPRMC,210950.000,A,4305.1591,N,07740.8731,W,0.26,224.36,260923,,,A*7D
$GPGGA,210950.250,4305.1591,N,07740.8731,W,1,07,1.38,162.8,M,-34.4,M,,*5F
$GPRMC,210950.500,A,4305.1590,N,07740.8731,W,0.30,216.67,260923,,,A*7B
$GPGGA,210950.750,4305.1590,N,07740.8731,W,1,07,1.38,162.8,M,-34.4,M,,*5B
$GPRMC,210951.000,A,4305.1590,N,07740.8731,W,0.32,216.54,260923,,,A*7D
$GPGGA,210951.250,4305.1590,N,07740.8732,W,1,07,1.38,162.8,M,-34.4,M,,*5C
$GPRMC,210951.500,A,4305.1590,N,07740.8732,W,0.25,227.31,260923,,,A*7C
$GPGGA,210951.750,4305.1590,N,07740.8732,W,1,06,2.33,162.9,M,-34.4,M,,*51
$GPRMC,210952.000,A,4305.1589,N,07740.8732,W,0.22,250.55,260923,,,A*77
$GPGGA,210952.250,4305.1589,N,07740.8732,W,1,06,2.33,162.9,M,-34.4,M,,*5F
$GPRMC,210952.500,A,4305.1589,N,07740.8733,W,0.26,266.50,260923,,,A*77
$GPGGA,210952.750,4305.1589,N,07740.8733,W,1,06,2.33,162.9,M,-34.4,M,,*5B
$GPRMC,210953.000,A,4305.1589,N,07740.8733,W,0.21,253.17,260923,,,A*71
$GPGGA,210953.250,4305.1589,N,07740.8733,W,1,06,2.33,162.9,M,-34.4,M,,*5F
$GPRMC,210953.500,A,4305.1589,N,07740.8734,W,0.16,238.87,260923,,,A*73
$GPGGA,210953.750,4305.1589,N,07740.8734,W,1,05,2.44,162.9,M,-34.4,M,,*5E
$GPRMC,210954.000,A,4305.1589,N,07740.8734,W,0.10,204.20,260923,,,A*75
$GPGGA,210954.250,4305.1589,N,07740.8734,W,1,05,2.44,162.9,M,-34.4,M,,*5C
$GPRMC,210954.500,A,4305.1589,N,07740.8734,W,0.11,212.31,260923,,,A*76
$GPGGA,210954.750,4305.1589,N,07740.8734,W,1,05,2.44,162.9,M,-34.4,M,,*59
$GPRMC,210955.000,A,4305.1589,N,07740.8734,W,0.10,189.61,260923,,,A*77
$GPGGA,210955.250,4305.1589,N,07740.8734,W,1,05,2.44,162.9,M,-34.4,M,,*5D
$GPRMC,210955.500,A,4305.1589,N,07740.8734,W,0.03,158.11,260923,,,A*7B
$GPGGA,210955.750,4305.1589,N,07740.8734,W,1,05,2.44,162.9,M,-34.4,M,,*58
$GPRMC,210956.000,A,4305.1589,N,07740.8734,W,0.08,40.69,260923,,,A*41
$GPGGA,210956.250,4305.1589,N,07740.8734,W,1,06,2.33,162.9,M,-34.4,M,,*5D
$GPRMC,210956.500,A,4305.1589,N,07740.8734,W,0.13,53.99,260923,,,A*43
$GPGGA,210956.750,4305.1589,N,07740.8734,W,1,07,1.38,162.9,M,-34.4,M,,*51
$GPRMC,210957.000,A,4305.1589,N,07740.8734,W,0.07,79.79,260923,,,A*44
$GPGGA,210957.250,4305.1589,N,07740.8734,W,1,06,2.33,162.9,M,-34.4,M,,*5C
$GPRMC,210957.500,A,4305.1589,N,07740.8734,W,0.06,186.92,260923,,,A*74
$GPGGA,210957.750,4305.1589,N,07740.8734,W,1,05,2.44,162.9,M,-34.4,M,,*5A
$GPRMC,210958.000,A,4305.1589,N,07740.8734,W,0.17,235.23,260923,,,A*7F
$GPGGA,210958.250,4305.1589,N,07740.8734,W,1,06,2.33,162.9,M,-34.4,M,,*53
$GPRMC,210958.500,A,4305.1589,N,07740.8734,W,0.24,253.51,260923,,,A*7F
$GPGGA,210958.750,4305.1589,N,07740.8735,W,1,07,1.38,162.9,M,-34.4,M,,*5E
$GPRMC,210959.000,A,4305.1589,N,07740.8735,W,0.20,249.67,260923,,,A*70
$GPGGA,210959.250,4305.1589,N,07740.8735,W,1,07,1.38,162.9,M,-34.4,M,,*5A
$GPRMC,210959.500,A,4305.1589,N,07740.8735,W,0.12,211.86,260923,,,A*76
$GPGGA,210959.750,4305.1589,N,07740.8735,W,1,06,2.33,162.9,M,-34.4,M,,*56
$GPRMC,211000.000,A,4305.1588,N,07740.8735,W,0.15,162.07,260923,,,A*7F
$GPGGA,211000.250,4305.1588,N,07740.8735,W,1,06,2.33,162.9,M,-34.4,M,,*56
$GPRMC,211000.500,A,4305.1588,N,07740.8735,W,0.12,158.03,260923,,,A*70
$GPGGA,211000.750,4305.1588,N,07740.8735,W,1,06,2.33,162.9,M,-34.4,M,,*53
$GPRMC,211001.000,A,4305.1588,N,07740.8735,W,0.07,190.30,260923,,,A*74
$GPGGA,211001.250,4305.1588,N,07740.8735,W,1,06,2.33,162.9,M,-34.4,M,,*57
$GPRMC,211001.500,A,4305.1588,N,07740.8735,W,0.07,226.43,260923,,,A*7B
$GPGGA,211001.750,4305.1588,N,07740.8735,W,1,05,2.44,162.9,M,-34.4,M,,*51
$GPRMC,211002.000,A,4305.1588,N,07740.8736,W,0.07,230.71,260923,,,A*78
$GPGGA,211002.250,4305.1588,N,07740.8736,W,1,06,1.60,162.9,M,-34.4,M,,*52
$GPRMC,211002.500,A,4305.1593,N,07740.8736,W,0.07,329.63,260923,,,A*7D
$GPGGA,211002.750,4305.1598,N,07740.8735,W,1,06,1.60,163.6,M,-34.4,M,,*5B
$GPRMC,211003.000,A,4305.1602,N,07740.8735,W,0.13,0.63,260923,,,A*7C
$GPGGA,211003.250,4305.1605,N,07740.8735,W,1,06,1.64,164.1,M,-34.4,M,,*5C
$GPRMC,211003.500,A,4305.1606,N,07740.8735,W,0.15,10.14,260923,,,A*4A
$GPGGA,211003.750,4305.1606,N,07740.8735,W,1,07,1.12,164.1,M,-34.4,M,,*5A
$GPRMC,211004.000,A,4305.1606,N,07740.8735,W,0.12,330.10,260923,,,A*7A
$GPGGA,211004.250,4305.1606,N,07740.8735,W,1,07,1.10,164.2,M,-34.4,M,,*59
$GPRMC,211004.500,A,4305.1606,N,07740.8735,W,0.16,303.95,260923,,,A*76
$GPGGA,211004.750,4305.1606,N,07740.8735,W,1,08,1.01,164.2,M,-34.4,M,,*53
$GPRMC,211005.000,A,4305.1606,N,07740.8735,W,0.19,302.55,260923,,,A*70
$GPGGA,211005.250,4305.1607,N,07740.8736,W,1,07,1.30,164.2,M,-34.4,M,,*58
$GPRMC,211005.500,A,4305.1607,N,07740.8736,W,0.15,295.87,260923,,,A*7B
$GPGGA,211005.750,4305.1607,N,07740.8736,W,1,07,1.30,164.2,M,-34.4,M,,*5D
$GPRMC,211006.000,A,4305.1607,N,07740.8736,W,0.08,311.09,260923,,,A*7A
$GPGGA,211006.250,4305.1607,N,07740.8736,W,1,07,1.30,164.2,M,-34.4,M,,*5B
$GPRMC,211006.500,A,4305.1607,N,07740.8736,W,0.04,298.47,260923,,,A*79
$GPGGA,211006.750,4305.1607,N,07740.8736,W,1,07,1.30,164.2,M,-34.4,M,,*5E
$GPRMC,211007.000,A,4305.1607,N,07740.8736,W,0.10,274.44,260923,,,A*79
$GPGGA,211007.250,4305.1607,N,07740.8736,W,1,07,1.31,164.2,M,-34.4,M,,*5B
$GPRMC,211007.500,A,4305.1607,N,07740.8736,W,0.08,261.45,260923,,,A*70
$GPGGA,211007.750,4305.1607,N,07740.8737,W,1,07,1.30,164.2,M,-34.4,M,,*5E
$GPRMC,211008.000,A,4305.1607,N,07740.8737,W,0.12,220.06,260923,,,A*72
$GPGGA,211008.250,4305.1607,N,07740.8737,W,1,07,1.31,164.2,M,-34.4,M,,*55
$GPRMC,211008.500,A,4305.1607,N,07740.8737,W,0.09,226.08,260923,,,A*75
$GPGGA,211008.750,4305.1607,N,07740.8737,W,1,07,1.31,164.2,M,-34.4,M,,*50
$GPRMC,211009.000,A,4305.1607,N,07740.8737,W,0.12,97.19,260923,,,A*43
$GPGGA,211009.250,4305.1607,N,07740.8737,W,1,07,1.31,164.2,M,-34.4,M,,*54
$GPRMC,211009.500,A,4305.1607,N,07740.8737,W,0.04,126.85,260923,,,A*7F
$GPGGA,211009.750,4305.1607,N,07740.8737,W,1,07,1.31,164.2,M,-34.4,M,,*51
$GPRMC,211010.000,A,4305.1607,N,07740.8737,W,0.09,138.29,260923,,,A*76
$GPGGA,211010.250,4305.1607,N,07740.8736,W,1,07,1.31,164.2,M,-34.4,M,,*5D
$GPRMC,211010.500,A,4305.1607,N,07740.8736,W,0.08,62.20,260923,,,A*44
$GPGGA,211010.750,4305.1607,N,07740.8736,W,1,07,1.31,164.2,M,-34.4,M,,*58
$GPRMC,211011.000,A,4305.1607,N,07740.8736,W,0.11,65.20,260923,,,A*4F
$GPGGA,211011.250,4305.1607,N,07740.8736,W,1,06,1.60,164.2,M,-34.4,M,,*59
$GPRMC,211011.500,A,4305.1607,N,07740.8736,W,0.11,55.69,260923,,,A*44
$GPGGA,211011.750,4305.1607,N,07740.8736,W,1,06,1.60,164.2,M,-34.4,M,,*5C
$GPRMC,211012.000,A,4305.1607,N,07740.8736,W,0.19,81.34,260923,,,A*4B
$GPGGA,211012.250,4305.1607,N,07740.8736,W,1,06,1.60,164.3,M,-34.4,M,,*5B
$GPRMC,211012.500,A,4305.1607,N,07740.8735,W,0.21,88.91,260923,,,A*40
$GPGGA,211012.750,4305.1607,N,07740.8735,W,1,06,1.60,164.3,M,-34.4,M,,*5D
$GPRMC,211013.000,A,4305.1608,N,07740.8735,W,0.19,72.52,260923,,,A*4A
$GPGGA,211013.250,4305.1608,N,07740.8735,W,1,06,1.60,164.3,M,-34.4,M,,*56
$GPRMC,211013.500,A,4305.1608,N,07740.8735,W,0.17,35.98,260923,,,A*44
$GPGGA,211013.750,4305.1608,N,07740.8735,W,1,07,1.31,164.3,M,-34.4,M,,*56
$GPRMC,211014.000,A,4305.1608,N,07740.8735,W,0.16,5.88,260923,,,A*75
$GPGGA,211014.250,4305.1608,N,07740.8735,W,1,06,1.64,164.3,M,-34.4,M,,*55
$GPRMC,211014.500,A,4305.1608,N,07740.8735,W,0.10,28.36,260923,,,A*4C
$GPGGA,211014.750,4305.1608,N,07740.8735,W,1,07,1.31,164.3,M,-34.4,M,,*51
$GPRMC,211015.000,A,4305.1608,N,07740.8735,W,0.08,75.17,260923,,,A*4A
$GPGGA,211015.250,4305.1608,N,07740.8734,W,1,07,1.30,164.3,M,-34.4,M,,*55
$GPRMC,211015.500,A,4305.1608,N,07740.8734,W,0.17,86.68,260923,,,A*44
$GPGGA,211015.750,4305.1608,N,07740.8734,W,1,06,1.60,164.3,M,-34.4,M,,*54
$GPRMC,211016.000,A,4305.1608,N,07740.8734,W,0.12,26.26,260923,,,A*47
$GPGGA,211016.250,4305.1609,N,07740.8734,W,1,06,1.60,164.3,M,-34.4,M,,*53
$GPRMC,211016.500,A,4305.1609,N,07740.8734,W,0.07,18.53,260923,,,A*48
$GPGGA,211016.750,4305.1609,N,07740.8734,W,1,07,1.32,164.3,M,-34.4,M,,*50
$GPRMC,211017.000,A,4305.1609,N,07740.8734,W,0.01,140.99,260923,,,A*70
$GPGGA,211017.250,4305.1609,N,07740.8734,W,1,07,1.32,164.3,M,-34.4,M,,*54
$GPRMC,211017.500,A,4305.1609,N,07740.8734,W,0.01,272.13,260923,,,A*75
$GPGGA,211017.750,4305.1609,N,07740.8734,W,1,06,1.64,164.3,M,-34.4,M,,*53
$GPRMC,211018.000,A,4305.1609,N,07740.8734,W,0.01,83.98,260923,,,A*40
$GPGGA,211018.250,4305.1609,N,07740.8734,W,1,07,1.12,164.3,M,-34.4,M,,*59
$GPRMC,211018.500,A,4305.1609,N,07740.8734,W,0.05,303.62,260923,,,A*7F
$GPGGA,211018.750,4305.1609,N,07740.8734,W,1,07,1.12,164.3,M,-34.4,M,,*5C
$GPRMC,211019.000,A,4305.1609,N,07740.8734,W,0.07,344.55,260923,,,A*7E
$GPGGA,211019.250,4305.1609,N,07740.8734,W,1,06,1.64,164.3,M,-34.4,M,,*58
$GPRMC,211019.500,A,4305.1609,N,07740.8734,W,0.10,337.50,260923,,,A*7C
$GPGGA,211019.750,4305.1609,N,07740.8734,W,1,07,1.12,164.3,M,-34.4,M,,*5D
$GPRMC,211020.000,A,4305.1609,N,07740.8734,W,0.12,344.24,260923,,,A*76
$GPGGA,211020.250,4305.1609,N,07740.8734,W,1,07,1.12,164.3,M,-34.4,M,,*52
$GPRMC,211020.500,A,4305.1609,N,07740.8734,W,0.16,341.20,260923,,,A*76
$GPGGA,211020.750,4305.1609,N,07740.8734,W,1,06,1.64,164.3,M,-34.4,M,,*57
$GPRMC,211021.000,A,4305.1610,N,07740.8734,W,0.16,356.94,260923,,,A*73
$GPGGA,211021.250,4305.1610,N,07740.8734,W,1,07,1.12,164.3,M,-34.4,M,,*5B
$GPRMC,211021.500,A,4305.1610,N,07740.8734,W,0.14,12.16,260923,,,A*4D
$GPGGA,211021.750,4305.1610,N,07740.8734,W,1,06,1.64,164.3,M,-34.4,M,,*5E
$GPRMC,211022.000,A,4305.1610,N,07740.8734,W,0.13,7.72,260923,,,A*7A
$GPGGA,211022.250,4305.1610,N,07740.8734,W,1,06,1.64,164.3,M,-34.4,M,,*58
$GPRMC,211022.500,A,4305.1610,N,07740.8734,W,0.13,355.78,260923,,,A*71
$GPGGA,211022.750,4305.1610,N,07740.8734,W,1,07,1.32,164.3,M,-34.4,M,,*5F
$GPRMC,211023.000,A,4305.1610,N,07740.8735,W,0.16,346.92,260923,,,A*77
$GPGGA,211023.250,4305.1611,N,07740.8735,W,1,07,1.32,164.3,M,-34.4,M,,*5B
$GPRMC,211023.500,A,4305.1611,N,07740.8735,W,0.20,345.09,260923,,,A*77
$GPGGA,211023.750,4305.1611,N,07740.8735,W,1,07,1.32,164.3,M,-34.4,M,,*5E
$GPRMC,211024.000,A,4305.1611,N,07740.8735,W,0.22,338.79,260923,,,A*7A
$GPGGA,211024.250,4305.1611,N,07740.8735,W,1,07,1.32,164.3,M,-34.4,M,,*5C
$GPRMC,211024.500,A,4305.1611,N,07740.8735,W,0.23,337.58,260923,,,A*72
$GPGGA,211024.750,4305.1612,N,07740.8735,W,1,08,1.03,164.3,M,-34.4,M,,*57
$GPRMC,211025.000,A,4305.1612,N,07740.8735,W,0.21,332.51,260923,,,A*7B
$GPGGA,211025.250,4305.1612,N,07740.8735,W,1,08,1.03,164.3,M,-34.4,M,,*53
$GPRMC,211025.500,A,4305.1612,N,07740.8735,W,0.22,332.17,260923,,,A*7F
$GPGGA,211025.750,4305.1612,N,07740.8735,W,1,08,1.03,164.3,M,-34.4,M,,*56
$GPRMC,211026.000,A,4305.1612,N,07740.8736,W,0.24,337.00,260923,,,A*7F
$GPGGA,211026.250,4305.1612,N,07740.8736,W,1,08,1.03,164.4,M,-34.4,M,,*54
$GPRMC,211026.500,A,4305.1613,N,07740.8736,W,0.23,337.11,260923,,,A*7C
$GPGGA,211026.750,4305.1613,N,07740.8736,W,1,07,1.12,164.5,M,-34.4,M,,*5E
$GPRMC,211027.000,A,4305.1613,N,07740.8737,W,0.22,334.66,260923,,,A*7B
$GPGGA,211027.250,4305.1613,N,07740.8738,W,1,07,1.12,164.6,M,-34.4,M,,*57
$GPRMC,211027.500,A,4305.1614,N,07740.8739,W,0.23,331.23,260923,,,A*72
$GPGGA,211027.750,4305.1614,N,07740.8739,W,1,07,1.12,164.7,M,-34.4,M,,*55
$GPRMC,211028.000,A,4305.1614,N,07740.8739,W,0.21,332.88,260923,,,A*78
$GPGGA,211028.250,4305.1615,N,07740.8739,W,1,07,1.12,164.8,M,-34.4,M,,*51
$GPRMC,211028.500,A,4305.1615,N,07740.8740,W,0.20,333.05,260923,,,A*77
$GPGGA,211028.750,4305.1615,N,07740.8740,W,1,07,1.12,164.9,M,-34.4,M,,*5B
$GPRMC,211029.000,A,4305.1615,N,07740.8742,W,0.20,332.83,260923,,,A*7E
$GPGGA,211029.250,4305.1616,N,07740.8742,W,1,07,1.12,165.0,M,-34.4,M,,*56
$GPRMC,211029.500,A,4305.1616,N,07740.8742,W,0.20,332.34,260923,,,A*74
$GPGGA,211029.750,4305.1617,N,07740.8743,W,1,07,1.12,165.1,M,-34.4,M,,*52
$GPRMC,211030.000,A,4305.1617,N,07740.8743,W,0.20,332.19,260923,,,A*76
$GPGGA,211030.250,4305.1617,N,07740.8744,W,1,07,1.12,165.2,M,-34.4,M,,*5B
$GPRMC,211030.500,A,4305.1618,N,07740.8744,W,0.19,332.02,260923,,,A*7B
$GPGGA,211030.750,4305.1618,N,07740.8743,W,1,07,1.12,165.3,M,-34.4,M,,*57
$GPRMC,211031.000,A,4305.1618,N,07740.8743,W,0.16,332.55,260923,,,A*75
$GPGGA,211031.250,4305.1618,N,07740.8743,W,1,08,1.03,165.4,M,-34.4,M,,*5B
$GPRMC,211031.500,A,4305.1619,N,07740.8743,W,0.16,333.39,260923,,,A*7A
$GPGGA,211031.750,4305.1619,N,07740.8743,W,1,07,1.12,165.5,M,-34.4,M,,*51
$GPRMC,211032.000,A,4305.1619,N,07740.8742,W,0.14,334.87,260923,,,A*7D
$GPGGA,211032.250,4305.1619,N,07740.8742,W,1,07,1.12,165.6,M,-34.4,M,,*55
$GPRMC,211032.500,A,4305.1620,N,07740.8743,W,0.14,336.64,260923,,,A*7C
$GPGGA,211032.750,4305.1620,N,07740.8743,W,1,07,1.12,165.7,M,-34.4,M,,*5A
$GPRMC,211033.000,A,4305.1621,N,07740.8744,W,0.15,337.87,260923,,,A*73
$GPGGA,211033.250,4305.1622,N,07740.8744,W,1,07,1.12,165.8,M,-34.4,M,,*54
$GPRMC,211033.500,A,4305.1622,N,07740.8745,W,0.16,338.74,260923,,,A*74
$GPGGA,211033.750,4305.1623,N,07740.8745,W,1,07,1.12,165.9,M,-34.4,M,,*50
$GPRMC,211034.000,A,4305.1624,N,07740.8746,W,0.18,339.22,260923,,,A*7F
$GPGGA,211034.250,4305.1624,N,07740.8746,W,1,07,1.12,165.9,M,-34.4,M,,*56
$GPRMC,211034.500,A,4305.1624,N,07740.8746,W,0.20,339.23,260923,,,A*70
$GPGGA,211034.750,4305.1624,N,07740.8746,W,1,07,1.12,165.9,M,-34.4,M,,*53
$GPRMC,211035.000,A,4305.1624,N,07740.8746,W,0.20,339.23,260923,,,A*74
$GPGGA,211035.250,4305.1624,N,07740.8746,W,1,07,1.12,165.9,M,-34.4,M,,*57
$GPRMC,211035.500,A,4305.1625,N,07740.8746,W,0.19,339.42,260923,,,A*7D
$GPGGA,211035.750,4305.1625,N,07740.8746,W,1,07,1.12,166.0,M,-34.4,M,,*59
$GPRMC,211036.000,A,4305.1625,N,07740.8746,W,0.19,339.75,260923,,,A*7F
$GPGGA,211036.250,4305.1625,N,07740.8746,W,1,07,1.12,166.0,M,-34.4,M,,*5F
$GPRMC,211036.500,A,4305.1625,N,07740.8747,W,0.19,340.11,260923,,,A*77
$GPGGA,211036.750,4305.1625,N,07740.8747,W,1,07,1.12,166.0,M,-34.4,M,,*5B
$GPRMC,211037.000,A,4305.1625,N,07740.8747,W,0.19,339.93,260923,,,A*77
$GPGGA,211037.250,4305.1625,N,07740.8748,W,1,07,1.12,166.1,M,-34.4,M,,*51
$GPRMC,211037.500,A,4305.1626,N,07740.8749,W,0.20,339.33,260923,,,A*7F
$GPGGA,211037.750,4305.1626,N,07740.8749,W,1,07,1.12,166.1,M,-34.4,M,,*56
$GPRMC,211038.000,A,4305.1626,N,07740.8749,W,0.19,339.13,260923,,,A*7D
$GPGGA,211038.250,4305.1626,N,07740.8749,W,1,07,1.12,166.2,M,-34.4,M,,*5F
$GPRMC,211038.500,A,4305.1626,N,07740.8749,W,0.19,339.11,260923,,,A*7A
$GPGGA,211038.750,4305.1626,N,07740.8750,W,1,07,1.12,166.3,M,-34.4,M,,*53
$GPRMC,211039.000,A,4305.1626,N,07740.8750,W,0.17,339.26,260923,,,A*7C
$GPGGA,211039.250,4305.1626,N,07740.8750,W,1,06,1.64,166.3,M,-34.4,M,,*57
$GPRMC,211039.500,A,4305.1627,N,07740.8750,W,0.16,339.61,260923,,,A*7A
$GPGGA,211039.750,4305.1627,N,07740.8750,W,1,07,1.12,166.4,M,-34.4,M,,*54
$GPRMC,211040.000,A,4305.1627,N,07740.8750,W,0.15,340.40,260923,,,A*7F
$GPGGA,211040.250,4305.1627,N,07740.8750,W,1,08,1.03,166.4,M,-34.4,M,,*50
$GPRMC,211040.500,A,4305.1627,N,07740.8750,W,0.14,346.30,260923,,,A*7A
$GPGGA,211040.750,4305.1627,N,07740.8751,W,1,07,1.12,166.4,M,-34.4,M,,*5B
$GPRMC,211041.000,A,4305.1627,N,07740.8751,W,0.14,345.94,260923,,,A*72
$GPGGA,211041.250,4305.1628,N,07740.8751,W,1,08,1.03,166.5,M,-34.4,M,,*5E
$GPRMC,211041.500,A,4305.1628,N,07740.8751,W,0.15,343.32,260923,,,A*73
$GPGGA,211041.750,4305.1628,N,07740.8752,W,1,07,1.12,166.5,M,-34.4,M,,*57
$GPRMC,211042.000,A,4305.1629,N,07740.8753,W,0.17,332.97,260923,,,A*7D
$GPGGA,211042.250,4305.1629,N,07740.8753,W,1,07,1.12,166.5,M,-34.4,M,,*51
$GPRMC,211042.500,A,4305.1629,N,07740.8754,W,0.17,331.59,260923,,,A*7E
$GPGGA,211042.750,4305.1630,N,07740.8754,W,1,08,1.03,166.6,M,-34.4,M,,*57
$GPRMC,211043.000,A,4305.1630,N,07740.8754,W,0.18,335.33,260923,,,A*75
$GPGGA,211043.250,4305.1631,N,07740.8754,W,1,08,1.03,166.6,M,-34.4,M,,*52
$GPRMC,211043.500,A,4305.1631,N,07740.8754,W,0.18,337.62,260923,,,A*77
$GPGGA,211043.750,4305.1631,N,07740.8754,W,1,08,1.03,166.6,M,-34.4,M,,*57
$GPRMC,211044.000,A,4305.1631,N,07740.8754,W,0.17,339.56,260923,,,A*73
$GPGGA,211044.250,4305.1631,N,07740.8754,W,1,07,1.12,166.6,M,-34.4,M,,*5A
$GPRMC,211044.500,A,4305.1631,N,07740.8754,W,0.17,340.04,260923,,,A*7F
$GPGGA,211044.750,4305.1631,N,07740.8754,W,1,07,1.12,166.6,M,-34.4,M,,*5F
$GPRMC,211045.000,A,4305.1631,N,07740.8754,W,0.18,340.70,260923,,,A*77
$GPGGA,211045.250,4305.1631,N,07740.8754,W,1,07,1.12,166.7,M,-34.4,M,,*5A
$GPRMC,211045.500,A,4305.1632,N,07740.8754,W,0.20,339.52,260923,,,A*74
$GPGGA,211045.750,4305.1632,N,07740.8754,W,1,07,1.12,166.7,M,-34.4,M,,*5C
$GPRMC,211046.000,A,4305.1632,N,07740.8754,W,0.22,339.43,260923,,,A*70
$GPGGA,211046.250,4305.1632,N,07740.8754,W,1,08,1.03,166.7,M,-34.4,M,,*55
$GPRMC,211046.500,A,4305.1632,N,07740.8754,W,0.23,339.17,260923,,,A*75
$GPGGA,211046.750,4305.1632,N,07740.8754,W,1,08,1.03,166.7,M,-34.4,M,,*50
$GPRMC,211047.000,A,4305.1632,N,07740.8754,W,0.24,338.67,260923,,,A*70
$GPGGA,211047.250,4305.1633,N,07740.8755,W,1,08,1.03,166.7,M,-34.4,M,,*54
$GPRMC,211047.500,A,4305.1633,N,07740.8755,W,0.23,337.73,260923,,,A*78
$GPGGA,211047.750,4305.1633,N,07740.8755,W,1,08,1.03,166.8,M,-34.4,M,,*5E
$GPRMC,211048.000,A,4305.1633,N,07740.8755,W,0.24,336.76,260923,,,A*71
$GPGGA,211048.250,4305.1633,N,07740.8755,W,1,08,1.03,166.8,M,-34.4,M,,*54
$GPRMC,211048.500,A,4305.1633,N,07740.8755,W,0.24,335.91,260923,,,A*7E
$GPGGA,211048.750,4305.1634,N,07740.8755,W,1,08,1.03,166.8,M,-34.4,M,,*56
$GPRMC,211049.000,A,4305.1634,N,07740.8755,W,0.25,335.01,260923,,,A*75
$GPGGA,211049.250,4305.1634,N,07740.8755,W,1,08,1.03,166.8,M,-34.4,M,,*52
$GPRMC,211049.500,A,4305.1634,N,07740.8756,W,0.25,334.51,260923,,,A*77
$GPGGA,211049.750,4305.1634,N,07740.8756,W,1,07,1.32,166.8,M,-34.4,M,,*59
$GPRMC,211050.000,A,4305.1634,N,07740.8756,W,0.25,334.06,260923,,,A*78
$GPGGA,211050.250,4305.1635,N,07740.8756,W,1,07,1.32,166.9,M,-34.4,M,,*54
$GPRMC,211050.500,A,4305.1635,N,07740.8756,W,0.25,333.67,260923,,,A*7C
$GPGGA,211050.750,4305.1635,N,07740.8756,W,1,08,1.03,166.9,M,-34.4,M,,*5C
$GPRMC,211051.000,A,4305.1635,N,07740.8756,W,0.25,333.56,260923,,,A*7A
$GPGGA,211051.250,4305.1635,N,07740.8756,W,1,07,1.32,166.9,M,-34.4,M,,*55
$GPRMC,211051.500,A,4305.1635,N,07740.8757,W,0.26,333.57,260923,,,A*7C
$GPGGA,211051.750,4305.1635,N,07740.8757,W,1,07,1.32,166.9,M,-34.4,M,,*51
$GPRMC,211052.000,A,4305.1636,N,07740.8757,W,0.27,333.40,260923,,,A*7E
$GPGGA,211052.250,4305.1636,N,07740.8757,W,1,07,1.32,167.0,M,-34.4,M,,*5C
$GPRMC,211052.500,A,4305.1636,N,07740.8757,W,0.27,333.30,260923,,,A*7C
$GPGGA,211052.750,4305.1636,N,07740.8757,W,1,07,1.32,167.0,M,-34.4,M,,*59
$GPRMC,211053.000,A,4305.1636,N,07740.8757,W,0.26,333.04,260923,,,A*7E
$GPGGA,211053.250,4305.1637,N,07740.8757,W,1,07,1.32,167.0,M,-34.4,M,,*5C
$GPRMC,211053.500,A,4305.1637,N,07740.8757,W,0.27,332.99,260923,,,A*7E
$GPGGA,211053.750,4305.1637,N,07740.8758,W,1,07,1.32,167.0,M,-34.4,M,,*56
$GPRMC,211054.000,A,4305.1637,N,07740.8758,W,0.29,333.00,260923,,,A*7C
$GPGGA,211054.250,4305.1637,N,07740.8758,W,1,08,1.03,167.0,M,-34.4,M,,*59
$GPRMC,211054.500,A,4305.1637,N,07740.8758,W,0.29,333.00,260923,,,A*79
$GPGGA,211054.750,4305.1638,N,07740.8758,W,1,08,1.03,167.1,M,-34.4,M,,*52
$GPRMC,211055.000,A,4305.1638,N,07740.8758,W,0.30,332.89,260923,,,A*7A
$GPGGA,211055.250,4305.1638,N,07740.8758,W,1,07,1.32,167.1,M,-34.4,M,,*5B
$GPRMC,211055.500,A,4305.1638,N,07740.8759,W,0.30,332.98,260923,,,A*7E
$GPGGA,211055.750,4305.1638,N,07740.8759,W,1,07,1.32,167.1,M,-34.4,M,,*5F
$GPRMC,211056.000,A,4305.1639,N,07740.8759,W,0.28,333.12,260923,,,A*73
$GPGGA,211056.250,4305.1639,N,07740.8759,W,1,07,1.32,167.1,M,-34.4,M,,*58
$GPRMC,211056.500,A,4305.1639,N,07740.8759,W,0.29,333.31,260923,,,A*76
$GPGGA,211056.750,4305.1639,N,07740.8759,W,1,07,1.32,167.2,M,-34.4,M,,*5E
$GPRMC,211057.000,A,4305.1639,N,07740.8759,W,0.30,333.57,260923,,,A*7A
$GPGGA,211057.250,4305.1640,N,07740.8759,W,1,08,1.03,167.2,M,-34.4,M,,*59
$GPRMC,211057.500,A,4305.1640,N,07740.8759,W,0.31,333.94,260923,,,A*7F
$GPGGA,211057.750,4305.1640,N,07740.8760,W,1,08,1.03,167.2,M,-34.4,M,,*56
$GPRMC,211058.000,A,4305.1640,N,07740.8760,W,0.30,334.37,260923,,,A*70
$GPGGA,211058.250,4305.1640,N,07740.8760,W,1,08,1.03,167.2,M,-34.4,M,,*5C
$GPRMC,211058.500,A,4305.1641,N,07740.8760,W,0.30,334.95,260923,,,A*7C
$GPGGA,211058.750,4305.1641,N,07740.8760,W,1,08,1.03,167.3,M,-34.4,M,,*59
$GPRMC,211059.000,A,4305.1641,N,07740.8760,W,0.30,335.73,260923,,,A*71
$GPGGA,211059.250,4305.1641,N,07740.8760,W,1,08,1.03,167.3,M,-34.4,M,,*5D
$GPRMC,211059.500,A,4305.1641,N,07740.8760,W,0.30,336.60,260923,,,A*75
$GPGGA,211059.750,4305.1642,N,07740.8760,W,1,08,1.03,167.3,M,-34.4,M,,*5B
$GPRMC,211100.000,A,4305.1642,N,07740.8760,W,0.30,337.20,260923,,,A*7B
$GPGGA,211100.250,4305.1642,N,07740.8761,W,1,08,1.03,167.3,M,-34.4,M,,*52
$GPRMC,211100.500,A,4305.1642,N,07740.8761,W,0.30,337.68,260923,,,A*73
$GPGGA,211100.750,4305.1642,N,07740.8761,W,1,08,1.03,167.4,M,-34.4,M,,*50
$GPRMC,211101.000,A,4305.1643,N,07740.8760,W,0.31,338.26,260923,,,A*73
$GPGGA,211101.250,4305.1643,N,07740.8760,W,1,08,1.03,167.5,M,-34.4,M,,*55
$GPRMC,211101.500,A,4305.1643,N,07740.8760,W,0.31,338.89,260923,,,A*73
$GPGGA,211101.750,4305.1644,N,07740.8760,W,1,08,1.03,167.8,M,-34.4,M,,*5A
$GPRMC,211102.000,A,4305.1644,N,07740.8760,W,0.32,339.44,260923,,,A*71
$GPGGA,211102.250,4305.1645,N,07740.8760,W,1,08,1.03,167.9,M,-34.4,M,,*5C
$GPRMC,211102.500,A,4305.1645,N,07740.8760,W,0.32,339.96,260923,,,A*7A
$GPGGA,211102.750,4305.1646,N,07740.8760,W,1,08,1.03,168.1,M,-34.4,M,,*5D
$GPRMC,211103.000,A,4305.1646,N,07740.8760,W,0.33,340.28,260923,,,A*77
$GPGGA,211103.250,4305.1647,N,07740.8761,W,1,08,1.03,168.2,M,-34.4,M,,*5A
$GPRMC,211103.500,A,4305.1647,N,07740.8760,W,0.33,340.43,260923,,,A*7E
