Vers 81
USE_SERIAL_FEEDBACK=true
DEVELOPMENT_MODE=false
USE_RMC_ONLY=false

$GPRMC,171703.500,A,4308.2966,N,07726.2676,W,0.28,167.89,051023,,,A*71
$GPGGA,171703.750,4308.2967,N,07726.2675,W,1,04,2.98,152.6,M,-34.4,M,,*51
$GPRMC,171704.000,A,4308.2968,N,07726.2675,W,0.30,173.06,051023,,,A*75
$GPGGA,171704.250,4308.2969,N,07726.2675,W,1,04,2.97,154.0,M,-34.4,M,,*52
$GPRMC,171704.500,A,4308.2970,N,07726.2674,W,0.24,185.42,051023,,,A*74
$GPGGA,171704.750,4308.2970,N,07726.2673,W,1,04,2.97,155.6,M,-34.4,M,,*5E
$GPRMC,171705.000,A,4308.2972,N,07726.2672,W,0.06,159.83,051023,,,A*78
$GPGGA,171705.250,4308.2973,N,07726.2671,W,1,04,2.98,156.6,M,-34.4,M,,*57
$GPRMC,171705.500,A,4308.2975,N,07726.2671,W,0.07,214.85,051023,,,A*74
$GPGGA,171705.750,4308.2976,N,07726.2670,W,1,04,2.98,157.2,M,-34.4,M,,*53
$GPRMC,171706.000,A,4308.2977,N,07726.2669,W,0.10,244.01,051023,,,A*76
$GPGGA,171706.250,4308.2978,N,07726.2669,W,1,04,2.98,157.8,M,-34.4,M,,*59
$GPRMC,171706.500,A,4308.2980,N,07726.2668,W,0.07,227.80,051023,,,A*70
$GPGGA,171706.750,4308.2981,N,07726.2667,W,1,04,2.98,158.3,M,-34.4,M,,*50
$GPRMC,171707.000,A,4308.2983,N,07726.2666,W,0.05,221.86,051023,,,A*7B
$GPGGA,171707.250,4308.2984,N,07726.2665,W,1,04,2.98,158.9,M,-34.4,M,,*59
$GPRMC,171707.500,A,4308.2985,N,07726.2665,W,0.03,250.31,051023,,,A*77
$GPGGA,171707.750,4308.2986,N,07726.2664,W,1,04,2.98,159.6,M,-34.4,M,,*51
$GPRMC,171708.000,A,4308.2987,N,07726.2664,W,0.04,292.18,051023,,,A*7C
$GPGGA,171708.250,4308.2989,N,07726.2664,W,1,04,2.98,160.0,M,-34.4,M,,*58
$GPRMC,171708.500,A,4308.2990,N,07726.2663,W,0.07,75.78,051023,,,A*46
$GPGGA,171708.750,4308.2991,N,07726.2663,W,1,04,2.98,160.2,M,-34.4,M,,*51
$GPRMC,171709.000,A,4308.2992,N,07726.2663,W,0.02,334.68,051023,,,A*72
$GPGGA,171709.250,4308.2993,N,07726.2663,W,1,04,2.98,160.5,M,-34.4,M,,*50
$GPRMC,171709.500,A,4308.2994,N,07726.2663,W,0.03,3.38,051023,,,A*72
$GPGGA,171709.750,4308.2995,N,07726.2663,W,1,04,3.04,160.8,M,-34.4,M,,*5A
$GPRMC,171710.000,A,4308.2996,N,07726.2664,W,0.05,241.28,051023,,,A*79
$GPGGA,171710.250,4308.2997,N,07726.2663,W,1,04,2.97,161.0,M,-34.4,M,,*57
$GPRMC,171710.500,A,4308.2997,N,07726.2663,W,0.05,80.09,051023,,,A*46
$GPGGA,171710.750,4308.2998,N,07726.2664,W,1,04,2.97,161.4,M,-34.4,M,,*5E
$GPRMC,171711.000,A,4308.2999,N,07726.2664,W,0.06,63.90,051023,,,A*45
$GPGGA,171711.250,4308.3000,N,07726.2664,W,1,04,2.98,161.4,M,-34.4,M,,*5C
$GPRMC,171711.500,A,4308.3001,N,07726.2664,W,0.04,58.41,051023,,,A*4F
$GPGGA,171711.750,4308.3001,N,07726.2664,W,1,04,2.97,161.5,M,-34.4,M,,*56
$GPRMC,171712.000,A,4308.3002,N,07726.2664,W,0.00,85.01,051023,,,A*4A
$GPGGA,171712.250,4308.3002,N,07726.2664,W,1,04,2.98,161.8,M,-34.4,M,,*51
$GPRMC,171712.500,A,4308.3003,N,07726.2664,W,0.01,152.01,051023,,,A*74
$GPGGA,171712.750,4308.3004,N,07726.2664,W,1,04,2.97,162.0,M,-34.4,M,,*56
$GPRMC,171713.000,A,4308.3004,N,07726.2664,W,0.05,131.40,051023,,,A*73
$GPGGA,171713.250,4308.3004,N,07726.2664,W,1,04,2.97,162.3,M,-34.4,M,,*51
$GPRMC,171713.500,A,4308.3005,N,07726.2664,W,0.05,212.64,051023,,,A*73
$GPGGA,171713.750,4308.3005,N,07726.2664,W,1,04,2.98,162.3,M,-34.4,M,,*5A
$GPRMC,171714.000,A,4308.3005,N,07726.2664,W,0.10,173.10,051023,,,A*72
$GPGGA,171714.250,4308.3006,N,07726.2664,W,1,04,2.97,162.3,M,-34.4,M,,*54
$GPRMC,171714.500,A,4308.3006,N,07726.2664,W,0.11,179.40,051023,,,A*7A
$GPGGA,171714.750,4308.3006,N,07726.2664,W,1,04,2.98,162.2,M,-34.4,M,,*5F
$GPRMC,171715.000,A,4308.3006,N,07726.2664,W,0.16,176.44,051023,,,A*72
$GPGGA,171715.250,4308.3007,N,07726.2664,W,1,04,2.97,162.0,M,-34.4,M,,*57
$GPRMC,171715.500,A,4308.3007,N,07726.2664,W,0.13,182.03,051023,,,A*7B
$GPGGA,171715.750,4308.3009,N,07726.2663,W,1,04,2.97,161.7,M,-34.4,M,,*5F
$GPRMC,171716.000,A,4308.3009,N,07726.2663,W,0.07,190.39,051023,,,A*7B
$GPGGA,171716.250,4308.3010,N,07726.2663,W,1,04,2.97,161.5,M,-34.4,M,,*53
$GPRMC,171716.500,A,4308.3011,N,07726.2663,W,0.04,204.93,051023,,,A*7A
$GPGGA,171716.750,4308.3011,N,07726.2663,W,1,04,2.97,161.3,M,-34.4,M,,*51
$GPRMC,171717.000,A,4308.3012,N,07726.2662,W,0.04,174.85,051023,,,A*7F
$GPGGA,171717.250,4308.3013,N,07726.2662,W,1,04,2.97,161.1,M,-34.4,M,,*54
$GPRMC,171717.500,A,4308.3013,N,07726.2662,W,0.04,63.22,051023,,,A*41
$GPGGA,171717.750,4308.3014,N,07726.2661,W,1,04,2.98,160.9,M,-34.4,M,,*53
$GPRMC,171718.000,A,4308.3014,N,07726.2661,W,0.03,189.33,051023,,,A*7D
$GPGGA,171718.250,4308.3015,N,07726.2661,W,1,04,2.97,160.8,M,-34.4,M,,*56
$GPRMC,171718.500,A,4308.3015,N,07726.2660,W,0.03,65.56,051023,,,A*48
$GPGGA,171718.750,4308.3016,N,07726.2660,W,1,04,2.98,160.6,M,-34.4,M,,*50
$GPRMC,171719.000,A,4308.3016,N,07726.2660,W,0.02,101.71,051023,,,A*78
$GPGGA,171719.250,4308.3017,N,07726.2659,W,1,04,2.97,160.4,M,-34.4,M,,*52
$GPRMC,171719.500,A,4308.3017,N,07726.2659,W,0.03,36.46,051023,,,A*46
$GPGGA,171719.750,4308.3018,N,07726.2659,W,1,04,2.97,160.2,M,-34.4,M,,*5E
$GPRMC,171720.000,A,4308.3019,N,07726.2658,W,0.02,154.05,051023,,,A*75
$GPGGA,171720.250,4308.3020,N,07726.2657,W,1,05,2.91,159.2,M,-34.4,M,,*59
$GPRMC,171720.500,A,4308.3021,N,07726.2656,W,0.04,85.48,051023,,,A*47
$GPGGA,171720.750,4308.3022,N,07726.2655,W,1,05,2.91,158.3,M,-34.4,M,,*5C
$GPRMC,171721.000,A,4308.3023,N,07726.2655,W,0.02,358.25,051023,,,A*7C
$GPGGA,171721.250,4308.3024,N,07726.2654,W,1,05,2.92,157.8,M,-34.4,M,,*58
$GPRMC,171721.500,A,4308.3024,N,07726.2654,W,0.03,15.07,051023,,,A*44
$GPGGA,171721.750,4308.3025,N,07726.2654,W,1,05,2.91,157.3,M,-34.4,M,,*54
$GPRMC,171722.000,A,4308.3026,N,07726.2654,W,0.01,5.02,051023,,,A*76
$GPGGA,171722.250,4308.3026,N,07726.2653,W,1,05,2.92,157.0,M,-34.4,M,,*56
$GPRMC,171722.500,A,4308.3027,N,07726.2653,W,0.00,3.89,051023,,,A*71
$GPGGA,171722.750,4308.3028,N,07726.2653,W,1,05,2.92,156.8,M,-34.4,M,,*54
$GPRMC,171723.000,A,4308.3028,N,07726.2653,W,0.03,245.62,051023,,,A*7C
$GPGGA,171723.250,4308.3028,N,07726.2653,W,1,05,2.91,156.5,M,-34.4,M,,*5E
$GPRMC,171723.500,A,4308.3029,N,07726.2653,W,0.02,117.57,051023,,,A*7B
$GPGGA,171723.750,4308.3029,N,07726.2653,W,1,05,2.91,156.3,M,-34.4,M,,*5C
$GPRMC,171724.000,A,4308.3030,N,07726.2653,W,0.02,315.44,051023,,,A*73
$GPGGA,171724.250,4308.3030,N,07726.2653,W,1,05,2.91,156.0,M,-34.4,M,,*55
$GPRMC,171724.500,A,4308.3030,N,07726.2653,W,0.03,287.49,051023,,,A*70
$GPGGA,171724.750,4308.3030,N,07726.2652,W,1,05,2.91,155.9,M,-34.4,M,,*5B
$GPRMC,171725.000,A,4308.3030,N,07726.2652,W,0.06,165.17,051023,,,A*74
$GPGGA,171725.250,4308.3030,N,07726.2652,W,1,05,2.91,155.7,M,-34.4,M,,*51
$GPRMC,171725.500,A,4308.3031,N,07726.2652,W,0.06,210.65,051023,,,A*74
$GPGGA,171725.750,4308.3031,N,07726.2652,W,1,05,2.91,155.6,M,-34.4,M,,*54
$GPRMC,171726.000,A,4308.3030,N,07726.2652,W,0.11,204.85,051023,,,A*7E
$GPGGA,171726.250,4308.3030,N,07726.2652,W,1,06,1.63,155.6,M,-34.4,M,,*5E
$GPRMC,171726.500,A,4308.3030,N,07726.2653,W,0.18,234.79,051023,,,A*73
$GPGGA,171726.750,4308.3030,N,07726.2653,W,1,06,1.63,155.6,M,-34.4,M,,*5A
$GPRMC,171727.000,A,4308.3029,N,07726.2653,W,0.14,221.05,051023,,,A*7C
$GPGGA,171727.250,4308.3029,N,07726.2653,W,1,06,1.63,155.7,M,-34.4,M,,*57
$GPRMC,171727.500,A,4308.3029,N,07726.2653,W,0.15,209.32,051023,,,A*76
$GPGGA,171727.750,4308.3029,N,07726.2653,W,1,06,1.63,155.8,M,-34.4,M,,*5D
$GPRMC,171728.000,A,4308.3029,N,07726.2652,W,0.11,183.92,051023,,,A*72
$GPGGA,171728.250,4308.3029,N,07726.2652,W,1,06,1.63,155.9,M,-34.4,M,,*57
$GPRMC,171728.500,A,4308.3028,N,07726.2652,W,0.11,190.19,051023,,,A*77
$GPGGA,171728.750,4308.3028,N,07726.2652,W,1,06,1.63,156.0,M,-34.4,M,,*59
$GPRMC,171729.000,A,4308.3028,N,07726.2652,W,0.14,153.06,051023,,,A*77
$GPGGA,171729.250,4308.3027,N,07726.2652,W,1,06,1.63,156.0,M,-34.4,M,,*52
$GPRMC,171729.500,A,4308.3027,N,07726.2652,W,0.12,158.81,051023,,,A*7F
$GPGGA,171729.750,4308.3028,N,07726.2652,W,1,06,1.63,156.1,M,-34.4,M,,*59
$GPRMC,171730.000,A,4308.3028,N,07726.2652,W,0.11,89.26,051023,,,A*4E
$GPGGA,171730.250,4308.3027,N,07726.2651,W,1,06,1.63,156.2,M,-34.4,M,,*5B
$GPRMC,171730.500,A,4308.3027,N,07726.2652,W,0.06,94.54,051023,,,A*4B
$GPGGA,171730.750,4308.3026,N,07726.2651,W,1,06,1.63,156.4,M,-34.4,M,,*59
$GPRMC,171731.000,A,4308.3025,N,07726.2651,W,0.08,116.75,051023,,,A*78
$GPGGA,171731.250,4308.3025,N,07726.2651,W,1,06,1.63,156.5,M,-34.4,M,,*5F
$GPRMC,171731.500,A,4308.3025,N,07726.2652,W,0.02,332.88,051023,,,A*72
$GPGGA,171731.750,4308.3025,N,07726.2652,W,1,06,1.63,156.5,M,-34.4,M,,*59
$GPRMC,171732.000,A,4308.3026,N,07726.2652,W,0.26,355.65,051023,,,A*73
$GPGGA,171732.250,4308.3027,N,07726.2652,W,1,06,1.93,156.4,M,-34.4,M,,*53
$GPRMC,171732.500,A,4308.3029,N,07726.2651,W,0.60,17.40,051023,,,A*4A
$GPGGA,171732.750,4308.3032,N,07726.2651,W,1,06,1.63,156.4,M,-34.4,M,,*5E
$GPRMC,171733.000,A,4308.3036,N,07726.2650,W,2.03,3.84,051023,,,A*7B
$GPGGA,171733.250,4308.3038,N,07726.2650,W,1,06,1.93,156.5,M,-34.4,M,,*5F
$GPRMC,171733.500,A,4308.3041,N,07726.2649,W,3.40,8.63,051023,,,A*72
$GPGGA,171733.750,4308.3045,N,07726.2648,W,1,06,1.93,156.5,M,-34.4,M,,*59
$GPRMC,171734.000,A,4308.3049,N,07726.2647,W,5.28,6.84,051023,,,A*79
$GPGGA,171734.250,4308.3052,N,07726.2646,W,1,06,1.93,156.6,M,-34.4,M,,*50
$GPRMC,171734.500,A,4308.3056,N,07726.2645,W,5.72,4.67,051023,,,A*70
$GPGGA,171734.750,4308.3059,N,07726.2645,W,1,06,1.93,156.8,M,-34.4,M,,*53
$GPRMC,171735.000,A,4308.3062,N,07726.2644,W,5.60,5.34,051023,,,A*76
$GPGGA,171735.250,4308.3066,N,07726.2643,W,1,06,1.93,156.9,M,-34.4,M,,*5C
$GPRMC,171735.500,A,4308.3070,N,07726.2642,W,6.04,4.60,051023,,,A*77
$GPGGA,171735.750,4308.3074,N,07726.2641,W,1,06,1.93,157.0,M,-34.4,M,,*50
$GPRMC,171736.000,A,4308.3078,N,07726.2640,W,6.05,3.44,051023,,,A*7B
$GPGGA,171736.250,4308.3083,N,07726.2639,W,1,06,1.93,157.0,M,-34.4,M,,*51
$GPRMC,171736.500,A,4308.3086,N,07726.2639,W,5.50,3.06,051023,,,A*74
$GPGGA,171736.750,4308.3090,N,07726.2638,W,1,06,1.93,157.0,M,-34.4,M,,*57
$GPRMC,171737.000,A,4308.3093,N,07726.2638,W,5.01,1.29,051023,,,A*7E
$GPGGA,171737.250,4308.3096,N,07726.2638,W,1,06,1.93,157.0,M,-34.4,M,,*55
$GPRMC,171737.500,A,4308.3099,N,07726.2637,W,4.52,1.83,051023,,,A*79
$GPGGA,171737.750,4308.3102,N,07726.2637,W,1,06,1.93,157.0,M,-34.4,M,,*53
$GPRMC,171738.000,A,4308.3103,N,07726.2637,W,3.48,0.27,051023,,,A*72
$GPGGA,171738.250,4308.3106,N,07726.2637,W,1,06,1.93,157.0,M,-34.4,M,,*5D
$GPRMC,171738.500,A,4308.3107,N,07726.2637,W,2.82,357.06,051023,,,A*76
$GPGGA,171738.750,4308.3109,N,07726.2637,W,1,06,1.93,157.0,M,-34.4,M,,*57
$GPRMC,171739.000,A,4308.3112,N,07726.2637,W,2.94,350.95,051023,,,A*7C
$GPGGA,171739.250,4308.3114,N,07726.2638,W,1,06,1.93,157.0,M,-34.4,M,,*50
$GPRMC,171739.500,A,4308.3117,N,07726.2638,W,3.45,345.90,051023,,,A*7F
$GPGGA,171739.750,4308.3120,N,07726.2639,W,1,06,1.93,157.0,M,-34.4,M,,*53
$GPRMC,171740.000,A,4308.3123,N,07726.2639,W,4.36,352.76,051023,,,A*7F
$GPGGA,171740.250,4308.3127,N,07726.2639,W,1,06,1.93,157.2,M,-34.4,M,,*5D
$GPRMC,171740.500,A,4308.3129,N,07726.2641,W,3.99,337.18,051023,,,A*76
$GPGGA,171740.750,4308.3131,N,07726.2644,W,1,06,1.93,157.2,M,-34.4,M,,*55
$GPRMC,171741.000,A,4308.3132,N,07726.2647,W,3.81,308.26,051023,,,A*76
$GPGGA,171741.250,4308.3133,N,07726.2649,W,1,06,1.63,157.2,M,-34.4,M,,*51
$GPRMC,171741.500,A,4308.3134,N,07726.2650,W,2.84,302.80,051023,,,A*71
$GPGGA,171741.750,4308.3135,N,07726.2652,W,1,06,1.63,157.4,M,-34.4,M,,*5E
$GPRMC,171742.000,A,4308.3137,N,07726.2654,W,2.57,306.68,051023,,,A*7C
$GPGGA,171742.250,4308.3138,N,07726.2655,W,1,06,1.63,157.4,M,-34.4,M,,*52
$GPRMC,171742.500,A,4308.3140,N,07726.2657,W,2.27,307.97,051023,,,A*7C
$GPGGA,171742.750,4308.3140,N,07726.2657,W,1,06,1.63,157.4,M,-34.4,M,,*5A
$GPRMC,171743.000,A,4308.3140,N,07726.2657,W,0.90,322.44,051023,,,A*7F
$GPGGA,171743.250,4308.3141,N,07726.2657,W,1,06,1.63,157.3,M,-34.4,M,,*58
$GPRMC,171743.500,A,4308.3141,N,07726.2655,W,0.67,14.22,051023,,,A*47
$GPGGA,171743.750,4308.3142,N,07726.2653,W,1,06,1.93,157.3,M,-34.4,M,,*55
$GPRMC,171744.000,A,4308.3142,N,07726.2652,W,1.08,44.58,051023,,,A*41
$GPGGA,171744.250,4308.3144,N,07726.2650,W,1,06,1.63,157.3,M,-34.4,M,,*5D
$GPRMC,171744.500,A,4308.3147,N,07726.2647,W,1.82,46.06,051023,,,A*4E
$GPGGA,171744.750,4308.3149,N,07726.2644,W,1,06,1.63,157.2,M,-34.4,M,,*51
$GPRMC,171745.000,A,4308.3148,N,07726.2635,W,6.28,79.45,051023,,,A*4C
$GPGGA,171745.250,4308.3148,N,07726.2627,W,1,06,1.93,157.2,M,-34.4,M,,*5E
$GPRMC,171745.500,A,4308.3148,N,07726.2618,W,8.64,84.49,051023,,,A*4E
$GPGGA,171745.750,4308.3147,N,07726.2608,W,1,06,1.93,157.2,M,-34.4,M,,*59
$GPRMC,171746.000,A,4308.3147,N,07726.2598,W,10.45,87.72,051023,,,A*7D
$GPGGA,171746.250,4308.3147,N,07726.2587,W,1,06,1.63,157.1,M,-34.4,M,,*57
$GPRMC,171746.500,A,4308.3147,N,07726.2576,W,11.18,87.40,051023,,,A*70
$GPGGA,171746.750,4308.3147,N,07726.2563,W,1,06,1.63,157.0,M,-34.4,M,,*59
$GPRMC,171747.000,A,4308.3148,N,07726.2550,W,12.46,87.24,051023,,,A*75
$GPGGA,171747.250,4308.3148,N,07726.2537,W,1,06,1.63,157.0,M,-34.4,M,,*53
$GPRMC,171747.500,A,4308.3148,N,07726.2523,W,13.52,87.91,051023,,,A*7E
$GPGGA,171747.750,4308.3149,N,07726.2508,W,1,06,1.63,157.0,M,-34.4,M,,*5B
$GPRMC,171748.000,A,4308.3149,N,07726.2493,W,15.08,88.56,051023,,,A*72
$GPGGA,171748.250,4308.3149,N,07726.2477,W,1,06,1.63,157.0,M,-34.4,M,,*58
$GPRMC,171748.500,A,4308.3150,N,07726.2461,W,16.15,88.18,051023,,,A*77
$GPGGA,171748.750,4308.3151,N,07726.2443,W,1,06,1.63,157.0,M,-34.4,M,,*53
$GPRMC,171749.000,A,4308.3151,N,07726.2426,W,17.18,88.01,051023,,,A*75
$GPGGA,171749.250,4308.3151,N,07726.2409,W,1,06,1.63,157.0,M,-34.4,M,,*59
$GPRMC,171749.500,A,4308.3152,N,07726.2391,W,17.85,88.56,051023,,,A*7E
$GPGGA,171749.750,4308.3152,N,07726.2373,W,1,06,1.63,157.1,M,-34.4,M,,*54
$GPRMC,171750.000,A,4308.3151,N,07726.2354,W,18.61,90.56,051023,,,A*75
$GPGGA,171750.250,4308.3152,N,07726.2335,W,1,06,1.63,157.1,M,-34.4,M,,*5B
$GPRMC,171750.500,A,4308.3152,N,07726.2316,W,19.45,90.95,051023,,,A*7D
$GPGGA,171750.750,4308.3152,N,07726.2296,W,1,06,1.63,157.1,M,-34.4,M,,*56
$GPRMC,171751.000,A,4308.3151,N,07726.2277,W,20.13,91.88,051023,,,A*78
$GPGGA,171751.250,4308.3151,N,07726.2257,W,1,06,1.63,157.1,M,-34.4,M,,*5C
$GPRMC,171751.500,A,4308.3150,N,07726.2236,W,20.75,92.14,051023,,,A*7F
$GPGGA,171751.750,4308.3149,N,07726.2215,W,1,06,1.63,157.1,M,-34.4,M,,*56
$GPRMC,171752.000,A,4308.3149,N,07726.2194,W,21.46,92.45,051023,,,A*7F
$GPGGA,171752.250,4308.3148,N,07726.2172,W,1,06,1.63,157.1,M,-34.4,M,,*53
$GPRMC,171752.500,A,4308.3147,N,07726.2150,W,22.27,92.13,051023,,,A*7B
$GPGGA,171752.750,4308.3146,N,07726.2127,W,1,06,1.63,157.0,M,-34.4,M,,*59
$GPRMC,171753.000,A,4308.3145,N,07726.2104,W,22.84,92.34,051023,,,A*70
$GPGGA,171753.250,4308.3145,N,07726.2082,W,1,06,1.63,156.9,M,-34.4,M,,*58
$GPRMC,171753.500,A,4308.3145,N,07726.2059,W,23.38,92.38,051023,,,A*76
$GPGGA,171753.750,4308.3144,N,07726.2035,W,1,06,1.63,156.9,M,-34.4,M,,*50
$GPRMC,171754.000,A,4308.3143,N,07726.2011,W,24.05,92.92,051023,,,A*77
$GPGGA,171754.250,4308.3141,N,07726.1987,W,1,06,1.63,156.9,M,-34.4,M,,*54
$GPRMC,171754.500,A,4308.3140,N,07726.1964,W,24.37,92.88,051023,,,A*73
$GPGGA,171754.750,4308.3139,N,07726.1940,W,1,06,1.63,156.9,M,-34.4,M,,*55
$GPRMC,171755.000,A,4308.3138,N,07726.1916,W,24.80,93.11,051023,,,A*70
$GPGGA,171755.250,4308.3136,N,07726.1892,W,1,06,1.63,156.8,M,-34.4,M,,*51
$GPRMC,171755.500,A,4308.3135,N,07726.1867,W,25.19,93.21,051023,,,A*7D
$GPGGA,171755.750,4308.3134,N,07726.1842,W,1,06,1.63,156.8,M,-34.4,M,,*5B
$GPRMC,171756.000,A,4308.3134,N,07726.1817,W,25.42,93.01,051023,,,A*71
$GPGGA,171756.250,4308.3132,N,07726.1793,W,1,06,1.63,156.8,M,-34.4,M,,*58
$GPRMC,171756.500,A,4308.3131,N,07726.1768,W,25.65,92.69,051023,,,A*7C
$GPGGA,171756.750,4308.3130,N,07726.1742,W,1,06,1.63,156.8,M,-34.4,M,,*53
$GPRMC,171757.000,A,4308.3130,N,07726.1718,W,25.63,92.33,051023,,,A*77
$GPGGA,171757.250,4308.3129,N,07726.1693,W,1,06,1.63,156.8,M,-34.4,M,,*52
$GPRMC,171757.500,A,4308.3128,N,07726.1668,W,25.08,92.02,051023,,,A*72
$GPGGA,171757.750,4308.3127,N,07726.1644,W,1,06,1.63,156.7,M,-34.4,M,,*5C
$GPRMC,171758.000,A,4308.3126,N,07726.1619,W,24.72,90.99,051023,,,A*7C
$GPGGA,171758.250,4308.3125,N,07726.1595,W,1,06,1.63,156.7,M,-34.4,M,,*5B
$GPRMC,171758.500,A,4308.3127,N,07726.1571,W,24.45,88.89,051023,,,A*79
$GPGGA,171758.750,4308.3131,N,07726.1547,W,1,06,1.63,156.8,M,-34.4,M,,*5B
$GPRMC,171759.000,A,4308.3133,N,07726.1524,W,24.23,85.02,051023,,,A*76
$GPGGA,171759.250,4308.3136,N,07726.1500,W,1,06,1.63,156.9,M,-34.4,M,,*5A
$GPRMC,171759.500,A,4308.3142,N,07726.1476,W,24.21,80.68,051023,,,A*78
$GPGGA,171759.750,4308.3147,N,07726.1453,W,1,06,1.63,157.0,M,-34.4,M,,*56
$GPRMC,171800.000,A,4308.3152,N,07726.1430,W,24.22,76.44,051023,,,A*79
$GPGGA,171800.250,4308.3157,N,07726.1408,W,1,06,1.63,157.1,M,-34.4,M,,*5E
$GPRMC,171800.500,A,4308.3163,N,07726.1386,W,23.93,73.14,051023,,,A*79
$GPGGA,171800.750,4308.3172,N,07726.1365,W,1,06,1.63,157.1,M,-34.4,M,,*50
$GPRMC,171801.000,A,4308.3181,N,07726.1346,W,23.23,66.51,051023,,,A*73
$GPGGA,171801.250,4308.3188,N,07726.1326,W,1,06,1.63,157.2,M,-34.4,M,,*55
$GPRMC,171801.500,A,4308.3197,N,07726.1308,W,22.33,62.75,051023,,,A*79
$GPGGA,171801.750,4308.3205,N,07726.1290,W,1,06,1.63,157.3,M,-34.4,M,,*5B
$GPRMC,171802.000,A,4308.3214,N,07726.1274,W,21.54,57.48,051023,,,A*77
$GPGGA,171802.250,4308.3223,N,07726.1258,W,1,06,1.63,157.4,M,-34.4,M,,*5A
$GPRMC,171802.500,A,4308.3233,N,07726.1244,W,20.45,53.09,051023,,,A*74
$GPGGA,171802.750,4308.3245,N,07726.1232,W,1,06,1.63,157.5,M,-34.4,M,,*52
$GPRMC,171803.000,A,4308.3266,N,07726.1218,W,22.01,43.16,051023,,,A*74
$GPGGA,171803.250,4308.3279,N,07726.1204,W,1,06,1.63,157.6,M,-34.4,M,,*5F
$GPRMC,171803.500,A,4308.3293,N,07726.1191,W,22.23,39.63,051023,,,A*76
$GPGGA,171803.750,4308.3312,N,07726.1180,W,1,06,1.63,157.8,M,-34.4,M,,*57
$GPRMC,171804.000,A,4308.3328,N,07726.1170,W,22.77,32.77,051023,,,A*75
$GPGGA,171804.250,4308.3343,N,07726.1161,W,1,06,1.63,157.9,M,-34.4,M,,*5F
$GPRMC,171804.500,A,4308.3358,N,07726.1153,W,21.94,27.97,051023,,,A*72
$GPGGA,171804.750,4308.3371,N,07726.1145,W,1,06,1.63,158.0,M,-34.4,M,,*5B
$GPRMC,171805.000,A,4308.3385,N,07726.1138,W,20.70,22.93,051023,,,A*71
$GPGGA,171805.250,4308.3399,N,07726.1133,W,1,06,1.63,158.0,M,-34.4,M,,*58
$GPRMC,171805.500,A,4308.3413,N,07726.1128,W,20.15,18.90,051023,,,A*74
$GPGGA,171805.750,4308.3428,N,07726.1123,W,1,06,1.63,158.1,M,-34.4,M,,*50
$GPRMC,171806.000,A,4308.3442,N,07726.1119,W,19.94,16.20,051023,,,A*72
$GPGGA,171806.250,4308.3457,N,07726.1116,W,1,06,1.63,158.2,M,-34.4,M,,*5B
$GPRMC,171806.500,A,4308.3471,N,07726.1113,W,19.81,13.60,051023,,,A*78
$GPGGA,171806.750,4308.3486,N,07726.1111,W,1,06,1.93,158.2,M,-34.4,M,,*5A
$GPRMC,171807.000,A,4308.3501,N,07726.1108,W,19.78,11.46,051023,,,A*70
$GPGGA,171807.250,4308.3515,N,07726.1106,W,1,06,1.93,158.3,M,-34.4,M,,*52
$GPRMC,171807.500,A,4308.3529,N,07726.1104,W,19.78,10.45,051023,,,A*71
$GPGGA,171807.750,4308.3545,N,07726.1102,W,1,06,1.93,158.4,M,-34.4,M,,*51
$GPRMC,171808.000,A,4308.3562,N,07726.1101,W,20.34,8.80,051023,,,A*43
$GPGGA,171808.250,4308.3578,N,07726.1099,W,1,06,1.93,158.4,M,-34.4,M,,*56
$GPRMC,171808.500,A,4308.3595,N,07726.1099,W,20.80,7.16,051023,,,A*41
$GPGGA,171808.750,4308.3612,N,07726.1098,W,1,06,1.93,158.5,M,-34.4,M,,*5C
$GPRMC,171809.000,A,4308.3630,N,07726.1098,W,21.32,5.17,051023,,,A*43
$GPGGA,171809.250,4308.3648,N,07726.1098,W,1,06,1.93,158.6,M,-34.4,M,,*54
$GPRMC,171809.500,A,4308.3666,N,07726.1098,W,21.93,3.72,051023,,,A*4B
$GPGGA,171809.750,4308.3685,N,07726.1098,W,1,06,1.93,158.7,M,-34.4,M,,*51
$GPRMC,171810.000,A,4308.3703,N,07726.1098,W,22.46,2.76,051023,,,A*4A
$GPGGA,171810.250,4308.3722,N,07726.1099,W,1,06,1.93,158.8,M,-34.4,M,,*5E
$GPRMC,171810.500,A,4308.3741,N,07726.1099,W,22.94,1.76,051023,,,A*44
$GPGGA,171810.750,4308.3760,N,07726.1100,W,1,06,1.93,158.9,M,-34.4,M,,*5D
$GPRMC,171811.000,A,4308.3779,N,07726.1101,W,23.48,1.00,051023,,,A*4A
$GPGGA,171811.250,4308.3798,N,07726.1102,W,1,06,1.93,159.0,M,-34.4,M,,*54
$GPRMC,171811.500,A,4308.3817,N,07726.1102,W,23.85,0.66,051023,,,A*4B
$GPGGA,171811.750,4308.3836,N,07726.1103,W,1,06,1.93,159.0,M,-34.4,M,,*5B
$GPRMC,171812.000,A,4308.3855,N,07726.1103,W,24.08,0.45,051023,,,A*49
$GPGGA,171812.250,4308.3874,N,07726.1103,W,1,06,1.93,159.1,M,-34.4,M,,*5A
$GPRMC,171812.500,A,4308.3893,N,07726.1104,W,24.51,0.88,051023,,,A*4C
$GPGGA,171812.750,4308.3914,N,07726.1104,W,1,06,1.93,159.3,M,-34.4,M,,*5D
$GPRMC,171813.000,A,4308.3933,N,07726.1103,W,24.85,2.10,051023,,,A*4E
$GPGGA,171813.250,4308.3953,N,07726.1103,W,1,06,1.93,159.4,M,-34.4,M,,*5A
$GPRMC,171813.500,A,4308.3973,N,07726.1103,W,25.32,2.90,051023,,,A*4A
$GPGGA,171813.750,4308.3993,N,07726.1103,W,1,06,1.93,159.7,M,-34.4,M,,*50
$GPRMC,171814.000,A,4308.4013,N,07726.1104,W,25.61,3.18,051023,,,A*40
$GPGGA,171814.250,4308.4034,N,07726.1104,W,1,06,1.93,160.0,M,-34.4,M,,*5B
$GPRMC,171814.500,A,4308.4054,N,07726.1105,W,25.74,2.51,051023,,,A*4F
$GPGGA,171814.750,4308.4074,N,07726.1106,W,1,06,1.93,160.3,M,-34.4,M,,*5B
$GPRMC,171815.000,A,4308.4092,N,07726.1105,W,25.74,1.63,051023,,,A*43
$GPGGA,171815.250,4308.4112,N,07726.1105,W,1,06,1.93,160.4,M,-34.4,M,,*5A
$GPRMC,171815.500,A,4308.4129,N,07726.1105,W,25.52,1.38,051023,,,A*4D
$GPGGA,171815.750,4308.4146,N,07726.1104,W,1,06,1.93,160.6,M,-34.4,M,,*5D
$GPRMC,171816.000,A,4308.4162,N,07726.1102,W,25.14,1.59,051023,,,A*46
$GPGGA,171816.250,4308.4176,N,07726.1100,W,1,06,1.93,160.8,M,-34.4,M,,*52
$GPRMC,171816.500,A,4308.4191,N,07726.1099,W,24.51,1.63,051023,,,A*45
$GPGGA,171816.750,4308.4205,N,07726.1098,W,1,06,1.93,161.0,M,-34.4,M,,*59
$GPRMC,171817.000,A,4308.4219,N,07726.1097,W,23.78,1.04,051023,,,A*41
$GPGGA,171817.250,4308.4234,N,07726.1096,W,1,06,1.93,161.1,M,-34.4,M,,*50
$GPRMC,171817.500,A,4308.4248,N,07726.1095,W,23.25,0.38,051023,,,A*44
$GPGGA,171817.750,4308.4262,N,07726.1094,W,1,06,1.93,161.3,M,-34.4,M,,*56
$GPRMC,171818.000,A,4308.4275,N,07726.1094,W,22.61,359.30,051023,,,A*47
$GPGGA,171818.250,4308.4289,N,07726.1094,W,1,06,1.93,161.4,M,-34.4,M,,*5E
$GPRMC,171818.500,A,4308.4303,N,07726.1094,W,22.08,358.25,051023,,,A*48
$GPGGA,171818.750,4308.4315,N,07726.1094,W,1,06,1.93,161.5,M,-34.4,M,,*5E
$GPRMC,171819.000,A,4308.4328,N,07726.1095,W,21.46,357.68,051023,,,A*4B
$GPGGA,171819.250,4308.4339,N,07726.1095,W,1,06,1.93,161.7,M,-34.4,M,,*57
$GPRMC,171819.500,A,4308.4349,N,07726.1098,W,20.37,355.92,051023,,,A*44
$GPGGA,171819.750,4308.4349,N,07726.1096,W,1,06,1.93,161.7,M,-34.4,M,,*56
$GPRMC,171820.000,A,4308.4349,N,07726.1094,W,17.45,355.92,051023,,,A*46
$GPGGA,171820.250,4308.4356,N,07726.1095,W,1,06,1.93,161.9,M,-34.4,M,,*5A
$GPRMC,171820.500,A,4308.4354,N,07726.1095,W,15.23,353.99,051023,,,A*41
$GPGGA,171820.750,4308.4346,N,07726.1092,W,1,06,1.93,162.2,M,-34.4,M,,*51
$GPRMC,171821.000,A,4308.4347,N,07726.1092,W,12.18,351.61,051023,,,A*4A
$GPGGA,171821.250,4308.4348,N,07726.1094,W,1,06,1.93,162.5,M,-34.4,M,,*5A
$GPRMC,171821.500,A,4308.4344,N,07726.1099,W,10.35,340.44,051023,,,A*4D
$GPGGA,171821.750,4308.4345,N,07726.1105,W,1,06,1.63,162.7,M,-34.4,M,,*56
$GPRMC,171822.000,A,4308.4346,N,07726.1112,W,10.10,324.97,051023,,,A*40
$GPGGA,171822.250,4308.4352,N,07726.1119,W,1,06,1.63,162.5,M,-34.4,M,,*59
$GPRMC,171822.500,A,4308.4356,N,07726.1127,W,11.46,312.95,051023,,,A*47
$GPGGA,171822.750,4308.4359,N,07726.1136,W,1,06,1.63,162.5,M,-34.4,M,,*5A
$GPRMC,171823.000,A,4308.4362,N,07726.1146,W,12.82,301.85,051023,,,A*4B
$GPGGA,171823.250,4308.4366,N,07726.1158,W,1,06,1.63,162.5,M,-34.4,M,,*5A
$GPRMC,171823.500,A,4308.4368,N,07726.1171,W,14.60,294.54,051023,,,A*4B
$GPGGA,171823.750,4308.4369,N,07726.1185,W,1,06,1.93,162.3,M,-34.4,M,,*59
$GPRMC,171824.000,A,4308.4371,N,07726.1201,W,16.42,287.21,051023,,,A*47
$GPGGA,171824.250,4308.4372,N,07726.1217,W,1,06,1.63,162.2,M,-34.4,M,,*57
$GPRMC,171824.500,A,4308.4375,N,07726.1234,W,17.86,282.73,051023,,,A*4B
$GPGGA,171824.750,4308.4375,N,07726.1252,W,1,06,1.63,162.1,M,-34.4,M,,*57
$GPRMC,171825.000,A,4308.4376,N,07726.1272,W,19.89,278.33,051023,,,A*4E
$GPGGA,171825.250,4308.4377,N,07726.1292,W,1,06,1.63,162.0,M,-34.4,M,,*5C
$GPRMC,171825.500,A,4308.4379,N,07726.1314,W,21.92,276.16,051023,,,A*4D
$GPGGA,171825.750,4308.4380,N,07726.1338,W,1,06,1.63,161.8,M,-34.4,M,,*5B
$GPRMC,171826.000,A,4308.4380,N,07726.1361,W,24.15,274.38,051023,,,A*4B
$GPGGA,171826.250,4308.4380,N,07726.1386,W,1,06,1.63,161.7,M,-34.4,M,,*57
$GPRMC,171826.500,A,4308.4381,N,07726.1412,W,25.95,273.29,051023,,,A*42
$GPGGA,171826.750,4308.4381,N,07726.1439,W,1,06,1.63,161.6,M,-34.4,M,,*51
$GPRMC,171827.000,A,4308.4383,N,07726.1467,W,28.53,273.37,051023,,,A*4E
$GPGGA,171827.250,4308.4383,N,07726.1497,W,1,06,1.63,161.5,M,-34.4,M,,*50
$GPRMC,171827.500,A,4308.4383,N,07726.1527,W,30.81,272.38,051023,,,A*46
$GPGGA,171827.750,4308.4384,N,07726.1558,W,1,06,1.63,161.4,M,-34.4,M,,*51
$GPRMC,171828.000,A,4308.4387,N,07726.1590,W,32.74,273.83,051023,,,A*4D
$GPGGA,171828.250,4308.4389,N,07726.1624,W,1,06,1.63,161.1,M,-34.4,M,,*5B
$GPRMC,171828.500,A,4308.4391,N,07726.1659,W,35.14,274.26,051023,,,A*40
$GPGGA,171828.750,4308.4393,N,07726.1693,W,1,06,1.63,160.9,M,-34.4,M,,*50
$GPRMC,171829.000,A,4308.4396,N,07726.1729,W,36.84,274.55,051023,,,A*4B
$GPGGA,171829.250,4308.4398,N,07726.1766,W,1,06,1.63,160.7,M,-34.4,M,,*5A
$GPRMC,171829.500,A,4308.4400,N,07726.1803,W,38.00,274.98,051023,,,A*42
$GPGGA,171829.750,4308.4402,N,07726.1840,W,1,06,1.63,160.5,M,-34.4,M,,*52
$GPRMC,171830.000,A,4308.4403,N,07726.1878,W,39.11,274.64,051023,,,A*42
$GPGGA,171830.250,4308.4405,N,07726.1916,W,1,06,1.63,160.3,M,-34.4,M,,*5C
$GPRMC,171830.500,A,4308.4406,N,07726.1954,W,39.79,274.76,051023,,,A*40
$GPGGA,171830.750,4308.4406,N,07726.1992,W,1,06,1.93,160.1,M,-34.4,M,,*5B
$GPRMC,171831.000,A,4308.4408,N,07726.2031,W,40.15,274.91,051023,,,A*4E
$GPGGA,171831.250,4308.4411,N,07726.2070,W,1,06,1.63,159.9,M,-34.4,M,,*52
$GPRMC,171831.500,A,4308.4413,N,07726.2110,W,40.44,275.16,051023,,,A*49
$GPGGA,171831.750,4308.4416,N,07726.2149,W,1,06,1.93,159.7,M,-34.4,M,,*5A
$GPRMC,171832.000,A,4308.4418,N,07726.2189,W,40.67,274.98,051023,,,A*42
$GPGGA,171832.250,4308.4420,N,07726.2229,W,1,06,1.63,159.5,M,-34.4,M,,*51
$GPRMC,171832.500,A,4308.4423,N,07726.2269,W,41.73,275.26,051023,,,A*42
$GPGGA,171832.750,4308.4426,N,07726.2310,W,1,06,1.63,159.4,M,-34.4,M,,*58
$GPRMC,171833.000,A,4308.4428,N,07726.2350,W,41.81,275.75,051023,,,A*4D
$GPGGA,171833.250,4308.4431,N,07726.2390,W,1,06,1.63,159.2,M,-34.4,M,,*54
$GPRMC,171833.500,A,4308.4434,N,07726.2430,W,41.78,275.91,051023,,,A*48
$GPGGA,171833.750,4308.4437,N,07726.2469,W,1,06,1.63,159.1,M,-34.4,M,,*55
$GPRMC,171834.000,A,4308.4439,N,07726.2508,W,41.59,276.27,051023,,,A*40
$GPGGA,171834.250,4308.4442,N,07726.2547,W,1,06,1.63,158.9,M,-34.4,M,,*51
$GPRMC,171834.500,A,4308.4445,N,07726.2586,W,41.39,276.56,051023,,,A*48
$GPGGA,171834.750,4308.4449,N,07726.2625,W,1,06,1.63,158.8,M,-34.4,M,,*59
$GPRMC,171835.000,A,4308.4452,N,07726.2663,W,41.42,277.20,051023,,,A*4E
$GPGGA,171835.250,4308.4455,N,07726.2702,W,1,06,1.63,158.6,M,-34.4,M,,*5A
$GPRMC,171835.500,A,4308.4458,N,07726.2740,W,41.14,277.46,051023,,,A*42
$GPGGA,171835.750,4308.4461,N,07726.2779,W,1,06,1.63,158.5,M,-34.4,M,,*57
$GPRMC,171836.000,A,4308.4464,N,07726.2817,W,40.95,277.54,051023,,,A*4D
$GPGGA,171836.250,4308.4467,N,07726.2855,W,1,06,1.63,158.4,M,-34.4,M,,*57
$GPRMC,171836.500,A,4308.4469,N,07726.2893,W,40.62,276.76,051023,,,A*40
$GPGGA,171836.750,4308.4472,N,07726.2931,W,1,06,1.93,158.3,M,-34.4,M,,*5D
$GPRMC,171837.000,A,4308.4473,N,07726.2968,W,39.74,276.37,051023,,,A*46
$GPGGA,171837.250,4308.4476,N,07726.3006,W,1,06,1.63,158.2,M,-34.4,M,,*5F
$GPRMC,171837.500,A,4308.4479,N,07726.3043,W,39.19,276.54,051023,,,A*46
$GPGGA,171837.750,4308.4481,N,07726.3079,W,1,06,1.93,158.1,M,-34.4,M,,*56
$GPRMC,171838.000,A,4308.4483,N,07726.3115,W,38.30,276.19,051023,,,A*48
$GPGGA,171838.250,4308.4485,N,07726.3151,W,1,06,1.63,158.0,M,-34.4,M,,*5D
$GPRMC,171838.500,A,4308.4488,N,07726.3186,W,37.57,276.36,051023,,,A*4F
$GPGGA,171838.750,4308.4490,N,07726.3221,W,1,06,1.93,157.9,M,-34.4,M,,*51
$GPRMC,171839.000,A,4308.4494,N,07726.3257,W,37.30,276.80,051023,,,A*45
$GPGGA,171839.250,4308.4497,N,07726.3292,W,1,06,1.63,157.8,M,-34.4,M,,*54
$GPRMC,171839.500,A,4308.4501,N,07726.3326,W,36.89,277.39,051023,,,A*4A
$GPGGA,171839.750,4308.4504,N,07726.3361,W,1,06,1.93,157.6,M,-34.4,M,,*56
$GPRMC,171840.000,A,4308.4508,N,07726.3395,W,36.38,277.73,051023,,,A*44
$GPGGA,171840.250,4308.4511,N,07726.3429,W,1,06,1.63,157.4,M,-34.4,M,,*5F
$GPRMC,171840.500,A,4308.4514,N,07726.3463,W,36.12,277.41,051023,,,A*4B
$GPGGA,171840.750,4308.4517,N,07726.3497,W,1,06,1.93,157.4,M,-34.4,M,,*56
$GPRMC,171841.000,A,4308.4520,N,07726.3530,W,35.47,277.40,051023,,,A*4D
$GPGGA,171841.250,4308.4524,N,07726.3564,W,1,06,1.63,157.2,M,-34.4,M,,*56
$GPRMC,171841.500,A,4308.4527,N,07726.3597,W,35.31,277.58,051023,,,A*4A
$GPGGA,171841.750,4308.4531,N,07726.3630,W,1,06,1.93,157.1,M,-34.4,M,,*59
$GPRMC,171842.000,A,4308.4535,N,07726.3662,W,35.04,278.33,051023,,,A*42
$GPGGA,171842.250,4308.4539,N,07726.3695,W,1,06,1.63,156.8,M,-34.4,M,,*5F
$GPRMC,171842.500,A,4308.4543,N,07726.3727,W,34.04,278.86,051023,,,A*49
$GPGGA,171842.750,4308.4548,N,07726.3759,W,1,06,1.93,156.5,M,-34.4,M,,*5F
$GPRMC,171843.000,A,4308.4551,N,07726.3790,W,32.96,279.32,051023,,,A*41
$GPGGA,171843.250,4308.4555,N,07726.3820,W,1,06,1.63,156.2,M,-34.4,M,,*5E
$GPRMC,171843.500,A,4308.4558,N,07726.3849,W,31.51,279.54,051023,,,A*4E
$GPGGA,171843.750,4308.4561,N,07726.3878,W,1,06,1.93,155.9,M,-34.4,M,,*56
$GPRMC,171844.000,A,4308.4564,N,07726.3907,W,30.68,279.47,051023,,,A*41
$GPGGA,171844.250,4308.4567,N,07726.3935,W,1,06,1.63,155.7,M,-34.4,M,,*5B
$GPRMC,171844.500,A,4308.4570,N,07726.3963,W,29.78,279.48,051023,,,A*45
$GPGGA,171844.750,4308.4571,N,07726.3989,W,1,06,1.93,155.5,M,-34.4,M,,*53
$GPRMC,171845.000,A,4308.4574,N,07726.4015,W,28.23,278.91,051023,,,A*40
$GPGGA,171845.250,4308.4576,N,07726.4041,W,1,06,1.63,155.3,M,-34.4,M,,*53
$GPRMC,171845.500,A,4308.4579,N,07726.4066,W,26.84,279.80,051023,,,A*4E
$GPGGA,171845.750,4308.4580,N,07726.4090,W,1,06,1.93,155.2,M,-34.4,M,,*5D
$GPRMC,171846.000,A,4308.4582,N,07726.4113,W,25.00,279.44,051023,,,A*48
$GPGGA,171846.250,4308.4585,N,07726.4136,W,1,06,1.63,155.2,M,-34.4,M,,*5C
$GPRMC,171846.500,A,4308.4589,N,07726.4158,W,23.87,280.88,051023,,,A*46
$GPGGA,171846.750,4308.4592,N,07726.4179,W,1,06,1.93,155.3,M,-34.4,M,,*5A
$GPRMC,171847.000,A,4308.4595,N,07726.4200,W,22.12,281.14,051023,,,A*48
$GPGGA,171847.250,4308.4598,N,07726.4220,W,1,06,1.63,155.5,M,-34.4,M,,*52
$GPRMC,171847.500,A,4308.4602,N,07726.4239,W,20.63,282.56,051023,,,A*4B
$GPGGA,171847.750,4308.4606,N,07726.4257,W,1,06,1.93,155.8,M,-34.4,M,,*51
$GPRMC,171848.000,A,4308.4608,N,07726.4273,W,17.82,284.50,051023,,,A*4E
$GPGGA,171848.250,4308.4611,N,07726.4288,W,1,06,1.93,156.1,M,-34.4,M,,*55
$GPRMC,171848.500,A,4308.4614,N,07726.4302,W,15.22,287.42,051023,,,A*49
$GPGGA,171848.750,4308.4617,N,07726.4314,W,1,06,1.93,156.5,M,-34.4,M,,*56
$GPRMC,171849.000,A,4308.4617,N,07726.4323,W,11.87,288.46,051023,,,A*4D
$GPGGA,171849.250,4308.4619,N,07726.4333,W,1,06,1.93,156.9,M,-34.4,M,,*55
$GPRMC,171849.500,A,4308.4622,N,07726.4341,W,9.73,293.48,051023,,,A*7C
$GPGGA,171849.750,4308.4624,N,07726.4348,W,1,06,1.93,157.2,M,-34.4,M,,*58
$GPRMC,171850.000,A,4308.4626,N,07726.4353,W,7.54,299.22,051023,,,A*7B
$GPGGA,171850.250,4308.4628,N,07726.4358,W,1,06,1.63,157.4,M,-34.4,M,,*51
$GPRMC,171850.500,A,4308.4629,N,07726.4362,W,5.66,306.54,051023,,,A*76
$GPGGA,171850.750,4308.4628,N,07726.4364,W,1,06,1.93,157.5,M,-34.4,M,,*55
$GPRMC,171851.000,A,4308.4629,N,07726.4366,W,3.87,313.45,051023,,,A*7B
$GPGGA,171851.250,4308.4630,N,07726.4368,W,1,06,1.63,157.6,M,-34.4,M,,*58
$GPRMC,171851.500,A,4308.4631,N,07726.4369,W,2.83,318.01,051023,,,A*76
$GPGGA,171851.750,4308.4631,N,07726.4369,W,1,06,1.63,157.7,M,-34.4,M,,*5C
$GPRMC,171852.000,A,4308.4630,N,07726.4368,W,1.82,318.01,051023,,,A*72
$GPGGA,171852.250,4308.4631,N,07726.4368,W,1,06,1.93,157.8,M,-34.4,M,,*5B
$GPRMC,171852.500,A,4308.4631,N,07726.4367,W,0.07,318.01,051023,,,A*75
$GPGGA,171852.750,4308.4630,N,07726.4365,W,1,06,1.63,157.9,M,-34.4,M,,*5C
$GPRMC,171853.000,A,4308.4630,N,07726.4363,W,0.11,318.01,051023,,,A*73
$GPGGA,171853.250,4308.4630,N,07726.4362,W,1,06,1.63,158.0,M,-34.4,M,,*59
$GPRMC,171853.500,A,4308.4631,N,07726.4360,W,0.12,318.01,051023,,,A*77
$GPGGA,171853.750,4308.4630,N,07726.4358,W,1,06,1.63,158.1,M,-34.4,M,,*54
$GPRMC,171854.000,A,4308.4629,N,07726.4356,W,0.12,318.01,051023,,,A*79
$GPGGA,171854.250,4308.4629,N,07726.4355,W,1,06,1.63,158.1,M,-34.4,M,,*53
$GPRMC,171854.500,A,4308.4628,N,07726.4354,W,0.11,318.01,051023,,,A*7C
$GPGGA,171854.750,4308.4628,N,07726.4353,W,1,06,1.63,158.2,M,-34.4,M,,*52
$GPRMC,171855.000,A,4308.4627,N,07726.4352,W,0.09,318.01,051023,,,A*78
$GPGGA,171855.250,4308.4626,N,07726.4351,W,1,06,1.63,158.1,M,-34.4,M,,*59
$GPRMC,171855.500,A,4308.4626,N,07726.4350,W,0.07,318.01,051023,,,A*70
$GPGGA,171855.750,4308.4626,N,07726.4350,W,1,06,1.63,158.2,M,-34.4,M,,*5E
$GPRMC,171856.000,A,4308.4625,N,07726.4349,W,0.05,318.01,051023,,,A*7F
$GPGGA,171856.250,4308.4625,N,07726.4349,W,1,06,1.63,158.3,M,-34.4,M,,*52
$GPRMC,171856.500,A,4308.4625,N,07726.4348,W,0.05,318.01,051023,,,A*7B
$GPGGA,171856.750,4308.4625,N,07726.4348,W,1,06,1.63,158.4,M,-34.4,M,,*51
$GPRMC,171857.000,A,4308.4624,N,07726.4348,W,0.05,318.01,051023,,,A*7E
$GPGGA,171857.250,4308.4624,N,07726.4348,W,1,06,1.63,158.5,M,-34.4,M,,*55
$GPRMC,171857.500,A,4308.4624,N,07726.4347,W,0.05,318.01,051023,,,A*74
$GPGGA,171857.750,4308.4623,N,07726.4347,W,1,06,1.63,158.5,M,-34.4,M,,*58
$GPRMC,171858.000,A,4308.4623,N,07726.4347,W,0.04,318.01,051023,,,A*78
$GPGGA,171858.250,4308.4623,N,07726.4347,W,1,06,1.63,158.6,M,-34.4,M,,*51
$GPRMC,171858.500,A,4308.4623,N,07726.4347,W,0.03,318.01,051023,,,A*7A
$GPGGA,171858.750,4308.4622,N,07726.4347,W,1,06,1.63,158.6,M,-34.4,M,,*55
$GPRMC,171859.000,A,4308.4622,N,07726.4348,W,0.02,318.01,051023,,,A*71
$GPGGA,171859.250,4308.4622,N,07726.4348,W,1,06,1.63,158.7,M,-34.4,M,,*5F
$GPRMC,171859.500,A,4308.4622,N,07726.4348,W,0.02,318.01,051023,,,A*74
$GPGGA,171859.750,4308.4622,N,07726.4348,W,1,06,1.63,158.7,M,-34.4,M,,*5A
$GPRMC,171900.000,A,4308.4622,N,07726.4348,W,0.02,318.01,051023,,,A*7C
$GPGGA,171900.250,4308.4622,N,07726.4348,W,1,06,1.63,158.7,M,-34.4,M,,*52
$GPRMC,171900.500,A,4308.4622,N,07726.4349,W,0.01,318.01,051023,,,A*7B
$GPGGA,171900.750,4308.4622,N,07726.4349,W,1,06,1.63,158.8,M,-34.4,M,,*59
$GPRMC,171901.000,A,4308.4622,N,07726.4349,W,0.01,318.01,051023,,,A*7F
$GPGGA,171901.250,4308.4622,N,07726.4349,W,1,06,1.63,158.8,M,-34.4,M,,*5D
$GPRMC,171901.500,A,4308.4622,N,07726.4349,W,0.01,318.01,051023,,,A*7A
$GPGGA,171901.750,4308.4622,N,07726.4349,W,1,06,1.63,158.8,M,-34.4,M,,*58
$GPRMC,171902.000,A,4308.4622,N,07726.4349,W,0.01,318.01,051023,,,A*7C
$GPGGA,171902.250,4308.4622,N,07726.4349,W,1,06,1.63,158.8,M,-34.4,M,,*5E
$GPRMC,171902.500,A,4308.4622,N,07726.4349,W,0.01,318.01,051023,,,A*79
$GPGGA,171902.750,4308.4622,N,07726.4349,W,1,06,1.63,158.9,M,-34.4,M,,*5A
$GPRMC,171903.000,A,4308.4622,N,07726.4348,W,0.02,318.01,051023,,,A*7F
$GPGGA,171903.250,4308.4622,N,07726.4348,W,1,06,1.63,158.9,M,-34.4,M,,*5F
$GPRMC,171903.500,A,4308.4622,N,07726.4348,W,0.03,318.01,051023,,,A*7B
$GPGGA,171903.750,4308.4621,N,07726.4348,W,1,06,1.63,158.9,M,-34.4,M,,*59
$GPRMC,171904.000,A,4308.4621,N,07726.4348,W,0.02,318.01,051023,,,A*7B
$GPGGA,171904.250,4308.4621,N,07726.4348,W,1,06,1.63,158.9,M,-34.4,M,,*5B
$GPRMC,171904.500,A,4308.4621,N,07726.4348,W,0.03,318.01,051023,,,A*7F
$GPGGA,171904.750,4308.4621,N,07726.4348,W,1,06,1.63,158.9,M,-34.4,M,,*5E
$GPRMC,171905.000,A,4308.4621,N,07726.4348,W,0.02,318.01,051023,,,A*7A
$GPGGA,171905.250,4308.4621,N,07726.4347,W,1,06,1.63,159.0,M,-34.4,M,,*5D
$GPRMC,171905.500,A,4308.4620,N,07726.4347,W,0.02,318.01,051023,,,A*71
$GPGGA,171905.750,4308.4620,N,07726.4347,W,1,06,1.63,159.0,M,-34.4,M,,*59
$GPRMC,171906.000,A,4308.4620,N,07726.4347,W,0.03,318.01,051023,,,A*76
$GPGGA,171906.250,4308.4620,N,07726.4347,W,1,06,1.63,159.0,M,-34.4,M,,*5F
$GPRMC,171906.500,A,4308.4620,N,07726.4347,W,0.03,318.01,051023,,,A*73
$GPGGA,171906.750,4308.4620,N,07726.4347,W,1,06,1.63,159.0,M,-34.4,M,,*5A
$GPRMC,171907.000,A,4308.4619,N,07726.4347,W,0.03,318.01,051023,,,A*7D
$GPGGA,171907.250,4308.4619,N,07726.4346,W,1,06,1.63,159.0,M,-34.4,M,,*55
$GPRMC,171907.500,A,4308.4619,N,07726.4346,W,0.03,318.01,051023,,,A*79
$GPGGA,171907.750,4308.4619,N,07726.4346,W,1,06,1.63,159.0,M,-34.4,M,,*50
$GPRMC,171908.000,A,4308.4619,N,07726.4346,W,0.02,318.01,051023,,,A*72
$GPGGA,171908.250,4308.4619,N,07726.4346,W,1,06,1.63,159.0,M,-34.4,M,,*5A
$GPRMC,171908.500,A,4308.4618,N,07726.4346,W,0.02,318.01,051023,,,A*76
$GPGGA,171908.750,4308.4618,N,07726.4346,W,1,06,1.63,159.0,M,-34.4,M,,*5E
$GPRMC,171909.000,A,4308.4618,N,07726.4346,W,0.01,318.01,051023,,,A*71
$GPGGA,171909.250,4308.4618,N,07726.4345,W,1,06,1.63,159.0,M,-34.4,M,,*59
$GPRMC,171909.500,A,4308.4618,N,07726.4345,W,0.01,318.01,051023,,,A*77
$GPGGA,171909.750,4308.4618,N,07726.4345,W,1,06,1.63,159.0,M,-34.4,M,,*5C
$GPRMC,171910.000,A,4308.4618,N,07726.4345,W,0.01,318.01,051023,,,A*7A
$GPGGA,171910.250,4308.4618,N,07726.4345,W,1,06,1.63,159.0,M,-34.4,M,,*51
$GPRMC,171910.500,A,4308.4618,N,07726.4345,W,0.00,318.01,051023,,,A*7E
$GPGGA,171910.750,4308.4618,N,07726.4345,W,1,06,1.63,159.1,M,-34.4,M,,*55
$GPRMC,171911.000,A,4308.4618,N,07726.4345,W,0.01,318.01,051023,,,A*7B
$GPGGA,171911.250,4308.4618,N,07726.4345,W,1,06,1.63,159.1,M,-34.4,M,,*51
$GPRMC,171911.500,A,4308.4618,N,07726.4345,W,0.01,318.01,051023,,,A*7E
$GPGGA,171911.750,4308.4618,N,07726.4346,W,1,06,1.63,159.1,M,-34.4,M,,*57
$GPRMC,171912.000,A,4308.4618,N,07726.4346,W,0.02,318.01,051023,,,A*78
$GPGGA,171912.250,4308.4618,N,07726.4346,W,1,06,1.63,159.1,M,-34.4,M,,*51
$GPRMC,171912.500,A,4308.4618,N,07726.4346,W,0.02,318.01,051023,,,A*7D
$GPGGA,171912.750,4308.4618,N,07726.4346,W,1,06,1.63,159.1,M,-34.4,M,,*54
$GPRMC,171913.000,A,4308.4618,N,07726.4347,W,0.03,318.01,051023,,,A*79
$GPGGA,171913.250,4308.4619,N,07726.4347,W,1,06,1.63,159.1,M,-34.4,M,,*50
$GPRMC,171913.500,A,4308.4619,N,07726.4347,W,0.03,318.01,051023,,,A*7D
$GPGGA,171913.750,4308.4619,N,07726.4347,W,1,06,1.63,159.1,M,-34.4,M,,*55
$GPRMC,171914.000,A,4308.4619,N,07726.4347,W,0.02,318.01,051023,,,A*7E
$GPGGA,171914.250,4308.4619,N,07726.4347,W,1,06,1.63,159.1,M,-34.4,M,,*57
$GPRMC,171914.500,A,4308.4619,N,07726.4348,W,0.02,318.01,051023,,,A*74
$GPGGA,171914.750,4308.4619,N,07726.4348,W,1,06,1.63,159.1,M,-34.4,M,,*5D
$GPRMC,171915.000,A,4308.4619,N,07726.4348,W,0.01,318.01,051023,,,A*73
$GPGGA,171915.250,4308.4619,N,07726.4348,W,1,06,1.63,159.1,M,-34.4,M,,*59
$GPRMC,171915.500,A,4308.4619,N,07726.4348,W,0.01,318.01,051023,,,A*76
$GPGGA,171915.750,4308.4619,N,07726.4348,W,1,06,1.63,159.0,M,-34.4,M,,*5D
$GPRMC,171916.000,A,4308.4620,N,07726.4348,W,0.01,318.01,051023,,,A*7A
$GPGGA,171916.250,4308.4620,N,07726.4348,W,1,06,1.63,159.0,M,-34.4,M,,*51
$GPRMC,171916.500,A,4308.4620,N,07726.4348,W,0.14,318.01,051023,,,A*7B
$GPGGA,171916.750,4308.4620,N,07726.4348,W,1,06,1.63,159.0,M,-34.4,M,,*54
$GPRMC,171917.000,A,4308.4620,N,07726.4349,W,0.16,318.01,051023,,,A*7C
$GPGGA,171917.250,4308.4620,N,07726.4349,W,1,06,1.63,159.0,M,-34.4,M,,*51
$GPRMC,171917.500,A,4308.4620,N,07726.4349,W,0.15,318.01,051023,,,A*7A
$GPGGA,171917.750,4308.4620,N,07726.4349,W,1,06,1.63,159.0,M,-34.4,M,,*54
$GPRMC,171918.000,A,4308.4620,N,07726.4349,W,0.14,318.01,051023,,,A*71
$GPGGA,171918.250,4308.4620,N,07726.4349,W,1,06,1.63,159.0,M,-34.4,M,,*5E
$GPRMC,171918.500,A,4308.4620,N,07726.4349,W,0.13,318.01,051023,,,A*73
$GPGGA,171918.750,4308.4620,N,07726.4349,W,1,06,1.63,159.0,M,-34.4,M,,*5B
$GPRMC,171919.000,A,4308.4620,N,07726.4350,W,0.11,318.01,051023,,,A*7D
$GPGGA,171919.250,4308.4620,N,07726.4350,W,1,06,1.63,159.0,M,-34.4,M,,*57
$GPRMC,171919.500,A,4308.4620,N,07726.4350,W,0.08,318.01,051023,,,A*70
$GPGGA,171919.750,4308.4620,N,07726.4350,W,1,06,1.94,159.0,M,-34.4,M,,*5A
$GPRMC,171920.000,A,4308.4620,N,07726.4350,W,0.03,318.01,051023,,,A*74
$GPGGA,171920.250,4308.4620,N,07726.4350,W,1,06,1.94,159.0,M,-34.4,M,,*55
$GPRMC,171920.500,A,4308.4620,N,07726.4350,W,0.04,318.01,051023,,,A*76
$GPGGA,171920.750,4308.4620,N,07726.4350,W,1,06,1.63,159.0,M,-34.4,M,,*58
$GPRMC,171921.000,A,4308.4620,N,07726.4350,W,0.06,318.01,051023,,,A*70
$GPGGA,171921.250,4308.4620,N,07726.4350,W,1,06,1.94,159.0,M,-34.4,M,,*54
$GPRMC,171921.500,A,4308.4620,N,07726.4350,W,0.07,318.01,051023,,,A*74
$GPGGA,171921.750,4308.4620,N,07726.4350,W,1,06,1.94,159.0,M,-34.4,M,,*51
$GPRMC,171922.000,A,4308.4621,N,07726.4350,W,0.05,318.01,051023,,,A*71
$GPGGA,171922.250,4308.4621,N,07726.4350,W,1,06,1.63,159.0,M,-34.4,M,,*5E
$GPRMC,171922.500,A,4308.4621,N,07726.4350,W,0.14,318.01,051023,,,A*74
$GPGGA,171922.750,4308.4621,N,07726.4350,W,1,06,1.63,159.0,M,-34.4,M,,*5B
$GPRMC,171923.000,A,4308.4621,N,07726.4350,W,0.17,318.01,051023,,,A*73
$GPGGA,171923.250,4308.4621,N,07726.4350,W,1,06,1.63,159.0,M,-34.4,M,,*5F
$GPRMC,171923.500,A,4308.4621,N,07726.4350,W,0.14,318.01,051023,,,A*75
$GPGGA,171923.750,4308.4621,N,07726.4350,W,1,06,1.63,159.0,M,-34.4,M,,*5A
$GPRMC,171924.000,A,4308.4621,N,07726.4350,W,0.08,318.01,051023,,,A*7A
$GPGGA,171924.250,4308.4621,N,07726.4350,W,1,06,1.63,159.0,M,-34.4,M,,*58
$GPRMC,171924.500,A,4308.4621,N,07726.4351,W,0.14,318.01,051023,,,A*73
$GPGGA,171924.750,4308.4621,N,07726.4351,W,1,06,1.63,159.0,M,-34.4,M,,*5C
$GPRMC,171925.000,A,4308.4621,N,07726.4351,W,0.04,318.01,051023,,,A*76
$GPGGA,171925.250,4308.4621,N,07726.4351,W,1,06,1.63,159.0,M,-34.4,M,,*58
$GPRMC,171925.500,A,4308.4621,N,07726.4351,W,0.01,318.01,051023,,,A*76
$GPGGA,171925.750,4308.4621,N,07726.4351,W,1,06,1.63,159.0,M,-34.4,M,,*5D
$GPRMC,171926.000,A,4308.4621,N,07726.4351,W,0.03,318.01,051023,,,A*72
$GPGGA,171926.250,4308.4621,N,07726.4351,W,1,06,1.63,159.0,M,-34.4,M,,*5B
$GPRMC,171926.500,A,4308.4621,N,07726.4351,W,0.03,318.01,051023,,,A*77
$GPGGA,171926.750,4308.4621,N,07726.4351,W,1,06,1.63,159.0,M,-34.4,M,,*5E
$GPRMC,171927.000,A,4308.4621,N,07726.4351,W,0.06,318.01,051023,,,A*76
$GPGGA,171927.250,4308.4621,N,07726.4351,W,1,06,1.94,159.0,M,-34.4,M,,*52
$GPRMC,171927.500,A,4308.4621,N,07726.4351,W,0.04,318.01,051023,,,A*71
$GPGGA,171927.750,4308.4621,N,07726.4351,W,1,06,1.63,159.0,M,-34.4,M,,*5F
$GPRMC,171928.000,A,4308.4621,N,07726.4351,W,0.03,318.01,051023,,,A*7C
$GPGGA,171928.250,4308.4621,N,07726.4351,W,1,06,1.63,159.0,M,-34.4,M,,*55
$GPRMC,171928.500,A,4308.4621,N,07726.4351,W,0.03,318.01,051023,,,A*79
$GPGGA,171928.750,4308.4621,N,07726.4351,W,1,06,1.63,159.0,M,-34.4,M,,*50
$GPRMC,171929.000,A,4308.4621,N,07726.4351,W,0.04,318.01,051023,,,A*7A
$GPGGA,171929.250,4308.4621,N,07726.4351,W,1,06,1.63,159.0,M,-34.4,M,,*54
$GPRMC,171929.500,A,4308.4621,N,07726.4351,W,0.02,318.01,051023,,,A*79
$GPGGA,171929.750,4308.4621,N,07726.4351,W,1,06,1.63,159.0,M,-34.4,M,,*51
$GPRMC,171930.000,A,4308.4621,N,07726.4351,W,0.02,318.01,051023,,,A*74
$GPGGA,171930.250,4308.4621,N,07726.4351,W,1,06,1.63,159.0,M,-34.4,M,,*5C
$GPRMC,171930.500,A,4308.4621,N,07726.4351,W,0.02,318.01,051023,,,A*71
$GPGGA,171930.750,4308.4621,N,07726.4351,W,1,06,1.63,159.0,M,-34.4,M,,*59
$GPRMC,171931.000,A,4308.4621,N,07726.4351,W,0.04,318.01,051023,,,A*73
$GPGGA,171931.250,4308.4621,N,07726.4351,W,1,06,1.63,159.0,M,-34.4,M,,*5D
$GPRMC,171931.500,A,4308.4621,N,07726.4351,W,0.06,318.01,051023,,,A*74
$GPGGA,171931.750,4308.4621,N,07726.4351,W,1,06,1.63,159.0,M,-34.4,M,,*58
$GPRMC,171932.000,A,4308.4621,N,07726.4351,W,0.01,318.01,051023,,,A*75
$GPGGA,171932.250,4308.4621,N,07726.4351,W,1,07,1.30,159.0,M,-34.4,M,,*59
$GPRMC,171932.500,A,4308.4621,N,07726.4351,W,0.04,318.01,051023,,,A*75
$GPGGA,171932.750,4308.4621,N,07726.4351,W,1,07,1.30,159.0,M,-34.4,M,,*5C
$GPRMC,171933.000,A,4308.4622,N,07726.4351,W,0.04,318.01,051023,,,A*72
$GPGGA,171933.250,4308.4622,N,07726.4351,W,1,07,1.30,159.0,M,-34.4,M,,*5B
$GPRMC,171933.500,A,4308.4622,N,07726.4351,W,0.03,318.01,051023,,,A*70
$GPGGA,171933.750,4308.4622,N,07726.4351,W,1,07,1.30,159.0,M,-34.4,M,,*5E
$GPRMC,171934.000,A,4308.4622,N,07726.4351,W,0.01,318.01,051023,,,A*70
$GPGGA,171934.250,4308.4622,N,07726.4351,W,1,07,1.31,159.0,M,-34.4,M,,*5D
$GPRMC,171934.500,A,4308.4622,N,07726.4351,W,0.01,318.01,051023,,,A*75
$GPGGA,171934.750,4308.4622,N,07726.4351,W,1,07,1.30,159.0,M,-34.4,M,,*59
$GPRMC,171935.000,A,4308.4622,N,07726.4351,W,0.02,318.01,051023,,,A*72
$GPGGA,171935.250,4308.4622,N,07726.4351,W,1,07,1.32,159.0,M,-34.4,M,,*5F
$GPRMC,171935.500,A,4308.4622,N,07726.4351,W,0.02,318.01,051023,,,A*77
$GPGGA,171935.750,4308.4622,N,07726.4351,W,1,07,1.30,159.0,M,-34.4,M,,*58
$GPRMC,171936.000,A,4308.4622,N,07726.4351,W,0.01,318.01,051023,,,A*72
$GPGGA,171936.250,4308.4622,N,07726.4351,W,1,07,1.30,159.0,M,-34.4,M,,*5E
$GPRMC,171936.500,A,4308.4622,N,07726.4351,W,0.03,318.01,051023,,,A*75
$GPGGA,171936.750,4308.4622,N,07726.4351,W,1,07,1.30,159.0,M,-34.4,M,,*5B
$GPRMC,171937.000,A,4308.4622,N,07726.4351,W,0.02,318.01,051023,,,A*70
$GPGGA,171937.250,4308.4622,N,07726.4351,W,1,07,1.30,159.0,M,-34.4,M,,*5F
$GPRMC,171937.500,A,4308.4623,N,07726.4352,W,1.16,318.01,051023,,,A*73
$GPGGA,171937.750,4308.4622,N,07726.4353,W,1,07,1.30,159.0,M,-34.4,M,,*58
$GPRMC,171938.000,A,4308.4623,N,07726.4357,W,4.77,271.73,051023,,,A*75
$GPGGA,171938.250,4308.4624,N,07726.4362,W,1,07,1.32,159.0,M,-34.4,M,,*54
$GPRMC,171938.500,A,4308.4626,N,07726.4370,W,7.89,276.94,051023,,,A*7C
$GPGGA,171938.750,4308.4628,N,07726.4378,W,1,07,1.32,159.1,M,-34.4,M,,*57
$GPRMC,171939.000,A,4308.4629,N,07726.4388,W,10.95,277.74,051023,,,A*44
$GPGGA,171939.250,4308.4632,N,07726.4400,W,1,07,1.32,159.2,M,-34.4,M,,*53
$GPRMC,171939.500,A,4308.4634,N,07726.4412,W,13.46,276.97,051023,,,A*48
$GPGGA,171939.750,4308.4636,N,07726.4426,W,1,07,1.32,159.2,M,-34.4,M,,*56
$GPRMC,171940.000,A,4308.4638,N,07726.4440,W,15.83,276.05,051023,,,A*4C
$GPGGA,171940.250,4308.4640,N,07726.4456,W,1,07,1.32,159.3,M,-34.4,M,,*5A
$GPRMC,171940.500,A,4308.4642,N,07726.4472,W,16.49,275.82,051023,,,A*4C
$GPGGA,171940.750,4308.4644,N,07726.4488,W,1,07,1.32,159.5,M,-34.4,M,,*5E
$GPRMC,171941.000,A,4308.4646,N,07726.4505,W,17.65,276.22,051023,,,A*4B
$GPGGA,171941.250,4308.4648,N,07726.4523,W,1,07,1.30,159.6,M,-34.4,M,,*57
$GPRMC,171941.500,A,4308.4650,N,07726.4541,W,19.07,275.76,051023,,,A*41
$GPGGA,171941.750,4308.4651,N,07726.4561,W,1,07,1.32,159.7,M,-34.4,M,,*5F
$GPRMC,171942.000,A,4308.4654,N,07726.4582,W,21.39,275.91,051023,,,A*43
$GPGGA,171942.250,4308.4655,N,07726.4603,W,1,07,1.30,159.8,M,-34.4,M,,*57
$GPRMC,171942.500,A,4308.4658,N,07726.4626,W,23.36,275.77,051023,,,A*42
$GPGGA,171942.750,4308.4660,N,07726.4651,W,1,07,1.32,159.9,M,-34.4,M,,*50
$GPRMC,171943.000,A,4308.4662,N,07726.4676,W,25.81,275.88,051023,,,A*40
$GPGGA,171943.250,4308.4665,N,07726.4702,W,1,07,1.30,160.0,M,-34.4,M,,*57
$GPRMC,171943.500,A,4308.4668,N,07726.4729,W,27.99,276.04,051023,,,A*48
$GPGGA,171943.750,4308.4670,N,07726.4757,W,1,07,1.32,160.1,M,-34.4,M,,*55
$GPRMC,171944.000,A,4308.4673,N,07726.4786,W,29.70,275.43,051023,,,A*4C
$GPGGA,171944.250,4308.4675,N,07726.4815,W,1,07,1.30,160.1,M,-34.4,M,,*59
$GPRMC,171944.500,A,4308.4678,N,07726.4845,W,31.11,274.89,051023,,,A*4B
$GPGGA,171944.750,4308.4682,N,07726.4876,W,1,07,1.32,160.1,M,-34.4,M,,*53
$GPRMC,171945.000,A,4308.4685,N,07726.4908,W,32.75,275.01,051023,,,A*45
$GPGGA,171945.250,4308.4688,N,07726.4940,W,1,07,1.30,160.1,M,-34.4,M,,*5B
$GPRMC,171945.500,A,4308.4691,N,07726.4973,W,33.97,274.75,051023,,,A*46
$GPGGA,171945.750,4308.4694,N,07726.5006,W,1,07,1.32,160.1,M,-34.4,M,,*5B
$GPRMC,171946.000,A,4308.4697,N,07726.5040,W,35.21,274.52,051023,,,A*40
$GPGGA,171946.250,4308.4700,N,07726.5074,W,1,07,1.30,160.1,M,-34.4,M,,*56
$GPRMC,171946.500,A,4308.4702,N,07726.5108,W,35.65,274.61,051023,,,A*45
$GPGGA,171946.750,4308.4705,N,07726.5143,W,1,07,1.32,159.9,M,-34.4,M,,*53
$GPRMC,171947.000,A,4308.4708,N,07726.5178,W,36.71,274.02,051023,,,A*4F
$GPGGA,171947.250,4308.4710,N,07726.5214,W,1,07,1.30,159.7,M,-34.4,M,,*5E
$GPRMC,171947.500,A,4308.4712,N,07726.5250,W,37.53,272.66,051023,,,A*4D
$GPGGA,171947.750,4308.4713,N,07726.5287,W,1,07,1.32,159.5,M,-34.4,M,,*52
$GPRMC,171948.000,A,4308.4714,N,07726.5325,W,38.80,271.15,051023,,,A*44
$GPGGA,171948.250,4308.4715,N,07726.5362,W,1,07,1.30,159.3,M,-34.4,M,,*50
$GPRMC,171948.500,A,4308.4716,N,07726.5401,W,39.85,270.65,051023,,,A*40
$GPGGA,171948.750,4308.4716,N,07726.5440,W,1,07,1.32,159.1,M,-34.4,M,,*51
$GPRMC,171949.000,A,4308.4717,N,07726.5479,W,40.82,270.56,051023,,,A*43
$GPGGA,171949.250,4308.4717,N,07726.5519,W,1,07,1.30,159.0,M,-34.4,M,,*5A
$GPRMC,171949.500,A,4308.4718,N,07726.5559,W,41.95,270.66,051023,,,A*4E
$GPGGA,171949.750,4308.4719,N,07726.5600,W,1,07,1.32,158.9,M,-34.4,M,,*50
$GPRMC,171950.000,A,4308.4721,N,07726.5641,W,42.49,271.18,051023,,,A*49
$GPGGA,171950.250,4308.4722,N,07726.5682,W,1,07,1.30,158.7,M,-34.4,M,,*53
$GPRMC,171950.500,A,4308.4724,N,07726.5723,W,42.93,271.49,051023,,,A*4F
$GPGGA,171950.750,4308.4725,N,07726.5765,W,1,07,1.32,158.5,M,-34.4,M,,*59
$GPRMC,171951.000,A,4308.4727,N,07726.5806,W,42.91,272.12,051023,,,A*4F
$GPGGA,171951.250,4308.4728,N,07726.5847,W,1,07,1.32,158.4,M,-34.4,M,,*5E
$GPRMC,171951.500,A,4308.4730,N,07726.5889,W,42.61,273.02,051023,,,A*44
$GPGGA,171951.750,4308.4732,N,07726.5930,W,1,07,1.32,158.5,M,-34.4,M,,*50
$GPRMC,171952.000,A,4308.4734,N,07726.5971,W,42.30,273.75,051023,,,A*44
$GPGGA,171952.250,4308.4736,N,07726.6012,W,1,07,1.32,158.5,M,-34.4,M,,*58
$GPRMC,171952.500,A,4308.4738,N,07726.6052,W,42.04,273.36,051023,,,A*46
$GPGGA,171952.750,4308.4739,N,07726.6092,W,1,07,1.32,158.5,M,-34.4,M,,*5A
$GPRMC,171953.000,A,4308.4740,N,07726.6132,W,41.84,272.42,051023,,,A*43
$GPGGA,171953.250,4308.4741,N,07726.6172,W,1,07,1.32,158.6,M,-34.4,M,,*5D
$GPRMC,171953.500,A,4308.4742,N,07726.6213,W,41.76,271.67,051023,,,A*4D
$GPGGA,171953.750,4308.4742,N,07726.6254,W,1,07,1.32,158.7,M,-34.4,M,,*5D
$GPRMC,171954.000,A,4308.4742,N,07726.6294,W,42.38,270.68,051023,,,A*47
$GPGGA,171954.250,4308.4742,N,07726.6335,W,1,07,1.32,158.7,M,-34.4,M,,*59
$GPRMC,171954.500,A,4308.4742,N,07726.6375,W,42.27,270.05,051023,,,A*49
$GPGGA,171954.750,4308.4742,N,07726.6416,W,1,07,1.32,158.7,M,-34.4,M,,*5A
$GPRMC,171955.000,A,4308.4741,N,07726.6456,W,42.19,269.42,051023,,,A*4E
$GPGGA,171955.250,4308.4741,N,07726.6496,W,1,07,1.30,158.7,M,-34.4,M,,*57
$GPRMC,171955.500,A,4308.4741,N,07726.6537,W,42.10,268.72,051023,,,A*46
$GPGGA,171955.750,4308.4741,N,07726.6579,W,1,07,1.32,158.8,M,-34.4,M,,*5F
$GPRMC,171956.000,A,4308.4741,N,07726.6620,W,42.49,267.82,051023,,,A*49
$GPGGA,171956.250,4308.4740,N,07726.6662,W,1,07,1.30,159.0,M,-34.4,M,,*5A
$GPRMC,171956.500,A,4308.4738,N,07726.6703,W,42.54,267.34,051023,,,A*43
$GPGGA,171956.750,4308.4737,N,07726.6745,W,1,07,1.32,159.2,M,-34.4,M,,*5B
$GPRMC,171957.000,A,4308.4735,N,07726.6786,W,42.56,266.30,051023,,,A*40
$GPGGA,171957.250,4308.4734,N,07726.6827,W,1,07,1.32,159.3,M,-34.4,M,,*56
$GPRMC,171957.500,A,4308.4733,N,07726.6868,W,42.54,266.04,051023,,,A*49
$GPGGA,171957.750,4308.4730,N,07726.6909,W,1,07,1.32,159.5,M,-34.4,M,,*5C
$GPRMC,171958.000,A,4308.4728,N,07726.6949,W,42.25,265.72,051023,,,A*4F
$GPGGA,171958.250,4308.4726,N,07726.6990,W,1,07,1.30,159.8,M,-34.4,M,,*5E
$GPRMC,171958.500,A,4308.4723,N,07726.7031,W,42.01,265.47,051023,,,A*46
$GPGGA,171958.750,4308.4721,N,07726.7071,W,1,07,1.32,160.1,M,-34.4,M,,*5A
$GPRMC,171959.000,A,4308.4719,N,07726.7111,W,41.74,265.37,051023,,,A*4E
$GPGGA,171959.250,4308.4718,N,07726.7152,W,1,07,1.31,160.4,M,-34.4,M,,*52
$GPRMC,171959.500,A,4308.4716,N,07726.7192,W,41.37,265.58,051023,,,A*41
$GPGGA,171959.750,4308.4715,N,07726.7232,W,1,07,1.32,160.8,M,-34.4,M,,*50
$GPRMC,172000.000,A,4308.4713,N,07726.7272,W,41.02,265.93,051023,,,A*4B
$GPGGA,172000.250,4308.4712,N,07726.7312,W,1,07,1.30,161.1,M,-34.4,M,,*5D
$GPRMC,172000.500,A,4308.4711,N,07726.7352,W,40.79,266.39,051023,,,A*41
$GPGGA,172000.750,4308.4709,N,07726.7391,W,1,07,1.32,161.4,M,-34.4,M,,*5E
$GPRMC,172001.000,A,4308.4707,N,07726.7430,W,40.61,266.72,051023,,,A*47
$GPGGA,172001.250,4308.4706,N,07726.7468,W,1,07,1.31,161.7,M,-34.4,M,,*54
$GPRMC,172001.500,A,4308.4706,N,07726.7506,W,39.85,267.06,051023,,,A*41
$GPGGA,172001.750,4308.4705,N,07726.7544,W,1,07,1.32,162.0,M,-34.4,M,,*5A
$GPRMC,172002.000,A,4308.4703,N,07726.7581,W,39.52,267.07,051023,,,A*46
$GPGGA,172002.250,4308.4702,N,07726.7618,W,1,07,1.31,162.3,M,-34.4,M,,*51
$GPRMC,172002.500,A,4308.4702,N,07726.7655,W,38.85,267.24,051023,,,A*42
$GPGGA,172002.750,4308.4701,N,07726.7692,W,1,07,1.32,162.6,M,-34.4,M,,*53
$GPRMC,172003.000,A,4308.4700,N,07726.7728,W,38.57,266.93,051023,,,A*4D
$GPGGA,172003.250,4308.4699,N,07726.7765,W,1,07,1.32,162.9,M,-34.4,M,,*51
$GPRMC,172003.500,A,4308.4698,N,07726.7801,W,38.38,266.48,051023,,,A*43
$GPGGA,172003.750,4308.4698,N,07726.7837,W,1,07,1.32,162.9,M,-34.4,M,,*5D
$GPRMC,172004.000,A,4308.4695,N,07726.7873,W,38.28,265.65,051023,,,A*44
$GPGGA,172004.250,4308.4693,N,07726.7909,W,1,07,1.31,162.9,M,-34.4,M,,*5B
$GPRMC,172004.500,A,4308.4691,N,07726.7945,W,38.29,265.17,051023,,,A*45
$GPGGA,172004.750,4308.4689,N,07726.7981,W,1,07,1.32,162.9,M,-34.4,M,,*56
$GPRMC,172005.000,A,4308.4687,N,07726.8017,W,38.25,264.31,051023,,,A*4E
$GPGGA,172005.250,4308.4685,N,07726.8053,W,1,07,1.31,162.8,M,-34.4,M,,*55
$GPRMC,172005.500,A,4308.4682,N,07726.8089,W,38.43,264.12,051023,,,A*48
$GPGGA,172005.750,4308.4680,N,07726.8125,W,1,07,1.32,162.7,M,-34.4,M,,*59
$GPRMC,172006.000,A,4308.4677,N,07726.8161,W,38.12,263.94,051023,,,A*4E
$GPGGA,172006.250,4308.4675,N,07726.8197,W,1,07,1.31,162.6,M,-34.4,M,,*5E
$GPRMC,172006.500,A,4308.4673,N,07726.8233,W,38.17,264.42,051023,,,A*42
$GPGGA,172006.750,4308.4671,N,07726.8269,W,1,07,1.32,162.4,M,-34.4,M,,*5C
$GPRMC,172007.000,A,4308.4669,N,07726.8305,W,38.44,264.85,051023,,,A*44
$GPGGA,172007.250,4308.4667,N,07726.8341,W,1,07,1.32,162.2,M,-34.4,M,,*52
$GPRMC,172007.500,A,4308.4665,N,07726.8378,W,38.63,264.83,051023,,,A*44
$GPGGA,172007.750,4308.4663,N,07726.8415,W,1,07,1.32,161.9,M,-34.4,M,,*5D
$GPRMC,172008.000,A,4308.4661,N,07726.8451,W,38.90,264.60,051023,,,A*47
$GPGGA,172008.250,4308.4658,N,07726.8488,W,1,07,1.32,161.6,M,-34.4,M,,*54
$GPRMC,172008.500,A,4308.4656,N,07726.8525,W,39.10,264.87,051023,,,A*44
$GPGGA,172008.750,4308.4654,N,07726.8563,W,1,07,1.32,161.4,M,-34.4,M,,*5B
$GPRMC,172009.000,A,4308.4651,N,07726.8600,W,39.16,264.67,051023,,,A*4B
$GPGGA,172009.250,4308.4649,N,07726.8637,W,1,07,1.32,161.1,M,-34.4,M,,*54
$GPRMC,172009.500,A,4308.4646,N,07726.8675,W,39.65,264.49,051023,,,A*42
$GPGGA,172009.750,4308.4644,N,07726.8712,W,1,07,1.32,160.9,M,-34.4,M,,*53
$GPRMC,172010.000,A,4308.4642,N,07726.8750,W,39.84,264.44,051023,,,A*4F
$GPGGA,172010.250,4308.4640,N,07726.8788,W,1,07,1.31,160.8,M,-34.4,M,,*5B
$GPRMC,172010.500,A,4308.4639,N,07726.8825,W,39.90,265.02,051023,,,A*4D
$GPGGA,172010.750,4308.4637,N,07726.8863,W,1,07,1.32,160.6,M,-34.4,M,,*59
$GPRMC,172011.000,A,4308.4636,N,07726.8901,W,40.09,265.62,051023,,,A*49
$GPGGA,172011.250,4308.4634,N,07726.8940,W,1,07,1.32,160.5,M,-34.4,M,,*5D
$GPRMC,172011.500,A,4308.4632,N,07726.8978,W,40.20,265.84,051023,,,A*45
$GPGGA,172011.750,4308.4630,N,07726.9016,W,1,07,1.32,160.3,M,-34.4,M,,*51
$GPRMC,172012.000,A,4308.4629,N,07726.9054,W,40.37,265.54,051023,,,A*44
$GPGGA,172012.250,4308.4628,N,07726.9092,W,1,07,1.32,160.4,M,-34.4,M,,*55
$GPRMC,172012.500,A,4308.4627,N,07726.9131,W,40.65,265.33,051023,,,A*4B
$GPGGA,172012.750,4308.4625,N,07726.9170,W,1,07,1.32,160.4,M,-34.4,M,,*50
$GPRMC,172013.000,A,4308.4624,N,07726.9209,W,41.16,265.21,051023,,,A*42
$GPGGA,172013.250,4308.4623,N,07726.9248,W,1,07,1.32,160.3,M,-34.4,M,,*5D
$GPRMC,172013.500,A,4308.4621,N,07726.9287,W,41.28,265.21,051023,,,A*49
$GPGGA,172013.750,4308.4618,N,07726.9326,W,1,07,1.32,160.1,M,-34.4,M,,*5B
$GPRMC,172014.000,A,4308.4616,N,07726.9365,W,41.29,265.21,051023,,,A*43
$GPGGA,172014.250,4308.4613,N,07726.9405,W,1,07,1.32,159.8,M,-34.4,M,,*57
$GPRMC,172014.500,A,4308.4610,N,07726.9444,W,41.32,264.57,051023,,,A*4E
$GPGGA,172014.750,4308.4607,N,07726.9483,W,1,07,1.32,159.7,M,-34.4,M,,*56
$GPRMC,172015.000,A,4308.4605,N,07726.9522,W,41.53,264.56,051023,,,A*49
$GPGGA,172015.250,4308.4603,N,07726.9561,W,1,07,1.32,159.5,M,-34.4,M,,*59
$GPRMC,172015.500,A,4308.4601,N,07726.9601,W,41.58,265.09,051023,,,A*4A
$GPGGA,172015.750,4308.4600,N,07726.9640,W,1,07,1.32,159.2,M,-34.4,M,,*58
$GPRMC,172016.000,A,4308.4598,N,07726.9679,W,41.81,265.71,051023,,,A*4B
$GPGGA,172016.250,4308.4596,N,07726.9718,W,1,07,1.32,159.1,M,-34.4,M,,*5D
$GPRMC,172016.500,A,4308.4594,N,07726.9758,W,41.90,265.87,051023,,,A*49
$GPGGA,172016.750,4308.4591,N,07726.9798,W,1,07,1.32,158.9,M,-34.4,M,,*5E
$GPRMC,172017.000,A,4308.4590,N,07726.9838,W,42.12,266.10,051023,,,A*44
$GPGGA,172017.250,4308.4587,N,07726.9878,W,1,07,1.32,158.7,M,-34.4,M,,*52
$GPRMC,172017.500,A,4308.4585,N,07726.9918,W,42.05,265.68,051023,,,A*4C
$GPGGA,172017.750,4308.4582,N,07726.9958,W,1,07,1.32,158.6,M,-34.4,M,,*50
$GPRMC,172018.000,A,4308.4580,N,07726.9997,W,41.93,265.84,051023,,,A*4A
$GPGGA,172018.250,4308.4577,N,07727.0038,W,1,07,1.32,158.2,M,-34.4,M,,*53
$GPRMC,172018.500,A,4308.4575,N,07727.0077,W,41.54,266.04,051023,,,A*4A
$GPGGA,172018.750,4308.4573,N,07727.0117,W,1,07,1.32,158.1,M,-34.4,M,,*5D
$GPRMC,172019.000,A,4308.4572,N,07727.0157,W,41.58,266.01,051023,,,A*43
$GPGGA,172019.250,4308.4571,N,07727.0197,W,1,07,1.32,158.0,M,-34.4,M,,*52
$GPRMC,172019.500,A,4308.4570,N,07727.0236,W,41.67,265.95,051023,,,A*42
$GPGGA,172019.750,4308.4568,N,07727.0276,W,1,07,1.32,158.0,M,-34.4,M,,*53
$GPRMC,172020.000,A,4308.4566,N,07727.0317,W,41.88,266.35,051023,,,A*40
$GPGGA,172020.250,4308.4564,N,07727.0358,W,1,07,1.32,157.9,M,-34.4,M,,*5B
$GPRMC,172020.500,A,4308.4562,N,07727.0399,W,41.87,266.84,051023,,,A*42
$GPGGA,172020.750,4308.4560,N,07727.0440,W,1,07,1.32,157.6,M,-34.4,M,,*5B
$GPRMC,172021.000,A,4308.4558,N,07727.0480,W,41.98,267.60,051023,,,A*45
$GPGGA,172021.250,4308.4557,N,07727.0521,W,1,07,1.32,157.2,M,-34.4,M,,*59
$GPRMC,172021.500,A,4308.4556,N,07727.0562,W,42.43,268.88,051023,,,A*4F
$GPGGA,172021.750,4308.4557,N,07727.0603,W,1,07,1.32,157.0,M,-34.4,M,,*5D
$GPRMC,172022.000,A,4308.4559,N,07727.0644,W,42.92,271.55,051023,,,A*45
$GPGGA,172022.250,4308.4560,N,07727.0685,W,1,07,1.32,156.9,M,-34.4,M,,*59
$GPRMC,172022.500,A,4308.4563,N,07727.0726,W,42.99,273.41,051023,,,A*40
$GPGGA,172022.750,4308.4565,N,07727.0768,W,1,07,1.32,156.5,M,-34.4,M,,*57
$GPRMC,172023.000,A,4308.4568,N,07727.0810,W,43.45,275.22,051023,,,A*46
$GPGGA,172023.250,4308.4571,N,07727.0852,W,1,07,1.32,156.2,M,-34.4,M,,*57
$GPRMC,172023.500,A,4308.4574,N,07727.0893,W,43.74,276.36,051023,,,A*41
$GPGGA,172023.750,4308.4578,N,07727.0935,W,1,07,1.32,156.1,M,-34.4,M,,*58
$GPRMC,172024.000,A,4308.4583,N,07727.0977,W,44.02,278.25,051023,,,A*4A
$GPGGA,172024.250,4308.4587,N,07727.1019,W,1,07,1.31,156.0,M,-34.4,M,,*5E
$GPRMC,172024.500,A,4308.4592,N,07727.1061,W,44.36,279.24,051023,,,A*47
$GPGGA,172024.750,4308.4597,N,07727.1103,W,1,07,1.32,155.9,M,-34.4,M,,*59
$GPRMC,172025.000,A,4308.4602,N,07727.1145,W,44.59,279.74,051023,,,A*42
$GPGGA,172025.250,4308.4607,N,07727.1186,W,1,07,1.32,155.9,M,-34.4,M,,*5A
$GPRMC,172025.500,A,4308.4612,N,07727.1228,W,44.68,279.84,051023,,,A*43
$GPGGA,172025.750,4308.4617,N,07727.1270,W,1,07,1.32,156.0,M,-34.4,M,,*5E
$GPRMC,172026.000,A,4308.4622,N,07727.1312,W,44.66,280.24,051023,,,A*4C
$GPGGA,172026.250,4308.4627,N,07727.1353,W,1,07,1.31,156.1,M,-34.4,M,,*59
$GPRMC,172026.500,A,4308.4632,N,07727.1395,W,44.66,280.16,051023,,,A*46
$GPGGA,172026.750,4308.4637,N,07727.1437,W,1,07,1.32,156.2,M,-34.4,M,,*58
$GPRMC,172027.000,A,4308.4642,N,07727.1478,W,44.64,280.08,051023,,,A*4C
$GPGGA,172027.250,4308.4646,N,07727.1520,W,1,07,1.31,156.5,M,-34.4,M,,*59
$GPRMC,172027.500,A,4308.4651,N,07727.1562,W,44.63,280.15,051023,,,A*4A
$GPGGA,172027.750,4308.4656,N,07727.1603,W,1,07,1.32,156.7,M,-34.4,M,,*5E
$GPRMC,172028.000,A,4308.4661,N,07727.1645,W,44.40,279.84,051023,,,A*4A
$GPGGA,172028.250,4308.4666,N,07727.1686,W,1,07,1.32,156.8,M,-34.4,M,,*55
$GPRMC,172028.500,A,4308.4672,N,07727.1728,W,44.18,279.81,051023,,,A*4F
$GPGGA,172028.750,4308.4677,N,07727.1769,W,1,07,1.32,156.9,M,-34.4,M,,*51
$GPRMC,172029.000,A,4308.4682,N,07727.1811,W,43.91,280.06,051023,,,A*4E
$GPGGA,172029.250,4308.4688,N,07727.1852,W,1,07,1.31,156.9,M,-34.4,M,,*51
$GPRMC,172029.500,A,4308.4693,N,07727.1893,W,43.82,280.18,051023,,,A*4C
