Vers 81
USE_SERIAL_FEEDBACK=true
DEVELOPMENT_MODE=false
USE_RMC_ONLY=false

$GPRMC,214103.500,A,4305.1681,N,07740.8799,W,0.06,74.25,190923,,,A*49
$GPGGA,214103.750,4305.1681,N,07740.8799,W,1,05,1.96,182.7,M,-34.4,M,,*57
$GPRMC,214104.000,A,4305.1681,N,07740.8799,W,0.04,250.02,190923,,,A*78
$GPGGA,214104.250,4305.1681,N,07740.8799,W,1,05,1.96,182.5,M,-34.4,M,,*57
$GPRMC,214104.500,A,4305.1682,N,07740.8798,W,0.02,47.76,190923,,,A*4E
$GPGGA,214104.750,4305.1682,N,07740.8798,W,1,05,1.96,182.2,M,-34.4,M,,*57
$GPRMC,214105.000,A,4305.1683,N,07740.8797,W,0.02,18.62,190923,,,A*4B
$GPGGA,214105.250,4305.1683,N,07740.8796,W,1,05,1.96,181.9,M,-34.4,M,,*54
$GPRMC,214105.500,A,4305.1684,N,07740.8795,W,0.03,258.81,190923,,,A*71
$GPGGA,214105.750,4305.1685,N,07740.8796,W,1,05,1.96,181.4,M,-34.4,M,,*5A
$GPRMC,214106.000,A,4305.1685,N,07740.8797,W,0.03,299.42,190923,,,A*76
$GPGGA,214106.250,4305.1686,N,07740.8799,W,1,05,1.96,180.8,M,-34.4,M,,*5D
$GPRMC,214106.500,A,4305.1687,N,07740.8799,W,0.02,37.78,190923,,,A*41
$GPGGA,214106.750,4305.1688,N,07740.8799,W,1,05,1.96,180.2,M,-34.4,M,,*5C
$GPRMC,214107.000,A,4305.1688,N,07740.8800,W,0.00,340.67,190923,,,A*7A
$GPGGA,214107.250,4305.1689,N,07740.8800,W,1,05,1.96,179.6,M,-34.4,M,,*54
$GPRMC,214107.500,A,4305.1690,N,07740.8800,W,0.02,302.97,190923,,,A*7D
$GPGGA,214107.750,4305.1691,N,07740.8799,W,1,05,1.96,179.0,M,-34.4,M,,*51
$GPRMC,214108.000,A,4305.1691,N,07740.8799,W,0.03,314.16,190923,,,A*76
$GPGGA,214108.250,4305.1692,N,07740.8799,W,1,05,1.96,178.5,M,-34.4,M,,*5C
$GPRMC,214108.500,A,4305.1693,N,07740.8799,W,0.03,277.23,190923,,,A*73
$GPGGA,214108.750,4305.1693,N,07740.8798,W,1,05,1.96,178.0,M,-34.4,M,,*5C
$GPRMC,214109.000,A,4305.1694,N,07740.8797,W,0.01,52.68,190923,,,A*46
$GPGGA,214109.250,4305.1694,N,07740.8797,W,1,05,1.96,177.5,M,-34.4,M,,*5A
$GPRMC,214109.500,A,4305.1695,N,07740.8797,W,0.05,317.90,190923,,,A*73
$GPGGA,214109.750,4305.1696,N,07740.8796,W,1,05,1.96,177.0,M,-34.4,M,,*59
$GPRMC,214110.000,A,4305.1696,N,07740.8796,W,0.05,61.68,190923,,,A*49
$GPGGA,214110.250,4305.1696,N,07740.8795,W,1,05,1.96,176.7,M,-34.4,M,,*51
$GPRMC,214110.500,A,4305.1697,N,07740.8795,W,0.03,42.14,190923,,,A*42
$GPGGA,214110.750,4305.1697,N,07740.8794,W,1,05,1.96,176.3,M,-34.4,M,,*50
$GPRMC,214111.000,A,4305.1697,N,07740.8794,W,0.05,278.37,190923,,,A*7B
$GPGGA,214111.250,4305.1698,N,07740.8793,W,1,05,1.96,175.9,M,-34.4,M,,*55
$GPRMC,214111.500,A,4305.1698,N,07740.8793,W,0.04,92.63,190923,,,A*40
$GPGGA,214111.750,4305.1698,N,07740.8792,W,1,05,1.96,175.6,M,-34.4,M,,*5E
$GPRMC,214112.000,A,4305.1699,N,07740.8791,W,0.01,195.99,190923,,,A*73
$GPGGA,214112.250,4305.1699,N,07740.8791,W,1,05,1.96,175.3,M,-34.4,M,,*5F
$GPRMC,214112.500,A,4305.1699,N,07740.8790,W,0.06,89.65,190923,,,A*4F
$GPGGA,214112.750,4305.1699,N,07740.8789,W,1,05,1.96,175.0,M,-34.4,M,,*50
$GPRMC,214113.000,A,4305.1700,N,07740.8788,W,0.07,307.56,190923,,,A*77
$GPGGA,214113.250,4305.1700,N,07740.8787,W,1,05,1.96,174.5,M,-34.4,M,,*5F
$GPRMC,214113.500,A,4305.1701,N,07740.8786,W,0.05,156.19,190923,,,A*72
$GPGGA,214113.750,4305.1701,N,07740.8785,W,1,05,1.96,174.3,M,-34.4,M,,*5F
$GPRMC,214114.000,A,4305.1701,N,07740.8785,W,0.02,296.21,190923,,,A*70
$GPGGA,214114.250,4305.1701,N,07740.8785,W,1,05,1.96,174.1,M,-34.4,M,,*5F
$GPRMC,214114.500,A,4305.1701,N,07740.8785,W,0.16,245.47,190923,,,A*7E
$GPGGA,214114.750,4305.1701,N,07740.8786,W,1,05,1.96,174.0,M,-34.4,M,,*58
$GPRMC,214115.000,A,4305.1701,N,07740.8786,W,0.28,247.99,190923,,,A*75
$GPGGA,214115.250,4305.1701,N,07740.8786,W,1,05,1.96,173.9,M,-34.4,M,,*52
$GPRMC,214115.500,A,4305.1701,N,07740.8787,W,0.34,248.02,190923,,,A*71
$GPGGA,214115.750,4305.1701,N,07740.8787,W,1,05,1.96,173.8,M,-34.4,M,,*57
$GPRMC,214116.000,A,4305.1701,N,07740.8788,W,0.35,247.82,190923,,,A*7E
$GPGGA,214116.250,4305.1701,N,07740.8788,W,1,05,1.96,173.8,M,-34.4,M,,*5E
$GPRMC,214116.500,A,4305.1701,N,07740.8788,W,0.29,249.51,190923,,,A*76
$GPGGA,214116.750,4305.1701,N,07740.8788,W,1,05,1.96,173.9,M,-34.4,M,,*5A
$GPRMC,214117.000,A,4305.1701,N,07740.8789,W,0.18,254.22,190923,,,A*79
$GPGGA,214117.250,4305.1701,N,07740.8789,W,1,05,1.96,173.9,M,-34.4,M,,*5F
$GPRMC,214117.500,A,4305.1701,N,07740.8789,W,0.10,265.58,190923,,,A*7B
$GPGGA,214117.750,4305.1701,N,07740.8789,W,1,05,1.96,174.1,M,-34.4,M,,*55
$GPRMC,214118.000,A,4305.1701,N,07740.8789,W,0.09,285.95,190923,,,A*76
$GPGGA,214118.250,4305.1701,N,07740.8789,W,1,05,1.96,174.1,M,-34.4,M,,*5F
$GPRMC,214118.500,A,4305.1701,N,07740.8789,W,0.07,318.48,190923,,,A*78
$GPGGA,214118.750,4305.1701,N,07740.8789,W,1,05,1.96,174.3,M,-34.4,M,,*58
$GPRMC,214119.000,A,4305.1701,N,07740.8789,W,0.09,336.73,190923,,,A*76
$GPGGA,214119.250,4305.1701,N,07740.8789,W,1,05,1.96,174.4,M,-34.4,M,,*5B
$GPRMC,214119.500,A,4305.1701,N,07740.8789,W,0.10,349.22,190923,,,A*77
$GPGGA,214119.750,4305.1701,N,07740.8790,W,1,05,3.62,174.6,M,-34.4,M,,*5D
$GPRMC,214120.000,A,4305.1701,N,07740.8790,W,0.12,352.26,190923,,,A*7C
$GPGGA,214120.250,4305.1700,N,07740.8790,W,1,06,2.38,174.9,M,-34.4,M,,*51
$GPRMC,214120.500,A,4305.1699,N,07740.8791,W,0.06,349.70,190923,,,A*74
$GPGGA,214120.750,4305.1698,N,07740.8791,W,1,06,2.38,175.2,M,-34.4,M,,*5F
$GPRMC,214121.000,A,4305.1698,N,07740.8791,W,0.06,40.18,190923,,,A*45
$GPGGA,214121.250,4305.1698,N,07740.8791,W,1,06,1.62,175.4,M,-34.4,M,,*51
$GPRMC,214121.500,A,4305.1697,N,07740.8791,W,0.18,29.42,190923,,,A*40
$GPGGA,214121.750,4305.1697,N,07740.8793,W,1,06,1.62,176.0,M,-34.4,M,,*5E
$GPRMC,214122.000,A,4305.1696,N,07740.8793,W,0.24,21.89,190923,,,A*45
$GPGGA,214122.250,4305.1696,N,07740.8794,W,1,06,1.62,176.4,M,-34.4,M,,*5A
$GPRMC,214122.500,A,4305.1695,N,07740.8795,W,0.19,14.72,190923,,,A*49
$GPGGA,214122.750,4305.1694,N,07740.8796,W,1,06,2.38,176.7,M,-34.4,M,,*50
$GPRMC,214123.000,A,4305.1693,N,07740.8797,W,0.13,340.76,190923,,,A*75
$GPGGA,214123.250,4305.1693,N,07740.8798,W,1,06,1.62,177.0,M,-34.4,M,,*57
$GPRMC,214123.500,A,4305.1692,N,07740.8799,W,0.19,319.13,190923,,,A*7A
$GPGGA,214123.750,4305.1692,N,07740.8800,W,1,06,1.62,177.2,M,-34.4,M,,*5F
$GPRMC,214124.000,A,4305.1691,N,07740.8800,W,0.18,326.14,190923,,,A*7E
$GPGGA,214124.250,4305.1690,N,07740.8800,W,1,06,1.62,177.4,M,-34.4,M,,*59
$GPRMC,214124.500,A,4305.1690,N,07740.8802,W,0.19,312.00,190923,,,A*7B
$GPGGA,214124.750,4305.1689,N,07740.8803,W,1,06,1.62,177.7,M,-34.4,M,,*54
$GPRMC,214125.000,A,4305.1688,N,07740.8803,W,0.13,285.78,190923,,,A*7D
$GPGGA,214125.250,4305.1687,N,07740.8803,W,1,06,1.62,177.9,M,-34.4,M,,*50
$GPRMC,214125.500,A,4305.1686,N,07740.8803,W,0.11,225.12,190923,,,A*72
$GPGGA,214125.750,4305.1686,N,07740.8804,W,1,06,1.62,178.0,M,-34.4,M,,*55
$GPRMC,214126.000,A,4305.1685,N,07740.8804,W,0.09,228.47,190923,,,A*74
$GPGGA,214126.250,4305.1685,N,07740.8805,W,1,06,1.62,178.2,M,-34.4,M,,*53
$GPRMC,214126.500,A,4305.1685,N,07740.8805,W,0.06,264.52,190923,,,A*73
$GPGGA,214126.750,4305.1685,N,07740.8806,W,1,06,1.62,178.2,M,-34.4,M,,*55
$GPRMC,214127.000,A,4305.1685,N,07740.8807,W,0.13,272.07,190923,,,A*76
$GPGGA,214127.250,4305.1685,N,07740.8808,W,1,06,1.62,178.3,M,-34.4,M,,*5E
$GPRMC,214127.500,A,4305.1684,N,07740.8809,W,0.23,254.88,190923,,,A*7C
$GPGGA,214127.750,4305.1684,N,07740.8810,W,1,06,1.62,178.4,M,-34.4,M,,*54
$GPRMC,214128.000,A,4305.1684,N,07740.8810,W,0.28,258.67,190923,,,A*78
$GPGGA,214128.250,4305.1684,N,07740.8810,W,1,06,1.62,178.4,M,-34.4,M,,*5E
$GPRMC,214128.500,A,4305.1684,N,07740.8810,W,0.26,256.03,190923,,,A*7F
$GPGGA,214128.750,4305.1683,N,07740.8811,W,1,06,1.62,178.5,M,-34.4,M,,*5C
$GPRMC,214129.000,A,4305.1683,N,07740.8811,W,0.22,255.51,190923,,,A*7D
$GPGGA,214129.250,4305.1683,N,07740.8811,W,1,06,1.62,178.6,M,-34.4,M,,*5B
$GPRMC,214129.500,A,4305.1683,N,07740.8811,W,0.18,250.68,190923,,,A*7E
$GPGGA,214129.750,4305.1683,N,07740.8811,W,1,06,1.62,178.6,M,-34.4,M,,*5E
$GPRMC,214130.000,A,4305.1683,N,07740.8811,W,0.14,250.41,190923,,,A*74
$GPGGA,214130.250,4305.1682,N,07740.8810,W,1,06,1.62,178.7,M,-34.4,M,,*52
$GPRMC,214130.500,A,4305.1683,N,07740.8810,W,0.02,10.78,190923,,,A*4B
$GPGGA,214130.750,4305.1682,N,07740.8809,W,1,06,2.39,178.8,M,-34.4,M,,*5D
$GPRMC,214131.000,A,4305.1682,N,07740.8810,W,0.06,197.98,190923,,,A*7A
$GPGGA,214131.250,4305.1682,N,07740.8810,W,1,06,1.62,178.9,M,-34.4,M,,*5D
$GPRMC,214131.500,A,4305.1682,N,07740.8810,W,0.01,124.92,190923,,,A*7A
$GPGGA,214131.750,4305.1682,N,07740.8809,W,1,06,1.62,179.0,M,-34.4,M,,*58
$GPRMC,214132.000,A,4305.1683,N,07740.8809,W,0.03,244.73,190923,,,A*7D
$GPGGA,214132.250,4305.1684,N,07740.8806,W,1,08,1.02,178.5,M,-34.4,M,,*5B
$GPRMC,214132.500,A,4305.1685,N,07740.8803,W,0.02,63.11,190923,,,A*46
$GPGGA,214132.750,4305.1685,N,07740.8801,W,1,08,1.02,177.9,M,-34.4,M,,*5B
$GPRMC,214133.000,A,4305.1685,N,07740.8800,W,0.04,192.87,190923,,,A*77
$GPGGA,214133.250,4305.1686,N,07740.8798,W,1,08,1.02,177.7,M,-34.4,M,,*5D
$GPRMC,214133.500,A,4305.1686,N,07740.8797,W,0.02,209.67,190923,,,A*79
$GPGGA,214133.750,4305.1687,N,07740.8796,W,1,08,1.02,177.4,M,-34.4,M,,*54
$GPRMC,214134.000,A,4305.1687,N,07740.8796,W,0.02,357.79,190923,,,A*7E
$GPGGA,214134.250,4305.1687,N,07740.8795,W,1,08,1.05,177.4,M,-34.4,M,,*52
$GPRMC,214134.500,A,4305.1687,N,07740.8795,W,0.04,229.97,190923,,,A*76
$GPGGA,214134.750,4305.1688,N,07740.8794,W,1,08,1.02,177.3,M,-34.4,M,,*59
$GPRMC,214135.000,A,4305.1688,N,07740.8794,W,0.01,181.65,190923,,,A*75
$GPGGA,214135.250,4305.1688,N,07740.8793,W,1,08,1.02,177.2,M,-34.4,M,,*5B
$GPRMC,214135.500,A,4305.1688,N,07740.8793,W,0.04,123.32,190923,,,A*78
$GPGGA,214135.750,4305.1688,N,07740.8793,W,1,08,1.02,177.2,M,-34.4,M,,*5E
$GPRMC,214136.000,A,4305.1688,N,07740.8793,W,0.01,162.67,190923,,,A*7E
$GPGGA,214136.250,4305.1688,N,07740.8793,W,1,08,1.02,177.2,M,-34.4,M,,*58
$GPRMC,214136.500,A,4305.1688,N,07740.8793,W,0.06,273.47,190923,,,A*7D
$GPGGA,214136.750,4305.1688,N,07740.8793,W,1,08,1.02,177.2,M,-34.4,M,,*5D
$GPRMC,214137.000,A,4305.1688,N,07740.8793,W,0.03,19.22,190923,,,A*41
$GPGGA,214137.250,4305.1688,N,07740.8793,W,1,08,1.02,177.2,M,-34.4,M,,*59
$GPRMC,214137.500,A,4305.1688,N,07740.8793,W,0.05,189.60,190923,,,A*7C
$GPGGA,214137.750,4305.1688,N,07740.8793,W,1,08,1.02,177.2,M,-34.4,M,,*5C
$GPRMC,214138.000,A,4305.1688,N,07740.8793,W,0.05,194.19,190923,,,A*74
$GPGGA,214138.250,4305.1688,N,07740.8793,W,1,08,1.02,177.2,M,-34.4,M,,*56
$GPRMC,214138.500,A,4305.1688,N,07740.8793,W,0.02,73.07,190923,,,A*41
$GPGGA,214138.750,4305.1688,N,07740.8793,W,1,08,1.02,177.2,M,-34.4,M,,*53
$GPRMC,214139.000,A,4305.1688,N,07740.8793,W,0.05,2.99,190923,,,A*73
$GPGGA,214139.250,4305.1688,N,07740.8793,W,1,08,1.05,177.2,M,-34.4,M,,*50
$GPRMC,214139.500,A,4305.1688,N,07740.8793,W,0.04,124.25,190923,,,A*75
$GPGGA,214139.750,4305.1688,N,07740.8793,W,1,08,1.02,177.2,M,-34.4,M,,*52
$GPRMC,214140.000,A,4305.1688,N,07740.8793,W,0.05,203.42,190923,,,A*78
$GPGGA,214140.250,4305.1688,N,07740.8793,W,1,08,1.02,177.2,M,-34.4,M,,*59
$GPRMC,214140.500,A,4305.1688,N,07740.8793,W,0.01,203.34,190923,,,A*78
$GPGGA,214140.750,4305.1688,N,07740.8793,W,1,08,1.02,177.2,M,-34.4,M,,*5C
$GPRMC,214141.000,A,4305.1688,N,07740.8793,W,0.02,279.36,190923,,,A*70
$GPGGA,214141.250,4305.1688,N,07740.8793,W,1,08,1.02,177.2,M,-34.4,M,,*58
$GPRMC,214141.500,A,4305.1688,N,07740.8793,W,0.03,357.57,190923,,,A*7E
$GPGGA,214141.750,4305.1688,N,07740.8793,W,1,08,1.05,177.2,M,-34.4,M,,*5A
$GPRMC,214142.000,A,4305.1688,N,07740.8793,W,0.03,248.40,190923,,,A*71
$GPGGA,214142.250,4305.1688,N,07740.8793,W,1,08,1.02,177.2,M,-34.4,M,,*5B
$GPRMC,214142.500,A,4305.1688,N,07740.8793,W,0.27,184.14,190923,,,A*70
$GPGGA,214142.750,4305.1688,N,07740.8793,W,1,08,1.02,177.2,M,-34.4,M,,*5E
$GPRMC,214143.000,A,4305.1688,N,07740.8793,W,0.54,176.97,190923,,,A*76
$GPGGA,214143.250,4305.1687,N,07740.8793,W,1,08,1.02,177.2,M,-34.4,M,,*55
$GPRMC,214143.500,A,4305.1686,N,07740.8792,W,1.84,176.93,190923,,,A*74
$GPGGA,214143.750,4305.1685,N,07740.8791,W,1,08,1.02,177.0,M,-34.4,M,,*52
$GPRMC,214144.000,A,4305.1683,N,07740.8790,W,2.62,171.09,190923,,,A*7E
$GPGGA,214144.250,4305.1682,N,07740.8790,W,1,08,1.02,177.0,M,-34.4,M,,*56
$GPRMC,214144.500,A,4305.1680,N,07740.8789,W,2.44,175.20,190923,,,A*7B
$GPGGA,214144.750,4305.1678,N,07740.8788,W,1,08,1.02,176.9,M,-34.4,M,,*57
$GPRMC,214145.000,A,4305.1676,N,07740.8787,W,3.02,157.09,190923,,,A*70
$GPGGA,214145.250,4305.1674,N,07740.8785,W,1,08,1.02,176.9,M,-34.4,M,,*52
$GPRMC,214145.500,A,4305.1673,N,07740.8782,W,3.66,139.87,190923,,,A*79
$GPGGA,214145.750,4305.1671,N,07740.8780,W,1,08,1.02,176.9,M,-34.4,M,,*57
$GPRMC,214146.000,A,4305.1670,N,07740.8777,W,3.41,123.82,190923,,,A*7D
$GPGGA,214146.250,4305.1669,N,07740.8774,W,1,08,1.02,176.8,M,-34.4,M,,*52
$GPRMC,214146.500,A,4305.1669,N,07740.8771,W,3.36,111.09,190923,,,A*74
$GPGGA,214146.750,4305.1668,N,07740.8768,W,1,08,1.02,176.9,M,-34.4,M,,*5A
$GPRMC,214147.000,A,4305.1667,N,07740.8765,W,3.02,111.57,190923,,,A*77
$GPGGA,214147.250,4305.1667,N,07740.8762,W,1,08,1.02,176.9,M,-34.4,M,,*5B
$GPRMC,214147.500,A,4305.1666,N,07740.8760,W,2.71,110.04,190923,,,A*74
$GPGGA,214147.750,4305.1666,N,07740.8758,W,1,08,1.02,176.9,M,-34.4,M,,*56
$GPRMC,214148.000,A,4305.1665,N,07740.8757,W,1.56,113.11,190923,,,A*78
$GPGGA,214148.250,4305.1665,N,07740.8756,W,1,08,1.02,176.9,M,-34.4,M,,*51
$GPRMC,214148.500,A,4305.1665,N,07740.8757,W,0.40,165.16,190923,,,A*7D
$GPGGA,214148.750,4305.1665,N,07740.8758,W,1,08,1.02,176.8,M,-34.4,M,,*5B
$GPRMC,214149.000,A,4305.1665,N,07740.8759,W,0.72,241.40,190923,,,A*70
$GPGGA,214149.250,4305.1665,N,07740.8762,W,1,08,1.02,176.9,M,-34.4,M,,*57
$GPRMC,214149.500,A,4305.1665,N,07740.8767,W,1.95,261.75,190923,,,A*74
$GPGGA,214149.750,4305.1665,N,07740.8773,W,1,07,1.28,176.9,M,-34.4,M,,*55
$GPRMC,214150.000,A,4305.1666,N,07740.8777,W,3.54,273.57,190923,,,A*77
$GPGGA,214150.250,4305.1666,N,07740.8782,W,1,08,1.02,177.0,M,-34.4,M,,*5A
$GPRMC,214150.500,A,4305.1666,N,07740.8787,W,5.30,273.30,190923,,,A*78
$GPGGA,214150.750,4305.1667,N,07740.8793,W,1,08,1.05,177.0,M,-34.4,M,,*59
$GPRMC,214151.000,A,4305.1667,N,07740.8799,W,6.39,273.13,190923,,,A*79
$GPGGA,214151.250,4305.1666,N,07740.8806,W,1,08,1.05,177.1,M,-34.4,M,,*5E
$GPRMC,214151.500,A,4305.1665,N,07740.8812,W,6.70,264.04,190923,,,A*7F
$GPGGA,214151.750,4305.1664,N,07740.8818,W,1,08,1.05,177.1,M,-34.4,M,,*56
$GPRMC,214152.000,A,4305.1664,N,07740.8825,W,6.75,264.86,190923,,,A*73
$GPGGA,214152.250,4305.1663,N,07740.8831,W,1,08,1.05,177.1,M,-34.4,M,,*5C
$GPRMC,214152.500,A,4305.1663,N,07740.8838,W,7.01,266.40,190923,,,A*77
$GPGGA,214152.750,4305.1663,N,07740.8844,W,1,08,1.05,177.2,M,-34.4,M,,*58
$GPRMC,214153.000,A,4305.1663,N,07740.8851,W,7.07,270.41,190923,,,A*7C
$GPGGA,214153.250,4305.1664,N,07740.8858,W,1,08,1.05,177.3,M,-34.4,M,,*57
$GPRMC,214153.500,A,4305.1665,N,07740.8865,W,7.26,274.74,190923,,,A*79
$GPGGA,214153.750,4305.1665,N,07740.8872,W,1,08,1.05,177.4,M,-34.4,M,,*5C
$GPRMC,214154.000,A,4305.1667,N,07740.8879,W,7.08,282.35,190923,,,A*74
$GPGGA,214154.250,4305.1670,N,07740.8886,W,1,08,1.05,177.4,M,-34.4,M,,*51
$GPRMC,214154.500,A,4305.1673,N,07740.8892,W,7.06,298.49,190923,,,A*7F
$GPGGA,214154.750,4305.1677,N,07740.8898,W,1,08,1.05,177.4,M,-34.4,M,,*5C
$GPRMC,214155.000,A,4305.1680,N,07740.8903,W,7.39,310.65,190923,,,A*7D
$GPGGA,214155.250,4305.1685,N,07740.8907,W,1,08,1.05,177.3,M,-34.4,M,,*55
$GPRMC,214155.500,A,4305.1690,N,07740.8912,W,8.04,329.39,190923,,,A*7B
$GPGGA,214155.750,4305.1696,N,07740.8916,W,1,08,1.05,177.5,M,-34.4,M,,*54
$GPRMC,214156.000,A,4305.1702,N,07740.8920,W,9.34,335.43,190923,,,A*74
$GPGGA,214156.250,4305.1709,N,07740.8922,W,1,08,1.05,177.5,M,-34.4,M,,*52
$GPRMC,214156.500,A,4305.1716,N,07740.8923,W,9.66,351.59,190923,,,A*79
$GPGGA,214156.750,4305.1723,N,07740.8923,W,1,08,1.05,177.4,M,-34.4,M,,*5F
$GPRMC,214157.000,A,4305.1731,N,07740.8923,W,10.41,357.22,190923,,,A*4F
$GPGGA,214157.250,4305.1739,N,07740.8923,W,1,08,1.05,177.5,M,-34.4,M,,*51
$GPRMC,214157.500,A,4305.1747,N,07740.8923,W,10.82,358.19,190923,,,A*43
$GPGGA,214157.750,4305.1755,N,07740.8923,W,1,08,1.05,177.5,M,-34.4,M,,*5E
$GPRMC,214158.000,A,4305.1762,N,07740.8923,W,11.44,1.41,190923,,,A*47
$GPGGA,214158.250,4305.1771,N,07740.8923,W,1,08,1.05,177.4,M,-34.4,M,,*53
$GPRMC,214158.500,A,4305.1780,N,07740.8921,W,11.88,4.60,190923,,,A*4A
$GPGGA,214158.750,4305.1789,N,07740.8919,W,1,08,1.05,177.2,M,-34.4,M,,*5E
$GPRMC,214159.000,A,4305.1798,N,07740.8917,W,12.30,6.21,190923,,,A*45
$GPGGA,214159.250,4305.1807,N,07740.8915,W,1,08,1.05,177.1,M,-34.4,M,,*5C
$GPRMC,214159.500,A,4305.1816,N,07740.8913,W,12.29,5.00,190923,,,A*45
$GPGGA,214159.750,4305.1825,N,07740.8912,W,1,08,1.05,176.9,M,-34.4,M,,*57
$GPRMC,214200.000,A,4305.1834,N,07740.8910,W,12.88,3.28,190923,,,A*4B
$GPGGA,214200.250,4305.1844,N,07740.8909,W,1,08,1.05,176.5,M,-34.4,M,,*5C
$GPRMC,214200.500,A,4305.1853,N,07740.8908,W,13.11,1.05,190923,,,A*4A
$GPGGA,214200.750,4305.1862,N,07740.8907,W,1,08,1.05,176.4,M,-34.4,M,,*52
$GPRMC,214201.000,A,4305.1870,N,07740.8907,W,12.67,0.40,190923,,,A*40
$GPGGA,214201.250,4305.1880,N,07740.8905,W,1,08,1.05,176.1,M,-34.4,M,,*5D
$GPRMC,214201.500,A,4305.1889,N,07740.8904,W,12.21,358.95,190923,,,A*44
$GPGGA,214201.750,4305.1898,N,07740.8903,W,1,08,1.05,175.7,M,-34.4,M,,*52
$GPRMC,214202.000,A,4305.1907,N,07740.8902,W,11.48,354.71,190923,,,A*49
$GPGGA,214202.250,4305.1915,N,07740.8903,W,1,08,1.05,175.4,M,-34.4,M,,*53
$GPRMC,214202.500,A,4305.1923,N,07740.8904,W,11.25,352.98,190923,,,A*46
$GPGGA,214202.750,4305.1931,N,07740.8906,W,1,08,1.05,175.2,M,-34.4,M,,*53
$GPRMC,214203.000,A,4305.1938,N,07740.8911,W,11.01,339.11,190923,,,A*46
$GPGGA,214203.250,4305.1945,N,07740.8916,W,1,08,1.05,175.0,M,-34.4,M,,*57
$GPRMC,214203.500,A,4305.1951,N,07740.8921,W,11.25,324.84,190923,,,A*49
$GPGGA,214203.750,4305.1958,N,07740.8927,W,1,08,1.05,174.8,M,-34.4,M,,*55
$GPRMC,214204.000,A,4305.1964,N,07740.8933,W,10.65,322.07,190923,,,A*46
$GPGGA,214204.250,4305.1969,N,07740.8941,W,1,08,1.05,174.7,M,-34.4,M,,*5A
$GPRMC,214204.500,A,4305.1974,N,07740.8949,W,11.06,311.53,190923,,,A*4A
$GPGGA,214204.750,4305.1978,N,07740.8957,W,1,08,1.05,174.6,M,-34.4,M,,*59
$GPRMC,214205.000,A,4305.1982,N,07740.8965,W,10.81,305.49,190923,,,A*49
$GPGGA,214205.250,4305.1986,N,07740.8974,W,1,08,1.05,174.4,M,-34.4,M,,*5F
$GPRMC,214205.500,A,4305.1990,N,07740.8984,W,11.27,299.48,190923,,,A*48
$GPGGA,214205.750,4305.1993,N,07740.8994,W,1,08,1.05,174.3,M,-34.4,M,,*57
$GPRMC,214206.000,A,4305.1994,N,07740.9004,W,11.43,291.88,190923,,,A*4C
$GPGGA,214206.250,4305.1996,N,07740.9015,W,1,08,1.05,174.2,M,-34.4,M,,*54
$GPRMC,214206.500,A,4305.1998,N,07740.9026,W,11.67,285.75,190923,,,A*44
$GPGGA,214206.750,4305.1998,N,07740.9037,W,1,08,1.05,174.1,M,-34.4,M,,*5C
$GPRMC,214207.000,A,4305.1998,N,07740.9048,W,11.71,276.95,190923,,,A*4D
$GPGGA,214207.250,4305.1996,N,07740.9060,W,1,08,1.05,174.0,M,-34.4,M,,*55
$GPRMC,214207.500,A,4305.1995,N,07740.9072,W,12.71,269.64,190923,,,A*4F
$GPGGA,214207.750,4305.1995,N,07740.9085,W,1,08,1.05,173.9,M,-34.4,M,,*56
$GPRMC,214208.000,A,4305.1994,N,07740.9099,W,13.79,267.50,190923,,,A*41
$GPGGA,214208.250,4305.1993,N,07740.9113,W,1,08,1.05,173.9,M,-34.4,M,,*54
$GPRMC,214208.500,A,4305.1991,N,07740.9128,W,14.72,265.41,190923,,,A*44
$GPGGA,214208.750,4305.1990,N,07740.9144,W,1,08,1.05,173.8,M,-34.4,M,,*51
$GPRMC,214209.000,A,4305.1988,N,07740.9159,W,15.83,263.64,190923,,,A*40
$GPGGA,214209.250,4305.1987,N,07740.9175,W,1,08,1.05,173.7,M,-34.4,M,,*5E
$GPRMC,214209.500,A,4305.1985,N,07740.9191,W,16.58,261.97,190923,,,A*47
$GPGGA,214209.750,4305.1983,N,07740.9207,W,1,08,1.05,173.6,M,-34.4,M,,*58
$GPRMC,214210.000,A,4305.1981,N,07740.9224,W,17.08,260.31,190923,,,A*4A
$GPGGA,214210.250,4305.1978,N,07740.9240,W,1,08,1.05,173.6,M,-34.4,M,,*52
$GPRMC,214210.500,A,4305.1975,N,07740.9256,W,17.12,257.43,190923,,,A*4B
$GPGGA,214210.750,4305.1972,N,07740.9272,W,1,08,1.05,173.6,M,-34.4,M,,*5C
$GPRMC,214211.000,A,4305.1968,N,07740.9287,W,17.04,253.83,190923,,,A*40
$GPGGA,214211.250,4305.1964,N,07740.9302,W,1,08,1.05,173.5,M,-34.4,M,,*5A
$GPRMC,214211.500,A,4305.1959,N,07740.9317,W,16.78,249.35,190923,,,A*43
$GPGGA,214211.750,4305.1955,N,07740.9333,W,1,08,1.05,173.4,M,-34.4,M,,*5E
$GPRMC,214212.000,A,4305.1950,N,07740.9348,W,17.00,246.71,190923,,,A*47
$GPGGA,214212.250,4305.1946,N,07740.9363,W,1,08,1.05,173.3,M,-34.4,M,,*58
$GPRMC,214212.500,A,4305.1941,N,07740.9378,W,17.56,243.72,190923,,,A*44
$GPGGA,214212.750,4305.1934,N,07740.9393,W,1,08,1.05,173.4,M,-34.4,M,,*50
$GPRMC,214213.000,A,4305.1928,N,07740.9408,W,17.89,241.41,190923,,,A*4F
$GPGGA,214213.250,4305.1921,N,07740.9423,W,1,08,1.05,173.5,M,-34.4,M,,*5D
$GPRMC,214213.500,A,4305.1914,N,07740.9439,W,18.33,239.52,190923,,,A*44
$GPGGA,214213.750,4305.1907,N,07740.9455,W,1,08,1.05,173.4,M,-34.4,M,,*5C
$GPRMC,214214.000,A,4305.1899,N,07740.9470,W,18.53,238.05,190923,,,A*4A
$GPGGA,214214.250,4305.1891,N,07740.9486,W,1,08,1.05,173.5,M,-34.4,M,,*5F
$GPRMC,214214.500,A,4305.1883,N,07740.9502,W,18.92,237.11,190923,,,A*47
$GPGGA,214214.750,4305.1875,N,07740.9518,W,1,08,1.05,173.5,M,-34.4,M,,*56
$GPRMC,214215.000,A,4305.1866,N,07740.9533,W,18.86,236.70,190923,,,A*49
$GPGGA,214215.250,4305.1858,N,07740.9549,W,1,08,1.05,173.5,M,-34.4,M,,*59
$GPRMC,214215.500,A,4305.1850,N,07740.9564,W,18.47,236.83,190923,,,A*4A
$GPGGA,214215.750,4305.1842,N,07740.9579,W,1,08,1.05,173.4,M,-34.4,M,,*55
$GPRMC,214216.000,A,4305.1834,N,07740.9594,W,18.04,236.59,190923,,,A*41
$GPGGA,214216.250,4305.1827,N,07740.9609,W,1,08,1.05,173.4,M,-34.4,M,,*54
$GPRMC,214216.500,A,4305.1819,N,07740.9623,W,17.55,236.40,190923,,,A*47
$GPGGA,214216.750,4305.1811,N,07740.9637,W,1,08,1.05,173.5,M,-34.4,M,,*58
$GPRMC,214217.000,A,4305.1803,N,07740.9651,W,17.63,235.12,190923,,,A*4C
$GPGGA,214217.250,4305.1795,N,07740.9666,W,1,07,1.09,173.6,M,-34.4,M,,*5B
$GPRMC,214217.500,A,4305.1787,N,07740.9680,W,17.86,232.74,190923,,,A*4A
$GPGGA,214217.750,4305.1778,N,07740.9693,W,1,08,1.05,173.4,M,-34.4,M,,*56
$GPRMC,214218.000,A,4305.1769,N,07740.9706,W,17.86,228.74,190923,,,A*44
$GPGGA,214218.250,4305.1761,N,07740.9719,W,1,08,1.05,173.5,M,-34.4,M,,*56
$GPRMC,214218.500,A,4305.1752,N,07740.9731,W,17.77,225.92,190923,,,A*46
$GPGGA,214218.750,4305.1743,N,07740.9742,W,1,08,1.05,173.6,M,-34.4,M,,*5E
$GPRMC,214219.000,A,4305.1734,N,07740.9754,W,17.71,222.89,190923,,,A*4A
$GPGGA,214219.250,4305.1725,N,07740.9766,W,1,08,1.05,173.7,M,-34.4,M,,*5D
$GPRMC,214219.500,A,4305.1716,N,07740.9777,W,17.35,219.12,190923,,,A*44
$GPGGA,214219.750,4305.1706,N,07740.9787,W,1,08,1.05,173.7,M,-34.4,M,,*56
$GPRMC,214220.000,A,4305.1697,N,07740.9797,W,16.80,216.23,190923,,,A*4F
$GPGGA,214220.250,4305.1688,N,07740.9806,W,1,09,1.01,173.8,M,-34.4,M,,*52
$GPRMC,214220.500,A,4305.1678,N,07740.9815,W,16.36,212.72,190923,,,A*43
$GPGGA,214220.750,4305.1666,N,07740.9822,W,1,09,1.01,173.9,M,-34.4,M,,*50
$GPRMC,214221.000,A,4305.1657,N,07740.9830,W,16.12,209.50,190923,,,A*41
$GPGGA,214221.250,4305.1646,N,07740.9836,W,1,09,1.01,173.8,M,-34.4,M,,*52
$GPRMC,214221.500,A,4305.1634,N,07740.9842,W,16.28,206.20,190923,,,A*45
$GPGGA,214221.750,4305.1623,N,07740.9846,W,1,09,1.01,174.0,M,-34.4,M,,*5C
$GPRMC,214222.000,A,4305.1610,N,07740.9850,W,16.49,201.77,190923,,,A*44
$GPGGA,214222.250,4305.1598,N,07740.9854,W,1,09,1.01,174.1,M,-34.4,M,,*5B
$GPRMC,214222.500,A,4305.1586,N,07740.9857,W,16.63,197.98,190923,,,A*4F
$GPGGA,214222.750,4305.1574,N,07740.9861,W,1,08,1.03,174.1,M,-34.4,M,,*59
$GPRMC,214223.000,A,4305.1562,N,07740.9864,W,16.47,193.11,190923,,,A*42
$GPGGA,214223.250,4305.1550,N,07740.9866,W,1,08,1.03,174.2,M,-34.4,M,,*5F
$GPRMC,214223.500,A,4305.1538,N,07740.9868,W,16.65,188.98,190923,,,A*4F
$GPGGA,214223.750,4305.1526,N,07740.9870,W,1,08,1.03,174.3,M,-34.4,M,,*5D
$GPRMC,214224.000,A,4305.1514,N,07740.9872,W,16.78,188.19,190923,,,A*4D
$GPGGA,214224.250,4305.1502,N,07740.9872,W,1,08,1.03,174.4,M,-34.4,M,,*5C
$GPRMC,214224.500,A,4305.1490,N,07740.9873,W,16.82,186.26,190923,,,A*43
$GPGGA,214224.750,4305.1477,N,07740.9874,W,1,08,1.03,174.5,M,-34.4,M,,*5D
$GPRMC,214225.000,A,4305.1465,N,07740.9874,W,16.92,184.48,190923,,,A*41
$GPGGA,214225.250,4305.1453,N,07740.9874,W,1,09,1.01,174.6,M,-34.4,M,,*5F
$GPRMC,214225.500,A,4305.1441,N,07740.9874,W,17.20,183.41,190923,,,A*44
$GPGGA,214225.750,4305.1429,N,07740.9874,W,1,09,1.01,174.7,M,-34.4,M,,*56
$GPRMC,214226.000,A,4305.1417,N,07740.9874,W,17.20,181.15,190923,,,A*42
$GPGGA,214226.250,4305.1405,N,07740.9874,W,1,09,1.01,175.0,M,-34.4,M,,*58
$GPRMC,214226.500,A,4305.1393,N,07740.9876,W,17.32,185.37,190923,,,A*49
$GPGGA,214226.750,4305.1381,N,07740.9878,W,1,09,1.01,175.3,M,-34.4,M,,*59
$GPRMC,214227.000,A,4305.1369,N,07740.9882,W,17.56,190.72,190923,,,A*44
$GPGGA,214227.250,4305.1357,N,07740.9887,W,1,09,1.01,175.5,M,-34.4,M,,*50
$GPRMC,214227.500,A,4305.1346,N,07740.9894,W,18.15,199.92,190923,,,A*44
$GPGGA,214227.750,4305.1335,N,07740.9903,W,1,09,1.01,175.7,M,-34.4,M,,*5E
$GPRMC,214228.000,A,4305.1323,N,07740.9912,W,18.87,206.16,190923,,,A*40
$GPGGA,214228.250,4305.1313,N,07740.9922,W,1,09,1.01,175.8,M,-34.4,M,,*5C
$GPRMC,214228.500,A,4305.1303,N,07740.9936,W,19.61,216.56,190923,,,A*4D
$GPGGA,214228.750,4305.1294,N,07740.9949,W,1,09,1.01,176.0,M,-34.4,M,,*51
$GPRMC,214229.000,A,4305.1285,N,07740.9963,W,20.03,223.13,190923,,,A*4F
$GPGGA,214229.250,4305.1276,N,07740.9979,W,1,09,1.01,176.0,M,-34.4,M,,*5A
$GPRMC,214229.500,A,4305.1268,N,07740.9996,W,20.81,231.65,190923,,,A*4B
$GPGGA,214229.750,4305.1260,N,07741.0012,W,1,09,1.01,175.9,M,-34.4,M,,*5E
$GPRMC,214230.000,A,4305.1252,N,07741.0028,W,20.80,234.09,190923,,,A*45
$GPGGA,214230.250,4305.1244,N,07741.0045,W,1,08,1.03,175.9,M,-34.4,M,,*54
$GPRMC,214230.500,A,4305.1236,N,07741.0062,W,20.86,236.51,190923,,,A*45
$GPGGA,214230.750,4305.1228,N,07741.0080,W,1,08,1.03,176.0,M,-34.4,M,,*58
$GPRMC,214231.000,A,4305.1220,N,07741.0097,W,20.89,237.42,190923,,,A*40
$GPGGA,214231.250,4305.1213,N,07741.0114,W,1,08,1.03,176.0,M,-34.4,M,,*58
$GPRMC,214231.500,A,4305.1205,N,07741.0131,W,20.64,237.27,190923,,,A*4F
$GPGGA,214231.750,4305.1197,N,07741.0148,W,1,09,1.01,176.0,M,-34.4,M,,*58
$GPRMC,214232.000,A,4305.1189,N,07741.0165,W,20.66,235.60,190923,,,A*4C
$GPGGA,214232.250,4305.1180,N,07741.0181,W,1,08,1.01,176.0,M,-34.4,M,,*5C
$GPRMC,214232.500,A,4305.1172,N,07741.0198,W,20.66,234.14,190923,,,A*4D
$GPGGA,214232.750,4305.1164,N,07741.0214,W,1,08,1.03,176.1,M,-34.4,M,,*5F
$GPRMC,214233.000,A,4305.1155,N,07741.0230,W,20.42,233.31,190923,,,A*4B
$GPGGA,214233.250,4305.1146,N,07741.0246,W,1,08,1.02,176.2,M,-34.4,M,,*5E
$GPRMC,214233.500,A,4305.1138,N,07741.0262,W,20.28,233.58,190923,,,A*41
$GPGGA,214233.750,4305.1130,N,07741.0279,W,1,08,1.03,176.2,M,-34.4,M,,*57
$GPRMC,214234.000,A,4305.1123,N,07741.0295,W,20.23,235.17,190923,,,A*47
$GPGGA,214234.250,4305.1117,N,07741.0312,W,1,08,1.03,176.2,M,-34.4,M,,*5C
$GPRMC,214234.500,A,4305.1110,N,07741.0329,W,19.99,239.24,190923,,,A*43
$GPGGA,214234.750,4305.1103,N,07741.0346,W,1,08,1.03,176.2,M,-34.4,M,,*5D
$GPRMC,214235.000,A,4305.1096,N,07741.0363,W,20.19,240.89,190923,,,A*4D
$GPGGA,214235.250,4305.1090,N,07741.0380,W,1,09,0.98,176.3,M,-34.4,M,,*5B
$GPRMC,214235.500,A,4305.1085,N,07741.0398,W,20.17,243.05,190923,,,A*47
$GPGGA,214235.750,4305.1080,N,07741.0416,W,1,08,1.02,176.4,M,-34.4,M,,*53
$GPRMC,214236.000,A,4305.1077,N,07741.0434,W,20.15,247.23,190923,,,A*4F
$GPGGA,214236.250,4305.1075,N,07741.0452,W,1,08,1.02,176.4,M,-34.4,M,,*5F
$GPRMC,214236.500,A,4305.1074,N,07741.0469,W,18.51,254.22,190923,,,A*49
$GPGGA,214236.750,4305.1074,N,07741.0487,W,1,09,0.98,176.4,M,-34.4,M,,*50
$GPRMC,214237.000,A,4305.1074,N,07741.0505,W,18.03,260.01,190923,,,A*47
$GPGGA,214237.250,4305.1075,N,07741.0523,W,1,08,1.02,176.4,M,-34.4,M,,*59
$GPRMC,214237.500,A,4305.1076,N,07741.0541,W,17.34,266.62,190923,,,A*48
$GPGGA,214237.750,4305.1080,N,07741.0558,W,1,08,1.01,176.5,M,-34.4,M,,*58
$GPRMC,214238.000,A,4305.1088,N,07741.0579,W,17.15,278.87,190923,,,A*4F
$GPGGA,214238.250,4305.1095,N,07741.0597,W,1,08,1.02,176.7,M,-34.4,M,,*54
$GPRMC,214238.500,A,4305.1102,N,07741.0613,W,16.35,288.02,190923,,,A*47
$GPGGA,214238.750,4305.1109,N,07741.0629,W,1,08,1.03,176.9,M,-34.4,M,,*5C
$GPRMC,214239.000,A,4305.1115,N,07741.0644,W,15.96,293.62,190923,,,A*41
$GPGGA,214239.250,4305.1122,N,07741.0658,W,1,08,1.01,177.0,M,-34.4,M,,*5D
$GPRMC,214239.500,A,4305.1128,N,07741.0670,W,14.91,299.35,190923,,,A*43
$GPGGA,214239.750,4305.1134,N,07741.0682,W,1,08,1.02,177.1,M,-34.4,M,,*5A
$GPRMC,214240.000,A,4305.1140,N,07741.0693,W,14.10,302.62,190923,,,A*43
$GPGGA,214240.250,4305.1145,N,07741.0703,W,1,08,1.02,177.2,M,-34.4,M,,*5C
$GPRMC,214240.500,A,4305.1150,N,07741.0712,W,12.62,305.99,190923,,,A*4F
$GPGGA,214240.750,4305.1154,N,07741.0720,W,1,08,1.01,177.2,M,-34.4,M,,*5B
$GPRMC,214241.000,A,4305.1159,N,07741.0728,W,11.53,306.33,190923,,,A*49
$GPGGA,214241.250,4305.1162,N,07741.0735,W,1,08,1.01,177.3,M,-34.4,M,,*5F
$GPRMC,214241.500,A,4305.1165,N,07741.0742,W,9.57,307.67,190923,,,A*72
$GPGGA,214241.750,4305.1168,N,07741.0748,W,1,07,1.11,177.3,M,-34.4,M,,*54
$GPRMC,214242.000,A,4305.1171,N,07741.0753,W,8.51,308.79,190923,,,A*76
$GPGGA,214242.250,4305.1173,N,07741.0757,W,1,08,1.01,177.3,M,-34.4,M,,*58
$GPRMC,214242.500,A,4305.1175,N,07741.0761,W,6.81,312.15,190923,,,A*74
$GPGGA,214242.750,4305.1177,N,07741.0764,W,1,08,1.01,177.3,M,-34.4,M,,*59
$GPRMC,214243.000,A,4305.1180,N,07741.0768,W,6.08,314.70,190923,,,A*77
$GPGGA,214243.250,4305.1182,N,07741.0771,W,1,08,1.02,177.3,M,-34.4,M,,*50
$GPRMC,214243.500,A,4305.1184,N,07741.0774,W,4.95,316.34,190923,,,A*7F
$GPGGA,214243.750,4305.1184,N,07741.0775,W,1,08,1.03,177.3,M,-34.4,M,,*56
$GPRMC,214244.000,A,4305.1186,N,07741.0777,W,3.94,316.10,190923,,,A*7C
$GPGGA,214244.250,4305.1188,N,07741.0779,W,1,09,1.01,177.3,M,-34.4,M,,*57
$GPRMC,214244.500,A,4305.1190,N,07741.0781,W,3.76,312.86,190923,,,A*70
$GPGGA,214244.750,4305.1192,N,07741.0784,W,1,09,0.98,177.3,M,-34.4,M,,*5A
$GPRMC,214245.000,A,4305.1194,N,07741.0787,W,4.24,306.38,190923,,,A*76
$GPGGA,214245.250,4305.1195,N,07741.0790,W,1,09,0.98,177.3,M,-34.4,M,,*5C
$GPRMC,214245.500,A,4305.1198,N,07741.0796,W,6.20,298.55,190923,,,A*74
$GPGGA,214245.750,4305.1200,N,07741.0801,W,1,08,1.03,177.4,M,-34.4,M,,*54
$GPRMC,214246.000,A,4305.1203,N,07741.0807,W,7.87,297.96,190923,,,A*78
$GPGGA,214246.250,4305.1204,N,07741.0814,W,1,09,0.98,177.5,M,-34.4,M,,*51
$GPRMC,214246.500,A,4305.1206,N,07741.0824,W,10.21,292.59,190923,,,A*45
$GPGGA,214246.750,4305.1208,N,07741.0836,W,1,09,1.01,177.6,M,-34.4,M,,*5A
$GPRMC,214247.000,A,4305.1211,N,07741.0846,W,11.73,293.92,190923,,,A*43
$GPGGA,214247.250,4305.1215,N,07741.0857,W,1,09,1.01,177.7,M,-34.4,M,,*54
$GPRMC,214247.500,A,4305.1218,N,07741.0870,W,13.53,292.54,190923,,,A*41
$GPGGA,214247.750,4305.1223,N,07741.0883,W,1,09,1.01,177.9,M,-34.4,M,,*53
$GPRMC,214248.000,A,4305.1227,N,07741.0897,W,14.27,294.14,190923,,,A*48
$GPGGA,214248.250,4305.1233,N,07741.0911,W,1,09,0.98,178.1,M,-34.4,M,,*54
$GPRMC,214248.500,A,4305.1239,N,07741.0927,W,15.79,296.81,190923,,,A*4C
$GPGGA,214248.750,4305.1244,N,07741.0942,W,1,09,1.01,178.2,M,-34.4,M,,*55
$GPRMC,214249.000,A,4305.1249,N,07741.0957,W,16.18,296.89,190923,,,A*44
$GPGGA,214249.250,4305.1255,N,07741.0972,W,1,09,1.01,178.3,M,-34.4,M,,*53
$GPRMC,214249.500,A,4305.1260,N,07741.0987,W,16.01,296.54,190923,,,A*4F
$GPGGA,214249.750,4305.1264,N,07741.1002,W,1,09,1.01,178.2,M,-34.4,M,,*5A
$GPRMC,214250.000,A,4305.1269,N,07741.1016,W,15.81,296.19,190923,,,A*49
$GPGGA,214250.250,4305.1274,N,07741.1030,W,1,09,1.01,178.2,M,-34.4,M,,*57
$GPRMC,214250.500,A,4305.1278,N,07741.1043,W,15.27,296.32,190923,,,A*49
$GPGGA,214250.750,4305.1283,N,07741.1056,W,1,09,1.01,178.2,M,-34.4,M,,*5A
$GPRMC,214251.000,A,4305.1287,N,07741.1070,W,15.11,296.62,190923,,,A*4D
$GPGGA,214251.250,4305.1292,N,07741.1083,W,1,09,1.01,178.3,M,-34.4,M,,*57
$GPRMC,214251.500,A,4305.1296,N,07741.1096,W,15.16,295.70,190923,,,A*47
$GPGGA,214251.750,4305.1301,N,07741.1109,W,1,09,1.01,178.3,M,-34.4,M,,*5A
$GPRMC,214252.000,A,4305.1305,N,07741.1122,W,15.06,295.25,190923,,,A*45
$GPGGA,214252.250,4305.1310,N,07741.1135,W,1,09,1.01,178.3,M,-34.4,M,,*53
$GPRMC,214252.500,A,4305.1315,N,07741.1149,W,14.86,295.56,190923,,,A*41
$GPGGA,214252.750,4305.1320,N,07741.1162,W,1,09,1.01,178.1,M,-34.4,M,,*55
$GPRMC,214253.000,A,4305.1324,N,07741.1175,W,14.78,296.33,190923,,,A*49
$GPGGA,214253.250,4305.1329,N,07741.1188,W,1,09,1.01,177.9,M,-34.4,M,,*5B
$GPRMC,214253.500,A,4305.1333,N,07741.1200,W,14.38,297.38,190923,,,A*45
$GPGGA,214253.750,4305.1338,N,07741.1213,W,1,09,1.01,177.8,M,-34.4,M,,*5E
$GPRMC,214254.000,A,4305.1343,N,07741.1226,W,14.15,297.71,190923,,,A*46
$GPGGA,214254.250,4305.1348,N,07741.1237,W,1,09,1.01,177.6,M,-34.4,M,,*53
$GPRMC,214254.500,A,4305.1352,N,07741.1248,W,13.24,299.47,190923,,,A*45
$GPGGA,214254.750,4305.1357,N,07741.1259,W,1,09,1.01,177.4,M,-34.4,M,,*52
$GPRMC,214255.000,A,4305.1361,N,07741.1268,W,11.98,300.94,190923,,,A*49
$GPGGA,214255.250,4305.1365,N,07741.1276,W,1,09,1.01,177.3,M,-34.4,M,,*5D
$GPRMC,214255.500,A,4305.1369,N,07741.1283,W,10.28,304.47,190923,,,A*41
$GPGGA,214255.750,4305.1373,N,07741.1289,W,1,09,1.01,177.1,M,-34.4,M,,*5D
$GPRMC,214256.000,A,4305.1377,N,07741.1294,W,8.79,305.26,190923,,,A*75
$GPGGA,214256.250,4305.1381,N,07741.1299,W,1,09,1.01,177.0,M,-34.4,M,,*56
$GPRMC,214256.500,A,4305.1384,N,07741.1304,W,7.93,306.63,190923,,,A*7D
$GPGGA,214256.750,4305.1386,N,07741.1310,W,1,09,1.01,176.9,M,-34.4,M,,*5C
$GPRMC,214257.000,A,4305.1390,N,07741.1314,W,7.72,313.20,190923,,,A*71
$GPGGA,214257.250,4305.1393,N,07741.1319,W,1,09,1.01,176.8,M,-34.4,M,,*54
$GPRMC,214257.500,A,4305.1398,N,07741.1322,W,7.94,324.28,190923,,,A*7D
$GPGGA,214257.750,4305.1403,N,07741.1327,W,1,09,1.01,176.8,M,-34.4,M,,*52
$GPRMC,214258.000,A,4305.1410,N,07741.1329,W,8.90,335.56,190923,,,A*79
$GPGGA,214258.250,4305.1419,N,07741.1332,W,1,09,1.01,176.7,M,-34.4,M,,*58
$GPRMC,214258.500,A,4305.1427,N,07741.1333,W,11.26,345.30,190923,,,A*41
$GPGGA,214258.750,4305.1438,N,07741.1331,W,1,09,1.01,176.5,M,-34.4,M,,*5F
$GPRMC,214259.000,A,4305.1449,N,07741.1329,W,13.68,359.82,190923,,,A*4A
$GPGGA,214259.250,4305.1462,N,07741.1327,W,1,09,1.01,176.1,M,-34.4,M,,*57
$GPRMC,214259.500,A,4305.1473,N,07741.1325,W,15.64,4.79,190923,,,A*4F
$GPGGA,214259.750,4305.1485,N,07741.1322,W,1,09,1.01,176.0,M,-34.4,M,,*5F
$GPRMC,214300.000,A,4305.1498,N,07741.1318,W,16.44,9.62,190923,,,A*4A
$GPGGA,214300.250,4305.1512,N,07741.1311,W,1,09,1.01,175.7,M,-34.4,M,,*5C
$GPRMC,214300.500,A,4305.1525,N,07741.1302,W,19.00,18.63,190923,,,A*7D
$GPGGA,214300.750,4305.1538,N,07741.1294,W,1,09,1.01,175.4,M,-34.4,M,,*5E
$GPRMC,214301.000,A,4305.1551,N,07741.1284,W,20.28,23.55,190923,,,A*78
$GPGGA,214301.250,4305.1564,N,07741.1271,W,1,08,1.26,175.5,M,-34.4,M,,*5D
$GPRMC,214301.500,A,4305.1577,N,07741.1260,W,22.15,29.01,190923,,,A*74
$GPGGA,214301.750,4305.1590,N,07741.1246,W,1,08,1.26,175.4,M,-34.4,M,,*56
$GPRMC,214302.000,A,4305.1604,N,07741.1233,W,23.61,33.32,190923,,,A*7A
$GPGGA,214302.250,4305.1618,N,07741.1218,W,1,08,1.26,175.2,M,-34.4,M,,*5E
$GPRMC,214302.500,A,4305.1631,N,07741.1203,W,25.04,36.12,190923,,,A*78
$GPGGA,214302.750,4305.1646,N,07741.1187,W,1,08,1.26,174.8,M,-34.4,M,,*5E
$GPRMC,214303.000,A,4305.1661,N,07741.1170,W,26.48,37.92,190923,,,A*7C
$GPGGA,214303.250,4305.1676,N,07741.1153,W,1,08,1.26,174.6,M,-34.4,M,,*5E
$GPRMC,214303.500,A,4305.1692,N,07741.1135,W,28.05,38.45,190923,,,A*76
$GPGGA,214303.750,4305.1708,N,07741.1117,W,1,09,1.01,174.4,M,-34.4,M,,*55
$GPRMC,214304.000,A,4305.1725,N,07741.1099,W,29.61,38.00,190923,,,A*7C
$GPGGA,214304.250,4305.1743,N,07741.1080,W,1,09,1.01,174.0,M,-34.4,M,,*53
$GPRMC,214304.500,A,4305.1760,N,07741.1061,W,31.18,37.34,190923,,,A*70
$GPGGA,214304.750,4305.1778,N,07741.1041,W,1,09,1.01,173.6,M,-34.4,M,,*52
$GPRMC,214305.000,A,4305.1797,N,07741.1021,W,32.47,37.73,190923,,,A*72
$GPGGA,214305.250,4305.1815,N,07741.1000,W,1,09,1.01,173.1,M,-34.4,M,,*50
$GPRMC,214305.500,A,4305.1834,N,07741.0979,W,33.69,38.17,190923,,,A*74
$GPGGA,214305.750,4305.1853,N,07741.0958,W,1,09,1.01,172.7,M,-34.4,M,,*55
$GPRMC,214306.000,A,4305.1872,N,07741.0936,W,34.81,38.89,190923,,,A*7D
$GPGGA,214306.250,4305.1892,N,07741.0913,W,1,08,1.26,172.2,M,-34.4,M,,*50
$GPRMC,214306.500,A,4305.1912,N,07741.0891,W,36.34,39.18,190923,,,A*76
$GPGGA,214306.750,4305.1932,N,07741.0867,W,1,08,1.26,171.8,M,-34.4,M,,*55
$GPRMC,214307.000,A,4305.1953,N,07741.0844,W,37.47,39.27,190923,,,A*76
$GPGGA,214307.250,4305.1974,N,07741.0820,W,1,08,1.26,171.4,M,-34.4,M,,*5C
$GPRMC,214307.500,A,4305.1996,N,07741.0796,W,38.79,39.54,190923,,,A*7C
$GPGGA,214307.750,4305.2018,N,07741.0772,W,1,08,1.26,170.7,M,-34.4,M,,*53
$GPRMC,214308.000,A,4305.2040,N,07741.0747,W,40.07,39.51,190923,,,A*78
$GPGGA,214308.250,4305.2062,N,07741.0722,W,1,08,1.26,170.3,M,-34.4,M,,*55
$GPRMC,214308.500,A,4305.2084,N,07741.0696,W,41.12,40.25,190923,,,A*70
$GPGGA,214308.750,4305.2106,N,07741.0669,W,1,08,1.26,169.7,M,-34.4,M,,*51
$GPRMC,214309.000,A,4305.2128,N,07741.0643,W,42.00,40.66,190923,,,A*7C
$GPGGA,214309.250,4305.2150,N,07741.0616,W,1,08,1.21,169.4,M,-34.4,M,,*5A
$GPRMC,214309.500,A,4305.2173,N,07741.0589,W,42.79,40.96,190923,,,A*73
$GPGGA,214309.750,4305.2196,N,07741.0561,W,1,08,1.26,169.1,M,-34.4,M,,*54
$GPRMC,214310.000,A,4305.2219,N,07741.0534,W,43.54,41.22,190923,,,A*77
$GPGGA,214310.250,4305.2242,N,07741.0507,W,1,07,1.39,168.8,M,-34.4,M,,*5A
$GPRMC,214310.500,A,4305.2266,N,07741.0479,W,44.46,41.42,190923,,,A*70
$GPGGA,214310.750,4305.2290,N,07741.0450,W,1,08,1.26,168.4,M,-34.4,M,,*5E
$GPRMC,214311.000,A,4305.2314,N,07741.0422,W,44.88,40.90,190923,,,A*72
$GPGGA,214311.250,4305.2338,N,07741.0394,W,1,08,1.21,168.0,M,-34.4,M,,*55
$GPRMC,214311.500,A,4305.2362,N,07741.0366,W,45.27,40.51,190923,,,A*78
$GPGGA,214311.750,4305.2388,N,07741.0338,W,1,08,1.26,167.7,M,-34.4,M,,*52
$GPRMC,214312.000,A,4305.2414,N,07741.0309,W,46.65,39.90,190923,,,A*77
$GPGGA,214312.250,4305.2440,N,07741.0280,W,1,08,1.26,167.3,M,-34.4,M,,*51
$GPRMC,214312.500,A,4305.2466,N,07741.0251,W,47.62,39.53,190923,,,A*72
$GPGGA,214312.750,4305.2493,N,07741.0222,W,1,08,1.26,167.1,M,-34.4,M,,*50
$GPRMC,214313.000,A,4305.2519,N,07741.0192,W,48.30,39.54,190923,,,A*7C
$GPGGA,214313.250,4305.2546,N,07741.0163,W,1,08,1.21,166.7,M,-34.4,M,,*5B
$GPRMC,214313.500,A,4305.2573,N,07741.0133,W,48.69,39.52,190923,,,A*74
$GPGGA,214313.750,4305.2600,N,07741.0102,W,1,08,1.26,166.5,M,-34.4,M,,*5D
$GPRMC,214314.000,A,4305.2626,N,07741.0073,W,49.34,39.45,190923,,,A*7F
$GPGGA,214314.250,4305.2653,N,07741.0042,W,1,08,1.21,166.3,M,-34.4,M,,*5D
$GPRMC,214314.500,A,4305.2680,N,07741.0012,W,49.77,39.55,190923,,,A*77
$GPGGA,214314.750,4305.2708,N,07740.9982,W,1,07,1.39,166.1,M,-34.4,M,,*5E
$GPRMC,214315.000,A,4305.2735,N,07740.9951,W,49.85,39.32,190923,,,A*76
$GPGGA,214315.250,4305.2762,N,07740.9921,W,1,08,1.21,165.9,M,-34.4,M,,*52
$GPRMC,214315.500,A,4305.2788,N,07740.9891,W,49.84,39.33,190923,,,A*78
$GPGGA,214315.750,4305.2815,N,07740.9860,W,1,08,1.26,165.7,M,-34.4,M,,*55
$GPRMC,214316.000,A,4305.2842,N,07740.9830,W,49.85,39.44,190923,,,A*7D
$GPGGA,214316.250,4305.2869,N,07740.9799,W,1,08,1.21,165.4,M,-34.4,M,,*55
$GPRMC,214316.500,A,4305.2896,N,07740.9769,W,49.84,39.53,190923,,,A*75
$GPGGA,214316.750,4305.2923,N,07740.9739,W,1,08,1.26,165.2,M,-34.4,M,,*54
$GPRMC,214317.000,A,4305.2950,N,07740.9709,W,49.59,39.46,190923,,,A*78
$GPGGA,214317.250,4305.2977,N,07740.9679,W,1,08,1.26,165.0,M,-34.4,M,,*56
$GPRMC,214317.500,A,4305.3004,N,07740.9649,W,49.50,39.15,190923,,,A*7E
$GPGGA,214317.750,4305.3031,N,07740.9619,W,1,08,1.26,164.8,M,-34.4,M,,*56
$GPRMC,214318.000,A,4305.3058,N,07740.9590,W,49.27,39.18,190923,,,A*77
$GPGGA,214318.250,4305.3085,N,07740.9560,W,1,08,1.26,164.6,M,-34.4,M,,*50
$GPRMC,214318.500,A,4305.3113,N,07740.9530,W,49.29,39.20,190923,,,A*73
$GPGGA,214318.750,4305.3140,N,07740.9500,W,1,07,1.47,164.6,M,-34.4,M,,*53
$GPRMC,214319.000,A,4305.3168,N,07740.9471,W,49.77,39.22,190923,,,A*76
$GPGGA,214319.250,4305.3195,N,07740.9441,W,1,07,1.39,164.5,M,-34.4,M,,*51
$GPRMC,214319.500,A,4305.3223,N,07740.9411,W,49.73,39.01,190923,,,A*7C
$GPGGA,214319.750,4305.3250,N,07740.9381,W,1,07,1.39,164.5,M,-34.4,M,,*55
$GPRMC,214320.000,A,4305.3278,N,07740.9352,W,49.62,38.81,190923,,,A*74
$GPGGA,214320.250,4305.3305,N,07740.9322,W,1,07,1.47,164.5,M,-34.4,M,,*5B
$GPRMC,214320.500,A,4305.3333,N,07740.9292,W,49.52,39.05,190923,,,A*7C
$GPGGA,214320.750,4305.3360,N,07740.9262,W,1,07,1.39,164.5,M,-34.4,M,,*51
$GPRMC,214321.000,A,4305.3387,N,07740.9232,W,49.46,39.10,190923,,,A*7C
$GPGGA,214321.250,4305.3413,N,07740.9202,W,1,07,1.39,164.5,M,-34.4,M,,*50
$GPRMC,214321.500,A,4305.3440,N,07740.9172,W,49.37,39.04,190923,,,A*71
$GPGGA,214321.750,4305.3467,N,07740.9142,W,1,07,1.47,164.4,M,-34.4,M,,*59
$GPRMC,214322.000,A,4305.3494,N,07740.9113,W,49.06,38.82,190923,,,A*74
$GPGGA,214322.250,4305.3520,N,07740.9084,W,1,07,1.47,164.3,M,-34.4,M,,*51
$GPRMC,214322.500,A,4305.3547,N,07740.9054,W,48.53,38.81,190923,,,A*7E
$GPGGA,214322.750,4305.3574,N,07740.9025,W,1,07,1.47,164.3,M,-34.4,M,,*5E
$GPRMC,214323.000,A,4305.3600,N,07740.8996,W,48.22,38.69,190923,,,A*7C
$GPGGA,214323.250,4305.3627,N,07740.8968,W,1,07,1.47,164.2,M,-34.4,M,,*5F
$GPRMC,214323.500,A,4305.3653,N,07740.8940,W,47.98,38.29,190923,,,A*7E
$GPGGA,214323.750,4305.3678,N,07740.8911,W,1,08,1.26,164.2,M,-34.4,M,,*56
$GPRMC,214324.000,A,4305.3704,N,07740.8883,W,47.77,38.26,190923,,,A*7F
$GPGGA,214324.250,4305.3730,N,07740.8856,W,1,08,1.26,164.1,M,-34.4,M,,*58
$GPRMC,214324.500,A,4305.3756,N,07740.8828,W,46.92,38.12,190923,,,A*71
$GPGGA,214324.750,4305.3782,N,07740.8801,W,1,08,1.26,164.0,M,-34.4,M,,*57
$GPRMC,214325.000,A,4305.3808,N,07740.8773,W,46.68,38.17,190923,,,A*70
$GPGGA,214325.250,4305.3833,N,07740.8746,W,1,07,1.47,163.9,M,-34.4,M,,*5C
$GPRMC,214325.500,A,4305.3859,N,07740.8719,W,46.25,37.89,190923,,,A*7C
$GPGGA,214325.750,4305.3885,N,07740.8693,W,1,08,1.26,163.8,M,-34.4,M,,*54
$GPRMC,214326.000,A,4305.3910,N,07740.8666,W,46.15,37.89,190923,,,A*7C
$GPGGA,214326.250,4305.3935,N,07740.8639,W,1,08,1.21,163.7,M,-34.4,M,,*50
$GPRMC,214326.500,A,4305.3960,N,07740.8612,W,45.88,37.83,190923,,,A*70
$GPGGA,214326.750,4305.3986,N,07740.8586,W,1,08,1.26,163.5,M,-34.4,M,,*5F
$GPRMC,214327.000,A,4305.4011,N,07740.8559,W,45.67,38.28,190923,,,A*7F
$GPGGA,214327.250,4305.4035,N,07740.8533,W,1,08,1.26,163.3,M,-34.4,M,,*55
$GPRMC,214327.500,A,4305.4059,N,07740.8507,W,45.40,38.82,190923,,,A*78
$GPGGA,214327.750,4305.4084,N,07740.8480,W,1,08,1.26,163.1,M,-34.4,M,,*51
$GPRMC,214328.000,A,4305.4108,N,07740.8454,W,43.87,39.04,190923,,,A*72
$GPGGA,214328.250,4305.4132,N,07740.8428,W,1,08,1.21,162.9,M,-34.4,M,,*5B
$GPRMC,214328.500,A,4305.4156,N,07740.8402,W,43.61,38.91,190923,,,A*7A
$GPGGA,214328.750,4305.4181,N,07740.8376,W,1,08,1.26,162.7,M,-34.4,M,,*53
$GPRMC,214329.000,A,4305.4206,N,07740.8350,W,43.86,38.82,190923,,,A*73
$GPGGA,214329.250,4305.4231,N,07740.8325,W,1,08,1.26,162.6,M,-34.4,M,,*58
$GPRMC,214329.500,A,4305.4256,N,07740.8299,W,43.84,38.42,190923,,,A*79
$GPGGA,214329.750,4305.4281,N,07740.8273,W,1,08,1.26,162.6,M,-34.4,M,,*54
$GPRMC,214330.000,A,4305.4306,N,07740.8247,W,44.04,38.06,190923,,,A*7C
$GPGGA,214330.250,4305.4332,N,07740.8221,W,1,08,1.40,162.6,M,-34.4,M,,*57
$GPRMC,214330.500,A,4305.4359,N,07740.8195,W,44.69,37.78,190923,,,A*72
$GPGGA,214330.750,4305.4385,N,07740.8168,W,1,08,1.26,162.5,M,-34.4,M,,*53
$GPRMC,214331.000,A,4305.4412,N,07740.8142,W,45.94,37.65,190923,,,A*7B
$GPGGA,214331.250,4305.4438,N,07740.8116,W,1,07,2.46,162.5,M,-34.4,M,,*55
$GPRMC,214331.500,A,4305.4466,N,07740.8089,W,46.00,37.78,190923,,,A*79
$GPGGA,214331.750,4305.4492,N,07740.8063,W,1,09,1.01,162.4,M,-34.4,M,,*5C
$GPRMC,214332.000,A,4305.4519,N,07740.8037,W,45.98,37.37,190923,,,A*7A
$GPGGA,214332.250,4305.4546,N,07740.8011,W,1,08,1.40,162.4,M,-34.4,M,,*53
$GPRMC,214332.500,A,4305.4572,N,07740.7985,W,45.63,36.87,190923,,,A*73
$GPGGA,214332.750,4305.4598,N,07740.7959,W,1,08,1.40,162.4,M,-34.4,M,,*5F
$GPRMC,214333.000,A,4305.4624,N,07740.7934,W,45.26,36.17,190923,,,A*75
$GPGGA,214333.250,4305.4650,N,07740.7909,W,1,08,1.40,162.5,M,-34.4,M,,*58
$GPRMC,214333.500,A,4305.4676,N,07740.7885,W,45.12,35.17,190923,,,A*78
$GPGGA,214333.750,4305.4702,N,07740.7861,W,1,08,1.40,162.7,M,-34.4,M,,*56
$GPRMC,214334.000,A,4305.4729,N,07740.7837,W,44.90,33.79,190923,,,A*7D
$GPGGA,214334.250,4305.4755,N,07740.7815,W,1,09,1.01,162.8,M,-34.4,M,,*5E
$GPRMC,214334.500,A,4305.4781,N,07740.7792,W,44.68,32.14,190923,,,A*77
$GPGGA,214334.750,4305.4808,N,07740.7772,W,1,09,1.01,163.0,M,-34.4,M,,*5B
$GPRMC,214335.000,A,4305.4835,N,07740.7751,W,44.37,30.15,190923,,,A*75
$GPGGA,214335.250,4305.4862,N,07740.7732,W,1,09,1.01,163.4,M,-34.4,M,,*53
$GPRMC,214335.500,A,4305.4891,N,07740.7714,W,42.26,28.11,190923,,,A*74
$GPGGA,214335.750,4305.4920,N,07740.7698,W,1,08,1.26,164.0,M,-34.4,M,,*57
$GPRMC,214336.000,A,4305.4947,N,07740.7681,W,42.19,25.83,190923,,,A*7F
$GPGGA,214336.250,4305.4975,N,07740.7666,W,1,09,1.01,164.4,M,-34.4,M,,*50
$GPRMC,214336.500,A,4305.5004,N,07740.7651,W,41.66,23.41,190923,,,A*7B
$GPGGA,214336.750,4305.5032,N,07740.7637,W,1,09,1.01,164.8,M,-34.4,M,,*56
$GPRMC,214337.000,A,4305.5059,N,07740.7622,W,41.46,22.57,190923,,,A*77
$GPGGA,214337.250,4305.5087,N,07740.7609,W,1,09,1.01,165.0,M,-34.4,M,,*58
$GPRMC,214337.500,A,4305.5114,N,07740.7594,W,41.18,22.33,190923,,,A*7D
$GPGGA,214337.750,4305.5141,N,07740.7580,W,1,09,1.01,165.3,M,-34.4,M,,*57
$GPRMC,214338.000,A,4305.5167,N,07740.7566,W,40.49,22.58,190923,,,A*76
$GPGGA,214336.250,4305.5193,N,07740.7552,W,1,09,1.01,165.2,M,-34.4,M,,*52
$GPRMC,214336.500,A,4305.5219,N,07740.7538,W,40.05,22.68,190923,,,A*77
$GPGGA,214336.750,4305.5245,N,07740.7524,W,1,09,1.01,164.8,M,-34.4,M,,*55
$GPRMC,214337.000,A,4305.5271,N,07740.7510,W,39.84,23.02,190923,,,A*7D
$GPGGA,214337.250,4305.5295,N,07740.7496,W,1,09,1.01,164.4,M,-34.4,M,,*58
$GPRMC,214337.500,A,4305.5320,N,07740.7482,W,39.61,22.66,190923,,,A*7F
$GPGGA,214337.750,4305.5346,N,07740.7469,W,1,09,1.01,164.1,M,-34.4,M,,*57
$GPRMC,214338.000,A,4305.5371,N,07740.7454,W,38.66,22.00,190923,,,A*7C
$GPGGA,214338.250,4305.5396,N,07740.7441,W,1,09,1.01,164.1,M,-34.4,M,,*5A
$GPRMC,214338.500,A,4305.5420,N,07740.7429,W,38.09,20.95,190923,,,A*77
$GPGGA,214338.750,4305.5444,N,07740.7417,W,1,09,1.01,164.1,M,-34.4,M,,*54
$GPRMC,214339.000,A,4305.5469,N,07740.7404,W,37.89,20.41,190923,,,A*7F
$GPGGA,214339.250,4305.5493,N,07740.7393,W,1,09,1.01,164.1,M,-34.4,M,,*51
$GPRMC,214339.500,A,4305.5517,N,07740.7384,W,37.84,19.41,190923,,,A*7A
$GPGGA,214339.750,4305.5541,N,07740.7374,W,1,09,1.01,163.9,M,-34.4,M,,*5C
$GPRMC,214340.000,A,4305.5566,N,07740.7364,W,37.61,18.54,190923,,,A*77
$GPGGA,214340.250,4305.5591,N,07740.7354,W,1,09,1.01,163.8,M,-34.4,M,,*59
$GPRMC,214340.500,A,4305.5616,N,07740.7345,W,37.47,17.61,190923,,,A*78
$GPGGA,214340.750,4305.5640,N,07740.7336,W,1,09,1.01,163.7,M,-34.4,M,,*58
$GPRMC,214341.000,A,4305.5665,N,07740.7328,W,37.33,16.87,190923,,,A*79
$GPGGA,214341.250,4305.5690,N,07740.7319,W,1,09,1.01,163.7,M,-34.4,M,,*5C
$GPRMC,214341.500,A,4305.5716,N,07740.7309,W,37.31,16.34,190923,,,A*70
$GPGGA,214341.750,4305.5742,N,07740.7300,W,1,09,1.01,163.3,M,-34.4,M,,*5B
$GPRMC,214342.000,A,4305.5768,N,07740.7290,W,37.36,16.34,190923,,,A*79
$GPGGA,214342.250,4305.5793,N,07740.7281,W,1,09,1.01,163.4,M,-34.4,M,,*5E
$GPRMC,214342.500,A,4305.5818,N,07740.7271,W,37.35,16.38,190923,,,A*74
$GPGGA,214342.750,4305.5844,N,07740.7262,W,1,09,1.01,163.2,M,-34.4,M,,*55
$GPRMC,214343.000,A,4305.5869,N,07740.7253,W,37.29,16.23,190923,,,A*71
$GPGGA,214343.250,4305.5893,N,07740.7244,W,1,09,1.01,163.3,M,-34.4,M,,*5E
$GPRMC,214343.500,A,4305.5918,N,07740.7236,W,37.02,16.10,190923,,,A*79
$GPGGA,214343.750,4305.5943,N,07740.7227,W,1,09,1.01,163.2,M,-34.4,M,,*53
$GPRMC,214344.000,A,4305.5968,N,07740.7219,W,37.00,16.05,190923,,,A*77
$GPGGA,214344.250,4305.5992,N,07740.7209,W,1,09,1.01,163.4,M,-34.4,M,,*57
$GPRMC,214344.500,A,4305.6018,N,07740.7199,W,37.01,16.61,190923,,,A*77
$GPGGA,214344.750,4305.6043,N,07740.7188,W,1,09,1.01,163.3,M,-34.4,M,,*59
$GPRMC,214345.000,A,4305.6069,N,07740.7178,W,37.03,16.38,190923,,,A*74
$GPGGA,214345.250,4305.6095,N,07740.7167,W,1,09,1.01,163.3,M,-34.4,M,,*57
$GPRMC,214345.500,A,4305.6121,N,07740.7157,W,37.20,15.95,190923,,,A*74
$GPGGA,214345.750,4305.6147,N,07740.7146,W,1,09,1.01,163.3,M,-34.4,M,,*5F
$GPRMC,214346.000,A,4305.6173,N,07740.7136,W,37.21,15.69,190923,,,A*70
$GPGGA,214346.250,4305.6198,N,07740.7126,W,1,09,1.01,163.2,M,-34.4,M,,*5C
$GPRMC,214346.500,A,4305.6224,N,07740.7116,W,37.19,15.36,190923,,,A*77
$GPGGA,214346.750,4305.6250,N,07740.7106,W,1,09,1.01,163.1,M,-34.4,M,,*5F
$GPRMC,214347.000,A,4305.6275,N,07740.7097,W,37.22,15.14,190923,,,A*77
$GPGGA,214347.250,4305.6301,N,07740.7088,W,1,08,1.03,163.1,M,-34.4,M,,*5A
$GPRMC,214347.500,A,4305.6326,N,07740.7079,W,36.97,14.91,190923,,,A*76
$GPGGA,214347.750,4305.6352,N,07740.7070,W,1,09,1.01,163.0,M,-34.4,M,,*5C
$GPRMC,214348.000,A,4305.6378,N,07740.7061,W,37.24,14.44,190923,,,A*7F
$GPGGA,214348.250,4305.6404,N,07740.7053,W,1,09,1.01,162.8,M,-34.4,M,,*5A
$GPRMC,214348.500,A,4305.6430,N,07740.7045,W,37.50,13.58,190923,,,A*7E
$GPGGA,214348.750,4305.6457,N,07740.7038,W,1,09,1.01,162.6,M,-34.4,M,,*5A
$GPRMC,214349.000,A,4305.6483,N,07740.7030,W,37.75,13.17,190923,,,A*7C
$GPGGA,214349.250,4305.6509,N,07740.7023,W,1,08,1.03,162.5,M,-34.4,M,,*5E
$GPRMC,214349.500,A,4305.6535,N,07740.7015,W,37.83,12.91,190923,,,A*74
$GPGGA,214349.750,4305.6562,N,07740.7008,W,1,08,1.03,162.5,M,-34.4,M,,*5F
$GPRMC,214350.000,A,4305.6588,N,07740.7001,W,37.90,12.59,190923,,,A*7C
$GPGGA,214350.250,4305.6614,N,07740.6994,W,1,08,1.03,162.5,M,-34.4,M,,*5D
$GPRMC,214350.500,A,4305.6640,N,07740.6986,W,37.63,12.44,190923,,,A*79
$GPGGA,214350.750,4305.6667,N,07740.6978,W,1,08,1.03,162.5,M,-34.4,M,,*5E
$GPRMC,214351.000,A,4305.6694,N,07740.6971,W,37.98,11.93,190923,,,A*71
$GPGGA,214351.250,4305.6720,N,07740.6964,W,1,09,1.01,162.5,M,-34.4,M,,*56
$GPRMC,214351.500,A,4305.6746,N,07740.6956,W,37.83,11.60,190923,,,A*79
$GPGGA,214351.750,4305.6772,N,07740.6948,W,1,09,1.01,162.5,M,-34.4,M,,*5A
$GPRMC,214352.000,A,4305.6798,N,07740.6941,W,37.94,11.21,190923,,,A*79
$GPGGA,214352.250,4305.6824,N,07740.6934,W,1,09,1.01,162.5,M,-34.4,M,,*5B
$GPRMC,214352.500,A,4305.6850,N,07740.6926,W,37.95,11.68,190923,,,A*7A
$GPGGA,214352.750,4305.6876,N,07740.6918,W,1,08,1.03,162.4,M,-34.4,M,,*55
$GPRMC,214353.000,A,4305.6902,N,07740.6911,W,38.10,11.19,190923,,,A*78
$GPGGA,214353.250,4305.6928,N,07740.6904,W,1,08,1.03,162.3,M,-34.4,M,,*51
$GPRMC,214353.500,A,4305.6954,N,07740.6897,W,38.33,10.97,190923,,,A*77
$GPGGA,214353.750,4305.6980,N,07740.6890,W,1,09,1.01,162.1,M,-34.4,M,,*5B
$GPRMC,214354.000,A,4305.7007,N,07740.6883,W,38.54,10.82,190923,,,A*7B
$GPGGA,214354.250,4305.7033,N,07740.6876,W,1,09,1.01,162.1,M,-34.4,M,,*51
$GPRMC,214354.500,A,4305.7059,N,07740.6870,W,38.46,10.45,190923,,,A*71
$GPGGA,214354.750,4305.7085,N,07740.6863,W,1,09,1.01,162.0,M,-34.4,M,,*5C
$GPRMC,214355.000,A,4305.7111,N,07740.6857,W,38.68,10.58,190923,,,A*7D
$GPGGA,214355.250,4305.7137,N,07740.6850,W,1,09,1.01,162.0,M,-34.4,M,,*50
$GPRMC,214355.500,A,4305.7163,N,07740.6843,W,38.79,10.84,190923,,,A*79
$GPGGA,214355.750,4305.7190,N,07740.6837,W,1,09,1.01,161.7,M,-34.4,M,,*5D
$GPRMC,214356.000,A,4305.7216,N,07740.6831,W,38.76,11.28,190923,,,A*73
$GPGGA,214356.250,4305.7243,N,07740.6824,W,1,09,1.01,161.4,M,-34.4,M,,*57
$GPRMC,214356.500,A,4305.7269,N,07740.6816,W,38.86,11.32,190923,,,A*7F
$GPGGA,214356.750,4305.7296,N,07740.6809,W,1,09,1.01,161.3,M,-34.4,M,,*52
$GPRMC,214357.000,A,4305.7323,N,07740.6801,W,38.85,11.95,190923,,,A*7C
$GPGGA,214357.250,4305.7350,N,07740.6794,W,1,09,1.01,161.3,M,-34.4,M,,*56
$GPRMC,214357.500,A,4305.7377,N,07740.6786,W,38.94,11.83,190923,,,A*7F
$GPGGA,214357.750,4305.7403,N,07740.6778,W,1,09,1.01,161.1,M,-34.4,M,,*52
$GPRMC,214358.000,A,4305.7431,N,07740.6769,W,39.00,12.63,190923,,,A*70
$GPGGA,214358.250,4305.7458,N,07740.6761,W,1,09,1.01,161.0,M,-34.4,M,,*5F
$GPRMC,214358.500,A,4305.7485,N,07740.6752,W,39.14,12.76,190923,,,A*73
$GPGGA,214358.750,4305.7512,N,07740.6744,W,1,09,1.01,160.8,M,-34.4,M,,*5B
$GPRMC,214359.000,A,4305.7539,N,07740.6734,W,39.45,14.81,190923,,,A*7B
$GPGGA,214359.250,4305.7566,N,07740.6725,W,1,09,1.01,160.8,M,-34.4,M,,*5B
$GPRMC,214359.500,A,4305.7594,N,07740.6715,W,39.91,14.43,190923,,,A*7D
$GPGGA,214359.750,4305.7621,N,07740.6705,W,1,09,1.01,160.7,M,-34.4,M,,*53
$GPRMC,214400.000,A,4305.7647,N,07740.6695,W,39.88,15.49,190923,,,A*74
$GPGGA,214400.250,4305.7673,N,07740.6684,W,1,10,0.83,160.7,M,-34.4,M,,*51
$GPRMC,214400.500,A,4305.7699,N,07740.6673,W,39.67,16.17,190923,,,A*73
$GPGGA,214400.750,4305.7725,N,07740.6662,W,1,10,0.83,160.7,M,-34.4,M,,*5E
$GPRMC,214401.000,A,4305.7751,N,07740.6651,W,39.58,16.68,190923,,,A*76
$GPGGA,214401.250,4305.7777,N,07740.6640,W,1,10,0.83,160.6,M,-34.4,M,,*5C
$GPRMC,214401.500,A,4305.7802,N,07740.6628,W,39.32,17.38,190923,,,A*7C
$GPGGA,214401.750,4305.7828,N,07740.6616,W,1,10,0.83,160.7,M,-34.4,M,,*5E
$GPRMC,214402.000,A,4305.7853,N,07740.6604,W,38.78,18.07,190923,,,A*7C
$GPGGA,214402.250,4305.7878,N,07740.6592,W,1,10,0.83,160.7,M,-34.4,M,,*52
$GPRMC,214402.500,A,4305.7903,N,07740.6580,W,38.33,19.00,190923,,,A*7B
$GPGGA,214402.750,4305.7928,N,07740.6568,W,1,10,0.83,160.7,M,-34.4,M,,*56
$GPRMC,214403.000,A,4305.7953,N,07740.6555,W,38.12,20.17,190923,,,A*7D
$GPGGA,214403.250,4305.7978,N,07740.6543,W,1,10,0.83,160.8,M,-34.4,M,,*51
$GPRMC,214403.500,A,4305.8002,N,07740.6531,W,37.89,20.34,190923,,,A*74
$GPGGA,214403.750,4305.8026,N,07740.6519,W,1,10,0.83,160.8,M,-34.4,M,,*56
$GPRMC,214404.000,A,4305.8051,N,07740.6507,W,37.70,20.28,190923,,,A*7E
$GPGGA,214404.250,4305.8074,N,07740.6495,W,1,10,0.83,160.8,M,-34.4,M,,*56
$GPRMC,214404.500,A,4305.8098,N,07740.6483,W,37.47,20.84,190923,,,A*71
$GPGGA,214404.750,4305.8122,N,07740.6470,W,1,10,0.83,160.8,M,-34.4,M,,*5A
$GPRMC,214405.000,A,4305.8145,N,07740.6458,W,36.03,21.01,190923,,,A*7F
$GPGGA,214405.250,4305.8168,N,07740.6446,W,1,10,0.83,160.7,M,-34.4,M,,*5A
$GPRMC,214405.500,A,4305.8191,N,07740.6434,W,35.65,21.18,190923,,,A*72
$GPGGA,214405.750,4305.8214,N,07740.6423,W,1,10,0.83,160.6,M,-34.4,M,,*55
$GPRMC,214406.000,A,4305.8236,N,07740.6411,W,34.54,21.30,190923,,,A*74
$GPGGA,214406.250,4305.8258,N,07740.6400,W,1,10,0.83,160.5,M,-34.4,M,,*59
$GPRMC,214406.500,A,4305.8278,N,07740.6389,W,32.88,21.25,190923,,,A*7E
$GPGGA,214406.750,4305.8299,N,07740.6379,W,1,10,0.83,160.4,M,-34.4,M,,*59
$GPRMC,214407.000,A,4305.8318,N,07740.6369,W,30.89,20.84,190923,,,A*7A
$GPGGA,214407.250,4305.8338,N,07740.6359,W,1,10,0.83,160.4,M,-34.4,M,,*55
$GPRMC,214407.500,A,4305.8356,N,07740.6350,W,28.75,20.82,190923,,,A*73
$GPGGA,214407.750,4305.8374,N,07740.6341,W,1,10,0.83,160.5,M,-34.4,M,,*50
$GPRMC,214408.000,A,4305.8392,N,07740.6332,W,27.71,20.80,190923,,,A*7C
$GPGGA,214408.250,4305.8409,N,07740.6323,W,1,10,0.83,160.6,M,-34.4,M,,*50
$GPRMC,214408.500,A,4305.8426,N,07740.6314,W,26.78,20.83,190923,,,A*7E
$GPGGA,214408.750,4305.8443,N,07740.6305,W,1,10,0.83,160.6,M,-34.4,M,,*5F
$GPRMC,214409.000,A,4305.8460,N,07740.6297,W,26.14,20.76,190923,,,A*72
$GPGGA,214409.250,4305.8477,N,07740.6289,W,1,10,0.83,160.6,M,-34.4,M,,*59
$GPRMC,214409.500,A,4305.8494,N,07740.6282,W,25.89,19.86,190923,,,A*7A
$GPGGA,214409.750,4305.8510,N,07740.6274,W,1,10,0.83,160.3,M,-34.4,M,,*5B
$GPRMC,214410.000,A,4305.8527,N,07740.6267,W,25.47,19.55,190923,,,A*79
$GPGGA,214410.250,4305.8543,N,07740.6259,W,1,10,0.83,160.2,M,-34.4,M,,*5E
$GPRMC,214410.500,A,4305.8559,N,07740.6252,W,25.25,19.58,190923,,,A*7A
$GPGGA,214410.750,4305.8575,N,07740.6244,W,1,10,0.83,160.0,M,-34.4,M,,*50
$GPRMC,214411.000,A,4305.8591,N,07740.6236,W,25.28,21.65,190923,,,A*70
$GPGGA,214411.250,4305.8607,N,07740.6228,W,1,10,0.83,159.8,M,-34.4,M,,*5A
$GPRMC,214411.500,A,4305.8622,N,07740.6220,W,25.03,21.98,190923,,,A*72
$GPGGA,214411.750,4305.8637,N,07740.6212,W,1,10,0.83,159.6,M,-34.4,M,,*5B
$GPRMC,214412.000,A,4305.8653,N,07740.6204,W,24.74,21.76,190923,,,A*75
$GPGGA,214412.250,4305.8669,N,07740.6196,W,1,10,0.83,159.4,M,-34.4,M,,*5B
$GPRMC,214412.500,A,4305.8684,N,07740.6188,W,24.22,21.28,190923,,,A*75
$GPGGA,214412.750,4305.8699,N,07740.6180,W,1,10,0.83,159.2,M,-34.4,M,,*50
$GPRMC,214413.000,A,4305.8714,N,07740.6172,W,24.16,20.82,190923,,,A*7A
$GPGGA,214413.250,4305.8730,N,07740.6163,W,1,10,0.83,159.2,M,-34.4,M,,*5B
$GPRMC,214413.500,A,4305.8745,N,07740.6156,W,24.10,20.26,190923,,,A*75
$GPGGA,214413.750,4305.8761,N,07740.6148,W,1,10,0.83,159.0,M,-34.4,M,,*51
$GPRMC,214414.000,A,4305.8777,N,07740.6141,W,23.77,19.60,190923,,,A*7E
$GPGGA,214414.250,4305.8792,N,07740.6134,W,1,10,0.83,159.1,M,-34.4,M,,*55
$GPRMC,214414.500,A,4305.8807,N,07740.6128,W,23.05,19.20,190923,,,A*7D
$GPGGA,214414.750,4305.8822,N,07740.6122,W,1,10,0.83,159.0,M,-34.4,M,,*52
$GPRMC,214415.000,A,4305.8836,N,07740.6115,W,22.54,18.87,190923,,,A*7C
$GPGGA,214415.250,4305.8851,N,07740.6110,W,1,09,1.04,158.9,M,-34.4,M,,*5D
$GPRMC,214415.500,A,4305.8865,N,07740.6105,W,22.36,17.73,190923,,,A*7E
$GPGGA,214415.750,4305.8880,N,07740.6100,W,1,09,1.04,158.7,M,-34.4,M,,*5B
$GPRMC,214416.000,A,4305.8895,N,07740.6095,W,22.58,16.59,190923,,,A*7E
$GPGGA,214416.250,4305.8910,N,07740.6089,W,1,10,0.83,158.4,M,-34.4,M,,*50
$GPRMC,214416.500,A,4305.8925,N,07740.6084,W,23.13,16.89,190923,,,A*72
$GPGGA,214416.750,4305.8940,N,07740.6079,W,1,10,0.83,158.0,M,-34.4,M,,*5B
$GPRMC,214417.000,A,4305.8955,N,07740.6073,W,23.18,17.32,190923,,,A*73
$GPGGA,214417.250,4305.8971,N,07740.6067,W,1,10,0.83,157.7,M,-34.4,M,,*5A
$GPRMC,214417.500,A,4305.8986,N,07740.6061,W,23.60,17.65,190923,,,A*76
$GPGGA,214417.750,4305.9001,N,07740.6055,W,1,09,1.04,157.2,M,-34.4,M,,*52
$GPRMC,214418.000,A,4305.9017,N,07740.6049,W,23.88,17.57,190923,,,A*71
$GPGGA,214418.250,4305.9032,N,07740.6042,W,1,09,1.04,156.9,M,-34.4,M,,*54
$GPRMC,214418.500,A,4305.9048,N,07740.6035,W,24.31,17.16,190923,,,A*75
$GPGGA,214418.750,4305.9064,N,07740.6030,W,1,10,0.83,156.5,M,-34.4,M,,*5D
$GPRMC,214419.000,A,4305.9080,N,07740.6023,W,24.68,16.48,190923,,,A*74
$GPGGA,214419.250,4305.9097,N,07740.6016,W,1,10,0.83,156.1,M,-34.4,M,,*55
$GPRMC,214419.500,A,4305.9113,N,07740.6010,W,25.21,16.14,190923,,,A*7F
$GPGGA,214419.750,4305.9129,N,07740.6003,W,1,09,1.04,155.9,M,-34.4,M,,*5D
$GPRMC,214420.000,A,4305.9146,N,07740.5996,W,25.61,16.13,190923,,,A*77
$GPGGA,214420.250,4305.9163,N,07740.5989,W,1,10,0.83,155.6,M,-34.4,M,,*5D
$GPRMC,214420.500,A,4305.9179,N,07740.5982,W,26.01,15.98,190923,,,A*7E
$GPGGA,214420.750,4305.9197,N,07740.5976,W,1,09,1.04,155.3,M,-34.4,M,,*50
$GPRMC,214421.000,A,4305.9214,N,07740.5969,W,26.15,16.25,190923,,,A*77
$GPGGA,214421.250,4305.9232,N,07740.5962,W,1,10,0.83,155.1,M,-34.4,M,,*59
$GPRMC,214421.500,A,4305.9250,N,07740.5954,W,26.57,16.64,190923,,,A*7F
$GPGGA,214421.750,4305.9268,N,07740.5947,W,1,10,0.83,155.0,M,-34.4,M,,*55
$GPRMC,214422.000,A,4305.9286,N,07740.5939,W,26.97,16.95,190923,,,A*7B
$GPGGA,214422.250,4305.9304,N,07740.5931,W,1,10,0.83,154.9,M,-34.4,M,,*51
$GPRMC,214422.500,A,4305.9323,N,07740.5924,W,27.19,16.82,190923,,,A*7D
$GPGGA,214422.750,4305.9341,N,07740.5917,W,1,10,0.83,154.9,M,-34.4,M,,*51
$GPRMC,214423.000,A,4305.9360,N,07740.5909,W,27.42,16.38,190923,,,A*7E
$GPGGA,214423.250,4305.9379,N,07740.5902,W,1,10,0.83,154.9,M,-34.4,M,,*5A
$GPRMC,214423.500,A,4305.9397,N,07740.5894,W,28.35,16.78,190923,,,A*7D
$GPGGA,214423.750,4305.9416,N,07740.5888,W,1,10,0.83,154.8,M,-34.4,M,,*53
$GPRMC,214424.000,A,4305.9435,N,07740.5881,W,28.52,16.96,190923,,,A*75
$GPGGA,214424.250,4305.9454,N,07740.5873,W,1,10,0.83,154.8,M,-34.4,M,,*53
$GPRMC,214424.500,A,4305.9474,N,07740.5866,W,28.84,17.14,190923,,,A*7C
$GPGGA,214424.750,4305.9493,N,07740.5859,W,1,10,0.83,154.8,M,-34.4,M,,*55
$GPRMC,214425.000,A,4305.9513,N,07740.5852,W,29.40,16.84,190923,,,A*7E
$GPGGA,214425.250,4305.9533,N,07740.5844,W,1,10,0.83,154.8,M,-34.4,M,,*56
$GPRMC,214425.500,A,4305.9553,N,07740.5836,W,29.78,16.46,190923,,,A*78
$GPGGA,214425.750,4305.9572,N,07740.5829,W,1,10,0.83,155.0,M,-34.4,M,,*54
$GPRMC,214426.000,A,4305.9591,N,07740.5821,W,29.87,16.42,190923,,,A*72
$GPGGA,214426.250,4305.9611,N,07740.5813,W,1,10,0.83,155.3,M,-34.4,M,,*5E
$GPRMC,214426.500,A,4305.9631,N,07740.5806,W,30.49,16.51,190923,,,A*73
$GPGGA,214426.750,4305.9651,N,07740.5798,W,1,10,0.83,155.4,M,-34.4,M,,*54
$GPRMC,214427.000,A,4305.9671,N,07740.5790,W,30.46,16.78,190923,,,A*77
$GPGGA,214427.250,4305.9692,N,07740.5783,W,1,10,0.83,155.5,M,-34.4,M,,*54
$GPRMC,214427.500,A,4305.9713,N,07740.5775,W,30.95,16.70,190923,,,A*7A
