Vers 81
USE_SERIAL_FEEDBACK=true
DEVELOPMENT_MODE=false
USE_RMC_ONLY=false

$GPRMC,222835.500,A,4305.1762,N,07740.8649,W,0.02,352.59,231023,,,A*79
$GPGGA,222835.750,4305.1764,N,07740.8648,W,1,07,1.24,175.8,M,-34.4,M,,*55
$GPRMC,222836.000,A,4305.1765,N,07740.8648,W,0.03,271.02,231023,,,A*76
$GPGGA,222836.250,4305.1765,N,07740.8647,W,1,07,1.23,175.3,M,-34.4,M,,*51
$GPRMC,222836.500,A,4305.1766,N,07740.8647,W,0.02,250.18,231023,,,A*76
$GPGGA,222836.750,4305.1766,N,07740.8647,W,1,07,1.23,175.1,M,-34.4,M,,*55
$GPRMC,222837.000,A,4305.1766,N,07740.8646,W,0.02,285.48,231023,,,A*7E
$GPGGA,222837.250,4305.1766,N,07740.8646,W,1,07,1.23,174.9,M,-34.4,M,,*59
$GPRMC,222837.500,A,4305.1767,N,07740.8646,W,0.06,234.92,231023,,,A*73
$GPGGA,222837.750,4305.1767,N,07740.8646,W,1,07,1.23,174.7,M,-34.4,M,,*53
$GPRMC,222838.000,A,4305.1767,N,07740.8646,W,0.02,82.07,231023,,,A*4E
$GPGGA,222838.250,4305.1767,N,07740.8645,W,1,07,1.23,174.5,M,-34.4,M,,*58
$GPRMC,222838.500,A,4305.1766,N,07740.8645,W,0.02,123.71,231023,,,A*72
$GPGGA,222838.750,4305.1766,N,07740.8644,W,1,07,1.23,174.2,M,-34.4,M,,*5A
$GPRMC,222839.000,A,4305.1766,N,07740.8644,W,0.03,244.57,231023,,,A*70
$GPGGA,222839.250,4305.1766,N,07740.8643,W,1,07,1.23,173.9,M,-34.4,M,,*55
$GPRMC,222839.500,A,4305.1766,N,07740.8643,W,0.03,250.10,231023,,,A*74
$GPGGA,222839.750,4305.1765,N,07740.8642,W,1,07,1.23,173.6,M,-34.4,M,,*5D
$GPRMC,222840.000,A,4305.1765,N,07740.8642,W,0.02,81.70,231023,,,A*44
$GPGGA,222840.250,4305.1765,N,07740.8641,W,1,07,1.23,173.4,M,-34.4,M,,*57
$GPRMC,222840.500,A,4305.1764,N,07740.8641,W,0.05,305.57,231023,,,A*7E
$GPGGA,222840.750,4305.1764,N,07740.8641,W,1,07,1.23,173.2,M,-34.4,M,,*55
$GPRMC,222841.000,A,4305.1764,N,07740.8641,W,0.01,97.50,231023,,,A*41
$GPGGA,222841.250,4305.1764,N,07740.8640,W,1,07,1.23,173.0,M,-34.4,M,,*52
$GPRMC,222841.500,A,4305.1764,N,07740.8640,W,0.01,295.61,231023,,,A*77
$GPGGA,222841.750,4305.1764,N,07740.8640,W,1,07,1.23,172.7,M,-34.4,M,,*51
$GPRMC,222842.000,A,4305.1764,N,07740.8640,W,0.01,53.45,231023,,,A*4F
$GPGGA,222842.250,4305.1764,N,07740.8639,W,1,07,1.23,172.5,M,-34.4,M,,*5B
$GPRMC,222842.500,A,4305.1764,N,07740.8639,W,0.02,18.98,231023,,,A*48
$GPGGA,222842.750,4305.1764,N,07740.8639,W,1,07,1.23,172.3,M,-34.4,M,,*58
$GPRMC,222843.000,A,4305.1763,N,07740.8639,W,0.01,286.60,231023,,,A*7A
$GPGGA,222843.250,4305.1763,N,07740.8639,W,1,07,1.23,172.1,M,-34.4,M,,*59
$GPRMC,222843.500,A,4305.1763,N,07740.8639,W,0.03,136.84,231023,,,A*7F
$GPGGA,222843.750,4305.1763,N,07740.8638,W,1,07,1.23,171.8,M,-34.4,M,,*57
$GPRMC,222844.000,A,4305.1763,N,07740.8638,W,0.01,297.62,231023,,,A*7E
$GPGGA,222844.250,4305.1763,N,07740.8638,W,1,07,1.23,171.6,M,-34.4,M,,*5B
$GPRMC,222844.500,A,4305.1762,N,07740.8638,W,0.02,37.90,231023,,,A*4C
$GPGGA,222844.750,4305.1762,N,07740.8638,W,1,07,1.23,171.4,M,-34.4,M,,*5D
$GPRMC,222845.000,A,4305.1762,N,07740.8638,W,0.02,264.13,231023,,,A*77
$GPGGA,222845.250,4305.1762,N,07740.8637,W,1,07,1.23,171.2,M,-34.4,M,,*50
$GPRMC,222845.500,A,4305.1761,N,07740.8637,W,0.00,275.46,231023,,,A*7C
$GPGGA,222845.750,4305.1761,N,07740.8637,W,1,07,1.23,171.0,M,-34.4,M,,*54
$GPRMC,222846.000,A,4305.1761,N,07740.8637,W,0.03,148.44,231023,,,A*76
$GPGGA,222846.250,4305.1760,N,07740.8636,W,1,07,1.23,170.9,M,-34.4,M,,*5A
$GPRMC,222846.500,A,4305.1760,N,07740.8636,W,0.04,166.93,231023,,,A*72
$GPGGA,222846.750,4305.1760,N,07740.8636,W,1,07,1.23,170.7,M,-34.4,M,,*51
$GPRMC,222847.000,A,4305.1759,N,07740.8636,W,0.04,112.34,231023,,,A*72
$GPGGA,222847.250,4305.1759,N,07740.8635,W,1,07,1.23,170.7,M,-34.4,M,,*5C
$GPRMC,222847.500,A,4305.1759,N,07740.8635,W,0.03,94.96,231023,,,A*44
$GPGGA,222847.750,4305.1758,N,07740.8635,W,1,07,1.23,170.6,M,-34.4,M,,*59
$GPRMC,222848.000,A,4305.1758,N,07740.8635,W,0.02,229.17,231023,,,A*73
$GPGGA,222848.250,4305.1758,N,07740.8635,W,1,07,1.23,170.6,M,-34.4,M,,*53
$GPRMC,222848.500,A,4305.1758,N,07740.8634,W,0.03,80.77,231023,,,A*41
$GPGGA,222848.750,4305.1757,N,07740.8634,W,1,07,1.23,170.5,M,-34.4,M,,*5B
$GPRMC,222849.000,A,4305.1757,N,07740.8634,W,0.01,66.15,231023,,,A*44
$GPGGA,222849.250,4305.1757,N,07740.8634,W,1,07,1.23,170.4,M,-34.4,M,,*5E
$GPRMC,222849.500,A,4305.1757,N,07740.8634,W,0.06,176.24,231023,,,A*74
$GPGGA,222849.750,4305.1756,N,07740.8634,W,1,07,1.23,170.3,M,-34.4,M,,*5D
$GPRMC,222850.000,A,4305.1756,N,07740.8634,W,0.01,146.09,231023,,,A*73
$GPGGA,222850.250,4305.1756,N,07740.8634,W,1,07,1.23,170.2,M,-34.4,M,,*51
$GPRMC,222850.500,A,4305.1756,N,07740.8634,W,0.01,237.42,231023,,,A*7C
$GPGGA,222850.750,4305.1755,N,07740.8634,W,1,07,1.23,170.2,M,-34.4,M,,*57
$GPRMC,222851.000,A,4305.1755,N,07740.8634,W,0.04,88.16,231023,,,A*49
$GPGGA,222851.250,4305.1755,N,07740.8634,W,1,07,1.23,170.1,M,-34.4,M,,*50
$GPRMC,222851.500,A,4305.1754,N,07740.8634,W,0.01,82.88,231023,,,A*45
$GPGGA,222851.750,4305.1754,N,07740.8634,W,1,07,1.23,170.0,M,-34.4,M,,*55
$GPRMC,222852.000,A,4305.1754,N,07740.8634,W,0.01,81.27,231023,,,A*45
$GPGGA,222852.250,4305.1754,N,07740.8634,W,1,07,1.23,169.9,M,-34.4,M,,*52
$GPRMC,222852.500,A,4305.1753,N,07740.8634,W,0.02,217.63,231023,,,A*79
$GPGGA,222852.750,4305.1753,N,07740.8634,W,1,07,1.23,169.9,M,-34.4,M,,*50
$GPRMC,222853.000,A,4305.1753,N,07740.8634,W,0.03,156.95,231023,,,A*73
$GPGGA,222853.250,4305.1753,N,07740.8634,W,1,07,1.23,169.9,M,-34.4,M,,*54
$GPRMC,222853.500,A,4305.1753,N,07740.8635,W,0.04,155.52,231023,,,A*78
$GPGGA,222853.750,4305.1752,N,07740.8635,W,1,07,1.23,169.8,M,-34.4,M,,*50
$GPRMC,222854.000,A,4305.1752,N,07740.8635,W,0.03,85.84,231023,,,A*4B
$GPGGA,222854.250,4305.1752,N,07740.8635,W,1,07,1.23,169.8,M,-34.4,M,,*52
$GPRMC,222854.500,A,4305.1752,N,07740.8635,W,0.02,249.97,231023,,,A*7F
$GPGGA,222854.750,4305.1752,N,07740.8635,W,1,07,1.23,169.8,M,-34.4,M,,*57
$GPRMC,222855.000,A,4305.1752,N,07740.8635,W,0.07,161.37,231023,,,A*7D
$GPGGA,222855.250,4305.1752,N,07740.8635,W,1,07,1.23,169.8,M,-34.4,M,,*53
$GPRMC,222855.500,A,4305.1751,N,07740.8635,W,0.02,29.31,231023,,,A*45
$GPGGA,222855.750,4305.1751,N,07740.8635,W,1,07,1.23,169.8,M,-34.4,M,,*55
$GPRMC,222856.000,A,4305.1751,N,07740.8635,W,0.03,137.14,231023,,,A*7B
$GPGGA,222856.250,4305.1751,N,07740.8635,W,1,07,1.23,169.8,M,-34.4,M,,*53
$GPRMC,222856.500,A,4305.1751,N,07740.8635,W,0.03,45.14,231023,,,A*4A
$GPGGA,222856.750,4305.1751,N,07740.8636,W,1,07,1.23,169.8,M,-34.4,M,,*55
$GPRMC,222857.000,A,4305.1751,N,07740.8635,W,0.04,80.24,231023,,,A*43
$GPGGA,222857.250,4305.1751,N,07740.8635,W,1,07,1.23,169.8,M,-34.4,M,,*52
$GPRMC,222857.500,A,4305.1751,N,07740.8635,W,0.06,237.60,231023,,,A*7A
$GPGGA,222857.750,4305.1751,N,07740.8635,W,1,07,1.23,169.9,M,-34.4,M,,*56
$GPRMC,222858.000,A,4305.1751,N,07740.8635,W,0.04,111.98,231023,,,A*72
$GPGGA,222858.250,4305.1751,N,07740.8635,W,1,07,1.23,169.9,M,-34.4,M,,*5C
$GPRMC,222858.500,A,4305.1751,N,07740.8635,W,0.04,309.32,231023,,,A*7C
$GPGGA,222858.750,4305.1751,N,07740.8635,W,1,07,1.23,170.0,M,-34.4,M,,*58
$GPRMC,222859.000,A,4305.1752,N,07740.8635,W,0.01,240.01,231023,,,A*72
$GPGGA,222859.250,4305.1752,N,07740.8635,W,1,07,1.23,170.0,M,-34.4,M,,*5F
$GPRMC,222859.500,A,4305.1752,N,07740.8635,W,0.02,315.65,231023,,,A*77
$GPGGA,222859.750,4305.1752,N,07740.8635,W,1,07,1.23,170.0,M,-34.4,M,,*5A
$GPRMC,222900.000,A,4305.1752,N,07740.8635,W,0.01,299.25,231023,,,A*7D
$GPGGA,222900.250,4305.1752,N,07740.8635,W,1,07,1.23,170.1,M,-34.4,M,,*53
$GPRMC,222900.500,A,4305.1752,N,07740.8635,W,0.03,81.46,231023,,,A*44
$GPGGA,222900.750,4305.1752,N,07740.8635,W,1,07,1.23,170.1,M,-34.4,M,,*56
$GPRMC,222901.000,A,4305.1752,N,07740.8635,W,0.01,184.80,231023,,,A*7C
$GPGGA,222901.250,4305.1752,N,07740.8635,W,1,07,1.23,170.1,M,-34.4,M,,*52
$GPRMC,222901.500,A,4305.1752,N,07740.8635,W,0.03,270.47,231023,,,A*78
$GPGGA,222901.750,4305.1752,N,07740.8635,W,1,07,1.23,170.1,M,-34.4,M,,*57
$GPRMC,222902.000,A,4305.1752,N,07740.8635,W,0.02,172.11,231023,,,A*7D
$GPGGA,222902.250,4305.1752,N,07740.8635,W,1,07,1.23,170.1,M,-34.4,M,,*51
$GPRMC,222902.500,A,4305.1753,N,07740.8635,W,0.02,53.29,231023,,,A*40
$GPGGA,222902.750,4305.1753,N,07740.8635,W,1,07,1.23,170.1,M,-34.4,M,,*55
$GPRMC,222903.000,A,4305.1753,N,07740.8635,W,0.04,129.78,231023,,,A*7A
$GPGGA,222903.250,4305.1753,N,07740.8634,W,1,07,1.23,170.1,M,-34.4,M,,*50
$GPRMC,222903.500,A,4305.1753,N,07740.8634,W,0.04,212.72,231023,,,A*7F
$GPGGA,222903.750,4305.1753,N,07740.8634,W,1,07,1.23,170.1,M,-34.4,M,,*55
$GPRMC,222904.000,A,4305.1753,N,07740.8634,W,0.03,359.58,231023,,,A*7C
$GPGGA,222904.250,4305.1753,N,07740.8634,W,1,07,1.24,170.0,M,-34.4,M,,*51
$GPRMC,222904.500,A,4305.1753,N,07740.8634,W,0.03,130.27,231023,,,A*7C
$GPGGA,222904.750,4305.1752,N,07740.8634,W,1,07,1.23,169.9,M,-34.4,M,,*53
$GPRMC,222905.000,A,4305.1752,N,07740.8634,W,0.03,349.37,231023,,,A*74
$GPGGA,222905.250,4305.1752,N,07740.8634,W,1,07,1.24,169.8,M,-34.4,M,,*51
$GPRMC,222905.500,A,4305.1752,N,07740.8634,W,0.02,191.02,231023,,,A*71
$GPGGA,222905.750,4305.1752,N,07740.8634,W,1,07,1.23,169.8,M,-34.4,M,,*53
$GPRMC,222906.000,A,4305.1752,N,07740.8634,W,0.12,359.29,231023,,,A*79
$GPGGA,222906.250,4305.1752,N,07740.8634,W,1,07,1.23,169.8,M,-34.4,M,,*55
$GPRMC,222906.500,A,4305.1752,N,07740.8634,W,0.48,355.89,231023,,,A*75
$GPGGA,222906.750,4305.1753,N,07740.8634,W,1,07,1.23,169.8,M,-34.4,M,,*51
$GPRMC,222907.000,A,4305.1753,N,07740.8634,W,1.16,1.25,231023,,,A*7E
$GPGGA,222907.250,4305.1754,N,07740.8634,W,1,07,1.23,169.7,M,-34.4,M,,*5D
$GPRMC,222907.500,A,4305.1755,N,07740.8634,W,1.65,3.91,231023,,,A*74
$GPGGA,222907.750,4305.1756,N,07740.8634,W,1,07,1.23,169.6,M,-34.4,M,,*5B
$GPRMC,222908.000,A,4305.1757,N,07740.8634,W,1.98,7.59,231023,,,A*7E
$GPGGA,222908.250,4305.1758,N,07740.8634,W,1,07,1.23,169.5,M,-34.4,M,,*5C
$GPRMC,222908.500,A,4305.1760,N,07740.8634,W,2.30,11.38,231023,,,A*4E
$GPGGA,222908.750,4305.1762,N,07740.8633,W,1,07,1.23,169.4,M,-34.4,M,,*56
$GPRMC,222909.000,A,4305.1763,N,07740.8632,W,2.78,18.28,231023,,,A*4B
$GPGGA,222909.250,4305.1765,N,07740.8631,W,1,07,1.23,169.3,M,-34.4,M,,*50
$GPRMC,222909.500,A,4305.1767,N,07740.8630,W,2.79,33.03,231023,,,A*49
$GPGGA,222909.750,4305.1768,N,07740.8628,W,1,07,1.23,169.3,M,-34.4,M,,*50
$GPRMC,222910.000,A,4305.1769,N,07740.8627,W,3.04,40.84,231023,,,A*4C
$GPGGA,222910.250,4305.1771,N,07740.8625,W,1,07,1.23,169.2,M,-34.4,M,,*59
$GPRMC,222910.500,A,4305.1772,N,07740.8623,W,2.80,33.85,231023,,,A*4F
$GPGGA,222910.750,4305.1774,N,07740.8622,W,1,07,1.23,169.2,M,-34.4,M,,*5E
$GPRMC,222911.000,A,4305.1775,N,07740.8621,W,2.14,36.10,231023,,,A*4A
$GPGGA,222911.250,4305.1775,N,07740.8620,W,1,07,1.23,169.1,M,-34.4,M,,*5A
$GPRMC,222911.500,A,4305.1776,N,07740.8619,W,1.39,24.44,231023,,,A*49
$GPGGA,222911.750,4305.1777,N,07740.8620,W,1,07,1.23,169.1,M,-34.4,M,,*5D
$GPRMC,222912.000,A,4305.1777,N,07740.8620,W,0.70,6.42,231023,,,A*7E
$GPGGA,222912.250,4305.1776,N,07740.8620,W,1,07,1.24,169.0,M,-34.4,M,,*5C
$GPRMC,222912.500,A,4305.1775,N,07740.8622,W,0.47,271.58,231023,,,A*76
$GPGGA,222912.750,4305.1774,N,07740.8624,W,1,07,1.23,169.0,M,-34.4,M,,*58
$GPRMC,222913.000,A,4305.1773,N,07740.8626,W,1.19,252.25,231023,,,A*71
$GPGGA,222913.250,4305.1772,N,07740.8629,W,1,07,1.23,169.0,M,-34.4,M,,*57
$GPRMC,222913.500,A,4305.1770,N,07740.8632,W,2.11,245.98,231023,,,A*79
$GPGGA,222913.750,4305.1768,N,07740.8636,W,1,07,1.23,169.0,M,-34.4,M,,*57
$GPRMC,222914.000,A,4305.1767,N,07740.8641,W,4.96,250.82,231023,,,A*7F
$GPGGA,222914.250,4305.1766,N,07740.8647,W,1,07,1.23,169.0,M,-34.4,M,,*5D
$GPRMC,222914.500,A,4305.1766,N,07740.8654,W,7.25,260.70,231023,,,A*7A
$GPGGA,222914.750,4305.1766,N,07740.8662,W,1,07,1.23,169.0,M,-34.4,M,,*5F
$GPRMC,222915.000,A,4305.1766,N,07740.8670,W,8.22,270.12,231023,,,A*75
$GPGGA,222915.250,4305.1767,N,07740.8678,W,1,07,1.23,169.0,M,-34.4,M,,*51
$GPRMC,222915.500,A,4305.1769,N,07740.8686,W,8.36,280.96,231023,,,A*70
$GPGGA,222915.750,4305.1771,N,07740.8693,W,1,07,1.23,169.0,M,-34.4,M,,*56
$GPRMC,222916.000,A,4305.1773,N,07740.8701,W,8.39,287.35,231023,,,A*72
$GPGGA,222916.250,4305.1775,N,07740.8709,W,1,07,1.23,169.0,M,-34.4,M,,*56
$GPRMC,222916.500,A,4305.1776,N,07740.8717,W,8.34,285.59,231023,,,A*70
$GPGGA,222916.750,4305.1778,N,07740.8725,W,1,07,1.24,168.9,M,-34.4,M,,*5F
$GPRMC,222917.000,A,4305.1778,N,07740.8733,W,8.29,277.51,231023,,,A*75
$GPGGA,222917.250,4305.1779,N,07740.8742,W,1,07,1.23,168.9,M,-34.4,M,,*5C
$GPRMC,222917.500,A,4305.1779,N,07740.8749,W,8.05,270.37,231023,,,A*75
$GPGGA,222917.750,4305.1779,N,07740.8757,W,1,07,1.23,169.0,M,-34.4,M,,*55
$GPRMC,222918.000,A,4305.1779,N,07740.8765,W,8.16,268.71,231023,,,A*78
$GPGGA,222918.250,4305.1779,N,07740.8773,W,1,07,1.23,169.0,M,-34.4,M,,*59
$GPRMC,222918.500,A,4305.1779,N,07740.8781,W,7.88,266.68,231023,,,A*79
$GPGGA,222918.750,4305.1778,N,07740.8788,W,1,07,1.23,169.0,M,-34.4,M,,*59
$GPRMC,222919.000,A,4305.1779,N,07740.8796,W,7.66,269.91,231023,,,A*72
$GPGGA,222919.250,4305.1780,N,07740.8803,W,1,07,1.23,169.0,M,-34.4,M,,*56
$GPRMC,222919.500,A,4305.1782,N,07740.8810,W,7.50,281.01,231023,,,A*78
$GPGGA,222919.750,4305.1784,N,07740.8817,W,1,07,1.23,169.1,M,-34.4,M,,*53
$GPRMC,222920.000,A,4305.1786,N,07740.8824,W,7.58,288.99,231023,,,A*74
$GPGGA,222920.250,4305.1789,N,07740.8830,W,1,07,1.23,169.1,M,-34.4,M,,*54
$GPRMC,222920.500,A,4305.1792,N,07740.8837,W,7.39,302.69,231023,,,A*7D
$GPGGA,222920.750,4305.1797,N,07740.8843,W,1,07,1.23,169.0,M,-34.4,M,,*5B
$GPRMC,222921.000,A,4305.1801,N,07740.8848,W,7.69,316.41,231023,,,A*7E
$GPGGA,222921.250,4305.1808,N,07740.8851,W,1,07,1.23,169.0,M,-34.4,M,,*55
$GPRMC,222921.500,A,4305.1813,N,07740.8854,W,8.00,340.18,231023,,,A*7A
$GPGGA,222921.750,4305.1823,N,07740.8855,W,1,07,1.23,169.1,M,-34.4,M,,*5C
$GPRMC,222922.000,A,4305.1831,N,07740.8856,W,10.84,356.97,231023,,,A*4B
$GPGGA,222922.250,4305.1839,N,07740.8856,W,1,07,1.23,169.1,M,-34.4,M,,*52
$GPRMC,222922.500,A,4305.1848,N,07740.8855,W,12.38,4.82,231023,,,A*46
$GPGGA,222922.750,4305.1857,N,07740.8854,W,1,07,1.23,169.1,M,-34.4,M,,*5D
$GPRMC,222923.000,A,4305.1867,N,07740.8853,W,13.49,6.22,231023,,,A*46
$GPGGA,222923.250,4305.1877,N,07740.8852,W,1,07,1.23,169.0,M,-34.4,M,,*5C
$GPRMC,222923.500,A,4305.1887,N,07740.8851,W,14.32,6.52,231023,,,A*43
$GPGGA,222923.750,4305.1898,N,07740.8850,W,1,07,1.23,168.9,M,-34.4,M,,*52
$GPRMC,222924.000,A,4305.1909,N,07740.8849,W,15.39,5.88,231023,,,A*41
$GPGGA,222924.250,4305.1921,N,07740.8847,W,1,07,1.23,168.4,M,-34.4,M,,*58
$GPRMC,222924.500,A,4305.1932,N,07740.8847,W,16.65,3.65,231023,,,A*4D
$GPGGA,222924.750,4305.1944,N,07740.8846,W,1,07,1.23,168.2,M,-34.4,M,,*59
$GPRMC,222925.000,A,4305.1956,N,07740.8846,W,17.16,1.82,231023,,,A*44
$GPGGA,222925.250,4305.1969,N,07740.8845,W,1,07,1.23,168.1,M,-34.4,M,,*52
$GPRMC,222925.500,A,4305.1982,N,07740.8845,W,18.11,1.65,231023,,,A*4A
$GPGGA,222925.750,4305.1994,N,07740.8845,W,1,07,1.23,168.0,M,-34.4,M,,*54
$GPRMC,222926.000,A,4305.2008,N,07740.8845,W,18.49,1.14,231023,,,A*4F
$GPGGA,222926.250,4305.2021,N,07740.8845,W,1,07,1.23,167.9,M,-34.4,M,,*50
$GPRMC,222926.500,A,4305.2034,N,07740.8845,W,18.83,359.48,231023,,,A*44
$GPGGA,222926.750,4305.2047,N,07740.8846,W,1,07,1.23,167.9,M,-34.4,M,,*56
$GPRMC,222927.000,A,4305.2060,N,07740.8846,W,18.43,359.10,231023,,,A*43
$GPGGA,222927.250,4305.2073,N,07740.8847,W,1,07,1.23,167.8,M,-34.4,M,,*55
$GPRMC,222927.500,A,4305.2086,N,07740.8847,W,18.43,358.16,231023,,,A*48
$GPGGA,222927.750,4305.2099,N,07740.8848,W,1,07,1.23,167.7,M,-34.4,M,,*54
$GPRMC,222928.000,A,4305.2112,N,07740.8849,W,18.22,357.37,231023,,,A*4B
$GPGGA,222928.250,4305.2125,N,07740.8850,W,1,07,1.23,167.6,M,-34.4,M,,*50
$GPRMC,222928.500,A,4305.2138,N,07740.8851,W,18.40,356.12,231023,,,A*4D
$GPGGA,222928.750,4305.2151,N,07740.8853,W,1,07,1.23,167.6,M,-34.4,M,,*55
$GPRMC,222929.000,A,4305.2163,N,07740.8854,W,18.38,355.46,231023,,,A*4F
$GPGGA,222929.250,4305.2176,N,07740.8856,W,1,07,1.23,167.5,M,-34.4,M,,*52
$GPRMC,222929.500,A,4305.2188,N,07740.8857,W,17.92,354.12,231023,,,A*43
$GPGGA,222929.750,4305.2200,N,07740.8859,W,1,07,1.23,167.4,M,-34.4,M,,*5B
$GPRMC,222930.000,A,4305.2212,N,07740.8861,W,17.67,353.04,231023,,,A*41
$GPGGA,222930.250,4305.2225,N,07740.8864,W,1,07,1.23,167.4,M,-34.4,M,,*5F
$GPRMC,222930.500,A,4305.2237,N,07740.8866,W,17.56,351.03,231023,,,A*43
$GPGGA,222930.750,4305.2249,N,07740.8869,W,1,07,1.23,167.3,M,-34.4,M,,*5A
$GPRMC,222931.000,A,4305.2262,N,07740.8872,W,17.58,349.90,231023,,,A*4F
$GPGGA,222931.250,4305.2273,N,07740.8875,W,1,07,1.23,167.2,M,-34.4,M,,*5B
$GPRMC,222931.500,A,4305.2285,N,07740.8878,W,17.15,348.35,231023,,,A*4E
$GPGGA,222931.750,4305.2296,N,07740.8881,W,1,07,1.23,167.1,M,-34.4,M,,*5D
$GPRMC,222932.000,A,4305.2307,N,07740.8884,W,16.45,347.55,231023,,,A*4D
$GPGGA,222932.250,4305.2318,N,07740.8887,W,1,07,1.23,167.0,M,-34.4,M,,*5B
$GPRMC,222932.500,A,4305.2327,N,07740.8890,W,15.25,347.74,231023,,,A*49
$GPGGA,222932.750,4305.2336,N,07740.8891,W,1,07,1.23,167.0,M,-34.4,M,,*55
$GPRMC,222933.000,A,4305.2344,N,07740.8893,W,13.25,352.23,231023,,,A*4B
$GPGGA,222933.250,4305.2351,N,07740.8893,W,1,07,1.23,167.0,M,-34.4,M,,*52
$GPRMC,222933.500,A,4305.2358,N,07740.8894,W,11.21,354.81,231023,,,A*4C
$GPGGA,222933.750,4305.2365,N,07740.8895,W,1,07,1.23,166.8,M,-34.4,M,,*5F
$GPRMC,222934.000,A,4305.2372,N,07740.8895,W,10.11,356.53,231023,,,A*48
$GPGGA,222934.250,4305.2376,N,07740.8894,W,1,07,1.23,167.0,M,-34.4,M,,*57
$GPRMC,222934.500,A,4305.2382,N,07740.8893,W,8.65,4.93,231023,,,A*76
$GPGGA,222934.750,4305.2387,N,07740.8892,W,1,07,1.23,167.1,M,-34.4,M,,*5B
$GPRMC,222935.000,A,4305.2394,N,07740.8890,W,9.18,12.00,231023,,,A*40
$GPGGA,222935.250,4305.2399,N,07740.8888,W,1,07,1.23,167.3,M,-34.4,M,,*59
$GPRMC,222935.500,A,4305.2405,N,07740.8884,W,10.05,22.92,231023,,,A*73
$GPGGA,222935.750,4305.2411,N,07740.8879,W,1,07,1.23,167.6,M,-34.4,M,,*50
$GPRMC,222936.000,A,4305.2417,N,07740.8874,W,11.20,34.53,231023,,,A*75
$GPGGA,222936.250,4305.2422,N,07740.8866,W,1,07,1.23,167.7,M,-34.4,M,,*59
$GPRMC,222936.500,A,4305.2427,N,07740.8857,W,12.48,50.13,231023,,,A*79
$GPGGA,222936.750,4305.2432,N,07740.8847,W,1,07,1.23,167.7,M,-34.4,M,,*5E
$GPRMC,222937.000,A,4305.2438,N,07740.8836,W,13.99,57.55,231023,,,A*7C
$GPGGA,222937.250,4305.2442,N,07740.8825,W,1,07,1.23,167.7,M,-34.4,M,,*59
$GPRMC,222937.500,A,4305.2447,N,07740.8814,W,14.07,61.72,231023,,,A*71
$GPGGA,222937.750,4305.2451,N,07740.8801,W,1,07,1.23,167.6,M,-34.4,M,,*59
$GPRMC,222938.000,A,4305.2455,N,07740.8789,W,14.73,66.00,231023,,,A*72
$GPGGA,222938.250,4305.2458,N,07740.8774,W,1,07,1.23,167.6,M,-34.4,M,,*57
$GPRMC,222938.500,A,4305.2461,N,07740.8760,W,16.05,72.10,231023,,,A*70
$GPGGA,222938.750,4305.2464,N,07740.8744,W,1,07,1.23,167.6,M,-34.4,M,,*5E
$GPRMC,222939.000,A,4305.2467,N,07740.8728,W,17.15,75.38,231023,,,A*73
$GPGGA,222939.250,4305.2470,N,07740.8711,W,1,07,1.23,167.7,M,-34.4,M,,*5E
$GPRMC,222939.500,A,4305.2474,N,07740.8693,W,18.57,76.82,231023,,,A*7E
$GPGGA,222939.750,4305.2477,N,07740.8674,W,1,07,1.23,167.7,M,-34.4,M,,*5E
$GPRMC,222940.000,A,4305.2481,N,07740.8655,W,19.89,77.00,231023,,,A*7C
$GPGGA,222940.250,4305.2484,N,07740.8635,W,1,07,1.23,167.6,M,-34.4,M,,*5D
$GPRMC,222940.500,A,4305.2488,N,07740.8614,W,21.07,77.67,231023,,,A*79
$GPGGA,222940.750,4305.2492,N,07740.8594,W,1,07,1.23,167.6,M,-34.4,M,,*57
$GPRMC,222941.000,A,4305.2495,N,07740.8573,W,21.77,78.20,231023,,,A*78
$GPGGA,222941.250,4305.2499,N,07740.8552,W,1,07,1.23,167.6,M,-34.4,M,,*52
$GPRMC,222941.500,A,4305.2502,N,07740.8531,W,22.25,77.76,231023,,,A*7C
$GPGGA,222941.750,4305.2505,N,07740.8509,W,1,07,1.23,167.6,M,-34.4,M,,*5D
$GPRMC,222942.000,A,4305.2509,N,07740.8488,W,22.51,78.11,231023,,,A*7F
$GPGGA,222942.250,4305.2512,N,07740.8467,W,1,07,1.23,167.7,M,-34.4,M,,*55
$GPRMC,222942.500,A,4305.2515,N,07740.8445,W,22.72,78.69,231023,,,A*78
$GPGGA,222942.750,4305.2518,N,07740.8424,W,1,07,1.23,167.7,M,-34.4,M,,*5D
$GPRMC,222943.000,A,4305.2521,N,07740.8403,W,22.67,78.61,231023,,,A*75
$GPGGA,222943.250,4305.2524,N,07740.8382,W,1,07,1.23,167.8,M,-34.4,M,,*52
$GPRMC,222943.500,A,4305.2526,N,07740.8360,W,22.92,80.55,231023,,,A*7F
$GPGGA,222943.750,4305.2530,N,07740.8338,W,1,07,1.23,167.8,M,-34.4,M,,*53
$GPRMC,222944.000,A,4305.2533,N,07740.8316,W,23.66,81.77,231023,,,A*73
$GPGGA,222944.250,4305.2536,N,07740.8293,W,1,07,1.23,167.9,M,-34.4,M,,*56
$GPRMC,222944.500,A,4305.2539,N,07740.8270,W,24.20,81.76,231023,,,A*79
$GPGGA,222944.750,4305.2542,N,07740.8247,W,1,07,1.23,168.0,M,-34.4,M,,*5F
$GPRMC,222945.000,A,4305.2544,N,07740.8224,W,24.47,83.12,231023,,,A*77
$GPGGA,222945.250,4305.2547,N,07740.8200,W,1,07,1.23,168.1,M,-34.4,M,,*5C
$GPRMC,222945.500,A,4305.2549,N,07740.8177,W,24.48,84.60,231023,,,A*77
$GPGGA,222945.750,4305.2551,N,07740.8153,W,1,07,1.23,168.3,M,-34.4,M,,*59
$GPRMC,222946.000,A,4305.2553,N,07740.8130,W,24.22,85.42,231023,,,A*74
$GPGGA,222946.250,4305.2555,N,07740.8107,W,1,07,1.23,168.3,M,-34.4,M,,*5A
$GPRMC,222946.500,A,4305.2556,N,07740.8084,W,23.72,87.54,231023,,,A*7D
$GPGGA,222946.750,4305.2558,N,07740.8061,W,1,07,1.23,168.3,M,-34.4,M,,*53
$GPRMC,222947.000,A,4305.2559,N,07740.8039,W,23.37,87.24,231023,,,A*76
$GPGGA,222947.250,4305.2560,N,07740.8016,W,1,07,1.23,168.4,M,-34.4,M,,*5B
$GPRMC,222947.500,A,4305.2561,N,07740.7994,W,23.32,86.13,231023,,,A*79
$GPGGA,222947.750,4305.2563,N,07740.7972,W,1,07,1.23,168.4,M,-34.4,M,,*59
$GPRMC,222948.000,A,4305.2565,N,07740.7950,W,23.56,84.71,231023,,,A*7B
$GPGGA,222948.250,4305.2566,N,07740.7928,W,1,07,1.23,168.5,M,-34.4,M,,*58
$GPRMC,222948.500,A,4305.2568,N,07740.7906,W,23.26,84.46,231023,,,A*73
$GPGGA,222948.750,4305.2570,N,07740.7884,W,1,07,1.23,168.5,M,-34.4,M,,*5D
$GPRMC,222949.000,A,4305.2571,N,07740.7862,W,22.97,84.45,231023,,,A*74
$GPGGA,222949.250,4305.2573,N,07740.7841,W,1,07,1.23,168.6,M,-34.4,M,,*50
$GPRMC,222949.500,A,4305.2575,N,07740.7820,W,21.91,83.85,231023,,,A*7D
$GPGGA,222949.750,4305.2576,N,07740.7800,W,1,07,1.23,168.7,M,-34.4,M,,*54
$GPRMC,222950.000,A,4305.2578,N,07740.7780,W,20.43,84.33,231023,,,A*7C
$GPGGA,222950.250,4305.2579,N,07740.7761,W,1,08,0.99,168.6,M,-34.4,M,,*50
$GPRMC,222950.500,A,4305.2580,N,07740.7743,W,18.73,86.16,231023,,,A*7C
$GPGGA,222950.750,4305.2581,N,07740.7726,W,1,08,0.99,168.6,M,-34.4,M,,*51
$GPRMC,222951.000,A,4305.2581,N,07740.7710,W,16.40,87.26,231023,,,A*73
$GPGGA,222951.250,4305.2582,N,07740.7695,W,1,08,0.99,168.5,M,-34.4,M,,*5C
$GPRMC,222951.500,A,4305.2582,N,07740.7680,W,14.09,87.68,231023,,,A*78
$GPGGA,222951.750,4305.2582,N,07740.7667,W,1,08,0.99,168.4,M,-34.4,M,,*55
$GPRMC,222952.000,A,4305.2582,N,07740.7654,W,11.64,88.52,231023,,,A*7F
$GPGGA,222952.250,4305.2583,N,07740.7643,W,1,08,0.99,168.4,M,-34.4,M,,*54
$GPRMC,222952.500,A,4305.2583,N,07740.7634,W,8.83,88.55,231023,,,A*4B
$GPGGA,222952.750,4305.2584,N,07740.7625,W,1,08,0.99,168.3,M,-34.4,M,,*51
$GPRMC,222953.000,A,4305.2584,N,07740.7619,W,5.97,88.12,231023,,,A*4C
$GPGGA,222953.250,4305.2584,N,07740.7614,W,1,08,0.99,168.3,M,-34.4,M,,*57
$GPRMC,222953.500,A,4305.2584,N,07740.7610,W,4.10,88.74,231023,,,A*4E
$GPGGA,222953.750,4305.2584,N,07740.7607,W,1,08,0.99,168.3,M,-34.4,M,,*50
$GPRMC,222954.000,A,4305.2584,N,07740.7603,W,3.94,88.78,231023,,,A*49
$GPGGA,222954.250,4305.2584,N,07740.7600,W,1,08,0.99,168.2,M,-34.4,M,,*54
$GPRMC,222954.500,A,4305.2584,N,07740.7596,W,5.05,87.31,231023,,,A*4F
$GPGGA,222954.750,4305.2584,N,07740.7591,W,1,08,0.99,168.1,M,-34.4,M,,*59
$GPRMC,222955.000,A,4305.2584,N,07740.7585,W,6.91,85.82,231023,,,A*4D
$GPGGA,222955.250,4305.2584,N,07740.7579,W,1,08,0.99,168.1,M,-34.4,M,,*5B
$GPRMC,222955.500,A,4305.2585,N,07740.7571,W,8.74,81.36,231023,,,A*4C
$GPGGA,222955.750,4305.2586,N,07740.7562,W,1,08,0.99,168.1,M,-34.4,M,,*56
$GPRMC,222956.000,A,4305.2588,N,07740.7553,W,10.80,72.09,231023,,,A*75
$GPGGA,222956.250,4305.2591,N,07740.7543,W,1,08,0.99,168.2,M,-34.4,M,,*56
$GPRMC,222956.500,A,4305.2594,N,07740.7533,W,11.38,68.29,231023,,,A*70
$GPGGA,222956.750,4305.2597,N,07740.7522,W,1,08,0.99,168.2,M,-34.4,M,,*52
$GPRMC,222957.000,A,4305.2601,N,07740.7511,W,11.96,64.41,231023,,,A*7D
$GPGGA,222957.250,4305.2606,N,07740.7501,W,1,08,0.99,168.2,M,-34.4,M,,*5C
$GPRMC,222957.500,A,4305.2611,N,07740.7491,W,12.83,54.44,231023,,,A*71
$GPGGA,222957.750,4305.2618,N,07740.7481,W,1,08,0.99,168.2,M,-34.4,M,,*5F
$GPRMC,222958.000,A,4305.2625,N,07740.7472,W,13.30,44.44,231023,,,A*79
$GPGGA,222958.250,4305.2634,N,07740.7464,W,1,08,0.99,168.2,M,-34.4,M,,*50
$GPRMC,222958.500,A,4305.2644,N,07740.7457,W,14.99,29.67,231023,,,A*72
$GPGGA,222958.750,4305.2656,N,07740.7452,W,1,08,0.99,168.2,M,-34.4,M,,*54
$GPRMC,222959.000,A,4305.2667,N,07740.7447,W,16.57,17.87,231023,,,A*75
$GPGGA,222959.250,4305.2680,N,07740.7445,W,1,08,0.99,168.3,M,-34.4,M,,*5C
$GPRMC,222959.500,A,4305.2694,N,07740.7443,W,17.09,9.43,231023,,,A*45
$GPGGA,222959.750,4305.2707,N,07740.7443,W,1,08,0.99,168.5,M,-34.4,M,,*57
$GPRMC,223000.000,A,4305.2722,N,07740.7442,W,18.37,2.24,231023,,,A*41
$GPGGA,223000.250,4305.2736,N,07740.7443,W,1,08,0.99,168.6,M,-34.4,M,,*57
$GPRMC,223000.500,A,4305.2751,N,07740.7444,W,19.49,357.41,231023,,,A*4E
$GPGGA,223000.750,4305.2766,N,07740.7445,W,1,08,0.99,168.5,M,-34.4,M,,*52
$GPRMC,223001.000,A,4305.2781,N,07740.7447,W,20.77,357.73,231023,,,A*42
$GPGGA,223001.250,4305.2797,N,07740.7449,W,1,08,0.99,168.6,M,-34.4,M,,*57
$GPRMC,223001.500,A,4305.2813,N,07740.7450,W,22.14,357.87,231023,,,A*49
$GPGGA,223001.750,4305.2829,N,07740.7451,W,1,08,0.99,168.5,M,-34.4,M,,*52
$GPRMC,223002.000,A,4305.2845,N,07740.7452,W,22.71,357.98,231023,,,A*43
$GPGGA,223002.250,4305.2861,N,07740.7453,W,1,08,0.99,168.4,M,-34.4,M,,*5B
$GPRMC,223002.500,A,4305.2877,N,07740.7455,W,22.90,358.66,231023,,,A*41
$GPGGA,223002.750,4305.2894,N,07740.7456,W,1,08,0.99,168.4,M,-34.4,M,,*51
$GPRMC,223003.000,A,4305.2910,N,07740.7457,W,22.88,358.71,231023,,,A*48
$GPGGA,223003.250,4305.2926,N,07740.7457,W,1,08,0.99,168.5,M,-34.4,M,,*5D
$GPRMC,223003.500,A,4305.2942,N,07740.7458,W,22.48,359.36,231023,,,A*4B
$GPGGA,223003.750,4305.2957,N,07740.7458,W,1,08,0.99,168.5,M,-34.4,M,,*51
$GPRMC,223004.000,A,4305.2973,N,07740.7459,W,22.22,358.96,231023,,,A*4D
$GPGGA,223004.250,4305.2988,N,07740.7460,W,1,08,0.99,168.4,M,-34.4,M,,*5B
$GPRMC,223004.500,A,4305.3003,N,07740.7460,W,21.43,358.59,231023,,,A*4A
$GPGGA,223004.750,4305.3018,N,07740.7461,W,1,08,0.99,168.4,M,-34.4,M,,*5E
$GPRMC,223005.000,A,4305.3034,N,07740.7462,W,21.17,358.38,231023,,,A*4E
$GPGGA,223005.250,4305.3048,N,07740.7463,W,1,08,0.99,168.2,M,-34.4,M,,*5B
$GPRMC,223005.500,A,4305.3063,N,07740.7463,W,20.91,358.58,231023,,,A*41
$GPGGA,223005.750,4305.3078,N,07740.7464,W,1,08,0.99,168.1,M,-34.4,M,,*59
$GPRMC,223006.000,A,4305.3093,N,07740.7465,W,20.58,358.92,231023,,,A*4D
$GPGGA,223006.250,4305.3107,N,07740.7465,W,1,08,0.99,168.0,M,-34.4,M,,*56
$GPRMC,223006.500,A,4305.3122,N,07740.7466,W,20.13,358.90,231023,,,A*4D
$GPGGA,223006.750,4305.3135,N,07740.7466,W,1,08,0.99,168.0,M,-34.4,M,,*51
$GPRMC,223007.000,A,4305.3149,N,07740.7466,W,20.08,358.88,231023,,,A*47
$GPGGA,223007.250,4305.3163,N,07740.7467,W,1,08,0.99,168.0,M,-34.4,M,,*57
$GPRMC,223007.500,A,4305.3177,N,07740.7467,W,19.63,359.14,231023,,,A*4D
$GPGGA,223007.750,4305.3190,N,07740.7468,W,1,08,0.99,168.1,M,-34.4,M,,*50
$GPRMC,223008.000,A,4305.3203,N,07740.7469,W,19.04,359.08,231023,,,A*45
$GPGGA,223008.250,4305.3217,N,07740.7469,W,1,08,0.99,168.1,M,-34.4,M,,*57
$GPRMC,223008.500,A,4305.3230,N,07740.7470,W,19.07,359.32,231023,,,A*42
$GPGGA,223008.750,4305.3243,N,07740.7470,W,1,08,0.99,168.3,M,-34.4,M,,*59
$GPRMC,223009.000,A,4305.3256,N,07740.7471,W,18.32,359.10,231023,,,A*40
$GPGGA,223009.250,4305.3269,N,07740.7471,W,1,08,0.99,168.2,M,-34.4,M,,*55
$GPRMC,223009.500,A,4305.3281,N,07740.7471,W,18.32,359.60,231023,,,A*48
$GPGGA,223009.750,4305.3293,N,07740.7472,W,1,08,0.99,168.3,M,-34.4,M,,*57
$GPRMC,223010.000,A,4305.3305,N,07740.7472,W,16.99,359.84,231023,,,A*4E
$GPGGA,223010.250,4305.3317,N,07740.7474,W,1,08,0.99,168.3,M,-34.4,M,,*51
$GPRMC,223010.500,A,4305.3328,N,07740.7475,W,15.03,0.19,231023,,,A*48
$GPGGA,223010.750,4305.3338,N,07740.7476,W,1,08,0.99,168.5,M,-34.4,M,,*5D
$GPRMC,223011.000,A,4305.3347,N,07740.7477,W,13.08,0.37,231023,,,A*46
$GPGGA,223011.250,4305.3355,N,07740.7478,W,1,08,0.99,168.7,M,-34.4,M,,*5E
$GPRMC,223011.500,A,4305.3362,N,07740.7478,W,9.79,0.47,231023,,,A*71
$GPGGA,223011.750,4305.3368,N,07740.7478,W,1,08,0.99,168.9,M,-34.4,M,,*5B
$GPRMC,223012.000,A,4305.3374,N,07740.7478,W,7.53,1.16,231023,,,A*73
$GPGGA,223012.250,4305.3378,N,07740.7478,W,1,08,0.99,169.0,M,-34.4,M,,*54
$GPRMC,223012.500,A,4305.3382,N,07740.7477,W,6.02,359.90,231023,,,A*75
$GPGGA,223012.750,4305.3386,N,07740.7477,W,1,08,0.99,169.2,M,-34.4,M,,*5D
$GPRMC,223013.000,A,4305.3390,N,07740.7477,W,5.74,356.11,231023,,,A*76
$GPGGA,223013.250,4305.3393,N,07740.7478,W,1,08,0.99,169.3,M,-34.4,M,,*53
$GPRMC,223013.500,A,4305.3398,N,07740.7480,W,6.58,345.91,231023,,,A*74
$GPGGA,223013.750,4305.3403,N,07740.7483,W,1,08,0.99,169.4,M,-34.4,M,,*5B
$GPRMC,223014.000,A,4305.3408,N,07740.7486,W,8.04,335.09,231023,,,A*7F
$GPGGA,223014.250,4305.3412,N,07740.7492,W,1,08,0.99,169.5,M,-34.4,M,,*58
$GPRMC,223014.500,A,4305.3417,N,07740.7498,W,9.75,319.66,231023,,,A*7B
$GPGGA,223014.750,4305.3422,N,07740.7507,W,1,08,0.99,169.7,M,-34.4,M,,*51
$GPRMC,223015.000,A,4305.3427,N,07740.7516,W,11.80,309.25,231023,,,A*4E
$GPGGA,223015.250,4305.3431,N,07740.7526,W,1,08,0.99,169.8,M,-34.4,M,,*5B
$GPRMC,223015.500,A,4305.3435,N,07740.7538,W,13.41,296.40,231023,,,A*4F
$GPGGA,223015.750,4305.3438,N,07740.7550,W,1,08,0.99,169.9,M,-34.4,M,,*57
$GPRMC,223016.000,A,4305.3440,N,07740.7563,W,14.34,287.18,231023,,,A*4D
$GPGGA,223016.250,4305.3442,N,07740.7577,W,1,08,0.99,170.0,M,-34.4,M,,*58
$GPRMC,223016.500,A,4305.3444,N,07740.7591,W,15.19,281.28,231023,,,A*4A
$GPGGA,223016.750,4305.3444,N,07740.7606,W,1,08,0.99,170.1,M,-34.4,M,,*5F
$GPRMC,223017.000,A,4305.3445,N,07740.7622,W,16.18,275.51,231023,,,A*43
$GPGGA,223017.250,4305.3445,N,07740.7637,W,1,08,0.99,170.1,M,-34.4,M,,*58
$GPRMC,223017.500,A,4305.3445,N,07740.7654,W,17.23,271.38,231023,,,A*45
$GPGGA,223017.750,4305.3445,N,07740.7671,W,1,08,0.99,170.2,M,-34.4,M,,*5C
$GPRMC,223018.000,A,4305.3445,N,07740.7688,W,18.01,270.25,231023,,,A*4C
$GPGGA,223018.250,4305.3446,N,07740.7706,W,1,08,0.99,170.2,M,-34.4,M,,*54
$GPRMC,223018.500,A,4305.3446,N,07740.7724,W,18.82,269.35,231023,,,A*4F
$GPGGA,223018.750,4305.3446,N,07740.7743,W,1,08,0.99,170.4,M,-34.4,M,,*56
$GPRMC,223019.000,A,4305.3446,N,07740.7762,W,19.77,268.06,231023,,,A*43
$GPGGA,223019.250,4305.3446,N,07740.7781,W,1,08,0.99,170.6,M,-34.4,M,,*5E
$GPRMC,223019.500,A,4305.3445,N,07740.7800,W,20.15,267.94,231023,,,A*44
$GPGGA,223019.750,4305.3445,N,07740.7820,W,1,08,0.99,170.6,M,-34.4,M,,*5C
$GPRMC,223020.000,A,4305.3444,N,07740.7840,W,20.82,268.35,231023,,,A*44
$GPGGA,223020.250,4305.3444,N,07740.7861,W,1,08,0.99,170.6,M,-34.4,M,,*57
$GPRMC,223020.500,A,4305.3445,N,07740.7881,W,21.39,269.07,231023,,,A*4C
$GPGGA,223020.750,4305.3444,N,07740.7902,W,1,08,0.99,170.6,M,-34.4,M,,*56
$GPRMC,223021.000,A,4305.3444,N,07740.7922,W,21.58,268.72,231023,,,A*45
$GPGGA,223021.250,4305.3444,N,07740.7943,W,1,08,0.99,170.7,M,-34.4,M,,*56
$GPRMC,223021.500,A,4305.3444,N,07740.7963,W,21.92,269.37,231023,,,A*43
$GPGGA,223021.750,4305.3443,N,07740.7984,W,1,07,1.26,170.8,M,-34.4,M,,*5A
$GPRMC,223022.000,A,4305.3443,N,07740.8005,W,21.61,268.49,231023,,,A*40
$GPGGA,223022.250,4305.3443,N,07740.8025,W,1,07,1.27,170.9,M,-34.4,M,,*51
$GPRMC,223022.500,A,4305.3443,N,07740.8046,W,21.42,268.95,231023,,,A*42
$GPGGA,223022.750,4305.3442,N,07740.8066,W,1,07,1.27,171.0,M,-34.4,M,,*5A
$GPRMC,223023.000,A,4305.3442,N,07740.8086,W,21.29,269.27,231023,,,A*4E
$GPGGA,223023.250,4305.3442,N,07740.8106,W,1,07,1.27,170.7,M,-34.4,M,,*5F
$GPRMC,223023.500,A,4305.3442,N,07740.8127,W,21.14,269.65,231023,,,A*49
$GPGGA,223023.750,4305.3442,N,07740.8147,W,1,07,1.27,170.6,M,-34.4,M,,*5E
$GPRMC,223024.000,A,4305.3442,N,07740.8167,W,21.37,269.82,231023,,,A*47
$GPGGA,223024.250,4305.3441,N,07740.8188,W,1,07,1.27,170.6,M,-34.4,M,,*5C
$GPRMC,223024.500,A,4305.3442,N,07740.8208,W,21.39,269.42,231023,,,A*4A
$GPGGA,223024.750,4305.3441,N,07740.8229,W,1,07,1.27,170.2,M,-34.4,M,,*55
$GPRMC,223025.000,A,4305.3441,N,07740.8250,W,21.58,268.67,231023,,,A*41
$GPGGA,223025.250,4305.3440,N,07740.8271,W,1,07,1.27,170.0,M,-34.4,M,,*5F
$GPRMC,223025.500,A,4305.3440,N,07740.8291,W,21.65,269.07,231023,,,A*41
$GPGGA,223025.750,4305.3440,N,07740.8312,W,1,07,1.27,169.9,M,-34.4,M,,*5F
$GPRMC,223026.000,A,4305.3440,N,07740.8332,W,21.66,269.03,231023,,,A*48
$GPGGA,223026.250,4305.3440,N,07740.8353,W,1,07,1.27,169.8,M,-34.4,M,,*5D
$GPRMC,223026.500,A,4305.3439,N,07740.8374,W,21.46,268.41,231023,,,A*44
$GPGGA,223026.750,4305.3439,N,07740.8394,W,1,07,1.27,169.8,M,-34.4,M,,*5D
$GPRMC,223027.000,A,4305.3439,N,07740.8414,W,21.03,269.27,231023,,,A*41
$GPGGA,223027.250,4305.3439,N,07740.8434,W,1,07,1.27,169.7,M,-34.4,M,,*5B
$GPRMC,223027.500,A,4305.3439,N,07740.8454,W,20.85,269.36,231023,,,A*4F
$GPGGA,223027.750,4305.3438,N,07740.8474,W,1,07,1.27,169.7,M,-34.4,M,,*5B
$GPRMC,223028.000,A,4305.3438,N,07740.8494,W,20.52,270.30,231023,,,A*4C
$GPGGA,223028.250,4305.3438,N,07740.8513,W,1,07,1.27,169.7,M,-34.4,M,,*51
$GPRMC,223028.500,A,4305.3439,N,07740.8532,W,20.29,271.11,231023,,,A*4B
$GPGGA,223028.750,4305.3438,N,07740.8552,W,1,08,0.99,169.6,M,-34.4,M,,*5B
$GPRMC,223029.000,A,4305.3439,N,07740.8571,W,19.87,271.42,231023,,,A*40
$GPGGA,223029.250,4305.3439,N,07740.8590,W,1,08,0.99,169.5,M,-34.4,M,,*53
$GPRMC,223029.500,A,4305.3439,N,07740.8609,W,19.68,273.22,231023,,,A*4C
$GPGGA,223029.750,4305.3440,N,07740.8627,W,1,08,0.99,169.3,M,-34.4,M,,*51
$GPRMC,223030.000,A,4305.3441,N,07740.8646,W,19.40,275.24,231023,,,A*4F
$GPGGA,223030.250,4305.3443,N,07740.8664,W,1,08,0.99,169.1,M,-34.4,M,,*5A
$GPRMC,223030.500,A,4305.3445,N,07740.8682,W,19.08,278.60,231023,,,A*47
$GPGGA,223030.750,4305.3446,N,07740.8700,W,1,08,0.99,169.0,M,-34.4,M,,*58
$GPRMC,223031.000,A,4305.3449,N,07740.8717,W,18.71,281.19,231023,,,A*45
$GPGGA,223031.250,4305.3451,N,07740.8735,W,1,08,0.99,169.0,M,-34.4,M,,*5C
$GPRMC,223031.500,A,4305.3454,N,07740.8752,W,18.49,285.26,231023,,,A*4E
$GPGGA,223031.750,4305.3457,N,07740.8768,W,1,08,0.99,168.9,M,-34.4,M,,*5F
$GPRMC,223032.000,A,4305.3460,N,07740.8785,W,18.19,290.22,231023,,,A*40
$GPGGA,223032.250,4305.3464,N,07740.8801,W,1,08,0.99,169.0,M,-34.4,M,,*51
$GPRMC,223032.500,A,4305.3469,N,07740.8817,W,17.83,293.27,231023,,,A*42
$GPGGA,223032.750,4305.3474,N,07740.8832,W,1,08,0.99,169.1,M,-34.4,M,,*54
$GPRMC,223033.000,A,4305.3479,N,07740.8847,W,17.60,297.80,231023,,,A*46
$GPGGA,223033.250,4305.3485,N,07740.8862,W,1,08,0.99,169.1,M,-34.4,M,,*5B
$GPRMC,223033.500,A,4305.3490,N,07740.8876,W,16.96,300.70,231023,,,A*4E
$GPGGA,223033.750,4305.3495,N,07740.8890,W,1,08,0.99,169.0,M,-34.4,M,,*53
$GPRMC,223034.000,A,4305.3500,N,07740.8904,W,15.90,303.54,231023,,,A*40
$GPGGA,223034.250,4305.3505,N,07740.8916,W,1,08,0.99,168.9,M,-34.4,M,,*5E
$GPRMC,223034.500,A,4305.3511,N,07740.8928,W,14.91,303.50,231023,,,A*4F
$GPGGA,223034.750,4305.3516,N,07740.8939,W,1,08,0.99,168.9,M,-34.4,M,,*54
$GPRMC,223035.000,A,4305.3521,N,07740.8949,W,13.44,306.54,231023,,,A*41
$GPGGA,223035.250,4305.3526,N,07740.8958,W,1,08,0.99,168.8,M,-34.4,M,,*55
$GPRMC,223035.500,A,4305.3531,N,07740.8965,W,11.02,311.98,231023,,,A*4D
$GPGGA,223035.750,4305.3536,N,07740.8972,W,1,08,0.99,168.9,M,-34.4,M,,*58
$GPRMC,223036.000,A,4305.3540,N,07740.8977,W,8.92,316.13,231023,,,A*7B
$GPGGA,223036.250,4305.3544,N,07740.8982,W,1,08,0.99,169.0,M,-34.4,M,,*5C
$GPRMC,223036.500,A,4305.3548,N,07740.8987,W,7.30,320.31,231023,,,A*7B
$GPGGA,223036.750,4305.3552,N,07740.8991,W,1,08,0.99,169.2,M,-34.4,M,,*5E
$GPRMC,223037.000,A,4305.3556,N,07740.8995,W,7.27,327.97,231023,,,A*7E
$GPGGA,223037.250,4305.3562,N,07740.8998,W,1,08,0.99,169.3,M,-34.4,M,,*51
$GPRMC,223037.500,A,4305.3568,N,07740.9000,W,8.26,344.12,231023,,,A*74
$GPGGA,223037.750,4305.3575,N,07740.9002,W,1,08,0.99,169.3,M,-34.4,M,,*59
$GPRMC,223038.000,A,4305.3582,N,07740.9003,W,10.41,355.25,231023,,,A*45
$GPGGA,223038.250,4305.3589,N,07740.9003,W,1,08,0.99,169.5,M,-34.4,M,,*57
$GPRMC,223038.500,A,4305.3598,N,07740.9000,W,12.69,13.08,231023,,,A*7E
$GPGGA,223038.750,4305.3607,N,07740.8995,W,1,08,0.99,169.5,M,-34.4,M,,*50
$GPRMC,223039.000,A,4305.3617,N,07740.8989,W,14.78,22.45,231023,,,A*7A
$GPGGA,223039.250,4305.3627,N,07740.8981,W,1,08,0.99,169.5,M,-34.4,M,,*53
$GPRMC,223039.500,A,4305.3637,N,07740.8973,W,16.30,30.42,231023,,,A*72
$GPGGA,223039.750,4305.3647,N,07740.8964,W,1,08,0.99,169.5,M,-34.4,M,,*5B
$GPRMC,223040.000,A,4305.3658,N,07740.8954,W,17.98,36.03,231023,,,A*75
$GPGGA,223040.250,4305.3668,N,07740.8941,W,1,08,0.99,169.4,M,-34.4,M,,*5B
$GPRMC,223040.500,A,4305.3682,N,07740.8928,W,21.51,39.17,231023,,,A*76
$GPGGA,223040.750,4305.3694,N,07740.8914,W,1,08,0.99,169.3,M,-34.4,M,,*5A
$GPRMC,223041.000,A,4305.3706,N,07740.8900,W,22.85,39.32,231023,,,A*78
$GPGGA,223041.250,4305.3718,N,07740.8885,W,1,08,0.99,169.3,M,-34.4,M,,*52
$GPRMC,223041.500,A,4305.3730,N,07740.8870,W,23.70,39.37,231023,,,A*70
$GPGGA,223041.750,4305.3743,N,07740.8855,W,1,08,0.99,169.4,M,-34.4,M,,*53
$GPRMC,223042.000,A,4305.3756,N,07740.8840,W,24.44,39.22,231023,,,A*71
$GPGGA,223042.250,4305.3770,N,07740.8825,W,1,08,0.99,169.4,M,-34.4,M,,*52
$GPRMC,223042.500,A,4305.3784,N,07740.8809,W,25.11,38.86,231023,,,A*78
$GPGGA,223042.750,4305.3798,N,07740.8794,W,1,08,0.99,169.3,M,-34.4,M,,*53
$GPRMC,223043.000,A,4305.3812,N,07740.8778,W,25.82,38.72,231023,,,A*74
$GPGGA,223043.250,4305.3826,N,07740.8762,W,1,08,0.99,169.1,M,-34.4,M,,*56
$GPRMC,223043.500,A,4305.3841,N,07740.8746,W,25.98,38.76,231023,,,A*75
$GPGGA,223043.750,4305.3855,N,07740.8730,W,1,08,0.99,169.0,M,-34.4,M,,*51
$GPRMC,223044.000,A,4305.3870,N,07740.8715,W,26.31,38.87,231023,,,A*7D
$GPGGA,223044.250,4305.3885,N,07740.8698,W,1,08,0.99,168.8,M,-34.4,M,,*54
$GPRMC,223044.500,A,4305.3900,N,07740.8682,W,27.19,38.49,231023,,,A*78
$GPGGA,223044.750,4305.3915,N,07740.8665,W,1,08,0.99,168.7,M,-34.4,M,,*54
$GPRMC,223045.000,A,4305.3930,N,07740.8649,W,27.63,39.58,231023,,,A*74
$GPGGA,223045.250,4305.3946,N,07740.8632,W,1,08,0.99,168.5,M,-34.4,M,,*56
$GPRMC,223045.500,A,4305.3962,N,07740.8615,W,27.85,38.41,231023,,,A*7E
$GPGGA,223045.750,4305.3977,N,07740.8598,W,1,08,0.99,168.4,M,-34.4,M,,*53
$GPRMC,223046.000,A,4305.3993,N,07740.8580,W,28.66,39.03,231023,,,A*7C
$GPGGA,223046.250,4305.4009,N,07740.8563,W,1,08,0.99,168.3,M,-34.4,M,,*51
$GPRMC,223046.500,A,4305.4025,N,07740.8545,W,28.90,38.93,231023,,,A*72
$GPGGA,223046.750,4305.4041,N,07740.8527,W,1,08,0.99,168.2,M,-34.4,M,,*59
$GPRMC,223047.000,A,4305.4057,N,07740.8509,W,29.37,38.76,231023,,,A*7C
$GPGGA,223047.250,4305.4074,N,07740.8491,W,1,08,0.99,168.1,M,-34.4,M,,*54
$GPRMC,223047.500,A,4305.4090,N,07740.8473,W,30.00,38.18,231023,,,A*7A
$GPGGA,223047.750,4305.4107,N,07740.8455,W,1,08,0.99,168.0,M,-34.4,M,,*5D
$GPRMC,223048.000,A,4305.4123,N,07740.8436,W,30.20,38.29,231023,,,A*78
$GPGGA,223048.250,4305.4140,N,07740.8418,W,1,08,0.99,167.9,M,-34.4,M,,*5B
$GPRMC,223048.500,A,4305.4157,N,07740.8399,W,30.62,37.70,231023,,,A*79
$GPGGA,223048.750,4305.4175,N,07740.8380,W,1,08,0.99,167.8,M,-34.4,M,,*5F
$GPRMC,223049.000,A,4305.4192,N,07740.8362,W,30.88,38.36,231023,,,A*79
$GPGGA,223049.250,4305.4210,N,07740.8342,W,1,08,0.99,167.7,M,-34.4,M,,*5A
$GPRMC,223049.500,A,4305.4227,N,07740.8323,W,31.14,38.52,231023,,,A*72
$GPGGA,223049.750,4305.4245,N,07740.8304,W,1,08,0.99,167.6,M,-34.4,M,,*5C
$GPRMC,223050.000,A,4305.4262,N,07740.8285,W,32.28,38.34,231023,,,A*7F
$GPGGA,223050.250,4305.4280,N,07740.8266,W,1,08,0.99,167.5,M,-34.4,M,,*5E
$GPRMC,223050.500,A,4305.4298,N,07740.8246,W,32.47,38.03,231023,,,A*7D
$GPGGA,223050.750,4305.4316,N,07740.8227,W,1,08,0.99,167.5,M,-34.4,M,,*50
$GPRMC,223051.000,A,4305.4334,N,07740.8208,W,32.68,37.71,231023,,,A*73
$GPGGA,223051.250,4305.4352,N,07740.8189,W,1,08,0.99,167.5,M,-34.4,M,,*53
$GPRMC,223051.500,A,4305.4371,N,07740.8170,W,33.11,37.16,231023,,,A*75
$GPGGA,223051.750,4305.4389,N,07740.8151,W,1,08,0.99,167.6,M,-34.4,M,,*56
$GPRMC,223052.000,A,4305.4407,N,07740.8132,W,33.13,36.98,231023,,,A*76
$GPGGA,223052.250,4305.4426,N,07740.8112,W,1,08,0.99,167.6,M,-34.4,M,,*55
$GPRMC,223052.500,A,4305.4445,N,07740.8093,W,33.32,36.87,231023,,,A*72
$GPGGA,223052.750,4305.4464,N,07740.8074,W,1,08,0.99,167.5,M,-34.4,M,,*54
$GPRMC,223053.000,A,4305.4482,N,07740.8054,W,33.64,36.81,231023,,,A*73
$GPGGA,223053.250,4305.4501,N,07740.8035,W,1,08,0.99,167.5,M,-34.4,M,,*57
$GPRMC,223053.500,A,4305.4520,N,07740.8016,W,33.27,36.54,231023,,,A*76
$GPGGA,223053.750,4305.4538,N,07740.7998,W,1,08,0.99,167.5,M,-34.4,M,,*59
$GPRMC,223054.000,A,4305.4557,N,07740.7979,W,33.19,36.34,231023,,,A*70
$GPGGA,223054.250,4305.4575,N,07740.7961,W,1,08,0.99,167.4,M,-34.4,M,,*55
$GPRMC,223054.500,A,4305.4593,N,07740.7943,W,32.44,35.44,231023,,,A*79
$GPGGA,223054.750,4305.4611,N,07740.7925,W,1,08,0.99,167.4,M,-34.4,M,,*51
$GPRMC,223055.000,A,4305.4630,N,07740.7908,W,32.06,34.43,231023,,,A*78
$GPGGA,223055.250,4305.4648,N,07740.7891,W,1,08,0.99,167.4,M,-34.4,M,,*57
$GPRMC,223055.500,A,4305.4667,N,07740.7874,W,31.83,33.42,231023,,,A*7D
$GPGGA,223055.750,4305.4685,N,07740.7858,W,1,08,0.99,167.5,M,-34.4,M,,*57
$GPRMC,223056.000,A,4305.4703,N,07740.7842,W,31.64,32.50,231023,,,A*76
$GPGGA,223056.250,4305.4722,N,07740.7826,W,1,08,0.99,167.6,M,-34.4,M,,*57
$GPRMC,223056.500,A,4305.4740,N,07740.7811,W,31.17,31.16,231023,,,A*77
$GPGGA,223056.750,4305.4758,N,07740.7796,W,1,08,0.99,167.6,M,-34.4,M,,*5B
$GPRMC,223057.000,A,4305.4776,N,07740.7782,W,30.58,30.34,231023,,,A*78
$GPGGA,223057.250,4305.4793,N,07740.7768,W,1,08,0.99,167.5,M,-34.4,M,,*5A
$GPRMC,223057.500,A,4305.4811,N,07740.7754,W,29.39,29.62,231023,,,A*7C
$GPGGA,223057.750,4305.4828,N,07740.7741,W,1,08,0.99,167.5,M,-34.4,M,,*5B
$GPRMC,223058.000,A,4305.4844,N,07740.7729,W,28.02,28.28,231023,,,A*7A
$GPGGA,223058.250,4305.4861,N,07740.7717,W,1,08,0.99,167.4,M,-34.4,M,,*5E
$GPRMC,223058.500,A,4305.4877,N,07740.7706,W,26.58,26.50,231023,,,A*72
$GPGGA,223058.750,4305.4893,N,07740.7695,W,1,08,0.99,167.3,M,-34.4,M,,*5A
$GPRMC,223059.000,A,4305.4909,N,07740.7685,W,25.63,25.10,231023,,,A*78
$GPGGA,223059.250,4305.4925,N,07740.7675,W,1,08,0.99,167.3,M,-34.4,M,,*5C
$GPRMC,223059.500,A,4305.4941,N,07740.7666,W,24.62,23.91,231023,,,A*73
$GPGGA,223059.750,4305.4956,N,07740.7657,W,1,08,0.99,167.2,M,-34.4,M,,*5C
$GPRMC,223100.000,A,4305.4971,N,07740.7648,W,23.75,23.88,231023,,,A*7D
$GPGGA,223100.250,4305.4985,N,07740.7639,W,1,08,0.99,167.2,M,-34.4,M,,*52
$GPRMC,223100.500,A,4305.4999,N,07740.7630,W,22.55,23.97,231023,,,A*7C
$GPGGA,223100.750,4305.5013,N,07740.7622,W,1,08,0.99,167.4,M,-34.4,M,,*5C
$GPRMC,223101.000,A,4305.5027,N,07740.7614,W,21.63,23.63,231023,,,A*7E
$GPGGA,223101.250,4305.5040,N,07740.7606,W,1,08,0.99,167.5,M,-34.4,M,,*59
$GPRMC,223101.500,A,4305.5053,N,07740.7599,W,20.32,23.46,231023,,,A*7C
$GPGGA,223101.750,4305.5065,N,07740.7592,W,1,08,0.99,167.6,M,-34.4,M,,*56
$GPRMC,223102.000,A,4305.5078,N,07740.7585,W,19.36,22.51,231023,,,A*77
$GPGGA,223102.250,4305.5089,N,07740.7578,W,1,08,0.99,167.9,M,-34.4,M,,*59
$GPRMC,223102.500,A,4305.5101,N,07740.7572,W,17.89,22.67,231023,,,A*7A
$GPGGA,223102.750,4305.5112,N,07740.7566,W,1,08,0.99,167.9,M,-34.4,M,,*50
$GPRMC,223103.000,A,4305.5123,N,07740.7560,W,16.94,22.03,231023,,,A*72
$GPGGA,223103.250,4305.5134,N,07740.7555,W,1,08,0.99,167.9,M,-34.4,M,,*50
$GPRMC,223103.500,A,4305.5143,N,07740.7549,W,15.83,21.92,231023,,,A*74
$GPGGA,223103.750,4305.5152,N,07740.7544,W,1,08,0.99,167.7,M,-34.4,M,,*5B
$GPRMC,223104.000,A,4305.5161,N,07740.7540,W,14.37,21.68,231023,,,A*74
$GPGGA,223104.250,4305.5170,N,07740.7535,W,1,08,0.99,167.7,M,-34.4,M,,*5F
$GPRMC,223104.500,A,4305.5178,N,07740.7531,W,13.09,21.55,231023,,,A*7B
$GPGGA,223104.750,4305.5185,N,07740.7527,W,1,08,0.99,167.6,M,-34.4,M,,*52
$GPRMC,223105.000,A,4305.5192,N,07740.7523,W,11.69,21.17,231023,,,A*7A
$GPGGA,223105.250,4305.5199,N,07740.7520,W,1,08,0.99,167.6,M,-34.4,M,,*5C
$GPRMC,223105.500,A,4305.5206,N,07740.7517,W,10.20,21.58,231023,,,A*71
$GPGGA,223105.750,4305.5212,N,07740.7514,W,1,08,0.99,167.5,M,-34.4,M,,*5D
$GPRMC,223106.000,A,4305.5218,N,07740.7511,W,9.06,21.49,231023,,,A*42
$GPGGA,223106.250,4305.5223,N,07740.7508,W,1,08,0.99,167.6,M,-34.4,M,,*57
$GPRMC,223106.500,A,4305.5228,N,07740.7506,W,7.26,21.53,231023,,,A*45
$GPGGA,223106.750,4305.5232,N,07740.7504,W,1,08,0.99,167.7,M,-34.4,M,,*5F
$GPRMC,223107.000,A,4305.5236,N,07740.7502,W,6.18,21.62,231023,,,A*44
$GPGGA,223107.250,4305.5240,N,07740.7500,W,1,08,0.99,167.7,M,-34.4,M,,*5A
$GPRMC,223107.500,A,4305.5243,N,07740.7498,W,5.02,21.95,231023,,,A*41
$GPGGA,223107.750,4305.5246,N,07740.7497,W,1,08,0.99,167.7,M,-34.4,M,,*56
$GPRMC,223108.000,A,4305.5249,N,07740.7496,W,4.09,19.44,231023,,,A*42
$GPGGA,223108.250,4305.5252,N,07740.7495,W,1,08,0.99,167.8,M,-34.4,M,,*54
$GPRMC,223108.500,A,4305.5254,N,07740.7494,W,3.52,21.66,231023,,,A*4B
$GPGGA,223108.750,4305.5257,N,07740.7493,W,1,08,0.99,167.7,M,-34.4,M,,*5D
$GPRMC,223109.000,A,4305.5258,N,07740.7492,W,2.66,20.88,231023,,,A*42
$GPGGA,223109.250,4305.5260,N,07740.7491,W,1,08,0.99,167.7,M,-34.4,M,,*5F
$GPRMC,223109.500,A,4305.5261,N,07740.7491,W,2.11,20.88,231023,,,A*4E
$GPGGA,223109.750,4305.5262,N,07740.7490,W,1,08,0.99,167.6,M,-34.4,M,,*58
$GPRMC,223110.000,A,4305.5263,N,07740.7489,W,1.57,20.88,231023,,,A*49
$GPGGA,223110.250,4305.5264,N,07740.7489,W,1,08,0.99,167.6,M,-34.4,M,,*5B
$GPRMC,223110.500,A,4305.5265,N,07740.7488,W,1.04,20.88,231023,,,A*4D
$GPGGA,223110.750,4305.5266,N,07740.7488,W,1,08,0.99,167.7,M,-34.4,M,,*5C
$GPRMC,223111.000,A,4305.5266,N,07740.7488,W,0.90,20.88,231023,,,A*46
$GPGGA,223111.250,4305.5267,N,07740.7487,W,1,08,0.99,167.7,M,-34.4,M,,*56
$GPRMC,223111.500,A,4305.5267,N,07740.7487,W,0.72,20.88,231023,,,A*41
$GPGGA,223111.750,4305.5267,N,07740.7487,W,1,08,0.99,167.8,M,-34.4,M,,*5C
$GPRMC,223112.000,A,4305.5268,N,07740.7486,W,0.84,20.88,231023,,,A*40
$GPGGA,223112.250,4305.5268,N,07740.7486,W,1,08,0.99,167.8,M,-34.4,M,,*54
$GPRMC,223112.500,A,4305.5268,N,07740.7486,W,0.61,27.78,231023,,,A*46
$GPGGA,223112.750,4305.5269,N,07740.7486,W,1,08,0.99,167.8,M,-34.4,M,,*50
$GPRMC,223113.000,A,4305.5269,N,07740.7485,W,0.59,24.57,231023,,,A*45
$GPGGA,223113.250,4305.5269,N,07740.7485,W,1,08,0.99,167.8,M,-34.4,M,,*57
$GPRMC,223113.500,A,4305.5269,N,07740.7485,W,0.29,23.17,231023,,,A*44
$GPGGA,223113.750,4305.5270,N,07740.7485,W,1,08,0.99,167.9,M,-34.4,M,,*5B
$GPRMC,223114.000,A,4305.5270,N,07740.7485,W,0.06,23.59,231023,,,A*49
$GPGGA,223114.250,4305.5270,N,07740.7485,W,1,08,0.99,167.9,M,-34.4,M,,*59
$GPRMC,223114.500,A,4305.5270,N,07740.7485,W,0.04,23.43,231023,,,A*45
$GPGGA,223114.750,4305.5270,N,07740.7485,W,1,08,0.99,167.9,M,-34.4,M,,*5C
$GPRMC,223115.000,A,4305.5270,N,07740.7485,W,0.03,23.35,231023,,,A*47
$GPGGA,223115.250,4305.5270,N,07740.7485,W,1,08,0.99,167.9,M,-34.4,M,,*58
$GPRMC,223115.500,A,4305.5270,N,07740.7485,W,0.00,23.33,231023,,,A*47
$GPGGA,223115.750,4305.5270,N,07740.7485,W,1,08,0.99,167.9,M,-34.4,M,,*5D
$GPRMC,223116.000,A,4305.5270,N,07740.7485,W,0.02,23.97,231023,,,A*4D
$GPGGA,223116.250,4305.5270,N,07740.7485,W,1,08,0.99,167.9,M,-34.4,M,,*5B
$GPRMC,223116.500,A,4305.5270,N,07740.7485,W,0.01,24.39,231023,,,A*48
$GPGGA,223116.750,4305.5270,N,07740.7485,W,1,08,0.99,167.9,M,-34.4,M,,*5E
$GPRMC,223117.000,A,4305.5270,N,07740.7485,W,0.03,24.39,231023,,,A*4E
$GPGGA,223117.250,4305.5270,N,07740.7485,W,1,08,0.99,167.9,M,-34.4,M,,*5A
$GPRMC,223117.500,A,4305.5270,N,07740.7485,W,0.01,24.39,231023,,,A*49
$GPGGA,223117.750,4305.5270,N,07740.7485,W,1,08,0.99,168.0,M,-34.4,M,,*59
$GPRMC,223118.000,A,4305.5270,N,07740.7485,W,0.02,24.39,231023,,,A*40
$GPGGA,223118.250,4305.5270,N,07740.7485,W,1,08,0.99,168.0,M,-34.4,M,,*53
$GPRMC,223118.500,A,4305.5270,N,07740.7485,W,0.02,24.39,231023,,,A*45
$GPGGA,223118.750,4305.5270,N,07740.7485,W,1,08,0.99,168.0,M,-34.4,M,,*56
$GPRMC,223119.000,A,4305.5270,N,07740.7485,W,0.02,24.39,231023,,,A*41
$GPGGA,223119.250,4305.5270,N,07740.7485,W,1,08,0.99,168.0,M,-34.4,M,,*52
$GPRMC,223119.500,A,4305.5270,N,07740.7485,W,0.02,24.39,231023,,,A*44
$GPGGA,223119.750,4305.5270,N,07740.7485,W,1,08,0.99,168.0,M,-34.4,M,,*57
$GPRMC,223120.000,A,4305.5270,N,07740.7485,W,0.03,24.39,231023,,,A*4A
$GPGGA,223120.250,4305.5270,N,07740.7485,W,1,08,0.99,168.0,M,-34.4,M,,*58
$GPRMC,223120.500,A,4305.5270,N,07740.7485,W,0.02,24.39,231023,,,A*4E
$GPGGA,223120.750,4305.5270,N,07740.7485,W,1,08,0.99,168.0,M,-34.4,M,,*5D
$GPRMC,223121.000,A,4305.5270,N,07740.7485,W,0.06,24.39,231023,,,A*4E
$GPGGA,223121.250,4305.5270,N,07740.7485,W,1,08,0.99,168.0,M,-34.4,M,,*59
$GPRMC,223121.500,A,4305.5270,N,07740.7485,W,0.03,24.39,231023,,,A*4E
$GPGGA,223121.750,4305.5270,N,07740.7485,W,1,08,0.99,168.0,M,-34.4,M,,*5C
$GPRMC,223122.000,A,4305.5270,N,07740.7485,W,0.04,24.39,231023,,,A*4F
$GPGGA,223122.250,4305.5270,N,07740.7485,W,1,08,0.99,168.0,M,-34.4,M,,*5A
$GPRMC,223122.500,A,4305.5270,N,07740.7485,W,0.02,24.39,231023,,,A*4C
$GPGGA,223122.750,4305.5270,N,07740.7485,W,1,08,0.99,168.0,M,-34.4,M,,*5F
$GPRMC,223123.000,A,4305.5270,N,07740.7485,W,0.02,24.39,231023,,,A*48
$GPGGA,223123.250,4305.5270,N,07740.7485,W,1,08,0.99,168.0,M,-34.4,M,,*5B
$GPRMC,223123.500,A,4305.5270,N,07740.7485,W,0.12,24.39,231023,,,A*4C
$GPGGA,223123.750,4305.5270,N,07740.7485,W,1,08,0.99,168.0,M,-34.4,M,,*5E
$GPRMC,223124.000,A,4305.5270,N,07740.7485,W,0.69,24.39,231023,,,A*42
$GPGGA,223124.250,4305.5271,N,07740.7484,W,1,08,0.99,168.0,M,-34.4,M,,*5C
$GPRMC,223124.500,A,4305.5272,N,07740.7484,W,2.32,22.23,231023,,,A*45
$GPGGA,223124.750,4305.5273,N,07740.7483,W,1,08,0.99,168.0,M,-34.4,M,,*5C
$GPRMC,223125.000,A,4305.5275,N,07740.7481,W,3.99,22.32,231023,,,A*43
$GPGGA,223125.250,4305.5278,N,07740.7480,W,1,08,0.99,168.1,M,-34.4,M,,*51
$GPRMC,223125.500,A,4305.5281,N,07740.7478,W,5.63,22.48,231023,,,A*45
$GPGGA,223125.750,4305.5285,N,07740.7476,W,1,08,0.99,168.0,M,-34.4,M,,*5E
$GPRMC,223126.000,A,4305.5289,N,07740.7473,W,7.15,22.76,231023,,,A*4E
$GPGGA,223126.250,4305.5294,N,07740.7471,W,1,08,0.99,168.1,M,-34.4,M,,*5E
$GPRMC,223126.500,A,4305.5300,N,07740.7467,W,8.51,22.58,231023,,,A*4D
$GPGGA,223126.750,4305.5305,N,07740.7464,W,1,08,0.99,168.1,M,-34.4,M,,*56
$GPRMC,223127.000,A,4305.5311,N,07740.7461,W,9.62,22.08,231023,,,A*4B
$GPGGA,223127.250,4305.5318,N,07740.7457,W,1,08,0.99,168.1,M,-34.4,M,,*5E
$GPRMC,223127.500,A,4305.5325,N,07740.7453,W,10.60,21.73,231023,,,A*7D
$GPGGA,223127.750,4305.5332,N,07740.7449,W,1,08,0.99,168.1,M,-34.4,M,,*5C
$GPRMC,223128.000,A,4305.5339,N,07740.7445,W,11.46,21.84,231023,,,A*70
$GPGGA,223128.250,4305.5347,N,07740.7441,W,1,08,0.99,168.2,M,-34.4,M,,*5F
$GPRMC,223128.500,A,4305.5355,N,07740.7437,W,12.44,21.51,231023,,,A*73
$GPGGA,223128.750,4305.5363,N,07740.7433,W,1,08,0.99,168.3,M,-34.4,M,,*58
$GPRMC,223129.000,A,4305.5372,N,07740.7429,W,13.27,21.23,231023,,,A*7C
$GPGGA,223129.250,4305.5381,N,07740.7424,W,1,08,0.99,168.4,M,-34.4,M,,*51
$GPRMC,223129.500,A,4305.5390,N,07740.7420,W,14.21,20.98,231023,,,A*7C
$GPGGA,223129.750,4305.5400,N,07740.7415,W,1,08,0.99,168.5,M,-34.4,M,,*59
$GPRMC,223130.000,A,4305.5410,N,07740.7410,W,15.03,21.04,231023,,,A*78
$GPGGA,223130.250,4305.5420,N,07740.7405,W,1,08,0.99,168.6,M,-34.4,M,,*54
$GPRMC,223130.500,A,4305.5430,N,07740.7400,W,15.83,20.68,231023,,,A*7D
$GPGGA,223130.750,4305.5440,N,07740.7395,W,1,08,0.99,168.6,M,-34.4,M,,*59
$GPRMC,223131.000,A,4305.5451,N,07740.7389,W,16.91,20.67,231023,,,A*77
$GPGGA,223131.250,4305.5462,N,07740.7384,W,1,08,0.99,168.5,M,-34.4,M,,*5E
$GPRMC,223131.500,A,4305.5474,N,07740.7378,W,17.91,19.63,231023,,,A*74
$GPGGA,223131.750,4305.5486,N,07740.7373,W,1,08,0.99,168.5,M,-34.4,M,,*59
$GPRMC,223132.000,A,4305.5498,N,07740.7367,W,18.72,18.23,231023,,,A*79
$GPGGA,223132.250,4305.5511,N,07740.7362,W,1,09,0.92,168.5,M,-34.4,M,,*5A
$GPRMC,223132.500,A,4305.5524,N,07740.7356,W,19.79,17.35,231023,,,A*7A
$GPGGA,223132.750,4305.5537,N,07740.7350,W,1,09,0.92,168.5,M,-34.4,M,,*5A
$GPRMC,223133.000,A,4305.5551,N,07740.7344,W,20.08,16.98,231023,,,A*75
$GPGGA,223133.250,4305.5564,N,07740.7338,W,1,09,0.92,168.5,M,-34.4,M,,*56
$GPRMC,223133.500,A,4305.5578,N,07740.7333,W,20.86,16.33,231023,,,A*7C
$GPGGA,223133.750,4305.5593,N,07740.7327,W,1,09,0.92,168.2,M,-34.4,M,,*52
$GPRMC,223134.000,A,4305.5607,N,07740.7321,W,21.59,16.19,231023,,,A*7D
$GPGGA,223134.250,4305.5622,N,07740.7315,W,1,09,0.92,168.1,M,-34.4,M,,*5B
$GPRMC,223134.500,A,4305.5638,N,07740.7309,W,22.47,15.99,231023,,,A*79
$GPGGA,223134.750,4305.5653,N,07740.7302,W,1,09,0.92,167.9,M,-34.4,M,,*59
$GPRMC,223135.000,A,4305.5669,N,07740.7296,W,23.33,15.87,231023,,,A*73
$GPGGA,223135.250,4305.5684,N,07740.7290,W,1,09,0.92,167.9,M,-34.4,M,,*5D
$GPRMC,223135.500,A,4305.5700,N,07740.7283,W,24.00,15.91,231023,,,A*7C
$GPGGA,223135.750,4305.5717,N,07740.7276,W,1,09,0.92,167.8,M,-34.4,M,,*5A
$GPRMC,223136.000,A,4305.5733,N,07740.7270,W,24.39,16.01,231023,,,A*76
$GPGGA,223136.250,4305.5749,N,07740.7263,W,1,09,0.92,167.8,M,-34.4,M,,*53
$GPRMC,223136.500,A,4305.5766,N,07740.7256,W,25.17,15.99,231023,,,A*78
$GPGGA,223136.750,4305.5783,N,07740.7250,W,1,09,0.92,167.8,M,-34.4,M,,*50
$GPRMC,223137.000,A,4305.5800,N,07740.7243,W,25.82,15.95,231023,,,A*77
$GPGGA,223137.250,4305.5817,N,07740.7236,W,1,09,0.92,167.8,M,-34.4,M,,*56
$GPRMC,223137.500,A,4305.5835,N,07740.7229,W,26.05,16.07,231023,,,A*7C
$GPGGA,223137.750,4305.5852,N,07740.7221,W,1,09,0.92,167.8,M,-34.4,M,,*54
$GPRMC,223138.000,A,4305.5870,N,07740.7214,W,26.33,16.07,231023,,,A*7C
$GPGGA,223138.250,4305.5888,N,07740.7207,W,1,09,0.92,167.8,M,-34.4,M,,*5D
$GPRMC,223138.500,A,4305.5906,N,07740.7199,W,27.42,16.48,231023,,,A*73
$GPGGA,223138.750,4305.5925,N,07740.7192,W,1,09,0.92,167.8,M,-34.4,M,,*51
$GPRMC,223139.000,A,4305.5943,N,07740.7184,W,27.57,16.34,231023,,,A*75
$GPGGA,223139.250,4305.5962,N,07740.7176,W,1,09,0.92,167.8,M,-34.4,M,,*5C
$GPRMC,223139.500,A,4305.5981,N,07740.7169,W,28.11,15.91,231023,,,A*7C
$GPGGA,223139.750,4305.6000,N,07740.7161,W,1,09,0.92,167.7,M,-34.4,M,,*5E
$GPRMC,223140.000,A,4305.6019,N,07740.7153,W,29.03,15.80,231023,,,A*77
$GPGGA,223140.250,4305.6039,N,07740.7145,W,1,09,0.92,167.7,M,-34.4,M,,*59
$GPRMC,223140.500,A,4305.6058,N,07740.7137,W,29.13,15.52,231023,,,A*7B
$GPGGA,223140.750,4305.6079,N,07740.7130,W,1,09,0.92,167.6,M,-34.4,M,,*5B
$GPRMC,223141.000,A,4305.6099,N,07740.7122,W,29.48,15.79,231023,,,A*71
$GPGGA,223141.250,4305.6119,N,07740.7114,W,1,09,0.92,167.5,M,-34.4,M,,*5D
$GPRMC,223141.500,A,4305.6139,N,07740.7106,W,29.66,15.70,231023,,,A*7C
$GPGGA,223141.750,4305.6160,N,07740.7098,W,1,09,0.92,167.5,M,-34.4,M,,*53
$GPRMC,223142.000,A,4305.6181,N,07740.7090,W,30.95,15.60,231023,,,A*72
$GPGGA,223142.250,4305.6202,N,07740.7082,W,1,09,0.92,167.4,M,-34.4,M,,*58
$GPRMC,223142.500,A,4305.6223,N,07740.7074,W,31.45,15.12,231023,,,A*7F
$GPGGA,223142.750,4305.6244,N,07740.7066,W,1,09,0.92,167.4,M,-34.4,M,,*55
$GPRMC,223143.000,A,4305.6266,N,07740.7058,W,31.94,14.73,231023,,,A*7E
$GPGGA,223143.250,4305.6287,N,07740.7050,W,1,09,0.92,167.4,M,-34.4,M,,*5B
$GPRMC,223143.500,A,4305.6309,N,07740.7042,W,32.11,14.60,231023,,,A*74
$GPGGA,223143.750,4305.6331,N,07740.7034,W,1,09,0.92,167.4,M,-34.4,M,,*50
$GPRMC,223144.000,A,4305.6353,N,07740.7026,W,32.33,14.07,231023,,,A*7A
$GPGGA,223144.250,4305.6376,N,07740.7018,W,1,09,0.92,167.4,M,-34.4,M,,*5F
$GPRMC,223144.500,A,4305.6398,N,07740.7010,W,32.83,13.86,231023,,,A*78
$GPGGA,223144.750,4305.6421,N,07740.7003,W,1,09,0.92,167.4,M,-34.4,M,,*55
$GPRMC,223145.000,A,4305.6443,N,07740.6995,W,33.18,13.49,231023,,,A*78
$GPGGA,223145.250,4305.6466,N,07740.6987,W,1,09,0.92,167.4,M,-34.4,M,,*56
$GPRMC,223145.500,A,4305.6489,N,07740.6980,W,33.45,13.32,231023,,,A*7B
$GPGGA,223145.750,4305.6513,N,07740.6972,W,1,09,0.92,167.4,M,-34.4,M,,*5A
$GPRMC,223146.000,A,4305.6536,N,07740.6964,W,33.68,12.99,231023,,,A*7D
$GPGGA,223146.250,4305.6560,N,07740.6957,W,1,09,0.92,167.4,M,-34.4,M,,*5F
$GPRMC,223146.500,A,4305.6583,N,07740.6949,W,33.92,12.62,231023,,,A*78
$GPGGA,223146.750,4305.6607,N,07740.6942,W,1,09,0.92,167.4,M,-34.4,M,,*5C
$GPRMC,223147.000,A,4305.6631,N,07740.6934,W,34.69,12.39,231023,,,A*71
$GPGGA,223147.250,4305.6656,N,07740.6927,W,1,09,0.92,167.4,M,-34.4,M,,*5F
$GPRMC,223147.500,A,4305.6680,N,07740.6919,W,35.41,12.29,231023,,,A*7B
$GPGGA,223147.750,4305.6704,N,07740.6912,W,1,09,0.92,167.3,M,-34.4,M,,*5D
$GPRMC,223148.000,A,4305.6729,N,07740.6905,W,35.90,11.89,231023,,,A*7B
$GPGGA,223148.250,4305.6754,N,07740.6898,W,1,09,0.92,167.3,M,-34.4,M,,*51
$GPRMC,223148.500,A,4305.6778,N,07740.6890,W,36.13,11.70,231023,,,A*79
$GPGGA,223148.750,4305.6803,N,07740.6883,W,1,09,0.92,167.3,M,-34.4,M,,*53
$GPRMC,223149.000,A,4305.6828,N,07740.6876,W,36.74,11.17,231023,,,A*7F
$GPGGA,223149.250,4305.6853,N,07740.6869,W,1,09,0.92,167.4,M,-34.4,M,,*51
$GPRMC,223149.500,A,4305.6878,N,07740.6863,W,36.87,10.86,231023,,,A*7E
$GPGGA,223149.750,4305.6904,N,07740.6856,W,1,09,0.92,167.4,M,-34.4,M,,*5B
$GPRMC,223150.000,A,4305.6929,N,07740.6849,W,37.09,11.06,231023,,,A*70
$GPGGA,223150.250,4305.6954,N,07740.6842,W,1,09,0.92,167.4,M,-34.4,M,,*56
$GPRMC,223150.500,A,4305.6980,N,07740.6835,W,37.39,11.18,231023,,,A*71
$GPGGA,223150.750,4305.7005,N,07740.6828,W,1,09,0.92,167.4,M,-34.4,M,,*53
$GPRMC,223151.000,A,4305.7031,N,07740.6821,W,37.67,11.35,231023,,,A*76
$GPGGA,223151.250,4305.7057,N,07740.6814,W,1,09,0.92,167.4,M,-34.4,M,,*5F
$GPRMC,223151.500,A,4305.7082,N,07740.6807,W,37.91,11.43,231023,,,A*77
$GPGGA,223151.750,4305.7108,N,07740.6800,W,1,09,0.92,167.5,M,-34.4,M,,*55
$GPRMC,223152.000,A,4305.7134,N,07740.6792,W,37.91,11.33,231023,,,A*79
$GPGGA,223152.250,4305.7160,N,07740.6785,W,1,09,0.92,167.5,M,-34.4,M,,*5F
$GPRMC,223152.500,A,4305.7186,N,07740.6778,W,38.11,11.14,231023,,,A*73
$GPGGA,223152.750,4305.7211,N,07740.6771,W,1,09,0.92,167.6,M,-34.4,M,,*57
$GPRMC,223153.000,A,4305.7237,N,07740.6764,W,38.14,11.29,231023,,,A*78
$GPGGA,223153.250,4305.7263,N,07740.6758,W,1,09,0.92,167.6,M,-34.4,M,,*5D
$GPRMC,223153.500,A,4305.7289,N,07740.6750,W,38.28,11.22,231023,,,A*7B
$GPGGA,223153.750,4305.7315,N,07740.6743,W,1,09,0.92,167.7,M,-34.4,M,,*53
$GPRMC,223154.000,A,4305.7341,N,07740.6736,W,38.00,11.23,231023,,,A*77
$GPGGA,223154.250,4305.7367,N,07740.6729,W,1,09,0.92,167.7,M,-34.4,M,,*58
$GPRMC,223154.500,A,4305.7393,N,07740.6722,W,37.61,11.62,231023,,,A*75
$GPGGA,223154.750,4305.7418,N,07740.6714,W,1,09,0.92,167.6,M,-34.4,M,,*5D
$GPRMC,223155.000,A,4305.7444,N,07740.6707,W,37.18,12.53,231023,,,A*74
$GPGGA,223155.250,4305.7469,N,07740.6699,W,1,09,0.92,167.6,M,-34.4,M,,*5B
$GPRMC,223155.500,A,4305.7494,N,07740.6691,W,37.01,13.67,231023,,,A*7C
$GPGGA,223155.750,4305.7519,N,07740.6682,W,1,09,0.92,167.6,M,-34.4,M,,*52
$GPRMC,223156.000,A,4305.7543,N,07740.6673,W,36.72,14.56,231023,,,A*7D
$GPGGA,223156.250,4305.7568,N,07740.6665,W,1,09,0.92,167.6,M,-34.4,M,,*5B
$GPRMC,223156.500,A,4305.7592,N,07740.6655,W,36.52,15.12,231023,,,A*73
$GPGGA,223156.750,4305.7616,N,07740.6646,W,1,09,0.92,167.6,M,-34.4,M,,*55
$GPRMC,223157.000,A,4305.7640,N,07740.6637,W,36.07,15.73,231023,,,A*78
$GPGGA,223157.250,4305.7664,N,07740.6628,W,1,09,0.92,167.6,M,-34.4,M,,*5C
$GPRMC,223157.500,A,4305.7687,N,07740.6618,W,35.78,16.40,231023,,,A*73
$GPGGA,223157.750,4305.7711,N,07740.6609,W,1,09,0.92,167.6,M,-34.4,M,,*59
$GPRMC,223158.000,A,4305.7734,N,07740.6599,W,35.55,16.98,231023,,,A*70
$GPGGA,223158.250,4305.7757,N,07740.6589,W,1,09,0.92,167.6,M,-34.4,M,,*5A
$GPRMC,223158.500,A,4305.7780,N,07740.6579,W,35.33,17.60,231023,,,A*72
$GPGGA,223158.750,4305.7803,N,07740.6569,W,1,09,0.92,167.7,M,-34.4,M,,*5E
$GPRMC,223159.000,A,4305.7825,N,07740.6559,W,34.17,18.64,231023,,,A*78
$GPGGA,223159.250,4305.7848,N,07740.6549,W,1,09,0.92,167.7,M,-34.4,M,,*57
$GPRMC,223159.500,A,4305.7870,N,07740.6538,W,33.97,19.87,231023,,,A*79
$GPGGA,223159.750,4305.7892,N,07740.6527,W,1,09,0.92,167.8,M,-34.4,M,,*52
$GPRMC,223200.000,A,4305.7914,N,07740.6516,W,33.75,20.60,231023,,,A*73
$GPGGA,223200.250,4305.7936,N,07740.6504,W,1,09,0.92,167.9,M,-34.4,M,,*57
$GPRMC,223200.500,A,4305.7958,N,07740.6493,W,33.51,20.73,231023,,,A*76
$GPGGA,223200.750,4305.7980,N,07740.6482,W,1,09,0.92,168.0,M,-34.4,M,,*56
$GPRMC,223201.000,A,4305.8001,N,07740.6471,W,33.55,20.58,231023,,,A*79
$GPGGA,223201.250,4305.8023,N,07740.6459,W,1,09,0.92,168.0,M,-34.4,M,,*5B
$GPRMC,223201.500,A,4305.8045,N,07740.6448,W,33.65,20.98,231023,,,A*79
$GPGGA,223201.750,4305.8067,N,07740.6437,W,1,09,0.92,168.1,M,-34.4,M,,*57
