Vers 81
USE_SERIAL_FEEDBACK=true
DEVELOPMENT_MODE=false
USE_RMC_ONLY=false

$GPRMC,013603.500,A,4305.6923,N,07725.8369,W,0.07,54.92,300823,,,A*46
$GPGGA,013603.750,4305.6920,N,07725.8368,W,1,06,1.36,151.2,M,-34.3,M,,*5A
$GPRMC,013604.000,A,4305.6918,N,07725.8368,W,0.09,183.61,300823,,,A*74
$GPGGA,013604.250,4305.6915,N,07725.8367,W,1,06,1.36,150.7,M,-34.3,M,,*55
$GPRMC,013604.500,A,4305.6913,N,07725.8366,W,0.17,157.67,300823,,,A*74
$GPGGA,013604.750,4305.6911,N,07725.8366,W,1,06,1.36,150.3,M,-34.3,M,,*51
$GPRMC,013605.000,A,4305.6910,N,07725.8365,W,0.11,143.99,300823,,,A*72
$GPGGA,013605.250,4305.6910,N,07725.8364,W,1,06,1.36,150.0,M,-34.3,M,,*55
$GPRMC,013605.500,A,4305.6909,N,07725.8364,W,0.12,140.27,300823,,,A*7B
$GPGGA,013605.750,4305.6908,N,07725.8363,W,1,06,1.36,149.9,M,-34.3,M,,*5F
$GPRMC,013606.000,A,4305.6907,N,07725.8362,W,0.09,106.49,300823,,,A*75
$GPGGA,013606.250,4305.6905,N,07725.8361,W,1,06,1.36,149.4,M,-34.3,M,,*5B
$GPRMC,013606.500,A,4305.6903,N,07725.8361,W,0.03,213.50,300823,,,A*72
$GPGGA,013606.750,4305.6901,N,07725.8360,W,1,06,1.36,149.1,M,-34.3,M,,*5E
$GPRMC,013607.000,A,4305.6899,N,07725.8360,W,0.03,198.60,300823,,,A*76
$GPGGA,013607.250,4305.6898,N,07725.8360,W,1,06,1.36,148.9,M,-34.3,M,,*52
$GPRMC,013607.500,A,4305.6896,N,07725.8359,W,0.04,193.13,300823,,,A*7E
$GPGGA,013607.750,4305.6894,N,07725.8359,W,1,06,1.36,148.9,M,-34.3,M,,*51
$GPRMC,013608.000,A,4305.6892,N,07725.8358,W,0.04,137.19,300823,,,A*75
$GPGGA,013608.250,4305.6890,N,07725.8358,W,1,06,1.36,148.8,M,-34.3,M,,*5F
$GPRMC,013608.500,A,4305.6888,N,07725.8358,W,0.03,121.56,300823,,,A*70
$GPGGA,013608.750,4305.6887,N,07725.8358,W,1,06,1.36,148.5,M,-34.3,M,,*51
$GPRMC,013609.000,A,4305.6885,N,07725.8358,W,0.03,173.31,300823,,,A*7F
$GPGGA,013609.250,4305.6884,N,07725.8358,W,1,06,1.36,148.2,M,-34.3,M,,*51
$GPRMC,013609.500,A,4305.6882,N,07725.8359,W,0.10,222.00,300823,,,A*7B
$GPGGA,013609.750,4305.6882,N,07725.8359,W,1,06,1.36,147.7,M,-34.3,M,,*59
$GPRMC,013610.000,A,4305.6881,N,07725.8359,W,0.02,308.68,300823,,,A*71
$GPGGA,013610.250,4305.6879,N,07725.8359,W,1,06,1.36,147.3,M,-34.3,M,,*54
$GPRMC,013610.500,A,4305.6879,N,07725.8359,W,0.05,93.08,300823,,,A*43
$GPGGA,013610.750,4305.6878,N,07725.8359,W,1,06,1.36,147.0,M,-34.3,M,,*53
$GPRMC,013611.000,A,4305.6877,N,07725.8359,W,0.06,92.41,300823,,,A*46
$GPGGA,013611.250,4305.6876,N,07725.8359,W,1,06,1.36,146.6,M,-34.3,M,,*5E
$GPRMC,013611.500,A,4305.6875,N,07725.8359,W,0.05,31.77,300823,,,A*4E
$GPGGA,013611.750,4305.6874,N,07725.8360,W,1,06,1.36,146.4,M,-34.3,M,,*51
$GPRMC,013612.000,A,4305.6874,N,07725.8360,W,0.18,335.70,300823,,,A*7F
$GPGGA,013612.250,4305.6874,N,07725.8360,W,1,06,1.36,146.3,M,-34.3,M,,*50
$GPRMC,013612.500,A,4305.6874,N,07725.8361,W,0.55,331.63,300823,,,A*74
$GPGGA,013612.750,4305.6874,N,07725.8362,W,1,06,1.36,146.2,M,-34.3,M,,*56
$GPRMC,013613.000,A,4305.6875,N,07725.8363,W,0.82,331.85,300823,,,A*71
$GPGGA,013613.250,4305.6876,N,07725.8364,W,1,06,1.36,146.2,M,-34.3,M,,*56
$GPRMC,013613.500,A,4305.6877,N,07725.8366,W,1.19,327.72,300823,,,A*7F
$GPGGA,013613.750,4305.6877,N,07725.8367,W,1,06,1.36,146.3,M,-34.3,M,,*50
$GPRMC,013614.000,A,4305.6878,N,07725.8368,W,1.27,326.69,300823,,,A*7A
$GPGGA,013614.250,4305.6879,N,07725.8369,W,1,06,1.36,146.4,M,-34.3,M,,*55
$GPRMC,013614.500,A,4305.6880,N,07725.8371,W,1.82,318.77,300823,,,A*7D
$GPGGA,013614.750,4305.6882,N,07725.8374,W,1,06,1.36,146.5,M,-34.3,M,,*59
$GPRMC,013615.000,A,4305.6883,N,07725.8376,W,2.33,315.07,300823,,,A*7E
$GPGGA,013615.250,4305.6885,N,07725.8378,W,1,06,1.36,146.7,M,-34.3,M,,*54
$GPRMC,013615.500,A,4305.6886,N,07725.8381,W,2.60,317.90,300823,,,A*7C
$GPGGA,013615.750,4305.6888,N,07725.8383,W,1,06,1.36,146.8,M,-34.3,M,,*57
$GPRMC,013616.000,A,4305.6890,N,07725.8385,W,2.59,318.33,300823,,,A*75
$GPGGA,013616.250,4305.6891,N,07725.8387,W,1,06,1.36,147.1,M,-34.3,M,,*55
$GPRMC,013616.500,A,4305.6893,N,07725.8390,W,2.64,317.40,300823,,,A*72
$GPGGA,013616.750,4305.6894,N,07725.8392,W,1,06,1.36,147.2,M,-34.3,M,,*52
$GPRMC,013617.000,A,4305.6895,N,07725.8394,W,2.53,315.51,300823,,,A*72
$GPGGA,013617.250,4305.6897,N,07725.8395,W,1,06,1.36,147.4,M,-34.3,M,,*54
$GPRMC,013617.500,A,4305.6898,N,07725.8397,W,1.99,317.11,300823,,,A*7A
$GPGGA,013617.750,4305.6899,N,07725.8398,W,1,06,1.36,147.4,M,-34.3,M,,*52
$GPRMC,013618.000,A,4305.6900,N,07725.8399,W,1.77,315.98,300823,,,A*7D
$GPGGA,013618.250,4305.6900,N,07725.8401,W,1,06,1.36,147.4,M,-34.3,M,,*5E
$GPRMC,013618.500,A,4305.6901,N,07725.8402,W,1.55,311.75,300823,,,A*7B
$GPGGA,013618.750,4305.6902,N,07725.8403,W,1,06,1.36,147.4,M,-34.3,M,,*5B
$GPRMC,013619.000,A,4305.6903,N,07725.8405,W,1.90,312.14,300823,,,A*77
$GPGGA,013619.250,4305.6904,N,07725.8406,W,1,06,1.36,147.4,M,-34.3,M,,*5C
$GPRMC,013619.500,A,4305.6905,N,07725.8407,W,1.82,314.12,300823,,,A*75
$GPGGA,013619.750,4305.6906,N,07725.8408,W,1,06,1.36,147.3,M,-34.3,M,,*52
$GPRMC,013620.000,A,4305.6906,N,07725.8409,W,0.96,319.10,300823,,,A*7C
$GPGGA,013620.250,4305.6906,N,07725.8409,W,1,06,1.36,147.3,M,-34.3,M,,*5C
$GPRMC,013620.500,A,4305.6906,N,07725.8409,W,0.32,319.98,300823,,,A*77
$GPGGA,013620.750,4305.6906,N,07725.8409,W,1,06,1.36,147.3,M,-34.3,M,,*59
$GPRMC,013621.000,A,4305.6906,N,07725.8410,W,0.10,286.06,300823,,,A*7B
$GPGGA,013621.250,4305.6906,N,07725.8410,W,1,06,1.36,147.3,M,-34.3,M,,*55
$GPRMC,013621.500,A,4305.6906,N,07725.8410,W,0.12,189.65,300823,,,A*75
$GPGGA,013621.750,4305.6905,N,07725.8411,W,1,06,1.36,147.3,M,-34.3,M,,*52
$GPRMC,013622.000,A,4305.6905,N,07725.8412,W,0.21,189.46,300823,,,A*73
$GPGGA,013622.250,4305.6905,N,07725.8412,W,1,06,1.36,147.3,M,-34.3,M,,*57
$GPRMC,013622.500,A,4305.6906,N,07725.8413,W,0.18,205.78,300823,,,A*74
$GPGGA,013622.750,4305.6906,N,07725.8413,W,1,06,1.36,147.3,M,-34.3,M,,*50
$GPRMC,013623.000,A,4305.6906,N,07725.8414,W,0.12,226.05,300823,,,A*76
$GPGGA,013623.250,4305.6906,N,07725.8414,W,1,06,1.36,147.3,M,-34.3,M,,*53
$GPRMC,013623.500,A,4305.6906,N,07725.8414,W,0.07,204.06,300823,,,A*74
$GPGGA,013623.750,4305.6907,N,07725.8415,W,1,06,1.36,147.2,M,-34.3,M,,*57
$GPRMC,013624.000,A,4305.6907,N,07725.8415,W,0.07,221.36,300823,,,A*72
$GPGGA,013624.250,4305.6907,N,07725.8416,W,1,06,1.36,147.3,M,-34.3,M,,*57
$GPRMC,013624.500,A,4305.6907,N,07725.8416,W,0.09,226.03,300823,,,A*7B
$GPGGA,013624.750,4305.6907,N,07725.8417,W,1,06,1.36,147.3,M,-34.3,M,,*53
$GPRMC,013625.000,A,4305.6907,N,07725.8417,W,0.08,225.35,300823,,,A*79
$GPGGA,013625.250,4305.6907,N,07725.8418,W,1,06,1.36,147.3,M,-34.3,M,,*58
$GPRMC,013625.500,A,4305.6907,N,07725.8418,W,0.09,212.80,300823,,,A*78
$GPGGA,013625.750,4305.6908,N,07725.8418,W,1,06,1.36,147.3,M,-34.3,M,,*52
$GPRMC,013626.000,A,4305.6908,N,07725.8419,W,0.12,265.71,300823,,,A*74
$GPGGA,013626.250,4305.6908,N,07725.8419,W,1,06,1.36,147.2,M,-34.3,M,,*54
$GPRMC,013626.500,A,4305.6908,N,07725.8420,W,0.04,97.17,300823,,,A*43
$GPGGA,013626.750,4305.6908,N,07725.8420,W,1,06,1.36,147.2,M,-34.3,M,,*5B
$GPRMC,013627.000,A,4305.6908,N,07725.8421,W,0.03,112.81,300823,,,A*72
$GPGGA,013627.250,4305.6908,N,07725.8421,W,1,06,1.36,147.3,M,-34.3,M,,*5F
$GPRMC,013627.500,A,4305.6908,N,07725.8422,W,0.09,47.02,300823,,,A*44
$GPGGA,013627.750,4305.6908,N,07725.8422,W,1,06,1.36,147.3,M,-34.3,M,,*59
$GPRMC,013628.000,A,4305.6908,N,07725.8422,W,0.05,130.85,300823,,,A*7C
$GPGGA,013628.250,4305.6908,N,07725.8423,W,1,06,1.36,147.3,M,-34.3,M,,*52
$GPRMC,013628.500,A,4305.6908,N,07725.8423,W,0.10,173.34,300823,,,A*71
$GPGGA,013628.750,4305.6908,N,07725.8424,W,1,06,1.36,147.3,M,-34.3,M,,*50
$GPRMC,013629.000,A,4305.6908,N,07725.8424,W,0.05,69.98,300823,,,A*4A
$GPGGA,013629.250,4305.6908,N,07725.8425,W,1,06,1.36,147.5,M,-34.3,M,,*53
$GPRMC,013629.500,A,4305.6908,N,07725.8425,W,0.04,94.45,300823,,,A*4D
$GPGGA,013629.750,4305.6908,N,07725.8426,W,1,06,1.36,147.7,M,-34.3,M,,*57
$GPRMC,013630.000,A,4305.6908,N,07725.8426,W,0.05,264.58,300823,,,A*73
$GPGGA,013630.250,4305.6908,N,07725.8427,W,1,06,1.36,147.9,M,-34.3,M,,*55
$GPRMC,013630.500,A,4305.6908,N,07725.8427,W,0.04,233.28,300823,,,A*73
$GPGGA,013630.750,4305.6908,N,07725.8428,W,1,06,1.36,148.0,M,-34.3,M,,*59
$GPRMC,013631.000,A,4305.6908,N,07725.8428,W,0.05,108.82,300823,,,A*72
$GPGGA,013631.250,4305.6908,N,07725.8428,W,1,06,1.36,148.1,M,-34.3,M,,*5C
$GPRMC,013631.500,A,4305.6908,N,07725.8428,W,0.04,136.38,300823,,,A*7A
$GPGGA,013631.750,4305.6908,N,07725.8429,W,1,06,1.36,148.2,M,-34.3,M,,*5B
$GPRMC,013632.000,A,4305.6908,N,07725.8429,W,0.06,131.35,300823,,,A*75
$GPGGA,013632.250,4305.6908,N,07725.8428,W,1,07,1.29,148.1,M,-34.3,M,,*50
$GPRMC,013632.500,A,4305.6908,N,07725.8427,W,0.11,135.74,300823,,,A*79
$GPGGA,013632.750,4305.6908,N,07725.8426,W,1,07,1.29,148.1,M,-34.3,M,,*5B
$GPRMC,013633.000,A,4305.6908,N,07725.8426,W,0.02,43.95,300823,,,A*41
$GPGGA,013633.250,4305.6908,N,07725.8425,W,1,07,1.29,148.0,M,-34.3,M,,*5D
$GPRMC,013633.500,A,4305.6907,N,07725.8424,W,0.05,172.34,300823,,,A*76
$GPGGA,013633.750,4305.6907,N,07725.8424,W,1,07,1.29,148.0,M,-34.3,M,,*56
$GPRMC,013634.000,A,4305.6907,N,07725.8423,W,0.09,89.17,300823,,,A*4B
$GPGGA,013634.250,4305.6907,N,07725.8423,W,1,07,1.29,147.9,M,-34.3,M,,*55
$GPRMC,013634.500,A,4305.6907,N,07725.8423,W,0.03,259.45,300823,,,A*7C
$GPGGA,013634.750,4305.6906,N,07725.8422,W,1,07,1.29,147.9,M,-34.3,M,,*50
$GPRMC,013635.000,A,4305.6906,N,07725.8422,W,0.13,323.46,300823,,,A*76
$GPGGA,013635.250,4305.6906,N,07725.8422,W,1,07,1.29,147.9,M,-34.3,M,,*54
$GPRMC,013635.500,A,4305.6906,N,07725.8422,W,0.05,288.51,300823,,,A*72
$GPGGA,013635.750,4305.6906,N,07725.8422,W,1,07,1.29,147.9,M,-34.3,M,,*51
$GPRMC,013636.000,A,4305.6906,N,07725.8422,W,0.02,191.01,300823,,,A*7D
$GPGGA,013636.250,4305.6906,N,07725.8422,W,1,07,1.29,147.9,M,-34.3,M,,*57
$GPRMC,013636.500,A,4305.6906,N,07725.8422,W,0.17,77.12,300823,,,A*47
$GPGGA,013636.750,4305.6906,N,07725.8422,W,1,07,1.29,147.9,M,-34.3,M,,*52
$GPRMC,013637.000,A,4305.6906,N,07725.8422,W,0.26,110.97,300823,,,A*7C
$GPGGA,013637.250,4305.6906,N,07725.8421,W,1,07,1.29,147.9,M,-34.3,M,,*55
$GPRMC,013637.500,A,4305.6906,N,07725.8421,W,0.37,124.52,300823,,,A*74
$GPGGA,013637.750,4305.6906,N,07725.8421,W,1,07,1.29,147.9,M,-34.3,M,,*50
$GPRMC,013638.000,A,4305.6906,N,07725.8420,W,0.51,116.91,300823,,,A*71
$GPGGA,013638.250,4305.6905,N,07725.8420,W,1,07,1.29,147.9,M,-34.3,M,,*58
$GPRMC,013638.500,A,4305.6905,N,07725.8417,W,1.65,107.62,300823,,,A*79
$GPGGA,013638.750,4305.6904,N,07725.8415,W,1,07,1.29,147.8,M,-34.3,M,,*5B
$GPRMC,013639.000,A,4305.6904,N,07725.8413,W,1.85,109.92,300823,,,A*77
$GPGGA,013639.250,4305.6903,N,07725.8411,W,1,07,1.29,147.6,M,-34.3,M,,*52
$GPRMC,013639.500,A,4305.6903,N,07725.8409,W,1.65,113.48,300823,,,A*7C
$GPGGA,013639.750,4305.6902,N,07725.8408,W,1,07,1.29,147.5,M,-34.3,M,,*5D
$GPRMC,013640.000,A,4305.6902,N,07725.8407,W,1.22,141.88,300823,,,A*70
$GPGGA,013640.250,4305.6901,N,07725.8406,W,1,07,1.29,147.3,M,-34.3,M,,*5D
$GPRMC,013640.500,A,4305.6901,N,07725.8404,W,0.91,137.68,300823,,,A*73
$GPGGA,013640.750,4305.6901,N,07725.8403,W,1,07,1.29,147.2,M,-34.3,M,,*5C
$GPRMC,013641.000,A,4305.6900,N,07725.8400,W,1.07,130.20,300823,,,A*77
$GPGGA,013641.250,4305.6900,N,07725.8398,W,1,07,1.29,147.1,M,-34.3,M,,*5F
$GPRMC,013641.500,A,4305.6899,N,07725.8397,W,1.23,135.71,300823,,,A*7D
$GPGGA,013641.750,4305.6898,N,07725.8396,W,1,07,1.29,147.0,M,-34.3,M,,*55
$GPRMC,013642.000,A,4305.6897,N,07725.8396,W,1.18,148.24,300823,,,A*76
$GPGGA,013642.250,4305.6896,N,07725.8396,W,1,07,1.29,146.9,M,-34.3,M,,*55
$GPRMC,013642.500,A,4305.6894,N,07725.8394,W,1.26,154.54,300823,,,A*75
$GPGGA,013642.750,4305.6892,N,07725.8393,W,1,07,1.29,146.8,M,-34.3,M,,*50
$GPRMC,013643.000,A,4305.6891,N,07725.8392,W,1.57,158.60,300823,,,A*7F
$GPGGA,013643.250,4305.6889,N,07725.8390,W,1,07,1.29,146.9,M,-34.3,M,,*5C
$GPRMC,013643.500,A,4305.6887,N,07725.8388,W,1.80,156.07,300823,,,A*73
$GPGGA,013643.750,4305.6885,N,07725.8385,W,1,07,1.29,146.9,M,-34.3,M,,*51
$GPRMC,013644.000,A,4305.6883,N,07725.8382,W,2.22,143.71,300823,,,A*71
$GPGGA,013644.250,4305.6881,N,07725.8380,W,1,07,1.29,146.9,M,-34.3,M,,*52
$GPRMC,013644.500,A,4305.6879,N,07725.8378,W,2.53,143.82,300823,,,A*7E
$GPGGA,013644.750,4305.6878,N,07725.8376,W,1,07,1.29,147.0,M,-34.3,M,,*50
$GPRMC,013645.000,A,4305.6877,N,07725.8375,W,1.92,141.15,300823,,,A*7B
$GPGGA,013645.250,4305.6877,N,07725.8374,W,1,07,1.29,147.1,M,-34.3,M,,*58
$GPRMC,013645.500,A,4305.6877,N,07725.8374,W,0.63,181.82,300823,,,A*72
$GPGGA,013645.750,4305.6877,N,07725.8373,W,1,07,1.29,147.2,M,-34.3,M,,*59
$GPRMC,013646.000,A,4305.6876,N,07725.8370,W,0.67,138.35,300823,,,A*7B
$GPGGA,013646.250,4305.6875,N,07725.8368,W,1,07,1.29,147.2,M,-34.3,M,,*57
$GPRMC,013646.500,A,4305.6874,N,07725.8367,W,0.81,141.28,300823,,,A*70
$GPGGA,013646.750,4305.6874,N,07725.8366,W,1,07,1.29,147.3,M,-34.3,M,,*5C
$GPRMC,013647.000,A,4305.6874,N,07725.8365,W,0.62,138.79,300823,,,A*71
$GPGGA,013647.250,4305.6874,N,07725.8364,W,1,07,1.29,147.4,M,-34.3,M,,*5D
$GPRMC,013647.500,A,4305.6874,N,07725.8364,W,0.39,150.16,300823,,,A*7C
$GPGGA,013647.750,4305.6874,N,07725.8364,W,1,07,1.29,147.6,M,-34.3,M,,*5A
$GPRMC,013648.000,A,4305.6874,N,07725.8363,W,0.33,160.13,300823,,,A*7D
$GPGGA,013648.250,4305.6874,N,07725.8362,W,1,07,1.29,147.7,M,-34.3,M,,*57
$GPRMC,013648.500,A,4305.6874,N,07725.8362,W,0.26,162.65,300823,,,A*7E
$GPGGA,013648.750,4305.6874,N,07725.8361,W,1,07,1.29,147.8,M,-34.3,M,,*5E
$GPRMC,013649.000,A,4305.6873,N,07725.8360,W,0.30,169.61,300823,,,A*77
$GPGGA,013649.250,4305.6873,N,07725.8360,W,1,07,1.29,147.8,M,-34.3,M,,*5C
$GPRMC,013649.500,A,4305.6873,N,07725.8360,W,0.17,208.97,300823,,,A*7A
$GPGGA,013649.750,4305.6873,N,07725.8360,W,1,07,1.29,147.9,M,-34.3,M,,*58
$GPRMC,013650.000,A,4305.6874,N,07725.8359,W,0.13,188.83,300823,,,A*70
$GPGGA,013650.250,4305.6873,N,07725.8359,W,1,06,1.44,148.0,M,-34.3,M,,*53
$GPRMC,013650.500,A,4305.6874,N,07725.8358,W,0.14,210.29,300823,,,A*71
$GPGGA,013650.750,4305.6874,N,07725.8359,W,1,06,1.44,148.0,M,-34.3,M,,*51
$GPRMC,013651.000,A,4305.6874,N,07725.8359,W,0.11,202.29,300823,,,A*72
$GPGGA,013651.250,4305.6874,N,07725.8359,W,1,07,1.29,148.0,M,-34.3,M,,*5F
$GPRMC,013651.500,A,4305.6873,N,07725.8359,W,0.16,235.22,300823,,,A*78
$GPGGA,013651.750,4305.6873,N,07725.8359,W,1,07,1.29,148.0,M,-34.3,M,,*5D
$GPRMC,013652.000,A,4305.6873,N,07725.8359,W,0.13,245.96,300823,,,A*73
$GPGGA,013652.250,4305.6873,N,07725.8359,W,1,07,1.29,148.0,M,-34.3,M,,*5B
$GPRMC,013652.500,A,4305.6873,N,07725.8359,W,0.12,208.86,300823,,,A*7F
$GPGGA,013652.750,4305.6873,N,07725.8359,W,1,07,1.29,148.0,M,-34.3,M,,*5E
$GPRMC,013653.000,A,4305.6873,N,07725.8359,W,0.16,208.93,300823,,,A*7B
$GPGGA,013653.250,4305.6873,N,07725.8359,W,1,07,1.29,148.0,M,-34.3,M,,*5A
$GPRMC,013653.500,A,4305.6873,N,07725.8359,W,0.15,269.34,300823,,,A*77
$GPGGA,013653.750,4305.6873,N,07725.8360,W,1,07,1.29,148.0,M,-34.3,M,,*55
$GPRMC,013654.000,A,4305.6873,N,07725.8360,W,0.08,247.50,300823,,,A*7D
$GPGGA,013654.250,4305.6873,N,07725.8360,W,1,07,1.29,148.1,M,-34.3,M,,*56
$GPRMC,013654.500,A,4305.6873,N,07725.8360,W,0.17,239.68,300823,,,A*74
$GPGGA,013654.750,4305.6873,N,07725.8360,W,1,07,1.29,148.1,M,-34.3,M,,*53
$GPRMC,013655.000,A,4305.6873,N,07725.8360,W,0.12,218.46,300823,,,A*7A
$GPGGA,013655.250,4305.6873,N,07725.8360,W,1,07,1.29,148.1,M,-34.3,M,,*57
$GPRMC,013655.500,A,4305.6873,N,07725.8360,W,0.05,178.44,300823,,,A*7E
$GPGGA,013655.750,4305.6873,N,07725.8360,W,1,07,1.29,148.1,M,-34.3,M,,*52
$GPRMC,013656.000,A,4305.6873,N,07725.8360,W,0.04,82.16,300823,,,A*4A
$GPGGA,013656.250,4305.6873,N,07725.8360,W,1,07,1.29,148.1,M,-34.3,M,,*54
$GPRMC,013656.500,A,4305.6873,N,07725.8360,W,0.07,346.55,300823,,,A*70
$GPGGA,013656.750,4305.6873,N,07725.8360,W,1,07,1.45,148.1,M,-34.3,M,,*5B
$GPRMC,013657.000,A,4305.6873,N,07725.8360,W,0.05,60.55,300823,,,A*41
$GPGGA,013657.250,4305.6873,N,07725.8360,W,1,07,1.29,148.1,M,-34.3,M,,*55
$GPRMC,013657.500,A,4305.6873,N,07725.8360,W,0.09,54.01,300823,,,A*4E
$GPGGA,013657.750,4305.6873,N,07725.8360,W,1,07,1.29,148.1,M,-34.3,M,,*50
$GPRMC,013658.000,A,4305.6873,N,07725.8360,W,0.19,44.27,300823,,,A*40
$GPGGA,013658.250,4305.6873,N,07725.8360,W,1,06,1.44,148.1,M,-34.3,M,,*50
$GPRMC,013658.500,A,4305.6873,N,07725.8359,W,0.13,76.65,300823,,,A*42
$GPGGA,013658.750,4305.6873,N,07725.8359,W,1,06,1.44,148.1,M,-34.3,M,,*5F
$GPRMC,013659.000,A,4305.6873,N,07725.8359,W,0.13,90.85,300823,,,A*40
$GPGGA,013659.250,4305.6873,N,07725.8359,W,1,06,1.44,148.1,M,-34.3,M,,*5B
$GPRMC,013659.500,A,4305.6873,N,07725.8359,W,0.12,75.56,300823,,,A*41
$GPGGA,013659.750,4305.6873,N,07725.8359,W,1,06,1.44,148.1,M,-34.3,M,,*5E
$GPRMC,013700.000,A,4305.6873,N,07725.8359,W,0.15,92.79,300823,,,A*4A
$GPGGA,013700.250,4305.6873,N,07725.8358,W,1,06,1.44,148.1,M,-34.3,M,,*57
$GPRMC,013700.500,A,4305.6873,N,07725.8358,W,0.16,113.05,300823,,,A*7E
$GPGGA,013700.750,4305.6873,N,07725.8358,W,1,06,1.44,148.1,M,-34.3,M,,*52
$GPRMC,013701.000,A,4305.6873,N,07725.8358,W,0.11,111.18,300823,,,A*73
$GPGGA,013701.250,4305.6873,N,07725.8358,W,1,06,1.44,148.1,M,-34.3,M,,*56
$GPRMC,013701.500,A,4305.6873,N,07725.8358,W,0.05,119.12,300823,,,A*71
$GPGGA,013701.750,4305.6873,N,07725.8358,W,1,06,1.44,148.1,M,-34.3,M,,*53
$GPRMC,013702.000,A,4305.6873,N,07725.8358,W,0.02,340.09,300823,,,A*74
$GPGGA,013702.250,4305.6873,N,07725.8358,W,1,06,1.44,148.1,M,-34.3,M,,*55
$GPRMC,013702.500,A,4305.6873,N,07725.8358,W,0.02,124.50,300823,,,A*7D
$GPGGA,013702.750,4305.6873,N,07725.8358,W,1,06,1.44,148.1,M,-34.3,M,,*50
$GPRMC,013703.000,A,4305.6873,N,07725.8358,W,0.14,142.20,300823,,,A*79
$GPGGA,013703.250,4305.6873,N,07725.8358,W,1,06,1.44,148.1,M,-34.3,M,,*54
$GPRMC,013703.500,A,4305.6873,N,07725.8358,W,0.15,149.71,300823,,,A*72
$GPGGA,013703.750,4305.6872,N,07725.8358,W,1,06,1.44,148.1,M,-34.3,M,,*50
$GPRMC,013704.000,A,4305.6872,N,07725.8357,W,0.10,176.40,300823,,,A*75
$GPGGA,013704.250,4305.6872,N,07725.8357,W,1,07,1.29,148.1,M,-34.3,M,,*57
$GPRMC,013704.500,A,4305.6872,N,07725.8358,W,0.22,257.47,300823,,,A*79
$GPGGA,013704.750,4305.6872,N,07725.8358,W,1,07,1.29,148.1,M,-34.3,M,,*5D
$GPRMC,013705.000,A,4305.6872,N,07725.8358,W,0.25,256.23,300823,,,A*79
$GPGGA,013705.250,4305.6872,N,07725.8358,W,1,07,1.29,148.1,M,-34.3,M,,*59
$GPRMC,013705.500,A,4305.6872,N,07725.8358,W,0.28,253.81,300823,,,A*7C
$GPGGA,013705.750,4305.6872,N,07725.8359,W,1,07,1.29,148.1,M,-34.3,M,,*5D
$GPRMC,013706.000,A,4305.6872,N,07725.8359,W,0.22,252.14,300823,,,A*7C
$GPGGA,013706.250,4305.6872,N,07725.8359,W,1,07,1.29,148.1,M,-34.3,M,,*5B
$GPRMC,013706.500,A,4305.6872,N,07725.8359,W,0.23,252.10,300823,,,A*7C
$GPGGA,013706.750,4305.6872,N,07725.8359,W,1,07,1.29,148.1,M,-34.3,M,,*5E
$GPRMC,013707.000,A,4305.6872,N,07725.8360,W,0.34,252.09,300823,,,A*7C
$GPGGA,013707.250,4305.6871,N,07725.8360,W,1,07,1.29,148.1,M,-34.3,M,,*53
$GPRMC,013707.500,A,4305.6871,N,07725.8360,W,0.44,249.74,300823,,,A*7D
$GPGGA,013707.750,4305.6871,N,07725.8361,W,1,07,1.29,148.1,M,-34.3,M,,*57
$GPRMC,013708.000,A,4305.6871,N,07725.8361,W,0.52,249.27,300823,,,A*77
$GPGGA,013708.250,4305.6871,N,07725.8362,W,1,07,1.29,148.1,M,-34.3,M,,*5E
$GPRMC,013708.500,A,4305.6871,N,07725.8362,W,0.58,250.27,300823,,,A*73
$GPGGA,013708.750,4305.6871,N,07725.8363,W,1,07,1.29,148.1,M,-34.3,M,,*5A
$GPRMC,013709.000,A,4305.6870,N,07725.8364,W,0.78,250.49,300823,,,A*7A
$GPGGA,013709.250,4305.6868,N,07725.8365,W,1,07,1.29,148.1,M,-34.3,M,,*50
$GPRMC,013709.500,A,4305.6867,N,07725.8366,W,0.96,236.14,300823,,,A*73
$GPGGA,013709.750,4305.6866,N,07725.8366,W,1,07,1.29,148.1,M,-34.3,M,,*58
$GPRMC,013710.000,A,4305.6866,N,07725.8367,W,1.00,237.57,300823,,,A*76
$GPGGA,013710.250,4305.6864,N,07725.8369,W,1,07,1.29,148.1,M,-34.3,M,,*58
$GPRMC,013710.500,A,4305.6863,N,07725.8371,W,1.20,233.61,300823,,,A*72
$GPGGA,013710.750,4305.6861,N,07725.8373,W,1,07,1.29,148.2,M,-34.3,M,,*50
$GPRMC,013711.000,A,4305.6860,N,07725.8375,W,1.38,231.47,300823,,,A*7E
$GPGGA,013711.250,4305.6859,N,07725.8375,W,1,07,1.29,148.3,M,-34.3,M,,*58
$GPRMC,013711.500,A,4305.6858,N,07725.8376,W,1.30,228.71,300823,,,A*76
$GPGGA,013711.750,4305.6857,N,07725.8376,W,1,07,1.29,148.2,M,-34.3,M,,*51
$GPRMC,013712.000,A,4305.6856,N,07725.8377,W,1.24,225.12,300823,,,A*72
$GPGGA,013712.250,4305.6855,N,07725.8377,W,1,07,1.29,148.2,M,-34.3,M,,*54
$GPRMC,013712.500,A,4305.6854,N,07725.8377,W,1.12,219.32,300823,,,A*7D
$GPGGA,013712.750,4305.6853,N,07725.8377,W,1,07,1.29,148.2,M,-34.3,M,,*57
$GPRMC,013713.000,A,4305.6854,N,07725.8377,W,0.92,218.77,300823,,,A*70
$GPGGA,013713.250,4305.6854,N,07725.8377,W,1,07,1.29,148.2,M,-34.3,M,,*54
$GPRMC,013713.500,A,4305.6854,N,07725.8375,W,0.51,196.89,300823,,,A*7C
$GPGGA,013713.750,4305.6854,N,07725.8375,W,1,07,1.29,148.2,M,-34.3,M,,*53
$GPRMC,013714.000,A,4305.6855,N,07725.8375,W,0.33,183.14,300823,,,A*7B
$GPGGA,013714.250,4305.6856,N,07725.8374,W,1,07,1.29,148.2,M,-34.3,M,,*52
$GPRMC,013714.500,A,4305.6857,N,07725.8373,W,0.17,80.79,300823,,,A*45
$GPGGA,013714.750,4305.6858,N,07725.8373,W,1,07,1.29,148.3,M,-34.3,M,,*5F
$GPRMC,013715.000,A,4305.6860,N,07725.8374,W,0.36,0.75,300823,,,A*75
$GPGGA,013715.250,4305.6863,N,07725.8374,W,1,07,1.45,148.3,M,-34.3,M,,*5E
$GPRMC,013715.500,A,4305.6865,N,07725.8374,W,0.96,356.97,300823,,,A*73
$GPGGA,013715.750,4305.6866,N,07725.8373,W,1,07,1.45,148.4,M,-34.3,M,,*5E
$GPRMC,013716.000,A,4305.6868,N,07725.8373,W,1.20,358.55,300823,,,A*73
$GPGGA,013716.250,4305.6871,N,07725.8373,W,1,07,1.45,148.5,M,-34.3,M,,*5F
$GPRMC,013716.500,A,4305.6875,N,07725.8373,W,1.81,0.74,300823,,,A*7C
$GPGGA,013716.750,4305.6878,N,07725.8373,W,1,07,1.45,148.6,M,-34.3,M,,*50
$GPRMC,013717.000,A,4305.6881,N,07725.8373,W,3.13,356.54,300823,,,A*78
$GPGGA,013717.250,4305.6883,N,07725.8373,W,1,07,1.45,148.7,M,-34.3,M,,*51
$GPRMC,013717.500,A,4305.6886,N,07725.8373,W,3.67,356.95,300823,,,A*74
$GPGGA,013717.750,4305.6889,N,07725.8372,W,1,07,1.45,148.7,M,-34.3,M,,*5F
$GPRMC,013718.000,A,4305.6892,N,07725.8372,W,4.02,355.43,300823,,,A*76
$GPGGA,013718.250,4305.6895,N,07725.8373,W,1,07,1.45,148.7,M,-34.3,M,,*59
$GPRMC,013718.500,A,4305.6900,N,07725.8373,W,5.11,351.84,300823,,,A*74
$GPGGA,013718.750,4305.6904,N,07725.8373,W,1,07,1.45,148.8,M,-34.3,M,,*5A
$GPRMC,013719.000,A,4305.6909,N,07725.8374,W,5.92,355.03,300823,,,A*7E
$GPGGA,013719.250,4305.6913,N,07725.8373,W,1,07,1.45,148.8,M,-34.3,M,,*58
$GPRMC,013719.500,A,4305.6918,N,07725.8373,W,6.40,0.20,300823,,,A*72
$GPGGA,013719.750,4305.6922,N,07725.8373,W,1,07,1.45,148.8,M,-34.3,M,,*5F
$GPRMC,013720.000,A,4305.6926,N,07725.8372,W,6.26,1.10,300823,,,A*73
$GPGGA,013720.250,4305.6930,N,07725.8371,W,1,08,1.23,148.8,M,-34.3,M,,*5E
$GPRMC,013720.500,A,4305.6935,N,07725.8370,W,6.31,9.84,300823,,,A*75
$GPGGA,013720.750,4305.6940,N,07725.8368,W,1,08,1.23,148.8,M,-34.3,M,,*54
$GPRMC,013721.000,A,4305.6945,N,07725.8366,W,6.71,12.70,300823,,,A*44
$GPGGA,013721.250,4305.6949,N,07725.8364,W,1,08,1.23,148.8,M,-34.3,M,,*55
$GPRMC,013721.500,A,4305.6952,N,07725.8363,W,6.15,13.53,300823,,,A*40
$GPGGA,013721.750,4305.6956,N,07725.8362,W,1,08,1.23,148.8,M,-34.3,M,,*58
$GPRMC,013722.000,A,4305.6960,N,07725.8361,W,5.72,7.79,300823,,,A*7A
$GPGGA,013722.250,4305.6965,N,07725.8361,W,1,08,1.23,148.8,M,-34.3,M,,*5D
$GPRMC,013722.500,A,4305.6970,N,07725.8361,W,6.07,355.87,300823,,,A*7A
$GPGGA,013722.750,4305.6974,N,07725.8361,W,1,08,1.23,148.8,M,-34.3,M,,*58
$GPRMC,013723.000,A,4305.6979,N,07725.8362,W,6.36,343.27,300823,,,A*7B
$GPGGA,013723.250,4305.6985,N,07725.8365,W,1,08,1.23,148.7,M,-34.3,M,,*59
$GPRMC,013723.500,A,4305.6990,N,07725.8368,W,8.14,333.88,300823,,,A*7F
$GPGGA,013723.750,4305.6995,N,07725.8372,W,1,08,1.23,148.8,M,-34.3,M,,*54
$GPRMC,013724.000,A,4305.7000,N,07725.8376,W,8.81,325.24,300823,,,A*7E
$GPGGA,013724.250,4305.7003,N,07725.8380,W,1,08,1.23,148.4,M,-34.3,M,,*50
$GPRMC,013724.500,A,4305.7006,N,07725.8385,W,7.81,311.57,300823,,,A*7D
$GPGGA,013724.750,4305.7009,N,07725.8390,W,1,08,1.23,148.2,M,-34.3,M,,*58
$GPRMC,013725.000,A,4305.7013,N,07725.8394,W,7.50,308.72,300823,,,A*7E
$GPGGA,013725.250,4305.7016,N,07725.8399,W,1,08,1.23,148.2,M,-34.3,M,,*5B
$GPRMC,013725.500,A,4305.7020,N,07725.8404,W,7.80,310.31,300823,,,A*76
$GPGGA,013725.750,4305.7023,N,07725.8409,W,1,08,1.23,148.0,M,-34.3,M,,*54
$GPRMC,013726.000,A,4305.7026,N,07725.8414,W,7.25,306.40,300823,,,A*79
$GPGGA,013726.250,4305.7029,N,07725.8420,W,1,08,1.23,147.9,M,-34.3,M,,*55
$GPRMC,013726.500,A,4305.7031,N,07725.8425,W,7.05,305.24,300823,,,A*7B
$GPGGA,013726.750,4305.7034,N,07725.8430,W,1,08,1.23,147.8,M,-34.3,M,,*5C
$GPRMC,013727.000,A,4305.7038,N,07725.8435,W,6.85,305.21,300823,,,A*7B
$GPGGA,013727.250,4305.7040,N,07725.8440,W,1,08,1.23,147.6,M,-34.3,M,,*52
$GPRMC,013727.500,A,4305.7044,N,07725.8444,W,6.64,308.47,300823,,,A*71
$GPGGA,013727.750,4305.7048,N,07725.8449,W,1,07,1.47,147.5,M,-34.3,M,,*58
$GPRMC,013728.000,A,4305.7050,N,07725.8454,W,6.46,306.81,300823,,,A*7B
$GPGGA,013728.250,4305.7053,N,07725.8458,W,1,08,1.23,147.4,M,-34.3,M,,*54
$GPRMC,013728.500,A,4305.7055,N,07725.8463,W,5.93,306.88,300823,,,A*7D
$GPGGA,013728.750,4305.7057,N,07725.8467,W,1,08,1.16,147.4,M,-34.3,M,,*5F
$GPRMC,013729.000,A,4305.7059,N,07725.8471,W,5.67,306.40,300823,,,A*79
$GPGGA,013729.250,4305.7061,N,07725.8476,W,1,08,1.23,147.4,M,-34.3,M,,*58
$GPRMC,013729.500,A,4305.7063,N,07725.8481,W,5.83,303.93,300823,,,A*7B
$GPGGA,013729.750,4305.7066,N,07725.8485,W,1,08,1.23,147.3,M,-34.3,M,,*51
$GPRMC,013730.000,A,4305.7068,N,07725.8490,W,5.82,305.52,300823,,,A*77
$GPGGA,013730.250,4305.7071,N,07725.8495,W,1,08,1.23,147.3,M,-34.3,M,,*5B
$GPRMC,013730.500,A,4305.7073,N,07725.8500,W,6.02,304.89,300823,,,A*7C
$GPGGA,013730.750,4305.7075,N,07725.8505,W,1,08,1.23,147.3,M,-34.3,M,,*52
$GPRMC,013731.000,A,4305.7079,N,07725.8510,W,6.32,307.03,300823,,,A*71
$GPGGA,013731.250,4305.7081,N,07725.8516,W,1,08,1.23,147.3,M,-34.3,M,,*5F
$GPRMC,013731.500,A,4305.7084,N,07725.8521,W,6.18,305.26,300823,,,A*79
$GPGGA,013731.750,4305.7086,N,07725.8526,W,1,08,1.23,147.3,M,-34.3,M,,*5E
$GPRMC,013732.000,A,4305.7089,N,07725.8531,W,5.81,304.74,300823,,,A*76
$GPGGA,013732.250,4305.7091,N,07725.8536,W,1,08,1.23,147.3,M,-34.3,M,,*5F
$GPRMC,013732.500,A,4305.7093,N,07725.8540,W,5.34,302.35,300823,,,A*73
$GPGGA,013732.750,4305.7095,N,07725.8545,W,1,08,1.23,147.3,M,-34.3,M,,*5A
$GPRMC,013733.000,A,4305.7099,N,07725.8549,W,5.57,309.58,300823,,,A*71
$GPGGA,013733.250,4305.7102,N,07725.8554,W,1,08,1.23,147.2,M,-34.3,M,,*50
$GPRMC,013733.500,A,4305.7105,N,07725.8558,W,5.91,309.04,300823,,,A*73
$GPGGA,013733.750,4305.7108,N,07725.8563,W,1,08,1.23,147.3,M,-34.3,M,,*5A
$GPRMC,013734.000,A,4305.7111,N,07725.8567,W,5.99,310.15,300823,,,A*78
$GPGGA,013734.250,4305.7114,N,07725.8572,W,1,08,1.23,147.4,M,-34.3,M,,*52
$GPRMC,013734.500,A,4305.7117,N,07725.8577,W,5.81,307.34,300823,,,A*76
$GPGGA,013734.750,4305.7119,N,07725.8582,W,1,08,1.23,147.5,M,-34.3,M,,*54
$GPRMC,013735.000,A,4305.7122,N,07725.8587,W,5.96,306.48,300823,,,A*77
$GPGGA,013735.250,4305.7124,N,07725.8592,W,1,08,1.23,147.5,M,-34.3,M,,*5F
$GPRMC,013735.500,A,4305.7127,N,07725.8598,W,6.32,304.46,300823,,,A*78
$GPGGA,013735.750,4305.7130,N,07725.8603,W,1,08,1.23,147.5,M,-34.3,M,,*54
$GPRMC,013736.000,A,4305.7134,N,07725.8609,W,6.60,307.44,300823,,,A*71
$GPGGA,013736.250,4305.7137,N,07725.8616,W,1,08,1.23,147.5,M,-34.3,M,,*51
$GPRMC,013736.500,A,4305.7141,N,07725.8622,W,7.56,304.68,300823,,,A*76
$GPGGA,013736.750,4305.7146,N,07725.8628,W,1,08,1.23,147.6,M,-34.3,M,,*5C
$GPRMC,013737.000,A,4305.7150,N,07725.8634,W,7.88,310.75,300823,,,A*7F
$GPGGA,013737.250,4305.7159,N,07725.8637,W,1,08,1.23,148.1,M,-34.3,M,,*50
$GPRMC,013737.500,A,4305.7168,N,07725.8641,W,8.62,309.65,300823,,,A*71
$GPGGA,013737.750,4305.7177,N,07725.8646,W,1,08,1.23,149.0,M,-34.3,M,,*5F
$GPRMC,013738.000,A,4305.7185,N,07725.8651,W,9.27,309.59,300823,,,A*76
$GPGGA,013738.250,4305.7193,N,07725.8656,W,1,08,1.23,149.3,M,-34.3,M,,*5D
$GPRMC,013738.500,A,4305.7202,N,07725.8663,W,10.11,310.15,300823,,,A*43
$GPGGA,013738.750,4305.7208,N,07725.8669,W,1,08,1.16,149.6,M,-34.3,M,,*56
$GPRMC,013739.000,A,4305.7215,N,07725.8675,W,10.21,310.63,300823,,,A*44
$GPGGA,013739.250,4305.7222,N,07725.8682,W,1,08,1.23,149.8,M,-34.3,M,,*57
$GPRMC,013739.500,A,4305.7229,N,07725.8691,W,10.92,310.43,300823,,,A*4E
$GPGGA,013739.750,4305.7235,N,07725.8699,W,1,08,1.16,150.0,M,-34.3,M,,*58
$GPRMC,013740.000,A,4305.7241,N,07725.8707,W,11.23,309.71,300823,,,A*47
$GPGGA,013740.250,4305.7248,N,07725.8716,W,1,08,1.23,150.3,M,-34.3,M,,*5A
$GPRMC,013740.500,A,4305.7255,N,07725.8724,W,11.67,309.56,300823,,,A*43
$GPGGA,013740.750,4305.7261,N,07725.8732,W,1,08,1.16,150.6,M,-34.3,M,,*51
$GPRMC,013741.000,A,4305.7267,N,07725.8742,W,12.17,308.51,300823,,,A*44
$GPGGA,013741.250,4305.7274,N,07725.8752,W,1,08,1.23,150.8,M,-34.3,M,,*5F
$GPRMC,013741.500,A,4305.7281,N,07725.8763,W,13.21,308.78,300823,,,A*45
$GPGGA,013741.750,4305.7287,N,07725.8773,W,1,08,1.23,151.0,M,-34.3,M,,*5C
$GPRMC,013742.000,A,4305.7294,N,07725.8784,W,13.83,308.87,300823,,,A*46
$GPGGA,013742.250,4305.7300,N,07725.8795,W,1,08,1.23,151.4,M,-34.3,M,,*58
$GPRMC,013742.500,A,4305.7307,N,07725.8807,W,14.70,308.34,300823,,,A*4F
$GPGGA,013742.750,4305.7315,N,07725.8819,W,1,08,1.16,151.8,M,-34.3,M,,*58
$GPRMC,013743.000,A,4305.7321,N,07725.8831,W,15.39,307.12,300823,,,A*4D
$GPGGA,013743.250,4305.7328,N,07725.8844,W,1,08,1.23,152.3,M,-34.3,M,,*54
$GPRMC,013743.500,A,4305.7335,N,07725.8857,W,15.90,304.95,300823,,,A*42
$GPGGA,013743.750,4305.7342,N,07725.8870,W,1,08,1.23,152.7,M,-34.3,M,,*5E
$GPRMC,013744.000,A,4305.7349,N,07725.8883,W,16.07,307.14,300823,,,A*45
$GPGGA,013744.250,4305.7357,N,07725.8895,W,1,08,1.23,153.5,M,-34.3,M,,*50
$GPRMC,013744.500,A,4305.7364,N,07725.8907,W,16.06,309.82,300823,,,A*42
$GPGGA,013744.750,4305.7371,N,07725.8919,W,1,08,1.23,154.0,M,-34.3,M,,*56
$GPRMC,013745.000,A,4305.7378,N,07725.8932,W,16.05,309.28,300823,,,A*4E
$GPGGA,013745.250,4305.7385,N,07725.8944,W,1,08,1.23,154.4,M,-34.3,M,,*55
$GPRMC,013745.500,A,4305.7392,N,07725.8957,W,16.23,309.47,300823,,,A*41
$GPGGA,013745.750,4305.7400,N,07725.8969,W,1,08,1.16,154.8,M,-34.3,M,,*5F
$GPRMC,013746.000,A,4305.7407,N,07725.8981,W,16.30,310.47,300823,,,A*4D
$GPGGA,013746.250,4305.7415,N,07725.8993,W,1,08,1.23,155.1,M,-34.3,M,,*56
$GPRMC,013746.500,A,4305.7423,N,07725.9005,W,16.45,310.57,300823,,,A*49
$GPGGA,013746.750,4305.7430,N,07725.9018,W,1,08,1.23,155.5,M,-34.3,M,,*5B
$GPRMC,013747.000,A,4305.7437,N,07725.9030,W,16.57,309.62,300823,,,A*43
$GPGGA,013747.250,4305.7445,N,07725.9041,W,1,08,1.23,155.7,M,-34.3,M,,*53
$GPRMC,013747.500,A,4305.7451,N,07725.9054,W,16.56,307.81,300823,,,A*46
$GPGGA,013747.750,4305.7458,N,07725.9066,W,1,08,1.16,156.0,M,-34.3,M,,*5D
$GPRMC,013748.000,A,4305.7466,N,07725.9078,W,16.07,309.59,300823,,,A*49
$GPGGA,013748.250,4305.7474,N,07725.9089,W,1,08,1.23,156.4,M,-34.3,M,,*5A
$GPRMC,013748.500,A,4305.7482,N,07725.9099,W,15.51,313.67,300823,,,A*4F
$GPGGA,013748.750,4305.7489,N,07725.9107,W,1,08,1.16,156.1,M,-34.3,M,,*59
$GPRMC,013749.000,A,4305.7496,N,07725.9115,W,14.84,318.14,300823,,,A*4D
$GPGGA,013749.250,4305.7504,N,07725.9121,W,1,08,1.16,155.8,M,-34.3,M,,*57
$GPRMC,013749.500,A,4305.7514,N,07725.9128,W,14.66,327.94,300823,,,A*45
$GPGGA,013749.750,4305.7524,N,07725.9135,W,1,08,1.16,155.7,M,-34.3,M,,*5A
$GPRMC,013750.000,A,4305.7535,N,07725.9142,W,15.84,331.66,300823,,,A*40
$GPGGA,013750.250,4305.7546,N,07725.9149,W,1,08,1.23,155.9,M,-34.3,M,,*50
$GPRMC,013750.500,A,4305.7557,N,07725.9155,W,16.32,334.61,300823,,,A*4B
$GPGGA,013750.750,4305.7567,N,07725.9162,W,1,08,1.23,156.2,M,-34.3,M,,*57
$GPRMC,013751.000,A,4305.7578,N,07725.9169,W,16.65,335.18,300823,,,A*40
$GPGGA,013751.250,4305.7589,N,07725.9175,W,1,08,1.23,156.5,M,-34.3,M,,*52
$GPRMC,013751.500,A,4305.7600,N,07725.9183,W,17.31,333.86,300823,,,A*4C
$GPGGA,013751.750,4305.7611,N,07725.9190,W,1,08,1.16,156.7,M,-34.3,M,,*5A
$GPRMC,013752.000,A,4305.7621,N,07725.9197,W,17.31,332.26,300823,,,A*47
$GPGGA,013752.250,4305.7632,N,07725.9205,W,1,08,1.23,156.5,M,-34.3,M,,*56
$GPRMC,013752.500,A,4305.7644,N,07725.9214,W,17.90,331.02,300823,,,A*47
$GPGGA,013752.750,4305.7655,N,07725.9222,W,1,08,1.23,156.7,M,-34.3,M,,*55
$GPRMC,013753.000,A,4305.7665,N,07725.9232,W,18.03,328.15,300823,,,A*4F
$GPGGA,013753.250,4305.7676,N,07725.9241,W,1,08,1.23,156.8,M,-34.3,M,,*5A
$GPRMC,013753.500,A,4305.7686,N,07725.9251,W,18.10,325.76,300823,,,A*48
$GPGGA,013753.750,4305.7695,N,07725.9261,W,1,08,1.16,157.1,M,-34.3,M,,*5E
$GPRMC,013754.000,A,4305.7705,N,07725.9271,W,17.82,323.07,300823,,,A*46
$GPGGA,013754.250,4305.7713,N,07725.9282,W,1,08,1.23,157.4,M,-34.3,M,,*5D
$GPRMC,013754.500,A,4305.7722,N,07725.9292,W,17.26,320.43,300823,,,A*46
$GPGGA,013754.750,4305.7729,N,07725.9304,W,1,08,1.16,157.9,M,-34.3,M,,*55
$GPRMC,013755.000,A,4305.7736,N,07725.9315,W,16.82,317.47,300823,,,A*46
$GPGGA,013755.250,4305.7743,N,07725.9326,W,1,08,1.23,157.9,M,-34.3,M,,*5B
$GPRMC,013755.500,A,4305.7751,N,07725.9337,W,16.55,314.82,300823,,,A*42
$GPGGA,013755.750,4305.7758,N,07725.9349,W,1,08,1.16,158.1,M,-34.3,M,,*5C
$GPRMC,013756.000,A,4305.7766,N,07725.9360,W,15.91,313.07,300823,,,A*43
$GPGGA,013756.250,4305.7772,N,07725.9370,W,1,08,1.23,158.2,M,-34.3,M,,*5D
$GPRMC,013756.500,A,4305.7779,N,07725.9380,W,15.16,310.51,300823,,,A*49
$GPGGA,013756.750,4305.7784,N,07725.9391,W,1,08,1.16,157.9,M,-34.3,M,,*5C
$GPRMC,013757.000,A,4305.7790,N,07725.9402,W,14.74,309.05,300823,,,A*4B
$GPGGA,013757.250,4305.7796,N,07725.9412,W,1,08,1.23,158.0,M,-34.3,M,,*57
$GPRMC,013757.500,A,4305.7801,N,07725.9422,W,13.69,306.55,300823,,,A*4A
$GPGGA,013757.750,4305.7805,N,07725.9431,W,1,08,1.23,158.2,M,-34.3,M,,*54
$GPRMC,013758.000,A,4305.7807,N,07725.9440,W,12.14,301.66,300823,,,A*4E
$GPGGA,013758.250,4305.7810,N,07725.9449,W,1,08,1.23,158.3,M,-34.3,M,,*54
$GPRMC,013758.500,A,4305.7814,N,07725.9457,W,11.06,298.87,300823,,,A*41
$GPGGA,013758.750,4305.7817,N,07725.9465,W,1,08,1.16,158.5,M,-34.3,M,,*58
$GPRMC,013759.000,A,4305.7819,N,07725.9472,W,9.49,295.76,300823,,,A*7E
$GPGGA,013759.250,4305.7820,N,07725.9479,W,1,08,1.23,158.8,M,-34.3,M,,*5E
$GPRMC,013759.500,A,4305.7822,N,07725.9485,W,8.21,292.03,300823,,,A*71
$GPGGA,013759.750,4305.7823,N,07725.9491,W,1,08,1.23,159.0,M,-34.3,M,,*57
$GPRMC,013800.000,A,4305.7824,N,07725.9496,W,6.88,290.08,300823,,,A*77
$GPGGA,013800.250,4305.7826,N,07725.9501,W,1,08,1.23,159.1,M,-34.3,M,,*5D
$GPRMC,013800.500,A,4305.7826,N,07725.9505,W,5.43,290.62,300823,,,A*73
$GPGGA,013800.750,4305.7825,N,07725.9508,W,1,08,1.23,159.4,M,-34.3,M,,*57
$GPRMC,013801.000,A,4305.7825,N,07725.9512,W,4.14,289.01,300823,,,A*7C
$GPGGA,013801.250,4305.7825,N,07725.9514,W,1,08,1.23,159.5,M,-34.3,M,,*5F
$GPRMC,013801.500,A,4305.7826,N,07725.9516,W,3.48,292.40,300823,,,A*7F
$GPGGA,013801.750,4305.7827,N,07725.9519,W,1,08,1.16,159.4,M,-34.3,M,,*52
$GPRMC,013802.000,A,4305.7828,N,07725.9522,W,4.07,293.76,300823,,,A*78
$GPGGA,013802.250,4305.7830,N,07725.9526,W,1,08,1.23,159.2,M,-34.3,M,,*5E
$GPRMC,013802.500,A,4305.7833,N,07725.9531,W,6.42,303.88,300823,,,A*7F
$GPGGA,013802.750,4305.7836,N,07725.9537,W,1,08,1.23,158.8,M,-34.3,M,,*56
$GPRMC,013803.000,A,4305.7839,N,07725.9543,W,8.16,306.59,300823,,,A*72
$GPGGA,013803.250,4305.7843,N,07725.9549,W,1,08,1.23,158.9,M,-34.3,M,,*58
$GPRMC,013803.500,A,4305.7847,N,07725.9556,W,8.99,307.93,300823,,,A*7A
$GPGGA,013803.750,4305.7851,N,07725.9563,W,1,08,1.23,159.0,M,-34.3,M,,*5E
$GPRMC,013804.000,A,4305.7857,N,07725.9569,W,9.94,314.61,300823,,,A*76
$GPGGA,013804.250,4305.7863,N,07725.9576,W,1,08,1.23,159.1,M,-34.3,M,,*58
$GPRMC,013804.500,A,4305.7870,N,07725.9584,W,10.90,317.74,300823,,,A*4E
$GPGGA,013804.750,4305.7877,N,07725.9591,W,1,08,1.16,159.2,M,-34.3,M,,*54
$GPRMC,013805.000,A,4305.7886,N,07725.9600,W,13.02,322.82,300823,,,A*4B
$GPGGA,013805.250,4305.7895,N,07725.9609,W,1,08,1.23,159.3,M,-34.3,M,,*59
$GPRMC,013805.500,A,4305.7905,N,07725.9616,W,14.36,327.01,300823,,,A*4D
$GPGGA,013805.750,4305.7914,N,07725.9624,W,1,08,1.16,159.5,M,-34.3,M,,*5B
$GPRMC,013806.000,A,4305.7925,N,07725.9632,W,15.76,329.62,300823,,,A*41
$GPGGA,013806.250,4305.7935,N,07725.9640,W,1,08,1.23,159.5,M,-34.3,M,,*5A
$GPRMC,013806.500,A,4305.7945,N,07725.9648,W,16.35,330.64,300823,,,A*45
$GPGGA,013806.750,4305.7954,N,07725.9657,W,1,08,1.16,159.5,M,-34.3,M,,*58
$GPRMC,013807.000,A,4305.7964,N,07725.9666,W,16.67,329.95,300823,,,A*4F
$GPGGA,013807.250,4305.7972,N,07725.9675,W,1,08,1.23,159.5,M,-34.3,M,,*5E
$GPRMC,013807.500,A,4305.7981,N,07725.9684,W,16.62,328.11,300823,,,A*45
$GPGGA,013807.750,4305.7991,N,07725.9693,W,1,08,1.16,159.5,M,-34.3,M,,*58
$GPRMC,013808.000,A,4305.8000,N,07725.9701,W,16.55,327.88,300823,,,A*47
$GPGGA,013808.250,4305.8009,N,07725.9710,W,1,08,1.23,159.6,M,-34.3,M,,*5A
$GPRMC,013808.500,A,4305.8019,N,07725.9718,W,16.12,328.60,300823,,,A*48
$GPGGA,013808.750,4305.8029,N,07725.9726,W,1,08,1.23,159.7,M,-34.3,M,,*59
$GPRMC,013809.000,A,4305.8038,N,07725.9734,W,15.81,329.91,300823,,,A*47
$GPGGA,013809.250,4305.8048,N,07725.9741,W,1,08,1.23,159.8,M,-34.3,M,,*54
$GPRMC,013809.500,A,4305.8057,N,07725.9748,W,15.77,333.59,300823,,,A*46
$GPGGA,013809.750,4305.8066,N,07725.9754,W,1,08,1.23,159.8,M,-34.3,M,,*59
$GPRMC,013810.000,A,4305.8075,N,07725.9759,W,15.27,338.38,300823,,,A*42
$GPGGA,013810.250,4305.8083,N,07725.9763,W,1,08,1.23,159.9,M,-34.3,M,,*5A
$GPRMC,013810.500,A,4305.8093,N,07725.9767,W,15.07,346.95,300823,,,A*4E
$GPGGA,013810.750,4305.8102,N,07725.9770,W,1,08,1.23,159.9,M,-34.3,M,,*55
$GPRMC,013811.000,A,4305.8111,N,07725.9771,W,14.71,353.08,300823,,,A*46
$GPGGA,013811.250,4305.8120,N,07725.9771,W,1,08,1.23,159.8,M,-34.3,M,,*51
$GPRMC,013811.500,A,4305.8130,N,07725.9771,W,15.22,1.25,300823,,,A*4C
$GPGGA,013811.750,4305.8140,N,07725.9769,W,1,08,1.23,160.1,M,-34.3,M,,*58
$GPRMC,013812.000,A,4305.8148,N,07725.9765,W,15.45,11.12,300823,,,A*74
$GPGGA,013812.250,4305.8156,N,07725.9760,W,1,08,1.23,160.0,M,-34.3,M,,*51
$GPRMC,013812.500,A,4305.8166,N,07725.9755,W,15.93,19.81,300823,,,A*77
$GPGGA,013812.750,4305.8176,N,07725.9749,W,1,08,1.16,159.8,M,-34.3,M,,*59
$GPRMC,013813.000,A,4305.8187,N,07725.9743,W,17.34,23.72,300823,,,A*71
$GPGGA,013813.250,4305.8198,N,07725.9736,W,1,08,1.23,159.5,M,-34.3,M,,*5E
$GPRMC,013813.500,A,4305.8210,N,07725.9728,W,18.67,25.64,300823,,,A*7C
$GPGGA,013813.750,4305.8222,N,07725.9720,W,1,08,1.22,159.3,M,-34.3,M,,*59
$GPRMC,013814.000,A,4305.8235,N,07725.9712,W,19.90,26.60,300823,,,A*7E
$GPGGA,013814.250,4305.8248,N,07725.9703,W,1,08,1.23,159.0,M,-34.3,M,,*54
$GPRMC,013814.500,A,4305.8262,N,07725.9694,W,21.06,26.67,300823,,,A*75
$GPGGA,013814.750,4305.8276,N,07725.9685,W,1,08,1.16,158.8,M,-34.3,M,,*5C
$GPRMC,013815.000,A,4305.8291,N,07725.9676,W,22.06,26.58,300823,,,A*7E
$GPGGA,013815.250,4305.8306,N,07725.9666,W,1,08,1.23,158.7,M,-34.3,M,,*5A
$GPRMC,013815.500,A,4305.8321,N,07725.9658,W,22.59,24.08,300823,,,A*70
$GPGGA,013815.750,4305.8336,N,07725.9649,W,1,08,1.22,158.6,M,-34.3,M,,*51
$GPRMC,013816.000,A,4305.8352,N,07725.9641,W,23.36,21.99,300823,,,A*7F
$GPGGA,013816.250,4305.8368,N,07725.9632,W,1,08,1.22,158.7,M,-34.3,M,,*51
$GPRMC,013816.500,A,4305.8384,N,07725.9624,W,24.09,20.85,300823,,,A*75
$GPGGA,013816.750,4305.8401,N,07725.9616,W,1,08,1.22,158.7,M,-34.3,M,,*5A
$GPRMC,013817.000,A,4305.8418,N,07725.9608,W,25.31,19.57,300823,,,A*72
$GPGGA,013817.250,4305.8434,N,07725.9600,W,1,08,1.22,158.5,M,-34.3,M,,*5D
$GPRMC,013817.500,A,4305.8451,N,07725.9592,W,25.62,18.02,300823,,,A*7D
$GPGGA,013817.750,4305.8469,N,07725.9585,W,1,08,1.22,158.6,M,-34.3,M,,*5D
$GPRMC,013818.000,A,4305.8486,N,07725.9577,W,25.38,17.76,300823,,,A*75
$GPGGA,013818.250,4305.8504,N,07725.9570,W,1,08,1.22,158.6,M,-34.3,M,,*57
$GPRMC,013818.500,A,4305.8521,N,07725.9562,W,26.26,16.92,300823,,,A*7F
$GPGGA,013818.750,4305.8539,N,07725.9555,W,1,08,1.22,158.7,M,-34.3,M,,*5A
$GPRMC,013819.000,A,4305.8556,N,07725.9547,W,26.35,16.25,300823,,,A*72
$GPGGA,013819.250,4305.8574,N,07725.9540,W,1,08,1.22,158.7,M,-34.3,M,,*53
$GPRMC,013819.500,A,4305.8593,N,07725.9533,W,26.75,15.13,300823,,,A*7F
$GPGGA,013819.750,4305.8611,N,07725.9527,W,1,08,1.22,158.7,M,-34.3,M,,*57
$GPRMC,013820.000,A,4305.8630,N,07725.9520,W,27.69,14.29,300823,,,A*7C
$GPGGA,013820.250,4305.8649,N,07725.9514,W,1,08,1.22,158.7,M,-34.3,M,,*55
$GPRMC,013820.500,A,4305.8668,N,07725.9508,W,28.06,13.02,300823,,,A*76
$GPGGA,013820.750,4305.8688,N,07725.9502,W,1,08,1.22,158.8,M,-34.3,M,,*55
$GPRMC,013821.000,A,4305.8707,N,07725.9496,W,28.41,11.88,300823,,,A*7F
$GPGGA,013821.250,4305.8728,N,07725.9491,W,1,08,1.22,158.9,M,-34.3,M,,*50
$GPRMC,013821.500,A,4305.8749,N,07725.9487,W,28.70,10.06,300823,,,A*75
$GPGGA,013821.750,4305.8770,N,07725.9483,W,1,08,1.16,159.1,M,-34.3,M,,*55
$GPRMC,013822.000,A,4305.8791,N,07725.9479,W,29.76,8.72,300823,,,A*4A
$GPGGA,013822.250,4305.8813,N,07725.9475,W,1,08,1.22,159.3,M,-34.3,M,,*55
$GPRMC,013822.500,A,4305.8835,N,07725.9472,W,30.65,7.13,300823,,,A*47
$GPGGA,013822.750,4305.8857,N,07725.9469,W,1,08,1.22,159.4,M,-34.3,M,,*5A
$GPRMC,013823.000,A,4305.8879,N,07725.9466,W,31.01,6.30,300823,,,A*4D
$GPGGA,013823.250,4305.8901,N,07725.9463,W,1,08,1.22,159.5,M,-34.3,M,,*57
$GPRMC,013823.500,A,4305.8924,N,07725.9461,W,31.38,6.00,300823,,,A*4F
$GPGGA,013823.750,4305.8946,N,07725.9458,W,1,08,1.16,159.6,M,-34.3,M,,*5D
$GPRMC,013824.000,A,4305.8969,N,07725.9455,W,31.75,5.56,300823,,,A*4A
$GPGGA,013824.250,4305.8992,N,07725.9453,W,1,08,1.22,159.7,M,-34.3,M,,*5B
$GPRMC,013824.500,A,4305.9015,N,07725.9451,W,32.05,5.46,300823,,,A*4D
$GPGGA,013824.750,4305.9038,N,07725.9448,W,1,08,1.22,159.8,M,-34.3,M,,*53
$GPRMC,013825.000,A,4305.9060,N,07725.9445,W,32.66,6.32,300823,,,A*4B
$GPGGA,013825.250,4305.9084,N,07725.9442,W,1,08,1.22,159.7,M,-34.3,M,,*55
$GPRMC,013825.500,A,4305.9107,N,07725.9439,W,33.29,6.41,300823,,,A*4B
$GPGGA,013825.750,4305.9130,N,07725.9436,W,1,08,1.16,159.8,M,-34.3,M,,*55
$GPRMC,013826.000,A,4305.9154,N,07725.9433,W,33.55,5.98,300823,,,A*4D
$GPGGA,013826.250,4305.9178,N,07725.9431,W,1,08,1.22,159.9,M,-34.3,M,,*5E
$GPRMC,013826.500,A,4305.9203,N,07725.9428,W,34.10,5.72,300823,,,A*41
$GPGGA,013826.750,4305.9227,N,07725.9426,W,1,08,1.22,160.5,M,-34.3,M,,*52
$GPRMC,013827.000,A,4305.9252,N,07725.9423,W,35.18,5.06,300823,,,A*40
$GPGGA,013827.250,4305.9277,N,07725.9420,W,1,08,1.22,159.4,M,-34.3,M,,*5E
$GPRMC,013827.500,A,4305.9301,N,07725.9418,W,34.49,5.71,300823,,,A*4F
$GPGGA,013827.750,4305.9325,N,07725.9415,W,1,08,1.16,158.6,M,-34.3,M,,*5F
$GPRMC,013828.000,A,4305.9349,N,07725.9412,W,35.16,5.26,300823,,,A*4A
$GPGGA,013828.250,4305.9374,N,07725.9409,W,1,08,1.22,158.7,M,-34.3,M,,*5A
$GPRMC,013828.500,A,4305.9399,N,07725.9407,W,35.24,5.66,300823,,,A*43
$GPGGA,013828.750,4305.9424,N,07725.9404,W,1,08,1.22,158.4,M,-34.3,M,,*53
$GPRMC,013829.000,A,4305.9449,N,07725.9400,W,35.78,5.98,300823,,,A*42
$GPGGA,013829.250,4305.9474,N,07725.9397,W,1,08,1.22,158.4,M,-34.3,M,,*5F
$GPRMC,013829.500,A,4305.9500,N,07725.9395,W,36.13,5.73,300823,,,A*4B
$GPGGA,013829.750,4305.9525,N,07725.9392,W,1,08,1.16,158.4,M,-34.3,M,,*5D
$GPRMC,013830.000,A,4305.9551,N,07725.9388,W,36.23,5.75,300823,,,A*4B
$GPGGA,013830.250,4305.9576,N,07725.9385,W,1,08,1.22,158.5,M,-34.3,M,,*56
$GPRMC,013830.500,A,4305.9602,N,07725.9382,W,36.50,5.65,300823,,,A*44
$GPGGA,013830.750,4305.9627,N,07725.9379,W,1,08,1.16,158.6,M,-34.3,M,,*53
$GPRMC,013831.000,A,4305.9653,N,07725.9376,W,36.68,5.51,300823,,,A*43
$GPGGA,013831.250,4305.9679,N,07725.9373,W,1,08,1.22,158.7,M,-34.3,M,,*50
$GPRMC,013831.500,A,4305.9705,N,07725.9370,W,37.22,5.65,300823,,,A*4A
$GPGGA,013831.750,4305.9732,N,07725.9367,W,1,08,1.16,158.8,M,-34.3,M,,*56
$GPRMC,013832.000,A,4305.9758,N,07725.9364,W,37.75,5.48,300823,,,A*4C
$GPGGA,013832.250,4305.9785,N,07725.9361,W,1,08,1.22,158.9,M,-34.3,M,,*5C
$GPRMC,013832.500,A,4305.9811,N,07725.9357,W,38.17,5.44,300823,,,A*4C
$GPGGA,013832.750,4305.9838,N,07725.9354,W,1,08,1.22,158.9,M,-34.3,M,,*56
$GPRMC,013833.000,A,4305.9865,N,07725.9351,W,38.48,5.38,300823,,,A*4C
$GPGGA,013833.250,4305.9892,N,07725.9347,W,1,08,1.22,159.0,M,-34.3,M,,*58
$GPRMC,013833.500,A,4305.9919,N,07725.9344,W,38.61,5.55,300823,,,A*47
$GPGGA,013833.750,4305.9947,N,07725.9341,W,1,08,1.16,159.1,M,-34.3,M,,*54
$GPRMC,013834.000,A,4305.9974,N,07725.9337,W,39.14,5.75,300823,,,A*4B
$GPGGA,013834.250,4306.0002,N,07725.9333,W,1,08,1.22,159.2,M,-34.3,M,,*55
$GPRMC,013834.500,A,4306.0029,N,07725.9330,W,39.26,5.89,300823,,,A*40
$GPGGA,013834.750,4306.0057,N,07725.9326,W,1,08,1.16,159.4,M,-34.3,M,,*55
$GPRMC,013835.000,A,4306.0085,N,07725.9323,W,39.41,5.72,300823,,,A*45
$GPGGA,013835.250,4306.0112,N,07725.9319,W,1,08,1.22,159.6,M,-34.3,M,,*58
$GPRMC,013835.500,A,4306.0139,N,07725.9315,W,38.85,5.70,300823,,,A*48
$GPGGA,013835.750,4306.0166,N,07725.9312,W,1,08,1.16,159.8,M,-34.3,M,,*5C
$GPRMC,013836.000,A,4306.0192,N,07725.9308,W,38.31,5.64,300823,,,A*49
$GPGGA,013836.250,4306.0219,N,07725.9305,W,1,08,1.22,160.1,M,-34.3,M,,*53
$GPRMC,013836.500,A,4306.0245,N,07725.9301,W,37.78,5.33,300823,,,A*4C
$GPGGA,013836.750,4306.0272,N,07725.9298,W,1,08,1.22,160.4,M,-34.3,M,,*5B
$GPRMC,013837.000,A,4306.0299,N,07725.9296,W,37.89,4.90,300823,,,A*40
$GPGGA,013837.250,4306.0325,N,07725.9293,W,1,08,1.22,160.8,M,-34.3,M,,*5B
$GPRMC,013837.500,A,4306.0352,N,07725.9291,W,37.51,4.34,300823,,,A*4F
$GPGGA,013837.750,4306.0378,N,07725.9288,W,1,08,1.16,161.1,M,-34.3,M,,*53
$GPRMC,013838.000,A,4306.0403,N,07725.9287,W,36.11,3.29,300823,,,A*4F
$GPGGA,013838.250,4306.0428,N,07725.9285,W,1,08,1.22,161.6,M,-34.3,M,,*56
$GPRMC,013838.500,A,4306.0452,N,07725.9283,W,35.32,2.35,300823,,,A*44
$GPGGA,013838.750,4306.0477,N,07725.9282,W,1,08,1.16,162.1,M,-34.3,M,,*5D
$GPRMC,013839.000,A,4306.0501,N,07725.9281,W,34.97,1.92,300823,,,A*45
$GPGGA,013839.250,4306.0525,N,07725.9280,W,1,08,1.22,162.4,M,-34.3,M,,*5F
$GPRMC,013839.500,A,4306.0549,N,07725.9278,W,34.48,2.34,300823,,,A*47
$GPGGA,013839.750,4306.0573,N,07725.9277,W,1,08,1.16,162.3,M,-34.3,M,,*51
$GPRMC,013840.000,A,4306.0597,N,07725.9276,W,33.90,1.62,300823,,,A*43
$GPGGA,013840.250,4306.0621,N,07725.9276,W,1,08,1.22,162.7,M,-34.3,M,,*5C
$GPRMC,013840.500,A,4306.0644,N,07725.9274,W,33.76,2.06,300823,,,A*40
$GPGGA,013840.750,4306.0667,N,07725.9273,W,1,08,1.22,163.2,M,-34.3,M,,*5A
$GPRMC,013841.000,A,4306.0690,N,07725.9272,W,33.52,2.27,300823,,,A*4E
$GPGGA,013841.250,4306.0713,N,07725.9271,W,1,08,1.22,163.7,M,-34.3,M,,*5B
$GPRMC,013841.500,A,4306.0736,N,07725.9269,W,33.40,2.26,300823,,,A*4E
$GPGGA,013841.750,4306.0760,N,07725.9268,W,1,08,1.16,163.9,M,-34.3,M,,*5B
$GPRMC,013842.000,A,4306.0783,N,07725.9267,W,33.06,2.20,300823,,,A*4C
$GPGGA,013842.250,4306.0807,N,07725.9267,W,1,08,1.22,164.5,M,-34.3,M,,*50
$GPRMC,013842.500,A,4306.0830,N,07725.9266,W,33.11,2.15,300823,,,A*4F
$GPGGA,013842.750,4306.0854,N,07725.9265,W,1,08,1.16,164.6,M,-34.3,M,,*55
$GPRMC,013843.000,A,4306.0878,N,07725.9264,W,33.06,2.03,300823,,,A*44
$GPGGA,013843.250,4306.0902,N,07725.9263,W,1,08,1.22,165.1,M,-34.3,M,,*54
$GPRMC,013843.500,A,4306.0924,N,07725.9262,W,33.16,1.43,300823,,,A*49
$GPGGA,013843.750,4306.0948,N,07725.9262,W,1,08,1.16,165.6,M,-34.3,M,,*5E
$GPRMC,013844.000,A,4306.0970,N,07725.9261,W,33.31,1.50,300823,,,A*4E
$GPGGA,013844.250,4306.0992,N,07725.9260,W,1,08,1.22,166.2,M,-34.3,M,,*59
$GPRMC,013844.500,A,4306.1015,N,07725.9259,W,33.34,1.43,300823,,,A*4C
$GPGGA,013844.750,4306.1038,N,07725.9259,W,1,08,1.16,166.6,M,-34.3,M,,*5D
$GPRMC,013845.000,A,4306.1060,N,07725.9258,W,32.49,1.33,300823,,,A*47
$GPGGA,013845.250,4306.1081,N,07725.9258,W,1,08,1.22,167.0,M,-34.3,M,,*5A
$GPRMC,013845.500,A,4306.1103,N,07725.9257,W,31.80,0.91,300823,,,A*46
$GPGGA,013845.750,4306.1124,N,07725.9257,W,1,08,1.16,167.3,M,-34.3,M,,*5A
$GPRMC,013846.000,A,4306.1145,N,07725.9257,W,31.22,0.66,300823,,,A*42
$GPGGA,013846.250,4306.1166,N,07725.9257,W,1,08,1.22,167.6,M,-34.3,M,,*58
$GPRMC,013846.500,A,4306.1187,N,07725.9257,W,30.40,0.47,300823,,,A*4F
$GPGGA,013846.750,4306.1208,N,07725.9257,W,1,08,1.22,167.9,M,-34.3,M,,*59
$GPRMC,013847.000,A,4306.1228,N,07725.9256,W,30.09,0.63,300823,,,A*47
$GPGGA,013847.250,4306.1247,N,07725.9256,W,1,08,1.22,168.3,M,-34.3,M,,*52
$GPRMC,013847.500,A,4306.1266,N,07725.9256,W,28.75,0.48,300823,,,A*43
$GPGGA,013847.750,4306.1286,N,07725.9255,W,1,08,1.22,168.6,M,-34.3,M,,*5C
$GPRMC,013848.000,A,4306.1305,N,07725.9256,W,28.27,0.10,300823,,,A*47
$GPGGA,013848.250,4306.1324,N,07725.9256,W,1,08,1.22,168.9,M,-34.3,M,,*53
$GPRMC,013848.500,A,4306.1343,N,07725.9256,W,28.01,0.22,300823,,,A*45
$GPGGA,013848.750,4306.1362,N,07725.9255,W,1,08,1.22,169.2,M,-34.3,M,,*5D
$GPRMC,013849.000,A,4306.1380,N,07725.9255,W,26.86,0.70,300823,,,A*4B
$GPGGA,013849.250,4306.1398,N,07725.9255,W,1,08,1.22,169.4,M,-34.3,M,,*5A
$GPRMC,013849.500,A,4306.1415,N,07725.9255,W,25.27,359.93,300823,,,A*4F
$GPGGA,013849.750,4306.1431,N,07725.9255,W,1,08,1.16,169.8,M,-34.3,M,,*50
$GPRMC,013850.000,A,4306.1446,N,07725.9255,W,23.21,359.58,300823,,,A*43
$GPGGA,013850.250,4306.1461,N,07725.9255,W,1,08,1.22,170.1,M,-34.3,M,,*5E
$GPRMC,013850.500,A,4306.1475,N,07725.9255,W,22.17,358.82,300823,,,A*44
$GPGGA,013850.750,4306.1490,N,07725.9255,W,1,08,1.22,170.4,M,-34.3,M,,*50
$GPRMC,013851.000,A,4306.1503,N,07725.9256,W,20.77,358.11,300823,,,A*4D
$GPGGA,013851.250,4306.1514,N,07725.9256,W,1,08,1.22,170.5,M,-34.3,M,,*5B
$GPRMC,013851.500,A,4306.1526,N,07725.9256,W,18.63,358.11,300823,,,A*41
$GPGGA,013851.750,4306.1537,N,07725.9256,W,1,08,1.22,170.7,M,-34.3,M,,*5D
$GPRMC,013852.000,A,4306.1547,N,07725.9256,W,17.11,357.99,300823,,,A*45
$GPGGA,013852.250,4306.1556,N,07725.9256,W,1,08,1.22,170.6,M,-34.3,M,,*5D
$GPRMC,013852.500,A,4306.1564,N,07725.9256,W,14.95,357.22,300823,,,A*4E
$GPGGA,013852.750,4306.1572,N,07725.9255,W,1,08,1.22,170.6,M,-34.3,M,,*5D
$GPRMC,013853.000,A,4306.1579,N,07725.9256,W,12.87,356.25,300823,,,A*45
$GPGGA,013853.250,4306.1585,N,07725.9256,W,1,08,1.22,170.5,M,-34.3,M,,*51
$GPRMC,013853.500,A,4306.1590,N,07725.9256,W,10.48,355.84,300823,,,A*4E
$GPGGA,013853.750,4306.1592,N,07725.9255,W,1,08,1.22,170.6,M,-34.3,M,,*52
$GPRMC,013854.000,A,4306.1594,N,07725.9255,W,7.27,355.97,300823,,,A*76
$GPGGA,013854.250,4306.1596,N,07725.9255,W,1,08,1.22,170.4,M,-34.3,M,,*56
$GPRMC,013854.500,A,4306.1599,N,07725.9255,W,5.49,356.58,300823,,,A*74
$GPGGA,013854.750,4306.1601,N,07725.9255,W,1,08,1.22,170.3,M,-34.3,M,,*59
$GPRMC,013855.000,A,4306.1602,N,07725.9255,W,4.21,355.92,300823,,,A*7B
$GPGGA,013855.250,4306.1603,N,07725.9255,W,1,08,1.22,170.2,M,-34.3,M,,*5E
$GPRMC,013855.500,A,4306.1605,N,07725.9255,W,3.29,354.08,300823,,,A*74
$GPGGA,013855.750,4306.1606,N,07725.9255,W,1,08,1.22,170.2,M,-34.3,M,,*5E
$GPRMC,013856.000,A,4306.1607,N,07725.9256,W,2.75,352.72,300823,,,A*70
$GPGGA,013856.250,4306.1608,N,07725.9256,W,1,08,1.22,170.2,M,-34.3,M,,*55
$GPRMC,013856.500,A,4306.1608,N,07725.9256,W,2.28,352.72,300823,,,A*72
$GPGGA,013856.750,4306.1609,N,07725.9256,W,1,08,1.22,170.2,M,-34.3,M,,*51
$GPRMC,013857.000,A,4306.1609,N,07725.9256,W,1.81,352.72,300823,,,A*77
$GPGGA,013857.250,4306.1609,N,07725.9256,W,1,08,1.22,170.2,M,-34.3,M,,*55
$GPRMC,013857.500,A,4306.1609,N,07725.9256,W,1.20,352.72,300823,,,A*79
$GPGGA,013857.750,4306.1608,N,07725.9255,W,1,08,1.22,170.1,M,-34.3,M,,*51
$GPRMC,013858.000,A,4306.1607,N,07725.9255,W,0.79,352.72,300823,,,A*73
$GPGGA,013858.250,4306.1606,N,07725.9255,W,1,08,1.22,170.1,M,-34.3,M,,*55
$GPRMC,013858.500,A,4306.1605,N,07725.9255,W,0.56,352.72,300823,,,A*79
$GPGGA,013858.750,4306.1605,N,07725.9255,W,1,08,1.22,170.0,M,-34.3,M,,*52
$GPRMC,013859.000,A,4306.1604,N,07725.9256,W,0.37,352.72,300823,,,A*78
$GPGGA,013859.250,4306.1603,N,07725.9256,W,1,08,1.22,169.8,M,-34.3,M,,*53
$GPRMC,013859.500,A,4306.1603,N,07725.9256,W,0.30,352.72,300823,,,A*7D
$GPGGA,013859.750,4306.1602,N,07725.9256,W,1,08,1.22,169.8,M,-34.3,M,,*57
$GPRMC,013900.000,A,4306.1602,N,07725.9256,W,0.23,352.72,300823,,,A*76
$GPGGA,013900.250,4306.1601,N,07725.9256,W,1,08,1.22,169.7,M,-34.3,M,,*53
$GPRMC,013900.500,A,4306.1602,N,07725.9256,W,0.21,17.91,300823,,,A*4E
$GPGGA,013900.750,4306.1602,N,07725.9256,W,1,08,1.16,169.8,M,-34.3,M,,*5D
$GPRMC,013901.000,A,4306.1602,N,07725.9256,W,0.15,19.26,300823,,,A*4F
$GPGGA,013901.250,4306.1602,N,07725.9256,W,1,08,1.16,169.8,M,-34.3,M,,*59
$GPRMC,013901.500,A,4306.1602,N,07725.9255,W,0.01,19.26,300823,,,A*4C
$GPGGA,013901.750,4306.1602,N,07725.9255,W,1,08,1.16,169.9,M,-34.3,M,,*5E
$GPRMC,013902.000,A,4306.1602,N,07725.9255,W,0.02,19.26,300823,,,A*49
$GPGGA,013902.250,4306.1602,N,07725.9255,W,1,08,1.16,169.9,M,-34.3,M,,*58
$GPRMC,013902.500,A,4306.1602,N,07725.9255,W,0.06,19.26,300823,,,A*48
$GPGGA,013902.750,4306.1602,N,07725.9255,W,1,08,1.16,169.9,M,-34.3,M,,*5D
$GPRMC,013903.000,A,4306.1602,N,07725.9255,W,0.07,19.26,300823,,,A*4D
$GPGGA,013903.250,4306.1602,N,07725.9255,W,1,08,1.16,169.9,M,-34.3,M,,*59
$GPRMC,013903.500,A,4306.1602,N,07725.9255,W,0.01,19.26,300823,,,A*4E
$GPGGA,013903.750,4306.1602,N,07725.9255,W,1,08,1.16,169.9,M,-34.3,M,,*5C
$GPRMC,013904.000,A,4306.1602,N,07725.9255,W,0.01,19.26,300823,,,A*4C
$GPGGA,013904.250,4306.1602,N,07725.9255,W,1,08,1.16,169.9,M,-34.3,M,,*5E
$GPRMC,013904.500,A,4306.1602,N,07725.9255,W,0.03,19.26,300823,,,A*4B
$GPGGA,013904.750,4306.1602,N,07725.9255,W,1,08,1.16,169.9,M,-34.3,M,,*5B
$GPRMC,013905.000,A,4306.1602,N,07725.9255,W,0.07,19.26,300823,,,A*4B
$GPGGA,013905.250,4306.1601,N,07725.9255,W,1,08,1.16,169.9,M,-34.3,M,,*5C
$GPRMC,013905.500,A,4306.1601,N,07725.9255,W,0.08,19.26,300823,,,A*42
$GPGGA,013905.750,4306.1601,N,07725.9255,W,1,08,1.16,169.9,M,-34.3,M,,*59
$GPRMC,013906.000,A,4306.1601,N,07725.9255,W,0.02,19.26,300823,,,A*4E
$GPGGA,013906.250,4306.1601,N,07725.9255,W,1,08,1.16,169.9,M,-34.3,M,,*5F
$GPRMC,013906.500,A,4306.1601,N,07725.9255,W,0.01,19.26,300823,,,A*48
$GPGGA,013906.750,4306.1601,N,07725.9255,W,1,08,1.16,169.9,M,-34.3,M,,*5A
$GPRMC,013907.000,A,4306.1601,N,07725.9255,W,0.02,19.26,300823,,,A*4F
$GPGGA,013907.250,4306.1601,N,07725.9255,W,1,08,1.22,169.9,M,-34.3,M,,*59
$GPRMC,013907.500,A,4306.1601,N,07725.9255,W,0.02,19.26,300823,,,A*4A
$GPGGA,013907.750,4306.1601,N,07725.9255,W,1,08,1.16,170.0,M,-34.3,M,,*5A
$GPRMC,013908.000,A,4306.1601,N,07725.9255,W,0.02,19.26,300823,,,A*40
$GPGGA,013908.250,4306.1601,N,07725.9255,W,1,08,1.16,170.0,M,-34.3,M,,*50
$GPRMC,013908.500,A,4306.1601,N,07725.9255,W,0.02,19.26,300823,,,A*45
$GPGGA,013908.750,4306.1601,N,07725.9255,W,1,08,1.16,170.0,M,-34.3,M,,*55
$GPRMC,013909.000,A,4306.1601,N,07725.9255,W,0.02,19.26,300823,,,A*41
$GPGGA,013909.250,4306.1601,N,07725.9255,W,1,08,1.22,170.0,M,-34.3,M,,*56
$GPRMC,013909.500,A,4306.1601,N,07725.9255,W,0.01,19.26,300823,,,A*47
$GPGGA,013909.750,4306.1601,N,07725.9255,W,1,08,1.16,170.0,M,-34.3,M,,*54
$GPRMC,013910.000,A,4306.1601,N,07725.9255,W,0.03,19.26,300823,,,A*48
$GPGGA,013910.250,4306.1601,N,07725.9255,W,1,08,1.16,170.0,M,-34.3,M,,*59
$GPRMC,013910.500,A,4306.1601,N,07725.9255,W,0.03,19.26,300823,,,A*4D
$GPGGA,013910.750,4306.1601,N,07725.9255,W,1,08,1.16,170.0,M,-34.3,M,,*5C
$GPRMC,013911.000,A,4306.1601,N,07725.9255,W,0.26,19.26,300823,,,A*4E
$GPGGA,013911.250,4306.1602,N,07725.9255,W,1,08,1.22,170.0,M,-34.3,M,,*5C
$GPRMC,013911.500,A,4306.1602,N,07725.9255,W,1.02,19.26,300823,,,A*4F
$GPGGA,013911.750,4306.1602,N,07725.9255,W,1,08,1.22,170.0,M,-34.3,M,,*59
$GPRMC,013912.000,A,4306.1603,N,07725.9255,W,1.13,2.90,300823,,,A*7F
$GPGGA,013912.250,4306.1604,N,07725.9255,W,1,08,1.22,170.0,M,-34.3,M,,*59
$GPRMC,013912.500,A,4306.1605,N,07725.9255,W,1.39,1.17,300823,,,A*78
$GPGGA,013912.750,4306.1606,N,07725.9255,W,1,08,1.22,170.0,M,-34.3,M,,*5E
$GPRMC,013913.000,A,4306.1607,N,07725.9255,W,2.14,0.60,300823,,,A*73
$GPGGA,013913.250,4306.1609,N,07725.9255,W,1,08,1.22,170.0,M,-34.3,M,,*55
$GPRMC,013913.500,A,4306.1612,N,07725.9254,W,3.76,8.43,300823,,,A*7F
$GPGGA,013913.750,4306.1615,N,07725.9254,W,1,08,1.22,170.1,M,-34.3,M,,*5D
$GPRMC,013914.000,A,4306.1619,N,07725.9253,W,5.17,7.07,300823,,,A*7F
$GPGGA,013914.250,4306.1623,N,07725.9253,W,1,08,1.22,170.1,M,-34.3,M,,*5D
$GPRMC,013914.500,A,4306.1628,N,07725.9252,W,6.33,6.14,300823,,,A*7F
$GPGGA,013914.750,4306.1633,N,07725.9252,W,1,08,1.22,170.2,M,-34.3,M,,*5B
$GPRMC,013915.000,A,4306.1638,N,07725.9251,W,6.95,4.24,300823,,,A*74
$GPGGA,013915.250,4306.1643,N,07725.9251,W,1,08,1.22,170.3,M,-34.3,M,,*5A
$GPRMC,013915.500,A,4306.1649,N,07725.9251,W,7.84,4.12,300823,,,A*73
$GPGGA,013915.750,4306.1655,N,07725.9250,W,1,08,1.22,170.4,M,-34.3,M,,*5E
$GPRMC,013916.000,A,4306.1661,N,07725.9250,W,8.48,3.77,300823,,,A*75
$GPGGA,013916.250,4306.1667,N,07725.9249,W,1,08,1.22,170.5,M,-34.3,M,,*50
$GPRMC,013916.500,A,4306.1674,N,07725.9249,W,9.10,3.85,300823,,,A*7D
$GPGGA,013916.750,4306.1680,N,07725.9248,W,1,08,1.22,170.7,M,-34.3,M,,*5F
$GPRMC,013917.000,A,4306.1687,N,07725.9248,W,9.72,3.25,300823,,,A*7A
$GPGGA,013917.250,4306.1694,N,07725.9248,W,1,08,1.22,170.9,M,-34.3,M,,*50
$GPRMC,013917.500,A,4306.1702,N,07725.9248,W,10.67,0.04,300823,,,A*4F
$GPGGA,013917.750,4306.1709,N,07725.9248,W,1,08,1.22,171.1,M,-34.3,M,,*59
$GPRMC,013918.000,A,4306.1717,N,07725.9248,W,11.41,359.45,300823,,,A*4E
$GPGGA,013918.250,4306.1725,N,07725.9248,W,1,08,1.22,171.3,M,-34.3,M,,*5F
$GPRMC,013918.500,A,4306.1733,N,07725.9248,W,11.82,358.40,300823,,,A*46
$GPGGA,013918.750,4306.1741,N,07725.9248,W,1,08,1.22,171.5,M,-34.3,M,,*5E
$GPRMC,013919.000,A,4306.1749,N,07725.9248,W,12.04,358.10,300823,,,A*47
$GPGGA,013919.250,4306.1759,N,07725.9248,W,1,08,1.22,171.5,M,-34.3,M,,*53
$GPRMC,013919.500,A,4306.1768,N,07725.9248,W,12.91,358.89,300823,,,A*4D
$GPGGA,013919.750,4306.1777,N,07725.9248,W,1,08,1.22,171.7,M,-34.3,M,,*58
$GPRMC,013920.000,A,4306.1787,N,07725.9248,W,13.57,0.31,300823,,,A*45
$GPGGA,013920.250,4306.1797,N,07725.9248,W,1,08,1.22,171.9,M,-34.3,M,,*57
$GPRMC,013920.500,A,4306.1807,N,07725.9248,W,13.81,0.36,300823,,,A*4B
$GPGGA,013920.750,4306.1817,N,07725.9248,W,1,08,1.22,172.1,M,-34.3,M,,*5E
$GPRMC,013921.000,A,4306.1826,N,07725.9248,W,14.03,0.00,300823,,,A*44
$GPGGA,013921.250,4306.1837,N,07725.9247,W,1,08,1.22,172.4,M,-34.3,M,,*52
$GPRMC,013921.500,A,4306.1847,N,07725.9247,W,14.57,0.70,300823,,,A*4F
$GPGGA,013921.750,4306.1858,N,07725.9247,W,1,08,1.22,172.6,M,-34.3,M,,*5C
$GPRMC,013922.000,A,4306.1869,N,07725.9247,W,15.25,0.67,300823,,,A*47
$GPGGA,013922.250,4306.1880,N,07725.9247,W,1,08,1.22,172.8,M,-34.3,M,,*51
$GPRMC,013922.500,A,4306.1892,N,07725.9247,W,16.10,0.64,300823,,,A*40
$GPGGA,013922.750,4306.1903,N,07725.9247,W,1,08,1.22,173.1,M,-34.3,M,,*56
$GPRMC,013923.000,A,4306.1915,N,07725.9247,W,16.77,0.51,300823,,,A*4D
$GPGGA,013923.250,4306.1928,N,07725.9247,W,1,08,1.22,173.3,M,-34.3,M,,*59
$GPRMC,013923.500,A,4306.1941,N,07725.9248,W,17.69,359.80,300823,,,A*4B
$GPGGA,013923.750,4306.1953,N,07725.9247,W,1,08,1.22,173.6,M,-34.3,M,,*55
$GPRMC,013924.000,A,4306.1965,N,07725.9247,W,17.91,0.03,300823,,,A*43
$GPGGA,013924.250,4306.1978,N,07725.9247,W,1,08,1.22,173.8,M,-34.3,M,,*50
$GPRMC,013924.500,A,4306.1991,N,07725.9248,W,18.15,359.89,300823,,,A*4C
$GPGGA,013924.750,4306.2004,N,07725.9248,W,1,08,1.22,174.0,M,-34.3,M,,*54
$GPRMC,013925.000,A,4306.2017,N,07725.9248,W,18.68,359.48,300823,,,A*4B
$GPGGA,013925.250,4306.2030,N,07725.9248,W,1,08,1.22,174.2,M,-34.3,M,,*55
$GPRMC,013925.500,A,4306.2043,N,07725.9248,W,19.05,359.24,300823,,,A*4F
$GPGGA,013925.750,4306.2056,N,07725.9248,W,1,08,1.22,174.5,M,-34.3,M,,*57
$GPRMC,013926.000,A,4306.2070,N,07725.9248,W,19.43,359.54,300823,,,A*4C
$GPGGA,013926.250,4306.2083,N,07725.9249,W,1,08,1.22,174.7,M,-34.3,M,,*5A
$GPRMC,013926.500,A,4306.2097,N,07725.9250,W,19.50,358.18,300823,,,A*42
$GPGGA,013926.750,4306.2110,N,07725.9250,W,1,08,1.22,174.9,M,-34.3,M,,*52
$GPRMC,013927.000,A,4306.2125,N,07725.9251,W,20.10,358.77,300823,,,A*48
$GPGGA,013927.250,4306.2140,N,07725.9251,W,1,08,1.22,175.1,M,-34.3,M,,*5B
$GPRMC,013927.500,A,4306.2155,N,07725.9251,W,21.32,359.64,300823,,,A*48
$GPGGA,013927.750,4306.2170,N,07725.9252,W,1,08,1.22,175.3,M,-34.3,M,,*5C
$GPRMC,013928.000,A,4306.2185,N,07725.9251,W,21.60,0.87,300823,,,A*4A
$GPGGA,013928.250,4306.2200,N,07725.9251,W,1,08,1.22,175.6,M,-34.3,M,,*54
$GPRMC,013928.500,A,4306.2216,N,07725.9250,W,21.88,1.58,300823,,,A*42
$GPGGA,013928.750,4306.2231,N,07725.9250,W,1,08,1.22,175.8,M,-34.3,M,,*5C
$GPRMC,013929.000,A,4306.2247,N,07725.9249,W,22.47,1.38,300823,,,A*4C
$GPGGA,013929.250,4306.2263,N,07725.9249,W,1,08,1.22,176.0,M,-34.3,M,,*5C
$GPRMC,013929.500,A,4306.2279,N,07725.9248,W,22.94,1.28,300823,,,A*4A
$GPGGA,013929.750,4306.2296,N,07725.9248,W,1,08,1.22,176.3,M,-34.3,M,,*51
$GPRMC,013930.000,A,4306.2312,N,07725.9248,W,23.05,360.00,300823,,,A*4C
