Vers 81
USE_SERIAL_FEEDBACK=true
DEVELOPMENT_MODE=false
USE_RMC_ONLY=false

$GPRMC,133059.000,A,4308.3009,N,07726.2626,W,0.61,340.38,191023,,,A*73
$GPGGA,133059.250,4308.3008,N,07726.2625,W,1,04,3.30,141.7,M,-34.4,M,,*5E
$GPRMC,133059.500,A,4308.3007,N,07726.2624,W,0.50,355.61,191023,,,A*70
$GPGGA,133059.750,4308.3005,N,07726.2623,W,1,04,5.44,141.2,M,-34.4,M,,*50
$GPRMC,133100.000,A,4308.3003,N,07726.2623,W,0.49,354.49,191023,,,A*78
$GPGGA,133100.250,4308.3001,N,07726.2623,W,1,04,5.44,141.0,M,-34.4,M,,*5E
$GPRMC,133100.500,A,4308.2999,N,07726.2623,W,0.48,338.98,191023,,,A*71
$GPGGA,133100.750,4308.2997,N,07726.2623,W,1,04,3.30,140.8,M,-34.4,M,,*50
$GPRMC,133101.000,A,4308.2996,N,07726.2623,W,0.39,329.48,191023,,,A*71
$GPGGA,133101.250,4308.2995,N,07726.2623,W,1,04,3.29,140.8,M,-34.4,M,,*5E
$GPRMC,133101.500,A,4308.2994,N,07726.2623,W,0.39,335.06,191023,,,A*71
$GPGGA,133101.750,4308.2992,N,07726.2623,W,1,04,3.30,140.7,M,-34.4,M,,*5B
$GPRMC,133102.000,A,4308.2991,N,07726.2623,W,0.34,334.14,191023,,,A*7D
$GPGGA,133102.250,4308.3024,N,07726.2629,W,1,05,1.63,147.9,M,-34.4,M,,*5E
$GPRMC,133102.500,A,4308.3035,N,07726.2631,W,0.27,328.96,191023,,,A*78
$GPGGA,133102.750,4308.3040,N,07726.2632,W,1,05,1.63,151.9,M,-34.4,M,,*54
$GPRMC,133103.000,A,4308.3043,N,07726.2632,W,0.18,310.16,191023,,,A*71
$GPGGA,133103.250,4308.3045,N,07726.2632,W,1,05,1.63,153.9,M,-34.4,M,,*57
$GPRMC,133103.500,A,4308.3048,N,07726.2632,W,0.05,347.45,191023,,,A*77
$GPGGA,133103.750,4308.3049,N,07726.2633,W,1,05,1.66,155.1,M,-34.4,M,,*54
$GPRMC,133104.000,A,4308.3050,N,07726.2632,W,0.04,87.58,191023,,,A*4E
$GPGGA,133104.250,4308.3051,N,07726.2633,W,1,05,1.63,155.9,M,-34.4,M,,*52
$GPRMC,133104.500,A,4308.3052,N,07726.2633,W,0.04,292.02,191023,,,A*71
$GPGGA,133104.750,4308.3052,N,07726.2633,W,1,05,1.63,156.5,M,-34.4,M,,*5B
$GPRMC,133105.000,A,4308.3052,N,07726.2633,W,0.04,294.95,191023,,,A*7D
$GPGGA,133105.250,4308.3053,N,07726.2634,W,1,05,1.63,156.9,M,-34.4,M,,*55
$GPRMC,133105.500,A,4308.3053,N,07726.2634,W,0.02,118.81,191023,,,A*7A
$GPGGA,133105.750,4308.3053,N,07726.2634,W,1,05,1.63,157.3,M,-34.4,M,,*5B
$GPRMC,133106.000,A,4308.3053,N,07726.2634,W,0.03,223.73,191023,,,A*7B
$GPGGA,133106.250,4308.3053,N,07726.2634,W,1,05,1.63,157.5,M,-34.4,M,,*5B
$GPRMC,133106.500,A,4308.3053,N,07726.2634,W,0.03,83.94,191023,,,A*4F
$GPGGA,133106.750,4308.3053,N,07726.2635,W,1,05,1.63,157.8,M,-34.4,M,,*52
$GPRMC,133107.000,A,4308.3053,N,07726.2635,W,0.01,245.56,191023,,,A*7E
$GPGGA,133107.250,4308.3052,N,07726.2635,W,1,05,1.63,157.9,M,-34.4,M,,*56
$GPRMC,133107.500,A,4308.3052,N,07726.2635,W,0.04,305.31,191023,,,A*7B
$GPGGA,133107.750,4308.3052,N,07726.2635,W,1,05,1.63,158.1,M,-34.4,M,,*54
$GPRMC,133108.000,A,4308.3052,N,07726.2636,W,0.01,213.29,191023,,,A*78
$GPGGA,133106.250,4308.3051,N,07726.2635,W,1,05,1.63,157.8,M,-34.4,M,,*55
$GPRMC,133106.500,A,4308.3051,N,07726.2635,W,0.06,320.01,191023,,,A*7F
$GPGGA,133106.750,4308.3051,N,07726.2636,W,1,05,1.63,157.4,M,-34.4,M,,*5F
$GPRMC,133107.000,A,4308.3051,N,07726.2637,W,0.04,115.20,191023,,,A*7C
$GPGGA,133107.250,4308.3051,N,07726.2637,W,1,05,1.63,157.0,M,-34.4,M,,*5E
$GPRMC,133107.500,A,4308.3050,N,07726.2637,W,0.04,252.68,191023,,,A*74
$GPGGA,133107.750,4308.3050,N,07726.2637,W,1,05,1.63,156.6,M,-34.4,M,,*5D
$GPRMC,133108.000,A,4308.3050,N,07726.2638,W,0.06,346.66,191023,,,A*79
$GPGGA,133108.250,4308.3050,N,07726.2638,W,1,05,1.65,156.3,M,-34.4,M,,*5B
$GPRMC,133108.500,A,4308.3050,N,07726.2638,W,0.10,317.42,191023,,,A*79
$GPGGA,133108.750,4308.3050,N,07726.2639,W,1,05,1.63,156.0,M,-34.4,M,,*5A
$GPRMC,133109.000,A,4308.3049,N,07726.2638,W,0.04,66.81,191023,,,A*4A
$GPGGA,133109.250,4308.3049,N,07726.2638,W,1,05,1.63,155.8,M,-34.4,M,,*5C
$GPRMC,133109.500,A,4308.3049,N,07726.2639,W,0.07,272.69,191023,,,A*7C
$GPGGA,133109.750,4308.3048,N,07726.2639,W,1,05,1.63,155.6,M,-34.4,M,,*57
$GPRMC,133110.000,A,4308.3048,N,07726.2639,W,0.07,309.10,191023,,,A*73
$GPGGA,133110.250,4308.3048,N,07726.2639,W,1,05,1.63,155.4,M,-34.4,M,,*58
$GPRMC,133110.500,A,4308.3047,N,07726.2639,W,0.06,309.72,191023,,,A*7C
$GPGGA,133110.750,4308.3047,N,07726.2639,W,1,05,1.63,155.3,M,-34.4,M,,*55
$GPRMC,133111.000,A,4308.3047,N,07726.2638,W,0.02,260.46,191023,,,A*74
$GPGGA,133111.250,4308.3046,N,07726.2638,W,1,05,1.63,155.1,M,-34.4,M,,*53
$GPRMC,133111.500,A,4308.3046,N,07726.2638,W,0.03,323.07,191023,,,A*72
$GPGGA,133111.750,4308.3046,N,07726.2638,W,1,05,1.63,155.0,M,-34.4,M,,*57
$GPRMC,133112.000,A,4308.3045,N,07726.2638,W,0.02,108.60,191023,,,A*7C
$GPGGA,133112.250,4308.3045,N,07726.2638,W,1,05,1.63,154.9,M,-34.4,M,,*5A
$GPRMC,133112.500,A,4308.3045,N,07726.2638,W,0.02,68.13,191023,,,A*4A
$GPGGA,133112.750,4308.3045,N,07726.2638,W,1,05,1.63,154.9,M,-34.4,M,,*5F
$GPRMC,133113.000,A,4308.3044,N,07726.2638,W,0.06,286.57,191023,,,A*79
$GPGGA,133113.250,4308.3044,N,07726.2637,W,1,05,1.63,154.8,M,-34.4,M,,*54
$GPRMC,133113.500,A,4308.3044,N,07726.2637,W,0.06,293.26,191023,,,A*71
$GPGGA,133113.750,4308.3044,N,07726.2637,W,1,05,1.63,154.7,M,-34.4,M,,*5E
$GPRMC,133114.000,A,4308.3044,N,07726.2637,W,0.04,309.00,191023,,,A*77
$GPGGA,133114.250,4308.3043,N,07726.2637,W,1,05,1.63,154.7,M,-34.4,M,,*5B
$GPRMC,133114.500,A,4308.3043,N,07726.2637,W,0.08,166.41,191023,,,A*77
$GPGGA,133114.750,4308.3043,N,07726.2637,W,1,05,1.63,154.6,M,-34.4,M,,*5F
$GPRMC,133115.000,A,4308.3043,N,07726.2637,W,0.08,350.20,191023,,,A*73
$GPGGA,133115.250,4308.3043,N,07726.2637,W,1,05,1.65,154.7,M,-34.4,M,,*5C
$GPRMC,133115.500,A,4308.3043,N,07726.2637,W,0.08,307.63,191023,,,A*73
$GPGGA,133115.750,4308.3043,N,07726.2637,W,1,05,1.63,154.8,M,-34.4,M,,*50
$GPRMC,133116.000,A,4308.3043,N,07726.2637,W,0.09,323.76,191023,,,A*76
$GPGGA,133116.250,4308.3043,N,07726.2637,W,1,05,1.63,154.9,M,-34.4,M,,*57
$GPRMC,133116.500,A,4308.3043,N,07726.2637,W,0.06,309.03,191023,,,A*76
$GPGGA,133116.750,4308.3043,N,07726.2637,W,1,05,1.63,155.0,M,-34.4,M,,*5A
$GPRMC,133117.000,A,4308.3043,N,07726.2637,W,0.05,299.76,191023,,,A*7B
$GPGGA,133117.250,4308.3042,N,07726.2637,W,1,05,1.63,155.2,M,-34.4,M,,*5D
$GPRMC,133117.500,A,4308.3042,N,07726.2637,W,0.01,288.11,191023,,,A*7A
$GPGGA,133117.750,4308.3042,N,07726.2637,W,1,05,1.63,155.3,M,-34.4,M,,*59
$GPRMC,133118.000,A,4308.3042,N,07726.2636,W,0.04,89.24,191023,,,A*41
$GPGGA,133118.250,4308.3042,N,07726.2636,W,1,06,1.42,155.4,M,-34.4,M,,*55
$GPRMC,133118.500,A,4308.3041,N,07726.2636,W,0.02,132.29,191023,,,A*7D
$GPGGA,133118.750,4308.3041,N,07726.2636,W,1,06,1.42,155.5,M,-34.4,M,,*52
$GPRMC,133119.000,A,4308.3041,N,07726.2635,W,0.02,216.67,191023,,,A*75
$GPGGA,133119.250,4308.3041,N,07726.2635,W,1,06,1.42,155.6,M,-34.4,M,,*56
$GPRMC,133119.500,A,4308.3040,N,07726.2635,W,0.02,35.03,191023,,,A*40
$GPGGA,133119.750,4308.3040,N,07726.2635,W,1,06,1.42,155.6,M,-34.4,M,,*52
$GPRMC,133120.000,A,4308.3040,N,07726.2635,W,0.01,227.90,191023,,,A*77
$GPGGA,133120.250,4308.3040,N,07726.2634,W,1,06,1.42,155.6,M,-34.4,M,,*5C
$GPRMC,133120.500,A,4308.3040,N,07726.2634,W,0.02,6.37,191023,,,A*7C
$GPGGA,133120.750,4308.3039,N,07726.2634,W,1,06,1.45,155.6,M,-34.4,M,,*50
$GPRMC,133121.000,A,4308.3040,N,07726.2634,W,0.04,251.61,191023,,,A*7D
$GPGGA,133121.250,4308.3039,N,07726.2634,W,1,06,1.42,155.7,M,-34.4,M,,*52
$GPRMC,133121.500,A,4308.3039,N,07726.2634,W,0.04,196.42,191023,,,A*7F
$GPGGA,133121.750,4308.3039,N,07726.2634,W,1,06,1.42,155.7,M,-34.4,M,,*57
$GPRMC,133122.000,A,4308.3039,N,07726.2634,W,0.06,187.95,191023,,,A*71
$GPGGA,133122.250,4308.3039,N,07726.2634,W,1,06,1.42,155.6,M,-34.4,M,,*50
$GPRMC,133122.500,A,4308.3039,N,07726.2634,W,0.02,153.56,191023,,,A*76
$GPGGA,133122.750,4308.3039,N,07726.2634,W,1,06,1.42,155.6,M,-34.4,M,,*55
$GPRMC,133123.000,A,4308.3039,N,07726.2634,W,0.03,132.56,191023,,,A*74
$GPGGA,133123.250,4308.3039,N,07726.2634,W,1,06,1.42,155.6,M,-34.4,M,,*51
$GPRMC,133123.500,A,4308.3039,N,07726.2634,W,0.02,57.79,191023,,,A*4F
$GPGGA,133123.750,4308.3039,N,07726.2634,W,1,06,1.42,155.6,M,-34.4,M,,*54
$GPRMC,133124.000,A,4308.3039,N,07726.2634,W,0.05,18.26,191023,,,A*4B
$GPGGA,133124.250,4308.3039,N,07726.2634,W,1,06,1.42,155.6,M,-34.4,M,,*56
$GPRMC,133124.500,A,4308.3039,N,07726.2634,W,0.01,260.93,191023,,,A*79
$GPGGA,133124.750,4308.3039,N,07726.2634,W,1,06,1.42,155.6,M,-34.4,M,,*53
$GPRMC,133125.000,A,4308.3039,N,07726.2634,W,0.01,51.20,191023,,,A*45
$GPGGA,133125.250,4308.3039,N,07726.2633,W,1,06,1.42,155.5,M,-34.4,M,,*53
$GPRMC,133125.500,A,4308.3039,N,07726.2633,W,0.01,287.44,191023,,,A*7C
$GPGGA,133125.750,4308.3039,N,07726.2633,W,1,06,1.42,155.5,M,-34.4,M,,*56
$GPRMC,133126.000,A,4308.3039,N,07726.2633,W,0.04,39.48,191023,,,A*44
$GPGGA,133126.250,4308.3039,N,07726.2633,W,1,06,1.42,155.5,M,-34.4,M,,*50
$GPRMC,133126.500,A,4308.3039,N,07726.2633,W,0.01,305.28,191023,,,A*7E
$GPGGA,133126.750,4308.3039,N,07726.2633,W,1,06,1.42,155.5,M,-34.4,M,,*55
$GPRMC,133127.000,A,4308.3039,N,07726.2632,W,0.04,275.87,191023,,,A*7D
$GPGGA,133127.250,4308.3040,N,07726.2632,W,1,06,1.42,155.5,M,-34.4,M,,*5E
$GPRMC,133127.500,A,4308.3040,N,07726.2632,W,0.04,27.65,191023,,,A*4F
$GPGGA,133127.750,4308.3040,N,07726.2632,W,1,06,1.42,155.5,M,-34.4,M,,*5B
$GPRMC,133128.000,A,4308.3040,N,07726.2632,W,0.04,205.48,191023,,,A*78
$GPGGA,133128.250,4308.3040,N,07726.2632,W,1,06,1.42,155.5,M,-34.4,M,,*51
$GPRMC,133128.500,A,4308.3040,N,07726.2632,W,0.03,211.37,191023,,,A*77
$GPGGA,133128.750,4308.3040,N,07726.2632,W,1,06,1.42,155.5,M,-34.4,M,,*54
$GPRMC,133129.000,A,4308.3040,N,07726.2632,W,0.01,300.56,191023,,,A*77
$GPGGA,133129.250,4308.3040,N,07726.2632,W,1,06,1.42,155.5,M,-34.4,M,,*50
$GPRMC,133129.500,A,4308.3040,N,07726.2632,W,0.01,151.81,191023,,,A*7E
$GPGGA,133129.750,4308.3040,N,07726.2632,W,1,06,1.42,155.5,M,-34.4,M,,*55
$GPRMC,133130.000,A,4308.3040,N,07726.2632,W,0.02,227.61,191023,,,A*7C
$GPGGA,133130.250,4308.3040,N,07726.2632,W,1,06,1.42,155.5,M,-34.4,M,,*58
$GPRMC,133130.500,A,4308.3040,N,07726.2632,W,0.01,129.77,191023,,,A*70
$GPGGA,133130.750,4308.3040,N,07726.2632,W,1,06,1.42,155.5,M,-34.4,M,,*5D
$GPRMC,133131.000,A,4308.3040,N,07726.2632,W,0.05,118.61,191023,,,A*75
$GPGGA,133131.250,4308.3040,N,07726.2632,W,1,06,1.42,155.5,M,-34.4,M,,*59
$GPRMC,133131.500,A,4308.3040,N,07726.2632,W,0.01,9.30,191023,,,A*71
$GPGGA,133131.750,4308.3040,N,07726.2632,W,1,06,1.46,155.5,M,-34.4,M,,*58
$GPRMC,133132.000,A,4308.3040,N,07726.2632,W,0.05,175.88,191023,,,A*7A
$GPGGA,133132.250,4308.3040,N,07726.2632,W,1,06,1.42,155.5,M,-34.4,M,,*5A
$GPRMC,133132.500,A,4308.3040,N,07726.2632,W,0.03,161.06,191023,,,A*7A
$GPGGA,133132.750,4308.3040,N,07726.2632,W,1,06,1.42,155.5,M,-34.4,M,,*5F
$GPRMC,133133.000,A,4308.3039,N,07726.2632,W,0.02,349.26,191023,,,A*7B
$GPGGA,133133.250,4308.3039,N,07726.2632,W,1,06,1.46,155.5,M,-34.4,M,,*51
$GPRMC,133133.500,A,4308.3040,N,07726.2632,W,0.03,131.57,191023,,,A*7A
$GPGGA,133133.750,4308.3039,N,07726.2632,W,1,06,1.42,155.5,M,-34.4,M,,*50
$GPRMC,133134.000,A,4308.3039,N,07726.2632,W,0.03,132.98,191023,,,A*76
$GPGGA,133134.250,4308.3039,N,07726.2632,W,1,06,1.42,155.5,M,-34.4,M,,*52
$GPRMC,133134.500,A,4308.3039,N,07726.2632,W,0.03,185.93,191023,,,A*74
$GPGGA,133134.750,4308.3039,N,07726.2632,W,1,06,1.42,155.5,M,-34.4,M,,*57
$GPRMC,133135.000,A,4308.3039,N,07726.2632,W,0.04,142.83,191023,,,A*7D
$GPGGA,133135.250,4308.3039,N,07726.2632,W,1,06,1.42,155.5,M,-34.4,M,,*53
$GPRMC,133135.500,A,4308.3039,N,07726.2632,W,0.04,160.90,191023,,,A*7A
$GPGGA,133135.750,4308.3039,N,07726.2632,W,1,06,1.42,155.5,M,-34.4,M,,*56
$GPRMC,133136.000,A,4308.3039,N,07726.2632,W,0.03,302.43,191023,,,A*73
$GPGGA,133136.250,4308.3039,N,07726.2632,W,1,06,1.42,155.5,M,-34.4,M,,*50
$GPRMC,133136.500,A,4308.3039,N,07726.2632,W,0.02,141.79,191023,,,A*7B
$GPGGA,133136.750,4308.3039,N,07726.2632,W,1,06,1.46,155.5,M,-34.4,M,,*51
$GPRMC,133137.000,A,4308.3039,N,07726.2632,W,0.01,169.45,191023,,,A*79
$GPGGA,133137.250,4308.3039,N,07726.2632,W,1,06,1.45,155.5,M,-34.4,M,,*56
$GPRMC,133137.500,A,4308.3039,N,07726.2632,W,0.01,139.31,191023,,,A*7A
$GPGGA,133137.750,4308.3039,N,07726.2632,W,1,06,1.46,155.5,M,-34.4,M,,*50
$GPRMC,133138.000,A,4308.3039,N,07726.2632,W,0.01,78.34,191023,,,A*41
$GPGGA,133138.250,4308.3039,N,07726.2632,W,1,06,1.46,155.5,M,-34.4,M,,*5A
$GPRMC,133138.500,A,4308.3039,N,07726.2632,W,0.01,144.59,191023,,,A*71
$GPGGA,133138.750,4308.3039,N,07726.2632,W,1,06,1.46,155.5,M,-34.4,M,,*5F
$GPRMC,133139.000,A,4308.3039,N,07726.2632,W,0.01,57.54,191023,,,A*4B
$GPGGA,133139.250,4308.3039,N,07726.2632,W,1,06,1.45,155.5,M,-34.4,M,,*58
$GPRMC,133139.500,A,4308.3039,N,07726.2632,W,0.01,207.17,191023,,,A*7E
$GPGGA,133139.750,4308.3039,N,07726.2632,W,1,06,1.45,155.5,M,-34.4,M,,*5D
$GPRMC,133140.000,A,4308.3039,N,07726.2632,W,0.01,194.10,191023,,,A*7B
$GPGGA,133140.250,4308.3039,N,07726.2632,W,1,06,1.46,155.5,M,-34.4,M,,*55
$GPRMC,133140.500,A,4308.3039,N,07726.2632,W,0.04,153.35,191023,,,A*77
$GPGGA,133140.750,4308.3039,N,07726.2632,W,1,06,1.46,155.5,M,-34.4,M,,*50
$GPRMC,133141.000,A,4308.3039,N,07726.2632,W,0.01,54.71,191023,,,A*40
$GPGGA,133141.250,4308.3039,N,07726.2632,W,1,06,1.45,155.5,M,-34.4,M,,*57
$GPRMC,133141.500,A,4308.3039,N,07726.2632,W,0.00,0.00,191023,,,A*73
$GPGGA,133141.750,4308.3039,N,07726.2632,W,1,06,1.46,155.5,M,-34.4,M,,*51
$GPRMC,133142.000,A,4308.3039,N,07726.2632,W,0.01,4.68,191023,,,A*7E
$GPGGA,133142.250,4308.3039,N,07726.2632,W,1,06,1.46,155.5,M,-34.4,M,,*57
$GPRMC,133142.500,A,4308.3039,N,07726.2632,W,0.01,58.40,191023,,,A*48
$GPGGA,133142.750,4308.3039,N,07726.2632,W,1,06,1.45,155.5,M,-34.4,M,,*51
$GPRMC,133143.000,A,4308.3039,N,07726.2632,W,0.00,281.65,191023,,,A*7C
$GPGGA,133143.250,4308.3039,N,07726.2632,W,1,06,1.46,155.5,M,-34.4,M,,*56
$GPRMC,133143.500,A,4308.3039,N,07726.2632,W,0.00,294.48,191023,,,A*72
$GPGGA,133143.750,4308.3039,N,07726.2632,W,1,06,1.46,155.5,M,-34.4,M,,*53
$GPRMC,133144.000,A,4308.3039,N,07726.2632,W,0.01,187.77,191023,,,A*7C
$GPGGA,133144.250,4308.3039,N,07726.2632,W,1,06,1.46,155.5,M,-34.4,M,,*51
$GPRMC,133144.500,A,4308.3039,N,07726.2632,W,0.00,167.96,191023,,,A*79
$GPGGA,133144.750,4308.3039,N,07726.2632,W,1,06,1.46,155.5,M,-34.4,M,,*54
$GPRMC,133145.000,A,4308.3039,N,07726.2632,W,0.00,0.00,191023,,,A*72
$GPGGA,133145.250,4308.3039,N,07726.2632,W,1,06,1.46,155.5,M,-34.4,M,,*50
$GPRMC,133145.500,A,4308.3039,N,07726.2632,W,0.00,64.78,191023,,,A*4A
$GPGGA,133145.750,4308.3039,N,07726.2632,W,1,06,1.45,155.5,M,-34.4,M,,*56
$GPRMC,133146.000,A,4308.3039,N,07726.2632,W,0.00,187.55,191023,,,A*7F
$GPGGA,133146.250,4308.3039,N,07726.2632,W,1,06,1.46,155.5,M,-34.4,M,,*53
$GPRMC,133146.500,A,4308.3039,N,07726.2632,W,0.01,36.50,191023,,,A*45
$GPGGA,133146.750,4308.3039,N,07726.2632,W,1,06,1.45,155.5,M,-34.4,M,,*55
$GPRMC,133147.000,A,4308.3039,N,07726.2632,W,0.01,243.65,191023,,,A*77
$GPGGA,133147.250,4308.3039,N,07726.2632,W,1,06,1.46,155.5,M,-34.4,M,,*52
$GPRMC,133147.500,A,4308.3039,N,07726.2632,W,0.01,67.23,191023,,,A*44
$GPGGA,133147.750,4308.3039,N,07726.2632,W,1,06,1.46,155.5,M,-34.4,M,,*57
$GPRMC,133148.000,A,4308.3039,N,07726.2632,W,0.00,339.76,191023,,,A*77
$GPGGA,133148.250,4308.3039,N,07726.2632,W,1,06,1.46,155.5,M,-34.4,M,,*5D
$GPRMC,133148.500,A,4308.3039,N,07726.2632,W,0.01,7.24,191023,,,A*7A
$GPGGA,133148.750,4308.3039,N,07726.2632,W,1,06,1.46,155.5,M,-34.4,M,,*58
$GPRMC,133149.000,A,4308.3039,N,07726.2632,W,0.01,96.70,191023,,,A*47
$GPGGA,133149.250,4308.3039,N,07726.2632,W,1,06,1.46,155.5,M,-34.4,M,,*5C
$GPRMC,133149.500,A,4308.3039,N,07726.2632,W,0.00,0.00,191023,,,A*7B
$GPGGA,133149.750,4308.3039,N,07726.2632,W,1,06,1.46,155.5,M,-34.4,M,,*59
$GPRMC,133150.000,A,4308.3039,N,07726.2632,W,0.00,21.87,191023,,,A*4A
$GPGGA,133150.250,4308.3039,N,07726.2632,W,1,06,1.46,155.5,M,-34.4,M,,*54
$GPRMC,133150.500,A,4308.3039,N,07726.2632,W,0.01,204.79,191023,,,A*7A
$GPGGA,133150.750,4308.3039,N,07726.2632,W,1,06,1.46,155.5,M,-34.4,M,,*51
$GPRMC,133151.000,A,4308.3039,N,07726.2632,W,0.01,350.82,191023,,,A*7A
$GPGGA,133151.250,4308.3039,N,07726.2632,W,1,06,1.46,155.5,M,-34.4,M,,*55
$GPRMC,133151.500,A,4308.3040,N,07726.2632,W,0.01,148.59,191023,,,A*7C
$GPGGA,133151.750,4308.3040,N,07726.2632,W,1,06,1.46,155.5,M,-34.4,M,,*5E
$GPRMC,133152.000,A,4308.3040,N,07726.2632,W,0.01,162.03,191023,,,A*7D
$GPGGA,133152.250,4308.3040,N,07726.2632,W,1,06,1.46,155.5,M,-34.4,M,,*58
$GPRMC,133152.500,A,4308.3040,N,07726.2632,W,0.02,24.73,191023,,,A*4F
$GPGGA,133152.750,4308.3040,N,07726.2632,W,1,06,1.46,155.5,M,-34.4,M,,*5D
$GPRMC,133153.000,A,4308.3040,N,07726.2632,W,0.02,174.47,191023,,,A*78
$GPGGA,133153.250,4308.3040,N,07726.2632,W,1,06,1.46,155.5,M,-34.4,M,,*59
$GPRMC,133153.500,A,4308.3040,N,07726.2632,W,0.01,301.46,191023,,,A*7F
$GPGGA,133153.750,4308.3040,N,07726.2632,W,1,06,1.46,155.5,M,-34.4,M,,*5C
$GPRMC,133154.000,A,4308.3040,N,07726.2632,W,0.01,248.49,191023,,,A*7E
$GPGGA,133154.250,4308.3040,N,07726.2632,W,1,06,1.46,155.5,M,-34.4,M,,*5E
$GPRMC,133154.500,A,4308.3040,N,07726.2632,W,0.01,212.91,191023,,,A*71
$GPGGA,133154.750,4308.3040,N,07726.2632,W,1,06,1.46,155.5,M,-34.4,M,,*5B
$GPRMC,133155.000,A,4308.3040,N,07726.2632,W,0.01,94.64,191023,,,A*43
$GPGGA,133155.250,4308.3040,N,07726.2632,W,1,06,1.46,155.5,M,-34.4,M,,*5F
$GPRMC,133155.500,A,4308.3040,N,07726.2632,W,0.01,182.63,191023,,,A*77
$GPGGA,133155.750,4308.3040,N,07726.2632,W,1,06,1.46,155.5,M,-34.4,M,,*5A
$GPRMC,133156.000,A,4308.3040,N,07726.2632,W,0.01,83.58,191023,,,A*49
$GPGGA,133156.250,4308.3040,N,07726.2632,W,1,06,1.46,155.5,M,-34.4,M,,*5C
$GPRMC,133156.500,A,4308.3040,N,07726.2632,W,0.01,42.58,191023,,,A*41
$GPGGA,133156.750,4308.3040,N,07726.2632,W,1,06,1.46,155.5,M,-34.4,M,,*59
$GPRMC,133157.000,A,4308.3040,N,07726.2632,W,0.01,309.45,191023,,,A*75
$GPGGA,133157.250,4308.3040,N,07726.2632,W,1,06,1.46,155.5,M,-34.4,M,,*5D
$GPRMC,133157.500,A,4308.3040,N,07726.2632,W,0.01,307.14,191023,,,A*7A
$GPGGA,133157.750,4308.3040,N,07726.2632,W,1,06,1.46,155.5,M,-34.4,M,,*58
$GPRMC,133158.000,A,4308.3040,N,07726.2632,W,0.00,105.92,191023,,,A*7F
$GPGGA,133158.250,4308.3040,N,07726.2632,W,1,06,1.46,155.5,M,-34.4,M,,*52
$GPRMC,133158.500,A,4308.3040,N,07726.2632,W,0.00,218.98,191023,,,A*7F
$GPGGA,133158.750,4308.3040,N,07726.2632,W,1,06,1.46,155.5,M,-34.4,M,,*57
$GPRMC,133159.000,A,4308.3040,N,07726.2632,W,0.01,200.45,191023,,,A*73
$GPGGA,133159.250,4308.3040,N,07726.2632,W,1,06,1.46,155.5,M,-34.4,M,,*53
$GPRMC,133159.500,A,4308.3040,N,07726.2632,W,0.01,349.91,191023,,,A*73
$GPGGA,133159.750,4308.3040,N,07726.2632,W,1,06,1.46,155.5,M,-34.4,M,,*56
$GPRMC,133200.000,A,4308.3040,N,07726.2632,W,0.01,79.07,191023,,,A*46
$GPGGA,133200.250,4308.3040,N,07726.2632,W,1,06,1.46,155.5,M,-34.4,M,,*5C
$GPRMC,133200.500,A,4308.3040,N,07726.2632,W,0.01,220.22,191023,,,A*7A
$GPGGA,133200.750,4308.3040,N,07726.2632,W,1,06,1.46,155.5,M,-34.4,M,,*59
$GPRMC,133201.000,A,4308.3040,N,07726.2632,W,0.00,181.39,191023,,,A*7D
$GPGGA,133201.250,4308.3040,N,07726.2632,W,1,06,1.46,155.5,M,-34.4,M,,*5D
$GPRMC,133201.500,A,4308.3040,N,07726.2632,W,0.01,326.12,191023,,,A*7F
$GPGGA,133201.750,4308.3040,N,07726.2632,W,1,06,1.46,155.5,M,-34.4,M,,*58
$GPRMC,133202.000,A,4308.3040,N,07726.2632,W,0.01,15.17,191023,,,A*4F
$GPGGA,133202.250,4308.3040,N,07726.2632,W,1,06,1.46,155.5,M,-34.4,M,,*5E
$GPRMC,133202.500,A,4308.3040,N,07726.2632,W,0.01,141.24,191023,,,A*7A
$GPGGA,133202.750,4308.3040,N,07726.2632,W,1,06,1.46,155.5,M,-34.4,M,,*5B
$GPRMC,133203.000,A,4308.3040,N,07726.2632,W,0.00,3.71,191023,,,A*78
$GPGGA,133203.250,4308.3040,N,07726.2632,W,1,06,1.46,155.5,M,-34.4,M,,*5F
$GPRMC,133203.500,A,4308.3040,N,07726.2632,W,0.01,282.90,191023,,,A*78
$GPGGA,133203.750,4308.3040,N,07726.2632,W,1,06,1.46,155.5,M,-34.4,M,,*5A
$GPRMC,133204.000,A,4308.3040,N,07726.2632,W,0.00,246.77,191023,,,A*7A
$GPGGA,133204.250,4308.3040,N,07726.2632,W,1,06,1.46,155.5,M,-34.4,M,,*58
$GPRMC,133204.500,A,4308.3040,N,07726.2632,W,0.01,73.06,191023,,,A*4C
$GPGGA,133204.750,4308.3040,N,07726.2632,W,1,06,1.46,155.5,M,-34.4,M,,*5D
$GPRMC,133205.000,A,4308.3040,N,07726.2632,W,0.01,279.38,191023,,,A*7D
$GPGGA,133205.250,4308.3040,N,07726.2632,W,1,06,1.46,155.5,M,-34.4,M,,*59
$GPRMC,133205.500,A,4308.3040,N,07726.2632,W,0.02,178.89,191023,,,A*73
$GPGGA,133205.750,4308.3040,N,07726.2632,W,1,06,1.46,155.5,M,-34.4,M,,*5C
$GPRMC,133206.000,A,4308.3040,N,07726.2632,W,0.01,6.93,191023,,,A*75
$GPGGA,133206.250,4308.3040,N,07726.2632,W,1,06,1.46,155.5,M,-34.4,M,,*5A
$GPRMC,133206.500,A,4308.3040,N,07726.2632,W,0.01,1.00,191023,,,A*7D
$GPGGA,133206.750,4308.3040,N,07726.2632,W,1,06,1.46,155.5,M,-34.4,M,,*5F
$GPRMC,133207.000,A,4308.3040,N,07726.2632,W,0.00,194.15,191023,,,A*71
$GPGGA,133207.250,4308.3040,N,07726.2632,W,1,06,1.46,155.5,M,-34.4,M,,*5B
$GPRMC,133207.500,A,4308.3040,N,07726.2632,W,0.01,221.31,191023,,,A*7E
$GPGGA,133207.750,4308.3040,N,07726.2632,W,1,06,1.46,155.5,M,-34.4,M,,*5E
$GPRMC,133208.000,A,4308.3040,N,07726.2632,W,0.01,105.36,191023,,,A*76
$GPGGA,133208.250,4308.3040,N,07726.2632,W,1,06,1.46,155.5,M,-34.4,M,,*54
$GPRMC,133208.500,A,4308.3040,N,07726.2632,W,0.01,103.25,191023,,,A*77
$GPGGA,133208.750,4308.3040,N,07726.2632,W,1,06,1.46,155.5,M,-34.4,M,,*51
$GPRMC,133209.000,A,4308.3040,N,07726.2632,W,0.01,89.55,191023,,,A*47
$GPGGA,133209.250,4308.3040,N,07726.2632,W,1,06,1.46,155.5,M,-34.4,M,,*55
$GPRMC,133209.500,A,4308.3040,N,07726.2632,W,0.00,203.49,191023,,,A*7E
$GPGGA,133209.750,4308.3040,N,07726.2632,W,1,06,1.46,155.5,M,-34.4,M,,*50
$GPRMC,133210.000,A,4308.3040,N,07726.2632,W,0.01,36.65,191023,,,A*48
$GPGGA,133210.250,4308.3040,N,07726.2632,W,1,06,1.46,155.5,M,-34.4,M,,*5D
$GPRMC,133210.500,A,4308.3040,N,07726.2632,W,0.01,317.34,191023,,,A*79
$GPGGA,133210.750,4308.3040,N,07726.2632,W,1,06,1.46,155.5,M,-34.4,M,,*58
$GPRMC,133211.000,A,4308.3040,N,07726.2632,W,0.01,222.28,191023,,,A*77
$GPGGA,133211.250,4308.3040,N,07726.2632,W,1,06,1.46,155.5,M,-34.4,M,,*5C
$GPRMC,133211.500,A,4308.3040,N,07726.2632,W,0.01,335.92,191023,,,A*74
$GPGGA,133211.750,4308.3040,N,07726.2632,W,1,06,1.46,155.5,M,-34.4,M,,*59
$GPRMC,133212.000,A,4308.3040,N,07726.2632,W,0.01,348.93,191023,,,A*79
$GPGGA,133212.250,4308.3040,N,07726.2632,W,1,06,1.46,155.5,M,-34.4,M,,*5F
$GPRMC,133212.500,A,4308.3040,N,07726.2632,W,0.00,163.04,191023,,,A*78
$GPGGA,133212.750,4308.3040,N,07726.2632,W,1,06,1.46,155.5,M,-34.4,M,,*5A
$GPRMC,133213.000,A,4308.3040,N,07726.2632,W,0.00,174.95,191023,,,A*72
$GPGGA,133213.250,4308.3040,N,07726.2632,W,1,06,1.46,155.5,M,-34.4,M,,*5E
$GPRMC,133213.500,A,4308.3040,N,07726.2632,W,0.01,253.19,191023,,,A*74
$GPGGA,133213.750,4308.3040,N,07726.2632,W,1,06,1.46,155.5,M,-34.4,M,,*5B
$GPRMC,133214.000,A,4308.3040,N,07726.2632,W,0.01,0.94,191023,,,A*77
$GPGGA,133214.250,4308.3040,N,07726.2632,W,1,06,1.46,155.5,M,-34.4,M,,*59
$GPRMC,133214.500,A,4308.3040,N,07726.2632,W,0.01,111.34,191023,,,A*79
$GPGGA,133214.750,4308.3040,N,07726.2632,W,1,06,1.46,155.5,M,-34.4,M,,*5C
$GPRMC,133215.000,A,4308.3040,N,07726.2632,W,0.01,262.28,191023,,,A*77
$GPGGA,133215.250,4308.3040,N,07726.2632,W,1,06,1.46,155.5,M,-34.4,M,,*58
$GPRMC,133215.500,A,4308.3040,N,07726.2632,W,0.00,215.06,191023,,,A*7F
$GPGGA,133215.750,4308.3040,N,07726.2632,W,1,06,1.46,155.5,M,-34.4,M,,*5D
$GPRMC,133216.000,A,4308.3040,N,07726.2632,W,0.00,19.11,191023,,,A*41
$GPGGA,133216.250,4308.3040,N,07726.2632,W,1,06,1.46,155.5,M,-34.4,M,,*5B
$GPRMC,133216.500,A,4308.3040,N,07726.2632,W,0.00,117.47,191023,,,A*78
$GPGGA,133216.750,4308.3040,N,07726.2632,W,1,06,1.46,155.5,M,-34.4,M,,*5E
$GPRMC,133217.000,A,4308.3040,N,07726.2632,W,0.00,234.12,191023,,,A*7E
$GPGGA,133217.250,4308.3040,N,07726.2632,W,1,06,1.46,155.5,M,-34.4,M,,*5A
$GPRMC,133217.500,A,4308.3040,N,07726.2632,W,0.01,141.21,191023,,,A*7B
$GPGGA,133217.750,4308.3040,N,07726.2632,W,1,06,1.46,155.5,M,-34.4,M,,*5F
$GPRMC,133218.000,A,4308.3040,N,07726.2632,W,0.00,214.09,191023,,,A*79
$GPGGA,133218.250,4308.3040,N,07726.2632,W,1,06,1.46,155.5,M,-34.4,M,,*55
$GPRMC,133218.500,A,4308.3040,N,07726.2632,W,0.02,211.68,191023,,,A*7C
$GPGGA,133218.750,4308.3040,N,07726.2632,W,1,06,1.46,155.5,M,-34.4,M,,*50
$GPRMC,133219.000,A,4308.3040,N,07726.2632,W,0.01,135.70,191023,,,A*77
$GPGGA,133219.250,4308.3040,N,07726.2632,W,1,06,1.46,155.5,M,-34.4,M,,*54
$GPRMC,133219.500,A,4308.3040,N,07726.2632,W,0.01,146.42,191023,,,A*77
$GPGGA,133219.750,4308.3040,N,07726.2632,W,1,06,1.46,155.5,M,-34.4,M,,*51
$GPRMC,133220.000,A,4308.3040,N,07726.2632,W,0.01,151.53,191023,,,A*7E
$GPGGA,133220.250,4308.3040,N,07726.2632,W,1,06,1.46,155.5,M,-34.4,M,,*5E
$GPRMC,133220.500,A,4308.3040,N,07726.2632,W,0.00,163.42,191023,,,A*7B
$GPGGA,133220.750,4308.3040,N,07726.2632,W,1,06,1.46,155.5,M,-34.4,M,,*5B
$GPRMC,133221.000,A,4308.3040,N,07726.2632,W,0.01,323.02,191023,,,A*7C
$GPGGA,133221.250,4308.3040,N,07726.2632,W,1,06,1.46,155.5,M,-34.4,M,,*5F
$GPRMC,133221.500,A,4308.3040,N,07726.2632,W,0.00,96.41,191023,,,A*42
$GPGGA,133221.750,4308.3040,N,07726.2632,W,1,06,1.46,155.5,M,-34.4,M,,*5A
$GPRMC,133222.000,A,4308.3040,N,07726.2632,W,0.02,1.60,191023,,,A*7B
$GPGGA,133222.250,4308.3040,N,07726.2632,W,1,06,1.46,155.5,M,-34.4,M,,*5C
$GPRMC,133222.500,A,4308.3040,N,07726.2632,W,0.00,163.68,191023,,,A*71
$GPGGA,133222.750,4308.3040,N,07726.2632,W,1,06,1.46,155.5,M,-34.4,M,,*59
$GPRMC,133223.000,A,4308.3040,N,07726.2632,W,0.01,145.32,191023,,,A*7F
$GPGGA,133223.250,4308.3040,N,07726.2632,W,1,06,1.46,155.5,M,-34.4,M,,*5D
$GPRMC,133223.500,A,4308.3040,N,07726.2632,W,0.01,255.32,191023,,,A*78
$GPGGA,133223.750,4308.3040,N,07726.2632,W,1,06,1.46,155.5,M,-34.4,M,,*58
$GPRMC,133224.000,A,4308.3040,N,07726.2632,W,0.01,343.42,191023,,,A*7B
$GPGGA,133224.250,4308.3040,N,07726.2632,W,1,06,1.46,155.5,M,-34.4,M,,*5A
$GPRMC,133224.500,A,4308.3040,N,07726.2632,W,0.01,5.22,191023,,,A*79
$GPGGA,133224.750,4308.3040,N,07726.2632,W,1,06,1.46,155.5,M,-34.4,M,,*5F
$GPRMC,133225.000,A,4308.3040,N,07726.2632,W,0.01,198.60,191023,,,A*7E
$GPGGA,133225.250,4308.3040,N,07726.2632,W,1,06,1.46,155.5,M,-34.4,M,,*5B
$GPRMC,133225.500,A,4308.3040,N,07726.2632,W,0.01,214.41,191023,,,A*7F
$GPGGA,133225.750,4308.3040,N,07726.2632,W,1,06,1.46,155.5,M,-34.4,M,,*5E
$GPRMC,133226.000,A,4308.3040,N,07726.2632,W,0.01,177.59,191023,,,A*76
$GPGGA,133226.250,4308.3040,N,07726.2632,W,1,06,1.46,155.5,M,-34.4,M,,*58
$GPRMC,133226.500,A,4308.3040,N,07726.2632,W,0.02,169.00,191023,,,A*73
$GPGGA,133226.750,4308.3040,N,07726.2632,W,1,06,1.46,155.5,M,-34.4,M,,*5D
$GPRMC,133227.000,A,4308.3040,N,07726.2632,W,0.01,248.43,191023,,,A*73
$GPGGA,133227.250,4308.3040,N,07726.2632,W,1,06,1.46,155.5,M,-34.4,M,,*59
$GPRMC,133227.500,A,4308.3040,N,07726.2632,W,0.01,161.56,191023,,,A*7A
$GPGGA,133227.750,4308.3040,N,07726.2632,W,1,06,1.46,155.5,M,-34.4,M,,*5C
$GPRMC,133228.000,A,4308.3040,N,07726.2632,W,0.02,194.28,191023,,,A*70
$GPGGA,133228.250,4308.3040,N,07726.2632,W,1,06,1.46,155.5,M,-34.4,M,,*56
$GPRMC,133228.500,A,4308.3040,N,07726.2632,W,0.01,166.61,191023,,,A*76
$GPGGA,133228.750,4308.3040,N,07726.2632,W,1,06,1.46,155.5,M,-34.4,M,,*53
$GPRMC,133229.000,A,4308.3040,N,07726.2632,W,0.01,36.32,191023,,,A*40
$GPGGA,133229.250,4308.3040,N,07726.2632,W,1,06,1.46,155.5,M,-34.4,M,,*57
$GPRMC,133229.500,A,4308.3040,N,07726.2632,W,0.01,346.66,191023,,,A*70
$GPGGA,133229.750,4308.3040,N,07726.2632,W,1,06,1.46,155.5,M,-34.4,M,,*52
$GPRMC,133230.000,A,4308.3040,N,07726.2632,W,0.01,303.17,191023,,,A*7A
$GPGGA,133230.250,4308.3040,N,07726.2631,W,1,06,1.46,155.5,M,-34.4,M,,*5C
$GPRMC,133230.500,A,4308.3040,N,07726.2631,W,0.00,203.32,191023,,,A*7B
$GPGGA,133230.750,4308.3040,N,07726.2631,W,1,06,1.46,155.5,M,-34.4,M,,*59
$GPRMC,133231.000,A,4308.3040,N,07726.2631,W,0.00,322.11,191023,,,A*7C
$GPGGA,133231.250,4308.3040,N,07726.2631,W,1,06,1.46,155.5,M,-34.4,M,,*5D
$GPRMC,133231.500,A,4308.3039,N,07726.2631,W,0.01,126.94,191023,,,A*7D
$GPGGA,133231.750,4308.3039,N,07726.2631,W,1,06,1.46,155.5,M,-34.4,M,,*56
$GPRMC,133232.000,A,4308.3039,N,07726.2631,W,0.01,324.13,191023,,,A*74
$GPGGA,133232.250,4308.3039,N,07726.2631,W,1,06,1.46,155.5,M,-34.4,M,,*50
$GPRMC,133232.500,A,4308.3039,N,07726.2631,W,0.01,191.29,191023,,,A*74
$GPGGA,133232.750,4308.3039,N,07726.2631,W,1,06,1.46,155.5,M,-34.4,M,,*55
$GPRMC,133233.000,A,4308.3039,N,07726.2631,W,0.01,7.59,191023,,,A*79
$GPGGA,133233.250,4308.3039,N,07726.2631,W,1,06,1.46,155.5,M,-34.4,M,,*51
$GPRMC,133233.500,A,4308.3039,N,07726.2631,W,0.01,196.49,191023,,,A*74
$GPGGA,133233.750,4308.3039,N,07726.2631,W,1,06,1.46,155.5,M,-34.4,M,,*54
$GPRMC,133234.000,A,4308.3039,N,07726.2631,W,0.00,62.31,191023,,,A*42
$GPGGA,133234.250,4308.3039,N,07726.2631,W,1,06,1.46,155.5,M,-34.4,M,,*56
$GPRMC,133234.500,A,4308.3039,N,07726.2631,W,0.00,81.20,191023,,,A*4A
$GPGGA,133234.750,4308.3039,N,07726.2631,W,1,06,1.46,155.5,M,-34.4,M,,*53
$GPRMC,133235.000,A,4308.3039,N,07726.2631,W,0.01,177.22,191023,,,A*75
$GPGGA,133235.250,4308.3039,N,07726.2631,W,1,06,1.46,155.5,M,-34.4,M,,*57
$GPRMC,133235.500,A,4308.3039,N,07726.2631,W,0.01,132.49,191023,,,A*7C
$GPGGA,133235.750,4308.3039,N,07726.2631,W,1,06,1.46,155.5,M,-34.4,M,,*52
$GPRMC,133236.000,A,4308.3039,N,07726.2631,W,0.01,238.13,191023,,,A*7C
$GPGGA,133236.250,4308.3039,N,07726.2631,W,1,06,1.46,155.6,M,-34.4,M,,*57
$GPRMC,133236.500,A,4308.3039,N,07726.2631,W,0.00,87.71,191023,,,A*4A
$GPGGA,133236.750,4308.3039,N,07726.2631,W,1,06,1.46,155.6,M,-34.4,M,,*52
$GPRMC,133237.000,A,4308.3039,N,07726.2631,W,0.00,273.28,191023,,,A*7B
$GPGGA,133237.250,4308.3039,N,07726.2631,W,1,06,1.46,155.6,M,-34.4,M,,*56
$GPRMC,133237.500,A,4308.3039,N,07726.2631,W,0.01,206.69,191023,,,A*78
$GPGGA,133237.750,4308.3039,N,07726.2631,W,1,06,1.46,155.6,M,-34.4,M,,*53
$GPRMC,133238.000,A,4308.3039,N,07726.2631,W,0.01,199.40,191023,,,A*7C
$GPGGA,133238.250,4308.3039,N,07726.2631,W,1,06,1.46,155.6,M,-34.4,M,,*59
$GPRMC,133238.500,A,4308.3039,N,07726.2631,W,0.00,0.00,191023,,,A*7D
$GPGGA,133238.750,4308.3039,N,07726.2631,W,1,06,1.46,155.6,M,-34.4,M,,*5C
$GPRMC,133239.000,A,4308.3039,N,07726.2631,W,0.01,113.75,191023,,,A*79
$GPGGA,133239.250,4308.3039,N,07726.2631,W,1,06,1.46,155.6,M,-34.4,M,,*58
$GPRMC,133239.500,A,4308.3039,N,07726.2631,W,0.01,300.14,191023,,,A*7B
$GPGGA,133239.750,4308.3039,N,07726.2631,W,1,06,1.46,155.6,M,-34.4,M,,*5D
$GPRMC,133240.000,A,4308.3039,N,07726.2631,W,0.01,296.48,191023,,,A*77
$GPGGA,133240.250,4308.3039,N,07726.2631,W,1,06,1.46,155.6,M,-34.4,M,,*56
$GPRMC,133240.500,A,4308.3039,N,07726.2631,W,0.00,161.34,191023,,,A*73
$GPGGA,133240.750,4308.3039,N,07726.2631,W,1,06,1.46,155.6,M,-34.4,M,,*53
$GPRMC,133241.000,A,4308.3039,N,07726.2631,W,0.01,130.36,191023,,,A*70
$GPGGA,133241.250,4308.3039,N,07726.2631,W,1,06,1.46,155.6,M,-34.4,M,,*57
$GPRMC,133241.500,A,4308.3039,N,07726.2631,W,0.01,162.89,191023,,,A*76
$GPGGA,133241.750,4308.3039,N,07726.2631,W,1,06,1.46,155.6,M,-34.4,M,,*52
$GPRMC,133242.000,A,4308.3039,N,07726.2631,W,0.01,298.68,191023,,,A*79
$GPGGA,133242.250,4308.3039,N,07726.2631,W,1,06,1.46,155.6,M,-34.4,M,,*54
$GPRMC,133242.500,A,4308.3039,N,07726.2631,W,0.02,180.76,191023,,,A*7A
$GPGGA,133242.750,4308.3039,N,07726.2631,W,1,06,1.46,155.6,M,-34.4,M,,*51
$GPRMC,133243.000,A,4308.3039,N,07726.2631,W,0.00,346.73,191023,,,A*71
$GPGGA,133243.250,4308.3039,N,07726.2631,W,1,06,1.46,155.6,M,-34.4,M,,*55
$GPRMC,133243.500,A,4308.3039,N,07726.2631,W,0.00,32.40,191023,,,A*44
$GPGGA,133243.750,4308.3039,N,07726.2631,W,1,06,1.46,155.6,M,-34.4,M,,*50
$GPRMC,133244.000,A,4308.3039,N,07726.2631,W,0.00,110.86,191023,,,A*7D
$GPGGA,133244.250,4308.3039,N,07726.2631,W,1,06,1.46,155.6,M,-34.4,M,,*52
$GPRMC,133244.500,A,4308.3039,N,07726.2631,W,0.02,1.51,191023,,,A*71
$GPGGA,133244.750,4308.3039,N,07726.2631,W,1,06,1.46,155.6,M,-34.4,M,,*57
$GPRMC,133245.000,A,4308.3039,N,07726.2631,W,0.01,205.06,191023,,,A*72
$GPGGA,133245.250,4308.3039,N,07726.2631,W,1,06,1.46,155.6,M,-34.4,M,,*53
$GPRMC,133245.500,A,4308.3039,N,07726.2631,W,0.01,168.71,191023,,,A*7F
$GPGGA,133245.750,4308.3039,N,07726.2631,W,1,06,1.46,155.6,M,-34.4,M,,*56
$GPRMC,133246.000,A,4308.3039,N,07726.2631,W,0.00,51.10,191023,,,A*44
$GPGGA,133246.250,4308.3039,N,07726.2631,W,1,06,1.46,155.6,M,-34.4,M,,*50
$GPRMC,133246.500,A,4308.3039,N,07726.2631,W,0.01,83.59,191023,,,A*42
$GPGGA,133246.750,4308.3039,N,07726.2631,W,1,06,1.46,155.6,M,-34.4,M,,*55
$GPRMC,133247.000,A,4308.3039,N,07726.2631,W,0.01,139.61,191023,,,A*7D
$GPGGA,133247.250,4308.3039,N,07726.2631,W,1,06,1.46,155.6,M,-34.4,M,,*51
$GPRMC,133247.500,A,4308.3039,N,07726.2631,W,0.01,185.59,191023,,,A*74
$GPGGA,133247.750,4308.3039,N,07726.2631,W,1,06,1.46,155.6,M,-34.4,M,,*54
$GPRMC,133248.000,A,4308.3039,N,07726.2631,W,0.00,225.88,191023,,,A*7A
$GPGGA,133248.250,4308.3039,N,07726.2631,W,1,06,1.46,155.6,M,-34.4,M,,*5E
$GPRMC,133248.500,A,4308.3039,N,07726.2631,W,0.01,122.51,191023,,,A*7E
$GPGGA,133248.750,4308.3039,N,07726.2631,W,1,06,1.46,155.6,M,-34.4,M,,*5B
$GPRMC,133249.000,A,4308.3039,N,07726.2631,W,0.00,77.09,191023,,,A*47
$GPGGA,133249.250,4308.3039,N,07726.2631,W,1,06,1.46,155.6,M,-34.4,M,,*5F
$GPRMC,133249.500,A,4308.3039,N,07726.2631,W,0.00,24.86,191023,,,A*43
$GPGGA,133249.750,4308.3039,N,07726.2631,W,1,06,1.46,155.6,M,-34.4,M,,*5A
$GPRMC,133250.000,A,4308.3039,N,07726.2631,W,0.01,199.51,191023,,,A*72
$GPGGA,133250.250,4308.3039,N,07726.2631,W,1,06,1.46,155.6,M,-34.4,M,,*57
$GPRMC,133250.500,A,4308.3039,N,07726.2631,W,0.01,35.76,191023,,,A*45
$GPGGA,133250.750,4308.3039,N,07726.2631,W,1,06,1.46,155.6,M,-34.4,M,,*52
$GPRMC,133251.000,A,4308.3039,N,07726.2631,W,0.00,49.54,191023,,,A*4B
$GPGGA,133251.250,4308.3039,N,07726.2631,W,1,06,1.46,155.6,M,-34.4,M,,*56
$GPRMC,133251.500,A,4308.3039,N,07726.2631,W,0.00,147.90,191023,,,A*79
$GPGGA,133251.750,4308.3039,N,07726.2631,W,1,06,1.46,155.6,M,-34.4,M,,*53
$GPRMC,133252.000,A,4308.3039,N,07726.2631,W,0.00,151.70,191023,,,A*76
$GPGGA,133252.250,4308.3039,N,07726.2631,W,1,06,1.46,155.6,M,-34.4,M,,*55
$GPRMC,133252.500,A,4308.3039,N,07726.2631,W,0.00,4.71,191023,,,A*73
$GPGGA,133252.750,4308.3039,N,07726.2631,W,1,06,1.46,155.6,M,-34.4,M,,*50
$GPRMC,133253.000,A,4308.3039,N,07726.2631,W,0.01,177.06,191023,,,A*73
$GPGGA,133253.250,4308.3039,N,07726.2631,W,1,06,1.46,155.6,M,-34.4,M,,*54
$GPRMC,133253.500,A,4308.3039,N,07726.2631,W,0.01,1.11,191023,,,A*70
$GPGGA,133253.750,4308.3039,N,07726.2631,W,1,06,1.46,155.6,M,-34.4,M,,*51
$GPRMC,133254.000,A,4308.3039,N,07726.2631,W,0.01,250.71,191023,,,A*72
$GPGGA,133254.250,4308.3039,N,07726.2631,W,1,06,1.46,155.6,M,-34.4,M,,*53
$GPRMC,133254.500,A,4308.3039,N,07726.2631,W,0.00,334.14,191023,,,A*76
$GPGGA,133254.750,4308.3039,N,07726.2631,W,1,06,1.46,155.6,M,-34.4,M,,*56
$GPRMC,133255.000,A,4308.3039,N,07726.2631,W,0.00,220.55,191023,,,A*73
$GPGGA,133255.250,4308.3039,N,07726.2631,W,1,06,1.46,155.6,M,-34.4,M,,*52
$GPRMC,133255.500,A,4308.3039,N,07726.2631,W,0.01,147.25,191023,,,A*72
$GPGGA,133255.750,4308.3039,N,07726.2631,W,1,06,1.46,155.6,M,-34.4,M,,*57
$GPRMC,133256.000,A,4308.3039,N,07726.2631,W,0.00,39.25,191023,,,A*4D
$GPGGA,133256.250,4308.3039,N,07726.2631,W,1,06,1.46,155.6,M,-34.4,M,,*51
$GPRMC,133256.500,A,4308.3039,N,07726.2631,W,0.01,354.23,191023,,,A*77
$GPGGA,133256.750,4308.3039,N,07726.2631,W,1,06,1.46,155.6,M,-34.4,M,,*54
$GPRMC,133257.000,A,4308.3039,N,07726.2631,W,0.02,209.77,191023,,,A*78
$GPGGA,133257.250,4308.3039,N,07726.2631,W,1,06,1.46,155.6,M,-34.4,M,,*50
$GPRMC,133257.500,A,4308.3039,N,07726.2631,W,0.01,47.62,191023,,,A*42
$GPGGA,133257.750,4308.3039,N,07726.2631,W,1,06,1.46,155.6,M,-34.4,M,,*55
$GPRMC,133258.000,A,4308.3039,N,07726.2631,W,0.00,0.00,191023,,,A*7E
$GPGGA,133258.250,4308.3039,N,07726.2631,W,1,06,1.46,155.6,M,-34.4,M,,*5F
$GPRMC,133258.500,A,4308.3039,N,07726.2631,W,0.00,104.09,191023,,,A*77
$GPGGA,133258.750,4308.3039,N,07726.2631,W,1,06,1.46,155.6,M,-34.4,M,,*5A
$GPRMC,133259.000,A,4308.3039,N,07726.2631,W,0.00,219.18,191023,,,A*7C
$GPGGA,133259.250,4308.3039,N,07726.2631,W,1,06,1.46,155.6,M,-34.4,M,,*5E
$GPRMC,133259.500,A,4308.3039,N,07726.2631,W,0.00,358.80,191023,,,A*7C
$GPGGA,133259.750,4308.3039,N,07726.2631,W,1,06,1.46,155.6,M,-34.4,M,,*5B
$GPRMC,133300.000,A,4308.3039,N,07726.2631,W,0.01,311.80,191023,,,A*78
$GPGGA,133300.250,4308.3039,N,07726.2631,W,1,06,1.46,155.6,M,-34.4,M,,*53
$GPRMC,133300.500,A,4308.3039,N,07726.2631,W,0.01,132.68,191023,,,A*78
$GPGGA,133300.750,4308.3039,N,07726.2631,W,1,06,1.46,155.6,M,-34.4,M,,*56
$GPRMC,133301.000,A,4308.3039,N,07726.2631,W,0.01,5.89,191023,,,A*76
$GPGGA,133301.250,4308.3039,N,07726.2631,W,1,06,1.46,155.6,M,-34.4,M,,*52
$GPRMC,133301.500,A,4308.3039,N,07726.2631,W,0.00,347.23,191023,,,A*77
$GPGGA,133301.750,4308.3039,N,07726.2631,W,1,06,1.46,155.6,M,-34.4,M,,*57
$GPRMC,133302.000,A,4308.3039,N,07726.2631,W,0.01,72.56,191023,,,A*47
$GPGGA,133302.250,4308.3039,N,07726.2631,W,1,06,1.46,155.6,M,-34.4,M,,*51
$GPRMC,133302.500,A,4308.3039,N,07726.2631,W,0.00,268.20,191023,,,A*7B
$GPGGA,133302.750,4308.3039,N,07726.2631,W,1,06,1.46,155.6,M,-34.4,M,,*54
$GPRMC,133303.000,A,4308.3039,N,07726.2631,W,0.01,88.08,191023,,,A*48
$GPGGA,133303.250,4308.3039,N,07726.2631,W,1,06,1.46,155.6,M,-34.4,M,,*50
$GPRMC,133303.500,A,4308.3039,N,07726.2631,W,0.01,125.04,191023,,,A*77
$GPGGA,133303.750,4308.3039,N,07726.2631,W,1,06,1.46,155.6,M,-34.4,M,,*55
$GPRMC,133304.000,A,4308.3039,N,07726.2631,W,0.00,151.78,191023,,,A*7C
$GPGGA,133304.250,4308.3039,N,07726.2631,W,1,06,1.46,155.6,M,-34.4,M,,*57
$GPRMC,133304.500,A,4308.3039,N,07726.2631,W,0.00,58.21,191023,,,A*4D
$GPGGA,133304.750,4308.3039,N,07726.2631,W,1,06,1.46,155.6,M,-34.4,M,,*52
$GPRMC,133305.000,A,4308.3039,N,07726.2631,W,0.00,284.76,191023,,,A*78
$GPGGA,133305.250,4308.3039,N,07726.2631,W,1,06,1.46,155.6,M,-34.4,M,,*56
$GPRMC,133305.500,A,4308.3039,N,07726.2631,W,0.01,241.61,191023,,,A*73
$GPGGA,133305.750,4308.3039,N,07726.2631,W,1,06,1.46,155.6,M,-34.4,M,,*53
$GPRMC,133306.000,A,4308.3039,N,07726.2631,W,0.02,188.19,191023,,,A*7F
$GPGGA,133306.250,4308.3039,N,07726.2631,W,1,06,1.46,155.6,M,-34.4,M,,*55
$GPRMC,133306.500,A,4308.3039,N,07726.2631,W,0.00,12.40,191023,,,A*46
$GPGGA,133306.750,4308.3039,N,07726.2631,W,1,06,1.46,155.6,M,-34.4,M,,*50
$GPRMC,133307.000,A,4308.3039,N,07726.2631,W,0.01,318.14,191023,,,A*7B
$GPGGA,133307.250,4308.3039,N,07726.2631,W,1,06,1.46,155.6,M,-34.4,M,,*54
$GPRMC,133307.500,A,4308.3039,N,07726.2631,W,0.00,164.28,191023,,,A*79
$GPGGA,133307.750,4308.3039,N,07726.2631,W,1,06,1.46,155.6,M,-34.4,M,,*51
$GPRMC,133308.000,A,4308.3039,N,07726.2631,W,0.01,24.81,191023,,,A*44
$GPGGA,133308.250,4308.3039,N,07726.2631,W,1,06,1.46,155.6,M,-34.4,M,,*5B
$GPRMC,133308.500,A,4308.3039,N,07726.2631,W,0.01,140.87,191023,,,A*74
$GPGGA,133308.750,4308.3039,N,07726.2631,W,1,06,1.46,155.6,M,-34.4,M,,*5E
$GPRMC,133309.000,A,4308.3039,N,07726.2631,W,0.01,98.98,191023,,,A*4A
$GPGGA,133309.250,4308.3039,N,07726.2631,W,1,06,1.46,155.6,M,-34.4,M,,*5A
$GPRMC,133309.500,A,4308.3039,N,07726.2631,W,0.02,155.63,191023,,,A*78
$GPGGA,133309.750,4308.3039,N,07726.2631,W,1,06,1.46,155.6,M,-34.4,M,,*5F
$GPRMC,133310.000,A,4308.3039,N,07726.2631,W,0.01,104.47,191023,,,A*74
$GPGGA,133310.250,4308.3039,N,07726.2631,W,1,06,1.46,155.6,M,-34.4,M,,*52
$GPRMC,133310.500,A,4308.3039,N,07726.2631,W,0.00,77.82,191023,,,A*4C
$GPGGA,133310.750,4308.3039,N,07726.2631,W,1,06,1.46,155.6,M,-34.4,M,,*57
$GPRMC,133311.000,A,4308.3039,N,07726.2631,W,0.00,128.02,191023,,,A*7B
$GPGGA,133311.250,4308.3039,N,07726.2631,W,1,06,1.46,155.6,M,-34.4,M,,*53
$GPRMC,133311.500,A,4308.3039,N,07726.2631,W,0.01,238.96,191023,,,A*70
$GPGGA,133311.750,4308.3039,N,07726.2631,W,1,06,1.46,155.6,M,-34.4,M,,*56
$GPRMC,133312.000,A,4308.3039,N,07726.2631,W,0.00,117.50,191023,,,A*73
$GPGGA,133312.250,4308.3039,N,07726.2631,W,1,06,1.46,155.6,M,-34.4,M,,*50
$GPRMC,133312.500,A,4308.3039,N,07726.2631,W,0.01,166.59,191023,,,A*78
$GPGGA,133312.750,4308.3039,N,07726.2631,W,1,06,1.46,155.6,M,-34.4,M,,*55
$GPRMC,133313.000,A,4308.3039,N,07726.2631,W,0.01,30.72,191023,,,A*47
$GPGGA,133313.250,4308.3039,N,07726.2631,W,1,06,1.46,155.6,M,-34.4,M,,*51
$GPRMC,133313.500,A,4308.3039,N,07726.2631,W,0.00,73.04,191023,,,A*45
$GPGGA,133313.750,4308.3039,N,07726.2631,W,1,06,1.46,155.6,M,-34.4,M,,*54
$GPRMC,133314.000,A,4308.3039,N,07726.2631,W,0.01,227.87,191023,,,A*7E
$GPGGA,133314.250,4308.3039,N,07726.2631,W,1,06,1.46,155.6,M,-34.4,M,,*56
$GPRMC,133314.500,A,4308.3039,N,07726.2631,W,0.01,137.12,191023,,,A*75
$GPGGA,133314.750,4308.3039,N,07726.2631,W,1,06,1.46,155.6,M,-34.4,M,,*53
$GPRMC,133315.000,A,4308.3039,N,07726.2631,W,0.01,163.90,191023,,,A*7A
$GPGGA,133315.250,4308.3039,N,07726.2631,W,1,06,1.46,155.6,M,-34.4,M,,*57
$GPRMC,133315.500,A,4308.3039,N,07726.2631,W,0.01,45.36,191023,,,A*46
$GPGGA,133315.750,4308.3039,N,07726.2631,W,1,06,1.46,155.6,M,-34.4,M,,*52
$GPRMC,133316.000,A,4308.3039,N,07726.2631,W,0.01,252.06,191023,,,A*77
$GPGGA,133316.250,4308.3039,N,07726.2631,W,1,06,1.46,155.6,M,-34.4,M,,*54
$GPRMC,133316.500,A,4308.3039,N,07726.2631,W,0.01,194.49,191023,,,A*70
$GPGGA,133316.750,4308.3039,N,07726.2631,W,1,06,1.46,155.6,M,-34.4,M,,*51
$GPRMC,133317.000,A,4308.3039,N,07726.2631,W,0.01,189.34,191023,,,A*72
$GPGGA,133317.250,4308.3039,N,07726.2631,W,1,06,1.46,155.6,M,-34.4,M,,*55
$GPRMC,133317.500,A,4308.3039,N,07726.2631,W,0.00,212.71,191023,,,A*76
$GPGGA,133317.750,4308.3039,N,07726.2631,W,1,06,1.46,155.6,M,-34.4,M,,*50
$GPRMC,133318.000,A,4308.3039,N,07726.2631,W,0.01,295.35,191023,,,A*72
$GPGGA,133318.250,4308.3039,N,07726.2631,W,1,06,1.46,155.6,M,-34.4,M,,*5A
$GPRMC,133318.500,A,4308.3039,N,07726.2631,W,0.01,181.48,191023,,,A*7B
$GPGGA,133318.750,4308.3039,N,07726.2631,W,1,06,1.46,155.6,M,-34.4,M,,*5F
$GPRMC,133319.000,A,4308.3039,N,07726.2631,W,0.01,273.37,191023,,,A*79
$GPGGA,133319.250,4308.3039,N,07726.2631,W,1,06,1.46,155.6,M,-34.4,M,,*5B
$GPRMC,133319.500,A,4308.3039,N,07726.2631,W,0.01,71.75,191023,,,A*4A
$GPGGA,133319.750,4308.3039,N,07726.2631,W,1,06,1.46,155.6,M,-34.4,M,,*5E
$GPRMC,133320.000,A,4308.3039,N,07726.2631,W,0.02,67.29,191023,,,A*48
$GPGGA,133320.250,4308.3039,N,07726.2631,W,1,06,1.46,155.6,M,-34.4,M,,*51
$GPRMC,133320.500,A,4308.3039,N,07726.2631,W,0.00,56.87,191023,,,A*49
$GPGGA,133320.750,4308.3039,N,07726.2631,W,1,06,1.46,155.6,M,-34.4,M,,*54
$GPRMC,133321.000,A,4308.3039,N,07726.2631,W,0.00,333.11,191023,,,A*72
$GPGGA,133321.250,4308.3039,N,07726.2631,W,1,06,1.46,155.6,M,-34.4,M,,*50
$GPRMC,133321.500,A,4308.3039,N,07726.2631,W,0.01,31.75,191023,,,A*45
$GPGGA,133321.750,4308.3039,N,07726.2631,W,1,06,1.46,155.6,M,-34.4,M,,*55
$GPRMC,133322.000,A,4308.3039,N,07726.2631,W,0.01,185.97,191023,,,A*71
$GPGGA,133322.250,4308.3039,N,07726.2631,W,1,06,1.46,155.6,M,-34.4,M,,*53
$GPRMC,133322.500,A,4308.3039,N,07726.2631,W,0.01,177.27,191023,,,A*72
$GPGGA,133322.750,4308.3039,N,07726.2631,W,1,06,1.46,155.6,M,-34.4,M,,*56
$GPRMC,133323.000,A,4308.3039,N,07726.2631,W,0.02,36.35,191023,,,A*42
$GPGGA,133323.250,4308.3039,N,07726.2631,W,1,06,1.46,155.6,M,-34.4,M,,*52
$GPRMC,133323.500,A,4308.3039,N,07726.2631,W,0.01,28.41,191023,,,A*48
$GPGGA,133323.750,4308.3039,N,07726.2631,W,1,06,1.46,155.6,M,-34.4,M,,*57
$GPRMC,133324.000,A,4308.3039,N,07726.2631,W,0.01,179.34,191023,,,A*7D
$GPGGA,133324.250,4308.3039,N,07726.2631,W,1,06,1.46,155.6,M,-34.4,M,,*55
$GPRMC,133324.500,A,4308.3039,N,07726.2631,W,0.00,23.81,191023,,,A*49
$GPGGA,133324.750,4308.3039,N,07726.2631,W,1,06,1.46,155.6,M,-34.4,M,,*50
$GPRMC,133325.000,A,4308.3039,N,07726.2631,W,0.01,192.01,191023,,,A*7F
$GPGGA,133325.250,4308.3039,N,07726.2631,W,1,06,1.46,155.6,M,-34.4,M,,*54
$GPRMC,133325.500,A,4308.3039,N,07726.2631,W,0.01,214.27,191023,,,A*73
$GPGGA,133325.750,4308.3039,N,07726.2631,W,1,06,1.46,155.6,M,-34.4,M,,*51
$GPRMC,133326.000,A,4308.3039,N,07726.2631,W,0.00,282.23,191023,,,A*7F
$GPGGA,133326.250,4308.3039,N,07726.2631,W,1,06,1.46,155.6,M,-34.4,M,,*57
$GPRMC,133326.500,A,4308.3039,N,07726.2631,W,0.01,1.42,191023,,,A*75
$GPGGA,133326.750,4308.3039,N,07726.2631,W,1,06,1.46,155.6,M,-34.4,M,,*52
$GPRMC,133327.000,A,4308.3039,N,07726.2631,W,0.00,187.19,191023,,,A*71
$GPGGA,133327.250,4308.3039,N,07726.2631,W,1,06,1.46,155.6,M,-34.4,M,,*56
$GPRMC,133327.500,A,4308.3039,N,07726.2631,W,0.00,247.61,191023,,,A*74
$GPGGA,133327.750,4308.3039,N,07726.2631,W,1,06,1.46,155.6,M,-34.4,M,,*53
$GPRMC,133328.000,A,4308.3039,N,07726.2631,W,0.01,7.86,191023,,,A*70
$GPGGA,133328.250,4308.3039,N,07726.2631,W,1,06,1.46,155.6,M,-34.4,M,,*59
$GPRMC,133328.500,A,4308.3039,N,07726.2631,W,0.01,180.20,191023,,,A*77
$GPGGA,133328.750,4308.3039,N,07726.2631,W,1,06,1.46,155.6,M,-34.4,M,,*5C
$GPRMC,133329.000,A,4308.3039,N,07726.2631,W,0.00,71.63,191023,,,A*4A
$GPGGA,133329.250,4308.3039,N,07726.2631,W,1,06,1.46,155.6,M,-34.4,M,,*58
$GPRMC,133329.500,A,4308.3039,N,07726.2631,W,0.00,261.91,191023,,,A*71
$GPGGA,133329.750,4308.3039,N,07726.2631,W,1,06,1.46,155.6,M,-34.4,M,,*5D
$GPRMC,133330.000,A,4308.3039,N,07726.2631,W,0.01,240.93,191023,,,A*7C
$GPGGA,133330.250,4308.3039,N,07726.2631,W,1,06,1.46,155.6,M,-34.4,M,,*50
$GPRMC,133330.500,A,4308.3039,N,07726.2631,W,0.00,359.43,191023,,,A*7C
$GPGGA,133330.750,4308.3039,N,07726.2631,W,1,06,1.46,155.6,M,-34.4,M,,*55
$GPRMC,133331.000,A,4308.3039,N,07726.2631,W,0.00,213.23,191023,,,A*71
$GPGGA,133331.250,4308.3039,N,07726.2631,W,1,06,1.46,155.6,M,-34.4,M,,*51
$GPRMC,133331.500,A,4308.3039,N,07726.2631,W,0.01,97.89,191023,,,A*4B
$GPGGA,133331.750,4308.3039,N,07726.2631,W,1,06,1.46,155.6,M,-34.4,M,,*54
$GPRMC,133332.000,A,4308.3039,N,07726.2631,W,0.00,321.20,191023,,,A*71
$GPGGA,133332.250,4308.3039,N,07726.2631,W,1,06,1.46,155.6,M,-34.4,M,,*52
$GPRMC,133332.500,A,4308.3039,N,07726.2631,W,0.01,193.77,191023,,,A*7C
$GPGGA,133332.750,4308.3039,N,07726.2631,W,1,06,1.46,155.6,M,-34.4,M,,*57
$GPRMC,133333.000,A,4308.3039,N,07726.2631,W,0.00,131.38,191023,,,A*7A
$GPGGA,133333.250,4308.3039,N,07726.2631,W,1,06,1.46,155.6,M,-34.4,M,,*53
$GPRMC,133333.500,A,4308.3039,N,07726.2631,W,0.01,303.97,191023,,,A*78
$GPGGA,133333.750,4308.3039,N,07726.2631,W,1,06,1.46,155.6,M,-34.4,M,,*56
$GPRMC,133334.000,A,4308.3039,N,07726.2631,W,0.01,138.52,191023,,,A*79
$GPGGA,133334.250,4308.3039,N,07726.2631,W,1,06,1.46,155.6,M,-34.4,M,,*54
$GPRMC,133334.500,A,4308.3039,N,07726.2631,W,0.00,348.66,191023,,,A*7F
$GPGGA,133334.750,4308.3039,N,07726.2631,W,1,06,1.46,155.6,M,-34.4,M,,*51
$GPRMC,133335.000,A,4308.3039,N,07726.2631,W,0.01,53.62,191023,,,A*47
$GPGGA,133335.250,4308.3039,N,07726.2631,W,1,06,1.46,155.6,M,-34.4,M,,*55
$GPRMC,133335.500,A,4308.3039,N,07726.2631,W,0.01,206.26,191023,,,A*70
$GPGGA,133335.750,4308.3039,N,07726.2631,W,1,06,1.46,155.6,M,-34.4,M,,*50
$GPRMC,133336.000,A,4308.3039,N,07726.2631,W,0.01,51.90,191023,,,A*4B
$GPGGA,133336.250,4308.3039,N,07726.2630,W,1,06,1.46,155.6,M,-34.4,M,,*57
$GPRMC,133336.500,A,4308.3039,N,07726.2630,W,0.00,98.22,191023,,,A*42
$GPGGA,133336.750,4308.3039,N,07726.2630,W,1,06,1.46,155.6,M,-34.4,M,,*52
$GPRMC,133337.000,A,4308.3039,N,07726.2630,W,0.01,132.30,191023,,,A*75
$GPGGA,133337.250,4308.3039,N,07726.2630,W,1,06,1.46,155.6,M,-34.4,M,,*56
$GPRMC,133337.500,A,4308.3039,N,07726.2630,W,0.01,131.75,191023,,,A*72
$GPGGA,133337.750,4308.3039,N,07726.2630,W,1,06,1.46,155.6,M,-34.4,M,,*53
$GPRMC,133338.000,A,4308.3039,N,07726.2630,W,0.00,111.01,191023,,,A*78
$GPGGA,133338.250,4308.3039,N,07726.2630,W,1,06,1.46,155.6,M,-34.4,M,,*59
$GPRMC,133338.500,A,4308.3039,N,07726.2630,W,0.01,189.86,191023,,,A*72
$GPGGA,133338.750,4308.3039,N,07726.2630,W,1,06,1.46,155.6,M,-34.4,M,,*5C
$GPRMC,133339.000,A,4308.3039,N,07726.2630,W,0.00,12.71,191023,,,A*4C
$GPGGA,133339.250,4308.3039,N,07726.2630,W,1,06,1.46,155.6,M,-34.4,M,,*58
$GPRMC,133339.500,A,4308.3039,N,07726.2630,W,0.00,26.51,191023,,,A*4C
$GPGGA,133339.750,4308.3039,N,07726.2630,W,1,06,1.46,155.6,M,-34.4,M,,*5D
$GPRMC,133340.000,A,4308.3039,N,07726.2630,W,0.01,24.94,191023,,,A*4D
$GPGGA,133340.250,4308.3039,N,07726.2630,W,1,06,1.46,155.6,M,-34.4,M,,*56
$GPRMC,133340.500,A,4308.3039,N,07726.2630,W,0.02,176.47,191023,,,A*73
$GPGGA,133340.750,4308.3039,N,07726.2630,W,1,06,1.46,155.6,M,-34.4,M,,*53
$GPRMC,133341.000,A,4308.3039,N,07726.2630,W,0.00,103.46,191023,,,A*76
$GPGGA,133341.250,4308.3039,N,07726.2630,W,1,06,1.46,155.6,M,-34.4,M,,*57
$GPRMC,133341.500,A,4308.3039,N,07726.2630,W,0.00,36.30,191023,,,A*45
$GPGGA,133341.750,4308.3039,N,07726.2630,W,1,06,1.46,155.6,M,-34.4,M,,*52
$GPRMC,133342.000,A,4308.3039,N,07726.2630,W,0.00,269.04,191023,,,A*7C
$GPGGA,133342.250,4308.3039,N,07726.2630,W,1,06,1.46,155.6,M,-34.4,M,,*54
$GPRMC,133342.500,A,4308.3039,N,07726.2630,W,0.00,76.96,191023,,,A*4E
$GPGGA,133342.750,4308.3039,N,07726.2630,W,1,06,1.46,155.6,M,-34.4,M,,*51
$GPRMC,133343.000,A,4308.3039,N,07726.2630,W,0.01,352.31,191023,,,A*73
$GPGGA,133343.250,4308.3039,N,07726.2630,W,1,06,1.46,155.6,M,-34.4,M,,*55
$GPRMC,133343.500,A,4308.3039,N,07726.2630,W,0.00,155.95,191023,,,A*7C
$GPGGA,133343.750,4308.3039,N,07726.2630,W,1,06,1.46,155.6,M,-34.4,M,,*50
$GPRMC,133344.000,A,4308.3039,N,07726.2630,W,0.02,26.38,191023,,,A*4E
$GPGGA,133344.250,4308.3039,N,07726.2630,W,1,06,1.46,155.6,M,-34.4,M,,*52
$GPRMC,133344.500,A,4308.3039,N,07726.2630,W,0.02,165.54,191023,,,A*77
$GPGGA,133344.750,4308.3039,N,07726.2630,W,1,06,1.46,155.6,M,-34.4,M,,*57
$GPRMC,133345.000,A,4308.3039,N,07726.2630,W,0.01,246.29,191023,,,A*78
$GPGGA,133345.250,4308.3039,N,07726.2630,W,1,06,1.46,155.6,M,-34.4,M,,*53
$GPRMC,133345.500,A,4308.3039,N,07726.2630,W,0.00,167.98,191023,,,A*76
$GPGGA,133345.750,4308.3039,N,07726.2630,W,1,06,1.46,155.6,M,-34.4,M,,*56
$GPRMC,133346.000,A,4308.3039,N,07726.2630,W,0.00,158.34,191023,,,A*7A
$GPGGA,133346.250,4308.3039,N,07726.2630,W,1,06,1.46,155.6,M,-34.4,M,,*50
$GPRMC,133346.500,A,4308.3039,N,07726.2630,W,0.01,272.70,191023,,,A*75
$GPGGA,133346.750,4308.3039,N,07726.2630,W,1,06,1.46,155.6,M,-34.4,M,,*55
$GPRMC,133347.000,A,4308.3039,N,07726.2630,W,0.01,324.08,191023,,,A*7C
$GPGGA,133347.250,4308.3039,N,07726.2630,W,1,06,1.46,155.6,M,-34.4,M,,*51
$GPRMC,133347.500,A,4308.3039,N,07726.2630,W,0.01,271.60,191023,,,A*76
$GPGGA,133347.750,4308.3039,N,07726.2630,W,1,06,1.46,155.6,M,-34.4,M,,*54
$GPRMC,133348.000,A,4308.3039,N,07726.2630,W,0.00,352.14,191023,,,A*7E
$GPGGA,133348.250,4308.3039,N,07726.2630,W,1,06,1.46,155.6,M,-34.4,M,,*5E
$GPRMC,133348.500,A,4308.3039,N,07726.2630,W,0.01,214.25,191023,,,A*7B
$GPGGA,133348.750,4308.3039,N,07726.2630,W,1,06,1.46,155.6,M,-34.4,M,,*5B
$GPRMC,133349.000,A,4308.3039,N,07726.2630,W,0.01,211.42,191023,,,A*7B
$GPGGA,133349.250,4308.3039,N,07726.2630,W,1,06,1.46,155.6,M,-34.4,M,,*5F
$GPRMC,133349.500,A,4308.3039,N,07726.2630,W,0.00,242.71,191023,,,A*79
$GPGGA,133349.750,4308.3039,N,07726.2630,W,1,06,1.46,155.6,M,-34.4,M,,*5A
$GPRMC,133350.000,A,4308.3039,N,07726.2630,W,0.00,41.68,191023,,,A*4D
$GPGGA,133350.250,4308.3039,N,07726.2630,W,1,06,1.46,155.6,M,-34.4,M,,*57
$GPRMC,133350.500,A,4308.3039,N,07726.2630,W,0.00,4.10,191023,,,A*76
$GPGGA,133350.750,4308.3039,N,07726.2630,W,1,06,1.46,155.6,M,-34.4,M,,*52
$GPRMC,133351.000,A,4308.3039,N,07726.2630,W,0.01,221.75,191023,,,A*75
$GPGGA,133351.250,4308.3039,N,07726.2630,W,1,06,1.46,155.6,M,-34.4,M,,*56
$GPRMC,133351.500,A,4308.3039,N,07726.2630,W,0.01,241.97,191023,,,A*7A
$GPGGA,133351.750,4308.3039,N,07726.2630,W,1,06,1.46,155.6,M,-34.4,M,,*53
$GPRMC,133352.000,A,4308.3039,N,07726.2630,W,0.00,0.00,191023,,,A*74
$GPGGA,133352.250,4308.3039,N,07726.2630,W,1,06,1.46,155.6,M,-34.4,M,,*55
$GPRMC,133352.500,A,4308.3039,N,07726.2630,W,0.01,91.51,191023,,,A*4C
$GPGGA,133352.750,4308.3039,N,07726.2630,W,1,06,1.46,155.6,M,-34.4,M,,*50
$GPRMC,133353.000,A,4308.3039,N,07726.2630,W,0.01,192.69,191023,,,A*71
$GPGGA,133353.250,4308.3039,N,07726.2630,W,1,06,1.46,155.6,M,-34.4,M,,*54
$GPRMC,133353.500,A,4308.3039,N,07726.2630,W,0.00,302.35,191023,,,A*77
$GPGGA,133353.750,4308.3039,N,07726.2630,W,1,06,1.46,155.6,M,-34.4,M,,*51
$GPRMC,133354.000,A,4308.3039,N,07726.2630,W,0.00,103.53,191023,,,A*76
$GPGGA,133354.250,4308.3039,N,07726.2630,W,1,06,1.46,155.6,M,-34.4,M,,*53
$GPRMC,133354.500,A,4308.3039,N,07726.2630,W,0.00,170.47,191023,,,A*72
$GPGGA,133354.750,4308.3039,N,07726.2630,W,1,06,1.46,155.6,M,-34.4,M,,*56
$GPRMC,133355.000,A,4308.3039,N,07726.2630,W,0.01,53.20,191023,,,A*46
$GPGGA,133355.250,4308.3039,N,07726.2630,W,1,06,1.46,155.6,M,-34.4,M,,*52
$GPRMC,133355.500,A,4308.3039,N,07726.2630,W,0.00,110.28,191023,,,A*7C
$GPGGA,133355.750,4308.3039,N,07726.2630,W,1,06,1.46,155.6,M,-34.4,M,,*57
$GPRMC,133356.000,A,4308.3039,N,07726.2630,W,0.01,180.61,191023,,,A*7F
$GPGGA,133356.250,4308.3039,N,07726.2630,W,1,06,1.46,155.6,M,-34.4,M,,*51
$GPRMC,133356.500,A,4308.3039,N,07726.2630,W,0.01,269.48,191023,,,A*75
$GPGGA,133356.750,4308.3039,N,07726.2630,W,1,06,1.46,155.6,M,-34.4,M,,*54
$GPRMC,133357.000,A,4308.3039,N,07726.2630,W,0.01,226.08,191023,,,A*7E
$GPGGA,133357.250,4308.3039,N,07726.2630,W,1,06,1.46,155.6,M,-34.4,M,,*50
$GPRMC,133357.500,A,4308.3039,N,07726.2630,W,0.00,143.77,191023,,,A*72
$GPGGA,133357.750,4308.3039,N,07726.2630,W,1,06,1.46,155.6,M,-34.4,M,,*55
$GPRMC,133358.000,A,4308.3039,N,07726.2630,W,0.00,0.00,191023,,,A*7E
$GPGGA,133358.250,4308.3039,N,07726.2630,W,1,06,1.46,155.6,M,-34.4,M,,*5F
$GPRMC,133358.500,A,4308.3039,N,07726.2630,W,0.00,208.45,191023,,,A*70
$GPGGA,133358.750,4308.3039,N,07726.2630,W,1,06,1.46,155.6,M,-34.4,M,,*5A
$GPRMC,133359.000,A,4308.3039,N,07726.2630,W,0.01,131.27,191023,,,A*78
$GPGGA,133359.250,4308.3039,N,07726.2630,W,1,06,1.46,155.6,M,-34.4,M,,*5E
$GPRMC,133359.500,A,4308.3039,N,07726.2630,W,0.01,250.17,191023,,,A*7A
$GPGGA,133359.750,4308.3039,N,07726.2630,W,1,06,1.46,155.6,M,-34.4,M,,*5B
$GPRMC,133400.000,A,4308.3039,N,07726.2630,W,0.00,11.21,191023,,,A*47
$GPGGA,133400.250,4308.3039,N,07726.2630,W,1,06,1.46,155.6,M,-34.4,M,,*55
$GPRMC,133400.500,A,4308.3039,N,07726.2630,W,0.01,39.66,191023,,,A*4A
$GPGGA,133400.750,4308.3039,N,07726.2630,W,1,06,1.46,155.6,M,-34.4,M,,*50
$GPRMC,133401.000,A,4308.3039,N,07726.2630,W,0.00,261.34,191023,,,A*77
$GPGGA,133401.250,4308.3039,N,07726.2630,W,1,06,1.46,155.6,M,-34.4,M,,*54
$GPRMC,133401.500,A,4308.3039,N,07726.2630,W,0.01,72.22,191023,,,A*44
$GPGGA,133401.750,4308.3039,N,07726.2630,W,1,06,1.46,155.6,M,-34.4,M,,*51
$GPRMC,133402.000,A,4308.3039,N,07726.2630,W,0.01,34.81,191023,,,A*49
$GPGGA,133402.250,4308.3039,N,07726.2630,W,1,06,1.46,155.6,M,-34.4,M,,*57
$GPRMC,133402.500,A,4308.3039,N,07726.2630,W,0.01,203.30,191023,,,A*70
$GPGGA,133402.750,4308.3039,N,07726.2630,W,1,06,1.46,155.6,M,-34.4,M,,*52
$GPRMC,133403.000,A,4308.3039,N,07726.2630,W,0.00,330.48,191023,,,A*7B
$GPGGA,133403.250,4308.3039,N,07726.2630,W,1,06,1.46,155.6,M,-34.4,M,,*56
$GPRMC,133403.500,A,4308.3039,N,07726.2630,W,0.00,9.87,191023,,,A*74
$GPGGA,133403.750,4308.3039,N,07726.2630,W,1,06,1.46,155.6,M,-34.4,M,,*53
$GPRMC,133404.000,A,4308.3039,N,07726.2630,W,0.01,317.92,191023,,,A*7F
$GPGGA,133404.250,4308.3039,N,07726.2630,W,1,06,1.46,155.6,M,-34.4,M,,*51
$GPRMC,133404.500,A,4308.3039,N,07726.2630,W,0.00,4.03,191023,,,A*72
$GPGGA,133404.750,4308.3039,N,07726.2630,W,1,06,1.46,155.6,M,-34.4,M,,*54
$GPRMC,133405.000,A,4308.3039,N,07726.2630,W,0.00,125.64,191023,,,A*75
$GPGGA,133405.250,4308.3039,N,07726.2630,W,1,06,1.46,155.6,M,-34.4,M,,*50
$GPRMC,133405.500,A,4308.3039,N,07726.2630,W,0.01,51.62,191023,,,A*45
$GPGGA,133405.750,4308.3039,N,07726.2630,W,1,06,1.46,155.6,M,-34.4,M,,*55
$GPRMC,133406.000,A,4308.3039,N,07726.2630,W,0.00,174.80,191023,,,A*78
$GPGGA,133406.250,4308.3039,N,07726.2630,W,1,06,1.46,155.6,M,-34.4,M,,*53
$GPRMC,133406.500,A,4308.3039,N,07726.2630,W,0.01,258.43,191023,,,A*7E
$GPGGA,133406.750,4308.3039,N,07726.2630,W,1,06,1.46,155.6,M,-34.4,M,,*56
$GPRMC,133407.000,A,4308.3039,N,07726.2630,W,0.01,191.58,191023,,,A*76
$GPGGA,133407.250,4308.3039,N,07726.2630,W,1,06,1.46,155.6,M,-34.4,M,,*52
$GPRMC,133407.500,A,4308.3039,N,07726.2630,W,0.01,88.62,191023,,,A*43
$GPGGA,133407.750,4308.3039,N,07726.2630,W,1,06,1.46,155.6,M,-34.4,M,,*57
$GPRMC,133408.000,A,4308.3039,N,07726.2630,W,0.00,199.63,191023,,,A*78
$GPGGA,133408.250,4308.3039,N,07726.2630,W,1,06,1.46,155.6,M,-34.4,M,,*5D
$GPRMC,133408.500,A,4308.3039,N,07726.2630,W,0.01,329.23,191023,,,A*71
$GPGGA,133408.750,4308.3039,N,07726.2630,W,1,06,1.46,155.6,M,-34.4,M,,*58
$GPRMC,133409.000,A,4308.3039,N,07726.2630,W,0.06,18.63,191023,,,A*47
$GPGGA,133409.250,4308.3039,N,07726.2630,W,1,06,1.46,155.6,M,-34.4,M,,*5C
$GPRMC,133409.500,A,4308.3039,N,07726.2630,W,0.20,22.40,191023,,,A*4E
$GPGGA,133409.750,4308.3039,N,07726.2630,W,1,06,1.46,155.6,M,-34.4,M,,*59
$GPRMC,133410.000,A,4308.3039,N,07726.2630,W,2.05,10.83,191023,,,A*48
$GPGGA,133410.250,4308.3041,N,07726.2630,W,1,06,1.46,155.6,M,-34.4,M,,*5B
$GPRMC,133410.500,A,4308.3042,N,07726.2630,W,3.03,3.76,191023,,,A*7E
$GPGGA,133410.750,4308.3045,N,07726.2630,W,1,06,1.46,155.6,M,-34.4,M,,*5A
$GPRMC,133411.000,A,4308.3047,N,07726.2629,W,3.92,0.67,191023,,,A*7C
$GPGGA,133411.250,4308.3050,N,07726.2629,W,1,06,1.46,155.6,M,-34.4,M,,*52
$GPRMC,133411.500,A,4308.3053,N,07726.2629,W,4.55,359.08,191023,,,A*76
$GPGGA,133411.750,4308.3056,N,07726.2629,W,1,06,1.46,155.6,M,-34.4,M,,*51
$GPRMC,133412.000,A,4308.3060,N,07726.2629,W,5.38,356.16,191023,,,A*7A
$GPGGA,133412.250,4308.3064,N,07726.2629,W,1,06,1.46,155.6,M,-34.4,M,,*56
$GPRMC,133412.500,A,4308.3068,N,07726.2629,W,5.74,354.47,191023,,,A*79
$GPGGA,133412.750,4308.3071,N,07726.2630,W,1,06,1.46,155.6,M,-34.4,M,,*5F
$GPRMC,133413.000,A,4308.3075,N,07726.2630,W,5.75,354.21,191023,,,A*78
$GPGGA,133413.250,4308.3079,N,07726.2630,W,1,06,1.46,155.6,M,-34.4,M,,*53
$GPRMC,133413.500,A,4308.3083,N,07726.2630,W,5.74,357.45,191023,,,A*74
$GPGGA,133413.750,4308.3087,N,07726.2630,W,1,06,1.46,155.5,M,-34.4,M,,*54
$GPRMC,133414.000,A,4308.3091,N,07726.2630,W,5.84,0.87,191023,,,A*75
$GPGGA,133414.250,4308.3095,N,07726.2630,W,1,06,1.46,155.5,M,-34.4,M,,*55
$GPRMC,133414.500,A,4308.3099,N,07726.2629,W,5.50,4.48,191023,,,A*7E
$GPGGA,133414.750,4308.3103,N,07726.2629,W,1,06,1.46,155.4,M,-34.4,M,,*57
$GPRMC,133415.000,A,4308.3106,N,07726.2628,W,4.60,8.47,191023,,,A*7D
$GPGGA,133415.250,4308.3109,N,07726.2627,W,1,06,1.46,155.4,M,-34.4,M,,*57
$GPRMC,133415.500,A,4308.3112,N,07726.2626,W,3.86,10.63,191023,,,A*43
$GPGGA,133415.750,4308.3114,N,07726.2625,W,1,06,1.46,155.4,M,-34.4,M,,*5C
$GPRMC,133416.000,A,4308.3117,N,07726.2625,W,3.07,12.56,191023,,,A*4E
$GPGGA,133416.250,4308.3119,N,07726.2624,W,1,06,1.46,155.4,M,-34.4,M,,*56
$GPRMC,133416.500,A,4308.3120,N,07726.2624,W,2.40,16.19,191023,,,A*43
$GPGGA,133416.750,4308.3122,N,07726.2623,W,1,06,1.42,155.4,M,-34.4,M,,*58
$GPRMC,133417.000,A,4308.3124,N,07726.2622,W,2.39,16.61,191023,,,A*44
$GPGGA,133417.250,4308.3125,N,07726.2622,W,1,06,1.41,155.4,M,-34.4,M,,*59
$GPRMC,133417.500,A,4308.3127,N,07726.2621,W,2.03,16.60,191023,,,A*49
$GPGGA,133417.750,4308.3128,N,07726.2621,W,1,06,1.41,155.3,M,-34.4,M,,*55
$GPRMC,133418.000,A,4308.3129,N,07726.2621,W,1.18,15.56,191023,,,A*42
$GPGGA,133418.250,4308.3130,N,07726.2620,W,1,06,1.46,155.3,M,-34.4,M,,*50
$GPRMC,133418.500,A,4308.3130,N,07726.2620,W,0.26,8.68,191023,,,A*73
$GPGGA,133418.750,4308.3130,N,07726.2620,W,1,06,1.46,155.3,M,-34.4,M,,*55
$GPRMC,133419.000,A,4308.3130,N,07726.2620,W,0.04,319.93,191023,,,A*70
$GPGGA,133419.250,4308.3130,N,07726.2620,W,1,06,1.42,155.4,M,-34.4,M,,*52
$GPRMC,133419.500,A,4308.3131,N,07726.2620,W,0.33,19.00,191023,,,A*49
$GPGGA,133419.750,4308.3131,N,07726.2619,W,1,06,1.42,155.4,M,-34.4,M,,*5C
$GPRMC,133420.000,A,4308.3132,N,07726.2619,W,1.13,21.55,191023,,,A*47
$GPGGA,133420.250,4308.3133,N,07726.2619,W,1,06,1.46,155.4,M,-34.4,M,,*55
$GPRMC,133420.500,A,4308.3134,N,07726.2618,W,1.95,19.91,191023,,,A*48
$GPGGA,133420.750,4308.3135,N,07726.2617,W,1,06,1.42,155.4,M,-34.4,M,,*5C
$GPRMC,133421.000,A,4308.3137,N,07726.2616,W,2.33,31.70,191023,,,A*4B
$GPGGA,133421.250,4308.3138,N,07726.2615,W,1,06,1.41,155.4,M,-34.4,M,,*54
$GPRMC,133421.500,A,4308.3140,N,07726.2613,W,2.52,27.74,191023,,,A*4F
$GPGGA,133421.750,4308.3141,N,07726.2612,W,1,06,1.42,155.5,M,-34.4,M,,*5A
$GPRMC,133422.000,A,4308.3143,N,07726.2610,W,2.58,40.07,191023,,,A*46
$GPGGA,133422.250,4308.3144,N,07726.2609,W,1,06,1.41,155.5,M,-34.4,M,,*50
$GPRMC,133422.500,A,4308.3146,N,07726.2607,W,3.05,45.12,191023,,,A*48
$GPGGA,133422.750,4308.3147,N,07726.2605,W,1,06,1.42,155.5,M,-34.4,M,,*59
$GPRMC,133423.000,A,4308.3149,N,07726.2603,W,2.95,55.60,191023,,,A*4B
$GPGGA,133423.250,4308.3150,N,07726.2601,W,1,06,1.42,155.4,M,-34.4,M,,*5E
$GPRMC,133423.500,A,4308.3151,N,07726.2599,W,2.63,71.09,191023,,,A*47
$GPGGA,133423.750,4308.3151,N,07726.2597,W,1,06,1.41,155.3,M,-34.4,M,,*52
