Vers 81
USE_SERIAL_FEEDBACK=true
DEVELOPMENT_MODE=false
USE_RMC_ONLY=false

$GPRMC,164634.250,A,4308.3061,N,07726.2609,W,0.01,259.31,191023,,,A*7E
$GPGGA,164634.500,4308.3059,N,07726.2611,W,1,06,1.66,175.7,M,-34.4,M,,*54
$GPRMC,164634.750,A,4308.3058,N,07726.2612,W,0.02,180.78,191023,,,A*72
$GPGGA,164635.000,4308.3057,N,07726.2613,W,1,06,1.66,175.2,M,-34.4,M,,*59
$GPRMC,164635.250,A,4308.3055,N,07726.2614,W,0.02,103.30,191023,,,A*7A
$GPGGA,164635.500,4308.3054,N,07726.2615,W,1,06,1.66,174.7,M,-34.4,M,,*5D
$GPRMC,164635.750,A,4308.3053,N,07726.2616,W,0.00,0.00,191023,,,A*78
$GPGGA,164636.000,4308.3053,N,07726.2616,W,1,06,1.99,174.5,M,-34.4,M,,*5D
$GPRMC,164636.250,A,4308.3053,N,07726.2617,W,0.01,74.56,191023,,,A*4E
$GPGGA,164636.500,4308.3052,N,07726.2617,W,1,06,1.66,174.2,M,-34.4,M,,*5F
$GPRMC,164636.750,A,4308.3052,N,07726.2618,W,0.03,157.86,191023,,,A*7A
$GPGGA,164637.000,4308.3051,N,07726.2618,W,1,06,1.66,174.0,M,-34.4,M,,*55
$GPRMC,164637.250,A,4308.3051,N,07726.2618,W,0.04,205.11,191023,,,A*70
$GPGGA,164637.500,4308.3051,N,07726.2619,W,1,06,1.66,173.7,M,-34.4,M,,*51
$GPRMC,164637.750,A,4308.3050,N,07726.2619,W,0.01,105.62,191023,,,A*77
$GPGGA,164638.000,4308.3050,N,07726.2619,W,1,06,1.66,173.5,M,-34.4,M,,*58
$GPRMC,164638.250,A,4308.3049,N,07726.2620,W,0.04,153.08,191023,,,A*75
$GPGGA,164638.500,4308.3049,N,07726.2620,W,1,06,1.66,173.2,M,-34.4,M,,*58
$GPRMC,164638.750,A,4308.3049,N,07726.2621,W,0.02,58.30,191023,,,A*46
$GPGGA,164639.000,4308.3048,N,07726.2621,W,1,06,1.66,173.0,M,-34.4,M,,*5E
$GPRMC,164639.250,A,4308.3048,N,07726.2621,W,0.01,100.22,191023,,,A*7F
$GPGGA,164639.500,4308.3048,N,07726.2622,W,1,06,1.66,172.9,M,-34.4,M,,*50
$GPRMC,164639.750,A,4308.3048,N,07726.2622,W,0.02,145.26,191023,,,A*7F
$GPGGA,164640.000,4308.3047,N,07726.2622,W,1,06,1.66,172.8,M,-34.4,M,,*55
$GPRMC,164640.250,A,4308.3047,N,07726.2622,W,0.03,335.24,191023,,,A*7D
$GPGGA,164640.500,4308.3047,N,07726.2622,W,1,06,1.66,172.6,M,-34.4,M,,*5E
$GPRMC,164640.750,A,4308.3047,N,07726.2622,W,0.02,172.82,191023,,,A*74
$GPGGA,164641.000,4308.3047,N,07726.2622,W,1,06,1.66,172.5,M,-34.4,M,,*59
$GPRMC,164641.250,A,4308.3047,N,07726.2622,W,0.01,85.34,191023,,,A*47
$GPGGA,164641.500,4308.3047,N,07726.2622,W,1,06,1.66,172.4,M,-34.4,M,,*5D
$GPRMC,164641.750,A,4308.3047,N,07726.2622,W,0.02,166.04,191023,,,A*7E
$GPGGA,164642.000,4308.3047,N,07726.2622,W,1,06,1.66,172.3,M,-34.4,M,,*5C
$GPRMC,164642.250,A,4308.3047,N,07726.2622,W,0.04,358.82,191023,,,A*7F
$GPGGA,164642.500,4308.3047,N,07726.2622,W,1,06,1.99,172.3,M,-34.4,M,,*59
$GPRMC,164642.750,A,4308.3047,N,07726.2623,W,0.02,7.55,191023,,,A*7E
$GPGGA,164643.000,4308.3047,N,07726.2623,W,1,06,1.99,172.2,M,-34.4,M,,*5D
$GPRMC,164643.250,A,4308.3047,N,07726.2623,W,0.03,356.69,191023,,,A*73
$GPGGA,164643.500,4308.3047,N,07726.2623,W,1,06,1.99,172.1,M,-34.4,M,,*5B
$GPRMC,164643.750,A,4308.3047,N,07726.2623,W,0.01,16.91,191023,,,A*44
$GPGGA,164644.000,4308.3047,N,07726.2623,W,1,06,1.66,171.9,M,-34.4,M,,*52
$GPRMC,164644.250,A,4308.3047,N,07726.2623,W,0.00,30.84,191023,,,A*47
$GPGGA,164644.500,4308.3046,N,07726.2623,W,1,06,1.66,171.9,M,-34.4,M,,*56
$GPRMC,164644.750,A,4308.3046,N,07726.2623,W,0.01,81.96,191023,,,A*4B
$GPGGA,164645.000,4308.3046,N,07726.2623,W,1,06,1.66,171.8,M,-34.4,M,,*53
$GPRMC,164645.250,A,4308.3046,N,07726.2623,W,0.03,46.32,191023,,,A*48
$GPGGA,164645.500,4308.3046,N,07726.2624,W,1,06,1.66,171.7,M,-34.4,M,,*5E
$GPRMC,164645.750,A,4308.3046,N,07726.2624,W,0.04,154.57,191023,,,A*7C
$GPGGA,164646.000,4308.3046,N,07726.2624,W,1,06,1.66,171.6,M,-34.4,M,,*59
$GPRMC,164646.250,A,4308.3046,N,07726.2624,W,0.03,57.71,191023,,,A*4B
$GPGGA,164646.500,4308.3046,N,07726.2624,W,1,06,1.66,171.5,M,-34.4,M,,*5F
$GPRMC,164646.750,A,4308.3046,N,07726.2624,W,0.03,161.34,191023,,,A*7B
$GPGGA,164647.000,4308.3046,N,07726.2624,W,1,06,1.66,171.4,M,-34.4,M,,*5A
$GPRMC,164647.250,A,4308.3046,N,07726.2624,W,0.02,53.11,191023,,,A*49
$GPGGA,164647.500,4308.3046,N,07726.2624,W,1,06,1.66,171.3,M,-34.4,M,,*58
$GPRMC,164647.750,A,4308.3046,N,07726.2624,W,0.01,182.57,191023,,,A*70
$GPGGA,164648.000,4308.3046,N,07726.2625,W,1,06,1.66,171.2,M,-34.4,M,,*52
$GPRMC,164648.250,A,4308.3047,N,07726.2625,W,0.02,25.61,191023,,,A*40
$GPGGA,164648.500,4308.3047,N,07726.2625,W,1,06,1.66,171.0,M,-34.4,M,,*54
$GPRMC,164648.750,A,4308.3047,N,07726.2625,W,0.02,135.13,191023,,,A*70
$GPGGA,164649.000,4308.3047,N,07726.2625,W,1,06,1.66,170.9,M,-34.4,M,,*58
$GPRMC,164649.250,A,4308.3047,N,07726.2625,W,0.03,20.53,191023,,,A*44
$GPGGA,164649.500,4308.3047,N,07726.2625,W,1,06,1.66,170.8,M,-34.4,M,,*5C
$GPRMC,164649.750,A,4308.3047,N,07726.2625,W,0.02,56.63,191023,,,A*42
$GPGGA,164650.000,4308.3047,N,07726.2625,W,1,06,1.66,170.8,M,-34.4,M,,*51
$GPRMC,164650.250,A,4308.3048,N,07726.2625,W,0.01,254.77,191023,,,A*76
$GPGGA,164650.500,4308.3048,N,07726.2625,W,1,06,1.66,170.7,M,-34.4,M,,*54
$GPRMC,164650.750,A,4308.3048,N,07726.2625,W,0.02,59.98,191023,,,A*4E
$GPGGA,164651.000,4308.3048,N,07726.2625,W,1,06,1.66,170.6,M,-34.4,M,,*51
$GPRMC,164651.250,A,4308.3048,N,07726.2624,W,0.04,106.79,191023,,,A*79
$GPGGA,164651.500,4308.3048,N,07726.2624,W,1,06,1.66,170.6,M,-34.4,M,,*55
$GPRMC,164651.750,A,4308.3049,N,07726.2624,W,0.03,44.74,191023,,,A*40
$GPGGA,164652.000,4308.3049,N,07726.2624,W,1,06,1.66,170.5,M,-34.4,M,,*51
$GPRMC,164652.250,A,4308.3049,N,07726.2624,W,0.01,139.88,191023,,,A*7C
$GPGGA,164652.500,4308.3049,N,07726.2624,W,1,06,1.66,170.4,M,-34.4,M,,*55
$GPRMC,164652.750,A,4308.3049,N,07726.2624,W,0.05,155.18,191023,,,A*7E
$GPGGA,164653.000,4308.3049,N,07726.2624,W,1,06,1.66,170.3,M,-34.4,M,,*56
$GPRMC,164653.250,A,4308.3049,N,07726.2624,W,0.02,178.17,191023,,,A*7D
$GPGGA,164653.500,4308.3049,N,07726.2624,W,1,06,1.66,170.3,M,-34.4,M,,*53
$GPRMC,164653.750,A,4308.3049,N,07726.2623,W,0.02,40.15,191023,,,A*47
$GPGGA,164654.000,4308.3049,N,07726.2623,W,1,06,1.66,170.2,M,-34.4,M,,*57
$GPRMC,164654.250,A,4308.3049,N,07726.2623,W,0.02,26.87,191023,,,A*4E
$GPGGA,164654.500,4308.3049,N,07726.2623,W,1,06,1.66,170.1,M,-34.4,M,,*51
$GPRMC,164654.750,A,4308.3049,N,07726.2623,W,0.01,106.91,191023,,,A*7C
$GPGGA,164655.000,4308.3049,N,07726.2623,W,1,06,1.66,170.1,M,-34.4,M,,*55
$GPRMC,164655.250,A,4308.3049,N,07726.2623,W,0.02,151.37,191023,,,A*75
$GPGGA,164655.500,4308.3049,N,07726.2622,W,1,06,1.66,170.0,M,-34.4,M,,*50
$GPRMC,164655.750,A,4308.3048,N,07726.2622,W,0.01,136.93,191023,,,A*7C
$GPGGA,164656.000,4308.3048,N,07726.2622,W,1,06,1.66,170.0,M,-34.4,M,,*57
$GPRMC,164656.250,A,4308.3048,N,07726.2622,W,0.01,213.22,191023,,,A*74
$GPGGA,164656.500,4308.3048,N,07726.2622,W,1,06,1.66,169.9,M,-34.4,M,,*53
$GPRMC,164656.750,A,4308.3048,N,07726.2622,W,0.04,128.23,191023,,,A*7E
$GPGGA,164657.000,4308.3047,N,07726.2622,W,1,06,1.66,169.8,M,-34.4,M,,*59
$GPRMC,164657.250,A,4308.3047,N,07726.2622,W,0.00,325.21,191023,,,A*7C
$GPGGA,164657.500,4308.3047,N,07726.2622,W,1,06,1.66,169.7,M,-34.4,M,,*53
$GPRMC,164657.750,A,4308.3046,N,07726.2622,W,0.03,50.68,191023,,,A*47
$GPGGA,164658.000,4308.3046,N,07726.2622,W,1,06,1.66,169.6,M,-34.4,M,,*59
$GPRMC,164658.250,A,4308.3046,N,07726.2622,W,0.02,153.18,191023,,,A*79
$GPGGA,164658.500,4308.3046,N,07726.2622,W,1,06,1.66,169.6,M,-34.4,M,,*5C
$GPRMC,164658.750,A,4308.3046,N,07726.2622,W,0.01,167.52,191023,,,A*76
$GPGGA,164659.000,4308.3045,N,07726.2622,W,1,06,1.66,169.4,M,-34.4,M,,*59
$GPRMC,164659.250,A,4308.3045,N,07726.2622,W,0.02,165.31,191023,,,A*75
$GPGGA,164659.500,4308.3045,N,07726.2622,W,1,06,1.66,169.3,M,-34.4,M,,*5B
$GPRMC,164659.750,A,4308.3045,N,07726.2622,W,0.03,48.50,191023,,,A*48
$GPGGA,164700.000,4308.3045,N,07726.2622,W,1,06,1.66,169.3,M,-34.4,M,,*53
$GPRMC,164700.250,A,4308.3045,N,07726.2622,W,0.02,147.77,191023,,,A*7A
$GPGGA,164700.500,4308.3045,N,07726.2622,W,1,06,1.66,169.3,M,-34.4,M,,*56
$GPRMC,164700.750,A,4308.3045,N,07726.2622,W,0.02,143.24,191023,,,A*7D
$GPGGA,164701.000,4308.3045,N,07726.2622,W,1,06,1.66,169.3,M,-34.4,M,,*52
$GPRMC,164701.250,A,4308.3045,N,07726.2622,W,0.02,344.53,191023,,,A*7C
$GPGGA,164701.500,4308.3045,N,07726.2622,W,1,06,1.66,169.3,M,-34.4,M,,*57
$GPRMC,164701.750,A,4308.3045,N,07726.2622,W,0.03,63.86,191023,,,A*46
$GPGGA,164702.000,4308.3045,N,07726.2622,W,1,06,1.66,169.3,M,-34.4,M,,*51
$GPRMC,164702.250,A,4308.3045,N,07726.2622,W,0.02,109.67,191023,,,A*73
$GPGGA,164702.500,4308.3045,N,07726.2622,W,1,06,1.66,169.3,M,-34.4,M,,*54
$GPRMC,164702.750,A,4308.3045,N,07726.2622,W,0.02,267.19,191023,,,A*74
$GPGGA,164703.000,4308.3045,N,07726.2622,W,1,06,1.66,169.3,M,-34.4,M,,*50
$GPRMC,164703.250,A,4308.3045,N,07726.2622,W,0.02,128.27,191023,,,A*75
$GPGGA,164703.500,4308.3045,N,07726.2622,W,1,06,1.66,169.3,M,-34.4,M,,*55
$GPRMC,164703.750,A,4308.3045,N,07726.2622,W,0.02,154.74,191023,,,A*7D
$GPGGA,164704.000,4308.3045,N,07726.2622,W,1,06,1.66,169.3,M,-34.4,M,,*57
$GPRMC,164704.250,A,4308.3045,N,07726.2622,W,0.01,266.35,191023,,,A*7B
$GPGGA,164704.500,4308.3045,N,07726.2622,W,1,06,1.66,169.3,M,-34.4,M,,*52
$GPRMC,164704.750,A,4308.3045,N,07726.2622,W,0.01,143.33,191023,,,A*7C
$GPGGA,164705.000,4308.3045,N,07726.2622,W,1,06,1.66,169.3,M,-34.4,M,,*56
$GPRMC,164705.250,A,4308.3045,N,07726.2622,W,0.02,266.38,191023,,,A*74
$GPGGA,164705.500,4308.3045,N,07726.2622,W,1,06,1.66,169.3,M,-34.4,M,,*53
$GPRMC,164705.750,A,4308.3045,N,07726.2622,W,0.03,78.28,191023,,,A*4C
$GPGGA,164706.000,4308.3045,N,07726.2622,W,1,06,1.66,169.3,M,-34.4,M,,*55
$GPRMC,164706.250,A,4308.3045,N,07726.2622,W,0.01,323.06,191023,,,A*79
$GPGGA,164706.500,4308.3045,N,07726.2622,W,1,06,1.66,169.2,M,-34.4,M,,*51
$GPRMC,164706.750,A,4308.3045,N,07726.2622,W,0.03,110.40,191023,,,A*7E
$GPGGA,164707.000,4308.3045,N,07726.2622,W,1,06,1.66,169.2,M,-34.4,M,,*55
$GPRMC,164707.250,A,4308.3045,N,07726.2622,W,0.02,206.59,191023,,,A*77
$GPGGA,164707.500,4308.3045,N,07726.2622,W,1,06,1.66,169.2,M,-34.4,M,,*50
$GPRMC,164707.750,A,4308.3045,N,07726.2622,W,0.03,64.59,191023,,,A*45
$GPGGA,164708.000,4308.3045,N,07726.2622,W,1,06,1.66,169.2,M,-34.4,M,,*5A
$GPRMC,164708.250,A,4308.3045,N,07726.2622,W,0.00,46.71,191023,,,A*46
$GPGGA,164708.500,4308.3045,N,07726.2622,W,1,06,1.66,169.2,M,-34.4,M,,*5F
$GPRMC,164708.750,A,4308.3045,N,07726.2622,W,0.01,145.69,191023,,,A*79
$GPGGA,164709.000,4308.3045,N,07726.2622,W,1,06,1.66,169.2,M,-34.4,M,,*5B
$GPRMC,164709.250,A,4308.3045,N,07726.2622,W,0.00,270.20,191023,,,A*74
$GPGGA,164709.500,4308.3045,N,07726.2622,W,1,06,1.66,169.2,M,-34.4,M,,*5E
$GPRMC,164709.750,A,4308.3045,N,07726.2622,W,0.01,121.09,191023,,,A*7C
$GPGGA,164710.000,4308.3045,N,07726.2622,W,1,06,1.66,169.2,M,-34.4,M,,*53
$GPRMC,164710.250,A,4308.3045,N,07726.2622,W,0.02,221.14,191023,,,A*7D
$GPGGA,164710.500,4308.3045,N,07726.2622,W,1,06,1.66,169.2,M,-34.4,M,,*56
$GPRMC,164710.750,A,4308.3045,N,07726.2622,W,0.01,266.00,191023,,,A*7D
$GPGGA,164711.000,4308.3045,N,07726.2622,W,1,06,1.66,169.2,M,-34.4,M,,*52
$GPRMC,164711.250,A,4308.3045,N,07726.2622,W,0.03,53.33,191023,,,A*4F
$GPGGA,164711.500,4308.3045,N,07726.2622,W,1,06,1.66,169.2,M,-34.4,M,,*57
$GPRMC,164711.750,A,4308.3045,N,07726.2622,W,0.03,6.07,191023,,,A*7D
$GPGGA,164712.000,4308.3045,N,07726.2622,W,1,06,1.99,169.2,M,-34.4,M,,*51
$GPRMC,164712.250,A,4308.3045,N,07726.2622,W,0.00,224.01,191023,,,A*7C
$GPGGA,164712.500,4308.3045,N,07726.2622,W,1,06,1.66,169.2,M,-34.4,M,,*54
$GPRMC,164712.750,A,4308.3045,N,07726.2622,W,0.02,62.94,191023,,,A*47
$GPGGA,164713.000,4308.3045,N,07726.2622,W,1,06,1.66,169.2,M,-34.4,M,,*50
$GPRMC,164713.250,A,4308.3045,N,07726.2622,W,0.02,66.44,191023,,,A*4A
$GPGGA,164713.500,4308.3045,N,07726.2622,W,1,06,1.66,169.2,M,-34.4,M,,*55
$GPRMC,164713.750,A,4308.3045,N,07726.2622,W,0.02,102.64,191023,,,A*7E
$GPGGA,164714.000,4308.3045,N,07726.2622,W,1,06,1.66,169.2,M,-34.4,M,,*57
$GPRMC,164714.250,A,4308.3045,N,07726.2622,W,0.03,183.06,191023,,,A*70
$GPGGA,164714.500,4308.3044,N,07726.2622,W,1,06,1.66,169.2,M,-34.4,M,,*53
$GPRMC,164714.750,A,4308.3044,N,07726.2622,W,0.03,51.68,191023,,,A*42
$GPGGA,164715.000,4308.3045,N,07726.2622,W,1,06,1.66,169.2,M,-34.4,M,,*56
$GPRMC,164715.250,A,4308.3044,N,07726.2622,W,0.02,32.46,191023,,,A*4E
$GPGGA,164715.500,4308.3044,N,07726.2622,W,1,06,1.66,169.2,M,-34.4,M,,*52
$GPRMC,164715.750,A,4308.3045,N,07726.2622,W,0.00,274.14,191023,,,A*7F
$GPGGA,164716.000,4308.3045,N,07726.2622,W,1,06,1.66,169.2,M,-34.4,M,,*55
$GPRMC,164716.250,A,4308.3045,N,07726.2622,W,0.02,82.11,191023,,,A*45
$GPGGA,164716.500,4308.3045,N,07726.2622,W,1,06,1.66,169.2,M,-34.4,M,,*50
$GPRMC,164716.750,A,4308.3044,N,07726.2622,W,0.01,69.64,191023,,,A*45
$GPGGA,164717.000,4308.3044,N,07726.2622,W,1,06,1.66,169.2,M,-34.4,M,,*55
$GPRMC,164717.250,A,4308.3044,N,07726.2622,W,0.01,131.73,191023,,,A*7B
$GPGGA,164717.500,4308.3044,N,07726.2622,W,1,06,1.66,169.2,M,-34.4,M,,*50
$GPRMC,164717.750,A,4308.3044,N,07726.2622,W,0.02,93.16,191023,,,A*47
$GPGGA,164718.000,4308.3044,N,07726.2622,W,1,06,1.66,169.2,M,-34.4,M,,*5A
$GPRMC,164718.250,A,4308.3044,N,07726.2622,W,0.03,33.48,191023,,,A*4D
$GPGGA,164718.500,4308.3044,N,07726.2622,W,1,06,1.66,169.2,M,-34.4,M,,*5F
$GPRMC,164718.750,A,4308.3044,N,07726.2622,W,0.01,42.76,191023,,,A*41
$GPGGA,164719.000,4308.3044,N,07726.2622,W,1,06,1.66,169.2,M,-34.4,M,,*5B
$GPRMC,164719.250,A,4308.3044,N,07726.2622,W,0.02,70.25,191023,,,A*41
$GPGGA,164719.500,4308.3044,N,07726.2622,W,1,06,1.66,169.2,M,-34.4,M,,*5E
$GPRMC,164719.750,A,4308.3044,N,07726.2622,W,0.00,12.81,191023,,,A*4C
$GPGGA,164720.000,4308.3044,N,07726.2622,W,1,06,1.99,169.2,M,-34.4,M,,*51
$GPRMC,164720.250,A,4308.3044,N,07726.2622,W,0.02,155.65,191023,,,A*79
$GPGGA,164720.500,4308.3044,N,07726.2622,W,1,06,1.66,169.2,M,-34.4,M,,*54
$GPRMC,164720.750,A,4308.3044,N,07726.2622,W,0.03,145.32,191023,,,A*7E
$GPGGA,164721.000,4308.3044,N,07726.2622,W,1,06,1.66,169.2,M,-34.4,M,,*50
$GPRMC,164721.250,A,4308.3044,N,07726.2622,W,0.02,18.50,191023,,,A*46
$GPGGA,164721.500,4308.3044,N,07726.2622,W,1,06,1.66,169.2,M,-34.4,M,,*55
$GPRMC,164721.750,A,4308.3044,N,07726.2622,W,0.01,270.03,191023,,,A*7A
$GPGGA,164722.000,4308.3044,N,07726.2622,W,1,06,1.66,169.2,M,-34.4,M,,*53
$GPRMC,164722.250,A,4308.3044,N,07726.2622,W,0.00,15.29,191023,,,A*44
$GPGGA,164722.500,4308.3044,N,07726.2622,W,1,06,1.66,169.2,M,-34.4,M,,*56
$GPRMC,164722.750,A,4308.3044,N,07726.2621,W,0.01,64.85,191023,,,A*43
$GPGGA,164723.000,4308.3044,N,07726.2621,W,1,06,1.66,169.2,M,-34.4,M,,*51
$GPRMC,164723.250,A,4308.3044,N,07726.2621,W,0.01,161.39,191023,,,A*74
$GPGGA,164723.500,4308.3044,N,07726.2621,W,1,06,1.66,169.2,M,-34.4,M,,*54
$GPRMC,164723.750,A,4308.3044,N,07726.2621,W,0.01,170.72,191023,,,A*7E
$GPGGA,164724.000,4308.3044,N,07726.2621,W,1,06,1.66,169.2,M,-34.4,M,,*56
$GPRMC,164724.250,A,4308.3044,N,07726.2621,W,0.01,279.23,191023,,,A*72
$GPGGA,164724.500,4308.3044,N,07726.2621,W,1,06,1.66,169.2,M,-34.4,M,,*53
$GPRMC,164724.750,A,4308.3044,N,07726.2621,W,0.05,125.70,191023,,,A*7F
$GPGGA,164725.000,4308.3044,N,07726.2621,W,1,06,1.66,169.2,M,-34.4,M,,*57
$GPRMC,164725.250,A,4308.3044,N,07726.2621,W,0.01,42.02,191023,,,A*4A
$GPGGA,164725.500,4308.3044,N,07726.2621,W,1,06,1.66,169.2,M,-34.4,M,,*52
$GPRMC,164725.750,A,4308.3044,N,07726.2621,W,0.03,173.65,191023,,,A*7F
$GPGGA,164726.000,4308.3044,N,07726.2621,W,1,06,1.66,169.2,M,-34.4,M,,*54
$GPRMC,164726.250,A,4308.3044,N,07726.2621,W,0.04,90.19,191023,,,A*49
$GPGGA,164726.500,4308.3044,N,07726.2621,W,1,06,1.66,169.2,M,-34.4,M,,*51
$GPRMC,164726.750,A,4308.3044,N,07726.2621,W,0.02,179.38,191023,,,A*7F
$GPGGA,164727.000,4308.3044,N,07726.2621,W,1,06,1.66,169.2,M,-34.4,M,,*55
$GPRMC,164727.250,A,4308.3044,N,07726.2621,W,0.01,44.17,191023,,,A*4A
$GPGGA,164727.500,4308.3044,N,07726.2621,W,1,06,1.66,169.2,M,-34.4,M,,*50
$GPRMC,164727.750,A,4308.3044,N,07726.2621,W,0.03,150.81,191023,,,A*76
$GPGGA,164728.000,4308.3044,N,07726.2621,W,1,06,1.66,169.2,M,-34.4,M,,*5A
$GPRMC,164728.250,A,4308.3044,N,07726.2621,W,0.01,283.70,191023,,,A*7D
$GPGGA,164728.500,4308.3044,N,07726.2621,W,1,06,1.66,169.2,M,-34.4,M,,*5F
$GPRMC,164728.750,A,4308.3044,N,07726.2621,W,0.00,170.17,191023,,,A*77
$GPGGA,164729.000,4308.3044,N,07726.2621,W,1,06,1.66,169.2,M,-34.4,M,,*5B
$GPRMC,164729.250,A,4308.3044,N,07726.2621,W,0.03,42.37,191023,,,A*42
$GPGGA,164729.500,4308.3044,N,07726.2621,W,1,06,1.66,169.2,M,-34.4,M,,*5E
$GPRMC,164729.750,A,4308.3044,N,07726.2621,W,0.01,241.77,191023,,,A*70
$GPGGA,164730.000,4308.3044,N,07726.2621,W,1,06,1.66,169.2,M,-34.4,M,,*53
$GPRMC,164730.250,A,4308.3044,N,07726.2621,W,0.03,30.65,191023,,,A*48
$GPGGA,164730.500,4308.3044,N,07726.2621,W,1,06,1.66,169.2,M,-34.4,M,,*56
$GPRMC,164730.750,A,4308.3044,N,07726.2621,W,0.01,33.71,191023,,,A*49
$GPGGA,164731.000,4308.3044,N,07726.2621,W,1,06,1.66,169.2,M,-34.4,M,,*52
$GPRMC,164731.250,A,4308.3044,N,07726.2621,W,0.01,120.84,191023,,,A*74
$GPGGA,164731.500,4308.3044,N,07726.2621,W,1,06,1.66,169.2,M,-34.4,M,,*57
$GPRMC,164731.750,A,4308.3044,N,07726.2621,W,0.02,110.72,191023,,,A*78
$GPGGA,164732.000,4308.3044,N,07726.2621,W,1,06,1.66,169.2,M,-34.4,M,,*51
$GPRMC,164732.250,A,4308.3044,N,07726.2621,W,0.03,100.65,191023,,,A*78
$GPGGA,164732.500,4308.3044,N,07726.2621,W,1,06,1.66,169.2,M,-34.4,M,,*54
$GPRMC,164732.750,A,4308.3044,N,07726.2621,W,0.00,258.87,191023,,,A*7C
$GPGGA,164733.000,4308.3044,N,07726.2621,W,1,06,1.66,169.2,M,-34.4,M,,*50
$GPRMC,164733.250,A,4308.3044,N,07726.2621,W,0.02,88.38,191023,,,A*41
$GPGGA,164733.500,4308.3044,N,07726.2621,W,1,06,1.66,169.2,M,-34.4,M,,*55
$GPRMC,164733.750,A,4308.3044,N,07726.2621,W,0.03,174.86,191023,,,A*72
$GPGGA,164734.000,4308.3044,N,07726.2621,W,1,06,1.66,169.2,M,-34.4,M,,*57
$GPRMC,164734.250,A,4308.3044,N,07726.2621,W,0.02,130.21,191023,,,A*7C
$GPGGA,164734.500,4308.3044,N,07726.2621,W,1,06,1.66,169.2,M,-34.4,M,,*52
$GPRMC,164734.750,A,4308.3044,N,07726.2621,W,0.04,65.36,191023,,,A*48
$GPGGA,164735.000,4308.3044,N,07726.2621,W,1,06,1.66,169.2,M,-34.4,M,,*56
$GPRMC,164735.250,A,4308.3044,N,07726.2621,W,0.02,120.59,191023,,,A*73
$GPGGA,164735.500,4308.3044,N,07726.2621,W,1,06,1.66,169.2,M,-34.4,M,,*53
$GPRMC,164735.750,A,4308.3044,N,07726.2621,W,0.02,53.69,191023,,,A*40
$GPGGA,164736.000,4308.3044,N,07726.2621,W,1,06,1.66,169.2,M,-34.4,M,,*55
$GPRMC,164736.250,A,4308.3044,N,07726.2621,W,0.02,128.51,191023,,,A*70
$GPGGA,164736.500,4308.3044,N,07726.2621,W,1,06,1.66,169.2,M,-34.4,M,,*50
$GPRMC,164736.750,A,4308.3044,N,07726.2621,W,0.01,199.24,191023,,,A*7E
$GPGGA,164737.000,4308.3044,N,07726.2621,W,1,06,1.66,169.2,M,-34.4,M,,*54
$GPRMC,164737.250,A,4308.3044,N,07726.2621,W,0.02,55.54,191023,,,A*4F
$GPGGA,164737.500,4308.3044,N,07726.2621,W,1,06,1.66,169.2,M,-34.4,M,,*51
$GPRMC,164737.750,A,4308.3044,N,07726.2621,W,0.02,110.25,191023,,,A*7C
$GPGGA,164738.000,4308.3044,N,07726.2621,W,1,06,1.66,169.2,M,-34.4,M,,*5B
$GPRMC,164738.250,A,4308.3044,N,07726.2621,W,0.02,197.65,191023,,,A*7D
$GPGGA,164738.500,4308.3044,N,07726.2621,W,1,06,1.66,169.2,M,-34.4,M,,*5E
$GPRMC,164738.750,A,4308.3044,N,07726.2621,W,0.04,161.78,191023,,,A*7B
$GPGGA,164739.000,4308.3044,N,07726.2621,W,1,06,1.66,169.2,M,-34.4,M,,*5A
$GPRMC,164739.250,A,4308.3044,N,07726.2621,W,0.04,83.42,191023,,,A*4B
$GPGGA,164739.500,4308.3044,N,07726.2621,W,1,06,1.66,169.2,M,-34.4,M,,*5F
$GPRMC,164739.750,A,4308.3044,N,07726.2621,W,0.03,114.25,191023,,,A*77
$GPGGA,164740.000,4308.3044,N,07726.2621,W,1,06,1.66,169.2,M,-34.4,M,,*54
$GPRMC,164740.250,A,4308.3044,N,07726.2621,W,0.04,354.02,191023,,,A*78
$GPGGA,164740.500,4308.3044,N,07726.2621,W,1,06,1.99,169.2,M,-34.4,M,,*51
$GPRMC,164740.750,A,4308.3044,N,07726.2621,W,0.02,153.09,191023,,,A*75
$GPGGA,164741.000,4308.3044,N,07726.2621,W,1,06,1.66,169.2,M,-34.4,M,,*55
$GPRMC,164741.250,A,4308.3044,N,07726.2621,W,0.01,110.08,191023,,,A*74
$GPGGA,164741.500,4308.3044,N,07726.2621,W,1,06,1.66,169.2,M,-34.4,M,,*50
$GPRMC,164741.750,A,4308.3044,N,07726.2621,W,0.01,115.71,191023,,,A*7A
$GPGGA,164742.000,4308.3044,N,07726.2621,W,1,06,1.66,169.2,M,-34.4,M,,*56
$GPRMC,164742.250,A,4308.3044,N,07726.2621,W,0.02,23.31,191023,,,A*4F
$GPGGA,164742.500,4308.3044,N,07726.2621,W,1,06,1.66,169.2,M,-34.4,M,,*53
$GPRMC,164742.750,A,4308.3044,N,07726.2621,W,0.04,35.00,191023,,,A*49
$GPGGA,164743.000,4308.3044,N,07726.2621,W,1,06,1.66,169.2,M,-34.4,M,,*57
$GPRMC,164743.250,A,4308.3044,N,07726.2621,W,0.01,42.86,191023,,,A*46
$GPGGA,164743.500,4308.3044,N,07726.2621,W,1,06,1.66,169.2,M,-34.4,M,,*52
$GPRMC,164743.750,A,4308.3044,N,07726.2621,W,0.03,139.23,191023,,,A*73
$GPGGA,164744.000,4308.3044,N,07726.2621,W,1,06,1.66,169.2,M,-34.4,M,,*50
$GPRMC,164744.250,A,4308.3044,N,07726.2621,W,0.04,236.00,191023,,,A*7B
$GPGGA,164744.500,4308.3044,N,07726.2621,W,1,06,1.66,169.2,M,-34.4,M,,*55
$GPRMC,164744.750,A,4308.3044,N,07726.2621,W,0.02,54.74,191023,,,A*4D
$GPGGA,164745.000,4308.3044,N,07726.2621,W,1,06,1.66,169.2,M,-34.4,M,,*51
$GPRMC,164745.250,A,4308.3044,N,07726.2621,W,0.00,98.16,191023,,,A*4F
$GPGGA,164745.500,4308.3044,N,07726.2621,W,1,06,1.66,169.2,M,-34.4,M,,*54
$GPRMC,164745.750,A,4308.3044,N,07726.2621,W,0.01,247.53,191023,,,A*7A
$GPGGA,164746.000,4308.3044,N,07726.2621,W,1,06,1.66,169.2,M,-34.4,M,,*52
$GPRMC,164746.250,A,4308.3044,N,07726.2621,W,0.01,315.25,191023,,,A*7B
$GPGGA,164746.500,4308.3044,N,07726.2621,W,1,06,1.66,169.2,M,-34.4,M,,*57
$GPRMC,164746.750,A,4308.3044,N,07726.2621,W,0.03,45.80,191023,,,A*45
$GPGGA,164747.000,4308.3044,N,07726.2621,W,1,06,1.66,169.2,M,-34.4,M,,*53
$GPRMC,164747.250,A,4308.3044,N,07726.2621,W,0.01,294.73,191023,,,A*71
$GPGGA,164747.500,4308.3044,N,07726.2621,W,1,06,1.66,169.2,M,-34.4,M,,*56
$GPRMC,164747.750,A,4308.3044,N,07726.2621,W,0.04,99.40,191023,,,A*4E
$GPGGA,164748.000,4308.3044,N,07726.2621,W,1,06,1.66,169.2,M,-34.4,M,,*5C
$GPRMC,164748.250,A,4308.3044,N,07726.2621,W,0.01,37.19,191023,,,A*49
$GPGGA,164748.500,4308.3044,N,07726.2621,W,1,06,1.66,169.2,M,-34.4,M,,*59
$GPRMC,164748.750,A,4308.3044,N,07726.2621,W,0.01,67.35,191023,,,A*47
$GPGGA,164749.000,4308.3044,N,07726.2621,W,1,06,1.66,169.2,M,-34.4,M,,*5D
$GPRMC,164749.250,A,4308.3044,N,07726.2621,W,0.02,165.73,191023,,,A*71
$GPGGA,164749.500,4308.3044,N,07726.2621,W,1,06,1.66,169.2,M,-34.4,M,,*58
$GPRMC,164749.750,A,4308.3044,N,07726.2621,W,0.02,56.19,191023,,,A*49
$GPGGA,164750.000,4308.3044,N,07726.2621,W,1,06,1.66,169.2,M,-34.4,M,,*55
$GPRMC,164750.250,A,4308.3044,N,07726.2621,W,0.02,194.90,191023,,,A*7A
$GPGGA,164750.500,4308.3044,N,07726.2621,W,1,06,1.66,169.2,M,-34.4,M,,*50
$GPRMC,164750.750,A,4308.3044,N,07726.2621,W,0.04,26.63,191023,,,A*4D
$GPGGA,164751.000,4308.3044,N,07726.2621,W,1,06,1.66,169.2,M,-34.4,M,,*54
$GPRMC,164751.250,A,4308.3044,N,07726.2621,W,0.01,357.41,191023,,,A*79
$GPGGA,164751.500,4308.3044,N,07726.2621,W,1,06,1.99,169.2,M,-34.4,M,,*51
$GPRMC,164751.750,A,4308.3044,N,07726.2621,W,0.30,11.70,191023,,,A*4D
$GPGGA,164752.000,4308.3045,N,07726.2621,W,1,06,1.99,169.2,M,-34.4,M,,*56
$GPRMC,164752.250,A,4308.3046,N,07726.2621,W,2.14,7.14,191023,,,A*78
$GPGGA,164752.500,4308.3048,N,07726.2621,W,1,06,1.99,169.1,M,-34.4,M,,*5D
$GPRMC,164752.750,A,4308.3051,N,07726.2620,W,3.93,6.48,191023,,,A*7C
$GPGGA,164753.000,4308.3054,N,07726.2620,W,1,06,1.99,169.0,M,-34.4,M,,*54
$GPRMC,164753.250,A,4308.3057,N,07726.2620,W,5.47,5.58,191023,,,A*73
$GPGGA,164753.500,4308.3061,N,07726.2620,W,1,06,1.99,168.9,M,-34.4,M,,*5F
$GPRMC,164753.750,A,4308.3066,N,07726.2619,W,6.62,3.91,191023,,,A*79
$GPGGA,164754.000,4308.3071,N,07726.2619,W,1,06,1.99,168.9,M,-34.4,M,,*56
$GPRMC,164754.250,A,4308.3076,N,07726.2619,W,7.31,1.98,191023,,,A*76
$GPGGA,164754.500,4308.3081,N,07726.2619,W,1,06,1.99,168.8,M,-34.4,M,,*5D
$GPRMC,164754.750,A,4308.3086,N,07726.2619,W,7.32,359.46,191023,,,A*72
$GPGGA,164755.000,4308.3091,N,07726.2619,W,1,06,1.99,168.7,M,-34.4,M,,*57
$GPRMC,164755.250,A,4308.3096,N,07726.2619,W,7.47,357.08,191023,,,A*71
$GPGGA,164755.500,4308.3101,N,07726.2620,W,1,06,1.99,168.7,M,-34.4,M,,*50
$GPRMC,164755.750,A,4308.3106,N,07726.2620,W,6.92,354.66,191023,,,A*74
$GPGGA,164756.000,4308.3111,N,07726.2621,W,1,06,1.99,168.6,M,-34.4,M,,*57
$GPRMC,164756.250,A,4308.3115,N,07726.2622,W,6.04,353.99,191023,,,A*7A
$GPGGA,164756.500,4308.3119,N,07726.2623,W,1,06,1.99,168.5,M,-34.4,M,,*5B
$GPRMC,164756.750,A,4308.3123,N,07726.2623,W,5.34,353.96,191023,,,A*74
$GPGGA,164757.000,4308.3127,N,07726.2624,W,1,06,1.99,168.4,M,-34.4,M,,*54
$GPRMC,164757.250,A,4308.3130,N,07726.2624,W,4.79,0.02,191023,,,A*75
$GPGGA,164757.500,4308.3132,N,07726.2623,W,1,06,1.99,168.3,M,-34.4,M,,*55
$GPRMC,164757.750,A,4308.3135,N,07726.2623,W,3.79,5.69,191023,,,A*7D
$GPGGA,164758.000,4308.3137,N,07726.2623,W,1,06,1.99,168.2,M,-34.4,M,,*5B
$GPRMC,164758.250,A,4308.3139,N,07726.2623,W,3.04,10.99,191023,,,A*4A
$GPGGA,164758.500,4308.3141,N,07726.2622,W,1,06,1.99,168.1,M,-34.4,M,,*5D
$GPRMC,164758.750,A,4308.3143,N,07726.2621,W,3.24,20.99,191023,,,A*41
$GPGGA,164759.000,4308.3145,N,07726.2619,W,1,06,1.66,167.9,M,-34.4,M,,*52
$GPRMC,164759.250,A,4308.3147,N,07726.2618,W,3.27,36.84,191023,,,A*43
$GPGGA,164759.500,4308.3149,N,07726.2615,W,1,06,1.66,167.8,M,-34.4,M,,*56
$GPRMC,164759.750,A,4308.3150,N,07726.2613,W,3.40,43.62,191023,,,A*40
$GPGGA,164800.000,4308.3152,N,07726.2611,W,1,06,1.66,167.7,M,-34.4,M,,*51
$GPRMC,164800.250,A,4308.3153,N,07726.2608,W,3.52,56.17,191023,,,A*4A
$GPGGA,164800.500,4308.3154,N,07726.2605,W,1,06,1.66,167.6,M,-34.4,M,,*56
$GPRMC,164800.750,A,4308.3154,N,07726.2602,W,3.35,68.35,191023,,,A*4E
$GPGGA,164801.000,4308.3155,N,07726.2599,W,1,06,1.66,167.5,M,-34.4,M,,*56
$GPRMC,164801.250,A,4308.3155,N,07726.2597,W,2.93,76.78,191023,,,A*4F
$GPGGA,164801.500,4308.3155,N,07726.2595,W,1,06,1.66,167.4,M,-34.4,M,,*5E
$GPRMC,164801.750,A,4308.3155,N,07726.2593,W,1.84,82.22,191023,,,A*4F
$GPGGA,164802.000,4308.3155,N,07726.2592,W,1,06,1.66,167.4,M,-34.4,M,,*5F
$GPRMC,164802.250,A,4308.3154,N,07726.2591,W,1.15,93.72,191023,,,A*47
$GPGGA,164802.500,4308.3155,N,07726.2591,W,1,06,1.66,167.3,M,-34.4,M,,*5E
$GPRMC,164802.750,A,4308.3155,N,07726.2593,W,0.15,116.26,191023,,,A*7D
$GPGGA,164803.000,4308.3155,N,07726.2595,W,1,06,1.66,167.3,M,-34.4,M,,*5E
$GPRMC,164803.250,A,4308.3154,N,07726.2597,W,0.85,258.44,191023,,,A*78
$GPGGA,164803.500,4308.3154,N,07726.2601,W,1,06,1.66,167.2,M,-34.4,M,,*55
$GPRMC,164803.750,A,4308.3154,N,07726.2607,W,2.25,261.60,191023,,,A*73
$GPGGA,164804.000,4308.3154,N,07726.2614,W,1,06,1.66,167.2,M,-34.4,M,,*53
$GPRMC,164804.250,A,4308.3156,N,07726.2620,W,5.03,270.03,191023,,,A*70
$GPGGA,164804.500,4308.3157,N,07726.2629,W,1,06,1.99,167.1,M,-34.4,M,,*58
$GPRMC,164804.750,A,4308.3158,N,07726.2638,W,8.96,271.75,191023,,,A*73
$GPGGA,164805.000,4308.3159,N,07726.2648,W,1,06,1.99,167.0,M,-34.4,M,,*54
$GPRMC,164805.250,A,4308.3160,N,07726.2659,W,11.15,274.46,191023,,,A*4D
$GPGGA,164805.500,4308.3160,N,07726.2671,W,1,06,1.99,166.9,M,-34.4,M,,*59
$GPRMC,164805.750,A,4308.3160,N,07726.2683,W,12.94,273.17,191023,,,A*46
$GPGGA,164806.000,4308.3161,N,07726.2697,W,1,06,1.99,166.7,M,-34.4,M,,*58
$GPRMC,164806.250,A,4308.3161,N,07726.2711,W,14.45,274.02,191023,,,A*42
$GPGGA,164806.500,4308.3162,N,07726.2726,W,1,06,1.66,166.6,M,-34.4,M,,*54
$GPRMC,164806.750,A,4308.3162,N,07726.2741,W,15.78,275.13,191023,,,A*4F
$GPGGA,164807.000,4308.3162,N,07726.2756,W,1,06,1.99,166.5,M,-34.4,M,,*54
$GPRMC,164807.250,A,4308.3163,N,07726.2771,W,16.48,275.00,191023,,,A*4B
$GPGGA,164807.500,4308.3163,N,07726.2788,W,1,06,1.99,166.4,M,-34.4,M,,*52
$GPRMC,164807.750,A,4308.3164,N,07726.2804,W,17.48,276.06,191023,,,A*40
$GPGGA,164808.000,4308.3164,N,07726.2821,W,1,06,1.98,166.3,M,-34.4,M,,*55
$GPRMC,164808.250,A,4308.3165,N,07726.2838,W,17.94,276.53,191023,,,A*45
$GPGGA,164808.500,4308.3166,N,07726.2855,W,1,06,1.65,166.2,M,-34.4,M,,*52
$GPRMC,164808.750,A,4308.3167,N,07726.2872,W,18.50,277.05,191023,,,A*49
$GPGGA,164809.000,4308.3168,N,07726.2889,W,1,06,1.99,166.1,M,-34.4,M,,*59
$GPRMC,164809.250,A,4308.3170,N,07726.2907,W,18.72,279.51,191023,,,A*47
$GPGGA,164809.500,4308.3175,N,07726.2925,W,1,06,1.98,165.9,M,-34.4,M,,*5D
$GPRMC,164809.750,A,4308.3179,N,07726.2943,W,19.60,283.60,191023,,,A*4E
$GPGGA,164810.000,4308.3184,N,07726.2962,W,1,06,1.98,165.9,M,-34.4,M,,*5D
$GPRMC,164810.250,A,4308.3189,N,07726.2980,W,20.02,287.16,191023,,,A*48
$GPGGA,164810.500,4308.3196,N,07726.2999,W,1,06,1.98,165.8,M,-34.4,M,,*5E
$GPRMC,164810.750,A,4308.3202,N,07726.3017,W,20.40,290.79,191023,,,A*42
$GPGGA,164811.000,4308.3210,N,07726.3036,W,1,06,1.98,165.8,M,-34.4,M,,*5A
$GPRMC,164811.250,A,4308.3218,N,07726.3054,W,21.07,294.53,191023,,,A*44
$GPGGA,164811.500,4308.3227,N,07726.3073,W,1,06,1.98,165.7,M,-34.4,M,,*55
$GPRMC,164811.750,A,4308.3235,N,07726.3091,W,21.81,297.84,191023,,,A*40
$GPGGA,164812.000,4308.3244,N,07726.3110,W,1,06,1.99,165.7,M,-34.4,M,,*53
$GPRMC,164812.250,A,4308.3253,N,07726.3128,W,22.41,299.89,191023,,,A*49
$GPGGA,164812.500,4308.3264,N,07726.3147,W,1,06,1.66,165.6,M,-34.4,M,,*57
$GPRMC,164812.750,A,4308.3274,N,07726.3166,W,23.24,302.20,191023,,,A*41
$GPGGA,164813.000,4308.3284,N,07726.3185,W,1,06,1.98,165.6,M,-34.4,M,,*52
$GPRMC,164813.250,A,4308.3294,N,07726.3204,W,23.86,302.59,191023,,,A*4A
$GPGGA,164813.500,4308.3305,N,07726.3224,W,1,06,1.98,165.6,M,-34.4,M,,*57
$GPRMC,164813.750,A,4308.3315,N,07726.3244,W,24.45,302.52,191023,,,A*40
$GPGGA,164814.000,4308.3325,N,07726.3264,W,1,06,1.98,165.5,M,-34.4,M,,*50
$GPRMC,164814.250,A,4308.3336,N,07726.3284,W,24.68,303.12,191023,,,A*45
$GPGGA,164814.500,4308.3346,N,07726.3304,W,1,06,1.98,165.5,M,-34.4,M,,*57
$GPRMC,164814.750,A,4308.3357,N,07726.3323,W,24.67,304.02,191023,,,A*42
$GPGGA,164815.000,4308.3367,N,07726.3343,W,1,06,1.98,165.5,M,-34.4,M,,*53
$GPRMC,164815.250,A,4308.3377,N,07726.3362,W,24.39,304.27,191023,,,A*4D
$GPGGA,164815.500,4308.3387,N,07726.3381,W,1,06,1.98,165.4,M,-34.4,M,,*57
$GPRMC,164815.750,A,4308.3398,N,07726.3401,W,23.88,304.58,191023,,,A*4E
$GPGGA,164816.000,4308.3407,N,07726.3419,W,1,06,1.98,165.4,M,-34.4,M,,*58
$GPRMC,164816.250,A,4308.3417,N,07726.3438,W,23.69,304.26,191023,,,A*44
$GPGGA,164816.500,4308.3428,N,07726.3457,W,1,06,1.98,165.3,M,-34.4,M,,*5D
$GPRMC,164816.750,A,4308.3438,N,07726.3475,W,23.45,305.07,191023,,,A*49
$GPGGA,164817.000,4308.3448,N,07726.3493,W,1,06,1.98,165.2,M,-34.4,M,,*56
$GPRMC,164817.250,A,4308.3459,N,07726.3511,W,23.35,306.15,191023,,,A*4E
$GPGGA,164817.500,4308.3469,N,07726.3529,W,1,06,1.66,165.1,M,-34.4,M,,*52
$GPRMC,164817.750,A,4308.3480,N,07726.3546,W,22.89,307.52,191023,,,A*49
$GPGGA,164818.000,4308.3491,N,07726.3563,W,1,05,2.16,165.1,M,-34.4,M,,*56
$GPRMC,164818.250,A,4308.3502,N,07726.3580,W,23.05,309.96,191023,,,A*41
$GPGGA,164818.500,4308.3513,N,07726.3597,W,1,05,2.16,165.1,M,-34.4,M,,*53
$GPRMC,164818.750,A,4308.3525,N,07726.3613,W,23.00,313.32,191023,,,A*48
$GPGGA,164819.000,4308.3537,N,07726.3628,W,1,05,2.16,165.1,M,-34.4,M,,*56
$GPRMC,164819.250,A,4308.3550,N,07726.3643,W,22.77,316.75,191023,,,A*4C
$GPGGA,164819.500,4308.3563,N,07726.3657,W,1,05,2.16,165.1,M,-34.4,M,,*5A
$GPRMC,164819.750,A,4308.3578,N,07726.3670,W,22.54,322.55,191023,,,A*47
$GPGGA,164820.000,4308.3593,N,07726.3682,W,1,05,2.29,165.1,M,-34.4,M,,*5E
$GPRMC,164820.250,A,4308.3607,N,07726.3694,W,22.55,326.88,191023,,,A*4C
$GPGGA,164820.500,4308.3621,N,07726.3705,W,1,05,2.16,165.2,M,-34.4,M,,*50
$GPRMC,164820.750,A,4308.3636,N,07726.3714,W,22.13,333.06,191023,,,A*42
$GPGGA,164821.000,4308.3651,N,07726.3723,W,1,05,2.16,165.2,M,-34.4,M,,*57
$GPRMC,164821.250,A,4308.3667,N,07726.3731,W,22.21,338.06,191023,,,A*4F
$GPGGA,164821.500,4308.3682,N,07726.3738,W,1,05,2.16,165.2,M,-34.4,M,,*56
$GPRMC,164821.750,A,4308.3697,N,07726.3744,W,21.88,342.25,191023,,,A*4B
$GPGGA,164822.000,4308.3713,N,07726.3750,W,1,06,1.65,165.2,M,-34.4,M,,*53
$GPRMC,164822.250,A,4308.3728,N,07726.3756,W,21.84,343.61,191023,,,A*46
$GPGGA,164822.500,4308.3742,N,07726.3762,W,1,06,1.65,165.2,M,-34.4,M,,*53
$GPRMC,164822.750,A,4308.3756,N,07726.3767,W,21.53,344.39,191023,,,A*48
$GPGGA,164823.000,4308.3771,N,07726.3772,W,1,06,1.65,165.2,M,-34.4,M,,*56
$GPRMC,164823.250,A,4308.3785,N,07726.3776,W,21.09,346.39,191023,,,A*4F
$GPGGA,164823.500,4308.3805,N,07726.3773,W,1,05,2.29,165.3,M,-34.4,M,,*57
$GPRMC,164823.750,A,4308.3821,N,07726.3771,W,21.33,0.32,191023,,,A*4F
$GPGGA,164824.000,4308.3837,N,07726.3769,W,1,05,2.29,165.4,M,-34.4,M,,*58
$GPRMC,164824.250,A,4308.3853,N,07726.3768,W,21.80,2.96,191023,,,A*44
$GPGGA,164824.500,4308.3868,N,07726.3765,W,1,06,1.98,165.5,M,-34.4,M,,*50
$GPRMC,164824.750,A,4308.3884,N,07726.3762,W,22.16,6.86,191023,,,A*48
$GPGGA,164825.000,4308.3901,N,07726.3758,W,1,06,1.98,165.5,M,-34.4,M,,*54
$GPRMC,164825.250,A,4308.3917,N,07726.3755,W,22.56,8.56,191023,,,A*44
$GPGGA,164825.500,4308.3933,N,07726.3751,W,1,05,2.29,165.6,M,-34.4,M,,*50
$GPRMC,164825.750,A,4308.3949,N,07726.3746,W,22.87,10.41,191023,,,A*7B
$GPGGA,164826.000,4308.3965,N,07726.3742,W,1,06,1.98,165.5,M,-34.4,M,,*5E
$GPRMC,164826.250,A,4308.3982,N,07726.3738,W,23.23,10.91,191023,,,A*71
$GPGGA,164826.500,4308.3999,N,07726.3733,W,1,06,1.98,165.5,M,-34.4,M,,*5E
$GPRMC,164826.750,A,4308.4016,N,07726.3729,W,23.52,11.42,191023,,,A*7E
$GPGGA,164827.000,4308.4032,N,07726.3724,W,1,06,1.98,165.4,M,-34.4,M,,*52
$GPRMC,164827.250,A,4308.4049,N,07726.3719,W,23.49,11.33,191023,,,A*7F
$GPGGA,164827.500,4308.4065,N,07726.3715,W,1,06,1.98,165.3,M,-34.4,M,,*50
$GPRMC,164827.750,A,4308.4081,N,07726.3710,W,22.97,10.89,191023,,,A*75
$GPGGA,164828.000,4308.4097,N,07726.3706,W,1,06,1.98,165.3,M,-34.4,M,,*55
$GPRMC,164828.250,A,4308.4113,N,07726.3702,W,22.57,10.28,191023,,,A*71
$GPGGA,164828.500,4308.4129,N,07726.3698,W,1,06,1.98,165.3,M,-34.4,M,,*52
$GPRMC,164828.750,A,4308.4144,N,07726.3694,W,21.98,9.86,191023,,,A*44
$GPGGA,164829.000,4308.4160,N,07726.3691,W,1,06,1.98,165.3,M,-34.4,M,,*52
$GPRMC,164829.250,A,4308.4175,N,07726.3687,W,21.43,9.56,191023,,,A*4B
$GPGGA,164829.500,4308.4189,N,07726.3684,W,1,06,1.98,165.3,M,-34.4,M,,*54
$GPRMC,164829.750,A,4308.4204,N,07726.3681,W,20.80,8.89,191023,,,A*40
$GPGGA,164830.000,4308.4218,N,07726.3678,W,1,06,1.98,165.4,M,-34.4,M,,*56
$GPRMC,164830.250,A,4308.4233,N,07726.3675,W,20.46,8.63,191023,,,A*4C
$GPGGA,164830.500,4308.4247,N,07726.3672,W,1,06,1.98,165.4,M,-34.4,M,,*53
$GPRMC,164830.750,A,4308.4261,N,07726.3670,W,20.18,8.52,191023,,,A*42
$GPGGA,164831.000,4308.4275,N,07726.3667,W,1,06,1.98,165.5,M,-34.4,M,,*53
$GPRMC,164831.250,A,4308.4289,N,07726.3664,W,20.08,8.42,191023,,,A*45
$GPGGA,164831.500,4308.4303,N,07726.3661,W,1,06,1.98,165.5,M,-34.4,M,,*50
$GPRMC,164831.750,A,4308.4317,N,07726.3658,W,19.76,8.63,191023,,,A*49
$GPGGA,164832.000,4308.4331,N,07726.3656,W,1,06,1.98,165.5,M,-34.4,M,,*53
$GPRMC,164832.250,A,4308.4345,N,07726.3653,W,19.54,8.26,191023,,,A*42
$GPGGA,164832.500,4308.4358,N,07726.3650,W,1,06,1.98,165.5,M,-34.4,M,,*5F
$GPRMC,164832.750,A,4308.4371,N,07726.3647,W,18.99,9.01,191023,,,A*41
$GPGGA,164833.000,4308.4384,N,07726.3644,W,1,06,1.98,165.5,M,-34.4,M,,*5F
$GPRMC,164833.250,A,4308.4397,N,07726.3641,W,18.64,9.38,191023,,,A*43
$GPGGA,164833.500,4308.4409,N,07726.3638,W,1,06,1.98,165.5,M,-34.4,M,,*53
$GPRMC,164833.750,A,4308.4422,N,07726.3635,W,17.93,10.06,191023,,,A*7E
$GPGGA,164834.000,4308.4434,N,07726.3632,W,1,06,1.98,165.7,M,-34.4,M,,*57
$GPRMC,164834.250,A,4308.4446,N,07726.3629,W,17.50,10.27,191023,,,A*7F
$GPGGA,164834.500,4308.4457,N,07726.3626,W,1,06,1.98,165.8,M,-34.4,M,,*5D
$GPRMC,164834.750,A,4308.4468,N,07726.3623,W,15.98,10.62,191023,,,A*7B
$GPGGA,164835.000,4308.4478,N,07726.3621,W,1,06,1.98,165.9,M,-34.4,M,,*52
$GPRMC,164835.250,A,4308.4488,N,07726.3618,W,14.39,10.24,191023,,,A*71
$GPGGA,164835.500,4308.4496,N,07726.3616,W,1,06,1.98,166.0,M,-34.4,M,,*59
$GPRMC,164835.750,A,4308.4504,N,07726.3614,W,11.64,10.50,191023,,,A*73
$GPGGA,164836.000,4308.4509,N,07726.3612,W,1,06,1.98,166.0,M,-34.4,M,,*5C
$GPRMC,164836.250,A,4308.4515,N,07726.3611,W,9.04,9.55,191023,,,A*72
$GPGGA,164836.500,4308.4519,N,07726.3610,W,1,06,1.98,166.1,M,-34.4,M,,*5B
$GPRMC,164836.750,A,4308.4523,N,07726.3609,W,5.81,10.33,191023,,,A*42
$GPGGA,164837.000,4308.4525,N,07726.3608,W,1,06,1.98,165.9,M,-34.4,M,,*52
$GPRMC,164837.250,A,4308.4528,N,07726.3608,W,3.94,7.72,191023,,,A*7D
$GPGGA,164837.500,4308.4530,N,07726.3607,W,1,06,1.98,165.9,M,-34.4,M,,*5C
$GPRMC,164837.750,A,4308.4531,N,07726.3607,W,2.39,6.84,191023,,,A*71
$GPGGA,164838.000,4308.4532,N,07726.3607,W,1,06,1.98,165.8,M,-34.4,M,,*55
$GPRMC,164838.250,A,4308.4534,N,07726.3607,W,2.11,6.84,191023,,,A*74
$GPGGA,164838.500,4308.4536,N,07726.3607,W,1,06,1.98,165.8,M,-34.4,M,,*54
$GPRMC,164838.750,A,4308.4538,N,07726.3607,W,2.74,6.84,191023,,,A*7E
$GPGGA,164839.000,4308.4540,N,07726.3608,W,1,06,1.98,165.7,M,-34.4,M,,*51
$GPRMC,164839.250,A,4308.4543,N,07726.3608,W,3.39,343.96,191023,,,A*70
$GPGGA,164839.500,4308.4547,N,07726.3609,W,1,06,1.65,165.6,M,-34.4,M,,*51
$GPRMC,164839.750,A,4308.4552,N,07726.3611,W,5.96,337.48,191023,,,A*7E
$GPGGA,164840.000,4308.4557,N,07726.3614,W,1,06,1.98,165.6,M,-34.4,M,,*55
$GPRMC,164840.250,A,4308.4562,N,07726.3617,W,7.07,333.27,191023,,,A*77
$GPGGA,164840.500,4308.4567,N,07726.3622,W,1,06,1.65,165.6,M,-34.4,M,,*54
$GPRMC,164840.750,A,4308.4573,N,07726.3629,W,9.64,317.91,191023,,,A*7F
$GPGGA,164841.000,4308.4577,N,07726.3637,W,1,06,1.98,165.6,M,-34.4,M,,*57
$GPRMC,164841.250,A,4308.4581,N,07726.3646,W,10.71,304.08,191023,,,A*41
$GPGGA,164841.500,4308.4584,N,07726.3656,W,1,06,1.65,165.7,M,-34.4,M,,*5A
$GPRMC,164841.750,A,4308.4586,N,07726.3668,W,12.76,289.78,191023,,,A*49
$GPGGA,164842.000,4308.4588,N,07726.3680,W,1,06,1.98,165.6,M,-34.4,M,,*58
$GPRMC,164842.250,A,4308.4590,N,07726.3693,W,14.07,281.33,191023,,,A*4B
$GPGGA,164842.500,4308.4591,N,07726.3708,W,1,06,1.65,165.5,M,-34.4,M,,*55
$GPRMC,164842.750,A,4308.4593,N,07726.3725,W,16.44,275.28,191023,,,A*45
$GPGGA,164843.000,4308.4595,N,07726.3742,W,1,06,1.98,165.3,M,-34.4,M,,*5F
$GPRMC,164843.250,A,4308.4599,N,07726.3761,W,18.45,273.74,191023,,,A*4B
$GPGGA,164843.500,4308.4601,N,07726.3781,W,1,06,1.65,165.2,M,-34.4,M,,*58
$GPRMC,164843.750,A,4308.4604,N,07726.3801,W,20.28,272.18,191023,,,A*4B
$GPGGA,164844.000,4308.4605,N,07726.3822,W,1,06,1.98,164.9,M,-34.4,M,,*50
$GPRMC,164844.250,A,4308.4607,N,07726.3843,W,21.33,272.03,191023,,,A*4D
$GPGGA,164844.500,4308.4608,N,07726.3864,W,1,06,1.98,164.7,M,-34.4,M,,*54
$GPRMC,164844.750,A,4308.4609,N,07726.3885,W,22.12,271.80,191023,,,A*44
$GPGGA,164845.000,4308.4611,N,07726.3907,W,1,06,1.98,164.6,M,-34.4,M,,*5D
$GPRMC,164845.250,A,4308.4613,N,07726.3929,W,22.31,272.63,191023,,,A*43
$GPGGA,164845.500,4308.4615,N,07726.3951,W,1,06,1.98,164.5,M,-34.4,M,,*5C
$GPRMC,164845.750,A,4308.4617,N,07726.3972,W,22.46,273.77,191023,,,A*48
$GPGGA,164846.000,4308.4619,N,07726.3994,W,1,06,1.98,164.3,M,-34.4,M,,*59
$GPRMC,164846.250,A,4308.4621,N,07726.4015,W,22.30,274.52,191023,,,A*45
$GPGGA,164846.500,4308.4623,N,07726.4036,W,1,06,1.65,164.2,M,-34.4,M,,*50
$GPRMC,164846.750,A,4308.4624,N,07726.4057,W,21.93,274.10,191023,,,A*4F
$GPGGA,164847.000,4308.4626,N,07726.4078,W,1,06,1.98,164.0,M,-34.4,M,,*5B
$GPRMC,164847.250,A,4308.4628,N,07726.4099,W,21.67,274.22,191023,,,A*4F
$GPGGA,164847.500,4308.4630,N,07726.4119,W,1,06,1.98,163.8,M,-34.4,M,,*50
$GPRMC,164847.750,A,4308.4632,N,07726.4139,W,21.23,275.10,191023,,,A*4A
$GPGGA,164848.000,4308.4634,N,07726.4159,W,1,06,1.98,163.7,M,-34.4,M,,*55
$GPRMC,164848.250,A,4308.4636,N,07726.4178,W,20.24,275.43,191023,,,A*41
$GPGGA,164848.500,4308.4638,N,07726.4197,W,1,06,1.98,163.5,M,-34.4,M,,*5C
$GPRMC,164848.750,A,4308.4639,N,07726.4215,W,19.03,275.15,191023,,,A*4F
$GPGGA,164849.000,4308.4641,N,07726.4231,W,1,06,1.98,163.3,M,-34.4,M,,*5F
$GPRMC,164849.250,A,4308.4642,N,07726.4248,W,17.58,275.79,191023,,,A*45
$GPGGA,164849.500,4308.4644,N,07726.4263,W,1,06,1.65,163.2,M,-34.4,M,,*5B
$GPRMC,164849.750,A,4308.4645,N,07726.4278,W,15.82,276.62,191023,,,A*48
$GPGGA,164850.000,4308.4647,N,07726.4291,W,1,06,1.98,163.1,M,-34.4,M,,*59
$GPRMC,164850.250,A,4308.4649,N,07726.4304,W,13.88,278.60,191023,,,A*43
$GPGGA,164850.500,4308.4650,N,07726.4315,W,1,06,1.98,162.9,M,-34.4,M,,*5E
$GPRMC,164850.750,A,4308.4652,N,07726.4326,W,11.79,278.93,191023,,,A*4C
$GPGGA,164851.000,4308.4653,N,07726.4336,W,1,06,1.98,162.8,M,-34.4,M,,*59
$GPRMC,164851.250,A,4308.4655,N,07726.4345,W,10.27,279.92,191023,,,A*40
$GPGGA,164851.500,4308.4656,N,07726.4353,W,1,06,1.65,162.7,M,-34.4,M,,*57
$GPRMC,164851.750,A,4308.4658,N,07726.4361,W,8.44,282.69,191023,,,A*72
$GPGGA,164852.000,4308.4659,N,07726.4367,W,1,06,1.98,162.6,M,-34.4,M,,*5A
$GPRMC,164852.250,A,4308.4661,N,07726.4372,W,5.90,283.19,191023,,,A*7E
$GPGGA,164852.500,4308.4662,N,07726.4377,W,1,06,1.98,162.9,M,-34.4,M,,*59
$GPRMC,164852.750,A,4308.4662,N,07726.4381,W,3.84,285.58,191023,,,A*74
$GPGGA,164853.000,4308.4662,N,07726.4383,W,1,06,1.65,162.9,M,-34.4,M,,*54
$GPRMC,164853.250,A,4308.4663,N,07726.4385,W,2.10,286.50,191023,,,A*72
$GPGGA,164853.500,4308.4660,N,07726.4386,W,1,06,1.65,162.7,M,-34.4,M,,*58
$GPRMC,164853.750,A,4308.4661,N,07726.4387,W,0.05,286.50,191023,,,A*71
$GPGGA,164854.000,4308.4661,N,07726.4387,W,1,06,1.65,162.8,M,-34.4,M,,*55
$GPRMC,164854.250,A,4308.4662,N,07726.4387,W,0.01,286.50,191023,,,A*74
$GPGGA,164854.500,4308.4662,N,07726.4387,W,1,06,1.65,162.9,M,-34.4,M,,*52
$GPRMC,164854.750,A,4308.4662,N,07726.4386,W,0.01,286.50,191023,,,A*70
$GPGGA,164855.000,4308.4662,N,07726.4386,W,1,06,1.65,163.0,M,-34.4,M,,*5F
$GPRMC,164855.250,A,4308.4662,N,07726.4386,W,0.01,286.50,191023,,,A*74
$GPGGA,164855.500,4308.4662,N,07726.4386,W,1,06,1.65,163.1,M,-34.4,M,,*5B
$GPRMC,164855.750,A,4308.4662,N,07726.4386,W,0.00,286.50,191023,,,A*70
$GPGGA,164856.000,4308.4663,N,07726.4385,W,1,06,1.65,163.2,M,-34.4,M,,*5C
$GPRMC,164856.250,A,4308.4663,N,07726.4385,W,0.00,286.50,191023,,,A*74
$GPGGA,164856.500,4308.4663,N,07726.4385,W,1,06,1.65,163.3,M,-34.4,M,,*58
$GPRMC,164856.750,A,4308.4663,N,07726.4385,W,0.00,286.50,191023,,,A*71
$GPGGA,164857.000,4308.4663,N,07726.4385,W,1,06,1.65,163.4,M,-34.4,M,,*5B
$GPRMC,164857.250,A,4308.4663,N,07726.4385,W,0.00,286.50,191023,,,A*75
$GPGGA,164857.500,4308.4663,N,07726.4385,W,1,06,1.65,163.4,M,-34.4,M,,*5E
$GPRMC,164857.750,A,4308.4663,N,07726.4385,W,0.00,286.50,191023,,,A*70
$GPGGA,164858.000,4308.4663,N,07726.4385,W,1,06,1.65,163.4,M,-34.4,M,,*54
$GPRMC,164858.250,A,4308.4663,N,07726.4385,W,0.00,286.50,191023,,,A*7A
$GPGGA,164858.500,4308.4663,N,07726.4385,W,1,06,1.65,163.4,M,-34.4,M,,*51
$GPRMC,164858.750,A,4308.4663,N,07726.4385,W,0.00,286.50,191023,,,A*7F
$GPGGA,164859.000,4308.4663,N,07726.4385,W,1,06,1.65,163.4,M,-34.4,M,,*55
$GPRMC,164859.250,A,4308.4663,N,07726.4385,W,0.00,286.50,191023,,,A*7B
$GPGGA,164859.500,4308.4663,N,07726.4385,W,1,06,1.65,163.4,M,-34.4,M,,*50
$GPRMC,164859.750,A,4308.4663,N,07726.4385,W,0.00,286.50,191023,,,A*7E
$GPGGA,164900.000,4308.4663,N,07726.4385,W,1,06,1.65,163.4,M,-34.4,M,,*58
$GPRMC,164900.250,A,4308.4663,N,07726.4385,W,0.00,286.50,191023,,,A*76
$GPGGA,164900.500,4308.4663,N,07726.4385,W,1,06,1.65,163.4,M,-34.4,M,,*5D
$GPRMC,164900.750,A,4308.4663,N,07726.4385,W,0.00,286.50,191023,,,A*73
$GPGGA,164901.000,4308.4663,N,07726.4385,W,1,06,1.65,163.4,M,-34.4,M,,*59
$GPRMC,164901.250,A,4308.4663,N,07726.4385,W,0.00,286.50,191023,,,A*77
$GPGGA,164901.500,4308.4663,N,07726.4384,W,1,06,1.65,163.4,M,-34.4,M,,*5D
$GPRMC,164901.750,A,4308.4663,N,07726.4384,W,0.00,286.50,191023,,,A*73
$GPGGA,164902.000,4308.4663,N,07726.4384,W,1,06,1.65,163.4,M,-34.4,M,,*5B
$GPRMC,164902.250,A,4308.4663,N,07726.4384,W,0.01,286.50,191023,,,A*74
$GPGGA,164902.500,4308.4663,N,07726.4384,W,1,07,1.48,163.4,M,-34.4,M,,*50
$GPRMC,164902.750,A,4308.4663,N,07726.4384,W,0.00,286.50,191023,,,A*70
$GPGGA,164903.000,4308.4663,N,07726.4384,W,1,07,1.48,163.4,M,-34.4,M,,*54
$GPRMC,164903.250,A,4308.4663,N,07726.4384,W,0.00,286.50,191023,,,A*74
$GPGGA,164903.500,4308.4663,N,07726.4384,W,1,07,1.48,163.4,M,-34.4,M,,*51
$GPRMC,164903.750,A,4308.4663,N,07726.4384,W,0.00,286.50,191023,,,A*71
$GPGGA,164904.000,4308.4663,N,07726.4384,W,1,07,1.48,163.4,M,-34.4,M,,*53
$GPRMC,164904.250,A,4308.4663,N,07726.4384,W,0.00,286.50,191023,,,A*73
$GPGGA,164904.500,4308.4663,N,07726.4384,W,1,07,1.48,163.4,M,-34.4,M,,*56
$GPRMC,164904.750,A,4308.4663,N,07726.4384,W,0.00,286.50,191023,,,A*76
$GPGGA,164905.000,4308.4663,N,07726.4384,W,1,07,1.48,163.4,M,-34.4,M,,*52
$GPRMC,164905.250,A,4308.4663,N,07726.4384,W,0.00,286.50,191023,,,A*72
$GPGGA,164905.500,4308.4663,N,07726.4384,W,1,07,1.48,163.4,M,-34.4,M,,*57
$GPRMC,164905.750,A,4308.4663,N,07726.4384,W,0.00,286.50,191023,,,A*77
$GPGGA,164906.000,4308.4663,N,07726.4384,W,1,07,1.48,163.4,M,-34.4,M,,*51
$GPRMC,164906.250,A,4308.4663,N,07726.4384,W,0.00,286.50,191023,,,A*71
$GPGGA,164906.500,4308.4663,N,07726.4384,W,1,07,1.48,163.4,M,-34.4,M,,*54
$GPRMC,164906.750,A,4308.4663,N,07726.4384,W,0.00,286.50,191023,,,A*74
$GPGGA,164907.000,4308.4663,N,07726.4384,W,1,07,1.48,163.4,M,-34.4,M,,*50
$GPRMC,164907.250,A,4308.4663,N,07726.4384,W,0.00,286.50,191023,,,A*70
$GPGGA,164907.500,4308.4663,N,07726.4384,W,1,07,1.48,163.4,M,-34.4,M,,*55
$GPRMC,164907.750,A,4308.4663,N,07726.4384,W,0.02,286.50,191023,,,A*77
$GPGGA,164908.000,4308.4663,N,07726.4385,W,1,07,1.48,163.4,M,-34.4,M,,*5E
$GPRMC,164908.250,A,4308.4663,N,07726.4385,W,1.54,286.50,191023,,,A*7E
$GPGGA,164908.500,4308.4663,N,07726.4387,W,1,07,1.48,163.4,M,-34.4,M,,*59
$GPRMC,164908.750,A,4308.4664,N,07726.4389,W,3.04,278.27,191023,,,A*76
$GPGGA,164909.000,4308.4664,N,07726.4393,W,1,07,1.48,163.5,M,-34.4,M,,*5E
$GPRMC,164909.250,A,4308.4665,N,07726.4397,W,5.27,278.78,191023,,,A*71
$GPGGA,164909.500,4308.4666,N,07726.4403,W,1,07,1.62,163.5,M,-34.4,M,,*5F
$GPRMC,164909.750,A,4308.4667,N,07726.4410,W,7.37,277.49,191023,,,A*70
$GPGGA,164910.000,4308.4668,N,07726.4417,W,1,07,1.62,163.4,M,-34.4,M,,*58
$GPRMC,164910.250,A,4308.4669,N,07726.4426,W,9.13,278.80,191023,,,A*74
$GPGGA,164910.500,4308.4670,N,07726.4435,W,1,07,1.62,163.4,M,-34.4,M,,*54
$GPRMC,164910.750,A,4308.4671,N,07726.4445,W,11.07,279.19,191023,,,A*40
$GPGGA,164911.000,4308.4673,N,07726.4456,W,1,07,1.62,163.4,M,-34.4,M,,*56
$GPRMC,164911.250,A,4308.4674,N,07726.4468,W,12.54,280.62,191023,,,A*41
$GPGGA,164911.500,4308.4676,N,07726.4480,W,1,07,1.62,163.4,M,-34.4,M,,*5D
$GPRMC,164911.750,A,4308.4678,N,07726.4493,W,14.07,279.97,191023,,,A*40
$GPGGA,164912.000,4308.4680,N,07726.4507,W,1,07,1.62,163.5,M,-34.4,M,,*5D
$GPRMC,164912.250,A,4308.4681,N,07726.4521,W,15.43,279.92,191023,,,A*4C
$GPGGA,164912.500,4308.4683,N,07726.4536,W,1,07,1.62,163.5,M,-34.4,M,,*59
$GPRMC,164912.750,A,4308.4686,N,07726.4552,W,16.02,274.00,191023,,,A*4A
$GPGGA,164913.000,4308.4687,N,07726.4568,W,1,07,1.62,163.5,M,-34.4,M,,*52
$GPRMC,164913.250,A,4308.4691,N,07726.4585,W,17.83,277.31,191023,,,A*4B
$GPGGA,164913.500,4308.4692,N,07726.4602,W,1,07,1.62,163.5,M,-34.4,M,,*5C
$GPRMC,164913.750,A,4308.4694,N,07726.4620,W,19.46,278.14,191023,,,A*48
$GPGGA,164914.000,4308.4696,N,07726.4639,W,1,07,1.62,163.5,M,-34.4,M,,*52
$GPRMC,164914.250,A,4308.4698,N,07726.4658,W,20.63,278.47,191023,,,A*42
$GPGGA,164914.500,4308.4700,N,07726.4678,W,1,07,1.62,163.6,M,-34.4,M,,*5F
$GPRMC,164914.750,A,4308.4702,N,07726.4698,W,21.73,278.18,191023,,,A*43
$GPGGA,164915.000,4308.4704,N,07726.4719,W,1,07,1.62,163.6,M,-34.4,M,,*59
$GPRMC,164915.250,A,4308.4707,N,07726.4740,W,22.56,278.76,191023,,,A*4A
$GPGGA,164915.500,4308.4709,N,07726.4761,W,1,07,1.62,163.8,M,-34.4,M,,*50
$GPRMC,164915.750,A,4308.4711,N,07726.4783,W,23.39,277.77,191023,,,A*41
$GPGGA,164916.000,4308.4713,N,07726.4805,W,1,07,1.62,163.9,M,-34.4,M,,*51
$GPRMC,164916.250,A,4308.4716,N,07726.4828,W,24.20,276.94,191023,,,A*4D
$GPGGA,164916.500,4308.4718,N,07726.4851,W,1,07,1.62,164.1,M,-34.4,M,,*51
$GPRMC,164916.750,A,4308.4720,N,07726.4874,W,24.85,277.72,191023,,,A*42
$GPGGA,164917.000,4308.4723,N,07726.4898,W,1,07,1.62,164.2,M,-34.4,M,,*5B
$GPRMC,164917.250,A,4308.4725,N,07726.4922,W,25.55,276.42,191023,,,A*4F
$GPGGA,164917.500,4308.4727,N,07726.4947,W,1,07,1.62,164.4,M,-34.4,M,,*5F
$GPRMC,164917.750,A,4308.4729,N,07726.4971,W,25.97,276.64,191023,,,A*4A
$GPGGA,164918.000,4308.4731,N,07726.4996,W,1,07,1.62,164.5,M,-34.4,M,,*5F
$GPRMC,164918.250,A,4308.4733,N,07726.5022,W,26.43,275.75,191023,,,A*4C
$GPGGA,164918.500,4308.4735,N,07726.5047,W,1,07,1.62,164.6,M,-34.4,M,,*59
$GPRMC,164918.750,A,4308.4737,N,07726.5073,W,27.50,275.53,191023,,,A*4E
$GPGGA,164919.000,4308.4739,N,07726.5100,W,1,07,1.62,164.6,M,-34.4,M,,*53
$GPRMC,164919.250,A,4308.4741,N,07726.5126,W,27.96,275.04,191023,,,A*42
$GPGGA,164919.500,4308.4743,N,07726.5153,W,1,07,1.62,164.7,M,-34.4,M,,*5C
$GPRMC,164919.750,A,4308.4744,N,07726.5179,W,28.18,274.61,191023,,,A*43
$GPGGA,164920.000,4308.4746,N,07726.5206,W,1,07,1.62,164.7,M,-34.4,M,,*55
$GPRMC,164920.250,A,4308.4748,N,07726.5233,W,28.12,274.56,191023,,,A*43
$GPGGA,164920.500,4308.4749,N,07726.5259,W,1,07,1.62,164.8,M,-34.4,M,,*5A
$GPRMC,164920.750,A,4308.4750,N,07726.5286,W,27.84,273.92,191023,,,A*4E
$GPGGA,164921.000,4308.4752,N,07726.5312,W,1,07,1.62,164.8,M,-34.4,M,,*5A
$GPRMC,164921.250,A,4308.4753,N,07726.5338,W,27.81,273.32,191023,,,A*42
$GPGGA,164921.500,4308.4754,N,07726.5365,W,1,07,1.62,164.9,M,-34.4,M,,*58
$GPRMC,164921.750,A,4308.4755,N,07726.5391,W,28.03,273.24,191023,,,A*40
$GPGGA,164922.000,4308.4756,N,07726.5418,W,1,07,1.62,165.0,M,-34.4,M,,*59
$GPRMC,164922.250,A,4308.4757,N,07726.5445,W,28.49,272.93,191023,,,A*49
$GPGGA,164922.500,4308.4759,N,07726.5472,W,1,07,1.62,165.1,M,-34.4,M,,*5E
$GPRMC,164922.750,A,4308.4760,N,07726.5499,W,28.68,272.75,191023,,,A*42
$GPGGA,164923.000,4308.4761,N,07726.5527,W,1,07,1.62,165.1,M,-34.4,M,,*50
$GPRMC,164923.250,A,4308.4762,N,07726.5555,W,29.38,272.29,191023,,,A*48
$GPGGA,164923.500,4308.4763,N,07726.5583,W,1,07,1.62,165.1,M,-34.4,M,,*59
$GPRMC,164923.750,A,4308.4765,N,07726.5611,W,29.54,273.04,191023,,,A*4D
$GPGGA,164924.000,4308.4767,N,07726.5639,W,1,07,1.62,165.0,M,-34.4,M,,*5C
$GPRMC,164924.250,A,4308.4768,N,07726.5667,W,29.62,272.70,191023,,,A*44
$GPGGA,164924.500,4308.4769,N,07726.5695,W,1,07,1.62,164.9,M,-34.4,M,,*59
$GPRMC,164924.750,A,4308.4770,N,07726.5724,W,29.75,272.94,191023,,,A*42
$GPGGA,164925.000,4308.4772,N,07726.5753,W,1,07,1.62,164.9,M,-34.4,M,,*5C
$GPRMC,164925.250,A,4308.4774,N,07726.5781,W,29.85,273.82,191023,,,A*44
$GPGGA,164925.500,4308.4776,N,07726.5810,W,1,07,1.62,164.9,M,-34.4,M,,*55
$GPRMC,164925.750,A,4308.4777,N,07726.5839,W,30.45,273.95,191023,,,A*4C
$GPGGA,164926.000,4308.4779,N,07726.5868,W,1,07,1.62,164.9,M,-34.4,M,,*53
$GPRMC,164926.250,A,4308.4780,N,07726.5897,W,30.55,273.62,191023,,,A*4F
$GPGGA,164926.500,4308.4782,N,07726.5926,W,1,07,1.62,164.9,M,-34.4,M,,*59
$GPRMC,164926.750,A,4308.4783,N,07726.5955,W,30.76,273.51,191023,,,A*47
$GPGGA,164927.000,4308.4784,N,07726.5985,W,1,07,1.62,165.0,M,-34.4,M,,*5A
$GPRMC,164927.250,A,4308.4785,N,07726.6014,W,30.77,272.59,191023,,,A*42
$GPGGA,164927.500,4308.4787,N,07726.6043,W,1,07,1.62,165.1,M,-34.4,M,,*5D
$GPRMC,164927.750,A,4308.4788,N,07726.6072,W,30.85,272.76,191023,,,A*4A
$GPGGA,164928.000,4308.4789,N,07726.6101,W,1,07,1.62,165.2,M,-34.4,M,,*5D
$GPRMC,164928.250,A,4308.4790,N,07726.6130,W,30.88,272.33,191023,,,A*42
$GPGGA,164928.500,4308.4791,N,07726.6160,W,1,07,1.62,165.2,M,-34.4,M,,*56
$GPRMC,164928.750,A,4308.4792,N,07726.6189,W,30.95,271.95,191023,,,A*44
$GPGGA,164929.000,4308.4792,N,07726.6218,W,1,07,1.62,165.1,M,-34.4,M,,*5E
$GPRMC,164929.250,A,4308.4793,N,07726.6248,W,31.01,271.47,191023,,,A*4C
$GPGGA,164929.500,4308.4794,N,07726.6277,W,1,07,1.62,165.0,M,-34.4,M,,*55
$GPRMC,164929.750,A,4308.4794,N,07726.6307,W,31.02,271.21,191023,,,A*47
$GPGGA,164930.000,4308.4795,N,07726.6336,W,1,07,1.62,164.9,M,-34.4,M,,*55
$GPRMC,164930.250,A,4308.4795,N,07726.6365,W,30.97,270.87,191023,,,A*4F
$GPGGA,164930.500,4308.4795,N,07726.6395,W,1,07,1.62,164.9,M,-34.4,M,,*59
$GPRMC,164930.750,A,4308.4795,N,07726.6424,W,30.95,269.52,191023,,,A*4A
$GPGGA,164931.000,4308.4795,N,07726.6454,W,1,07,1.62,164.8,M,-34.4,M,,*56
$GPRMC,164931.250,A,4308.4794,N,07726.6483,W,30.98,269.33,191023,,,A*48
$GPGGA,164931.500,4308.4794,N,07726.6513,W,1,07,1.62,164.8,M,-34.4,M,,*50
$GPRMC,164931.750,A,4308.4793,N,07726.6543,W,31.07,268.73,191023,,,A*45
$GPGGA,164932.000,4308.4792,N,07726.6572,W,1,07,1.62,164.7,M,-34.4,M,,*58
$GPRMC,164932.250,A,4308.4791,N,07726.6602,W,31.12,267.76,191023,,,A*49
$GPGGA,164932.500,4308.4790,N,07726.6633,W,1,07,1.62,164.8,M,-34.4,M,,*56
$GPRMC,164932.750,A,4308.4789,N,07726.6663,W,31.71,267.06,191023,,,A*40
$GPGGA,164933.000,4308.4788,N,07726.6693,W,1,07,1.62,164.9,M,-34.4,M,,*50
$GPRMC,164933.250,A,4308.4786,N,07726.6723,W,31.80,266.54,191023,,,A*46
$GPGGA,164933.500,4308.4785,N,07726.6753,W,1,07,1.62,165.0,M,-34.4,M,,*5D
$GPRMC,164933.750,A,4308.4784,N,07726.6783,W,31.82,266.86,191023,,,A*46
$GPGGA,164934.000,4308.4782,N,07726.6814,W,1,07,1.62,165.2,M,-34.4,M,,*56
$GPRMC,164934.250,A,4308.4781,N,07726.6844,W,31.85,266.56,191023,,,A*4F
$GPGGA,164934.500,4308.4779,N,07726.6874,W,1,07,1.62,165.3,M,-34.4,M,,*50
$GPRMC,164934.750,A,4308.4778,N,07726.6904,W,31.80,266.17,191023,,,A*49
$GPGGA,164935.000,4308.4776,N,07726.6935,W,1,07,1.62,165.5,M,-34.4,M,,*59
$GPRMC,164935.250,A,4308.4774,N,07726.6965,W,31.81,266.30,191023,,,A*42
$GPGGA,164935.500,4308.4772,N,07726.6995,W,1,07,1.62,165.6,M,-34.4,M,,*51
$GPRMC,164935.750,A,4308.4770,N,07726.7026,W,31.83,266.07,191023,,,A*4A
$GPGGA,164936.000,4308.4769,N,07726.7056,W,1,07,1.62,165.8,M,-34.4,M,,*54
$GPRMC,164936.250,A,4308.4767,N,07726.7086,W,31.76,266.29,191023,,,A*46
$GPGGA,164936.500,4308.4766,N,07726.7116,W,1,07,1.62,166.0,M,-34.4,M,,*50
$GPRMC,164936.750,A,4308.4764,N,07726.7146,W,31.52,266.17,191023,,,A*46
$GPGGA,164937.000,4308.4762,N,07726.7175,W,1,07,1.49,166.4,M,-34.4,M,,*58
$GPRMC,164937.250,A,4308.4761,N,07726.7205,W,31.52,265.55,191023,,,A*46
$GPGGA,164937.500,4308.4759,N,07726.7235,W,1,07,1.49,166.8,M,-34.4,M,,*5E
$GPRMC,164937.750,A,4308.4757,N,07726.7264,W,31.33,265.11,191023,,,A*46
$GPGGA,164938.000,4308.4755,N,07726.7294,W,1,07,1.62,167.0,M,-34.4,M,,*53
$GPRMC,164938.250,A,4308.4753,N,07726.7324,W,31.15,265.27,191023,,,A*4C
$GPGGA,164938.500,4308.4752,N,07726.7353,W,1,07,1.62,167.3,M,-34.4,M,,*58
$GPRMC,164938.750,A,4308.4750,N,07726.7383,W,31.19,265.85,191023,,,A*43
$GPGGA,164939.000,4308.4748,N,07726.7413,W,1,07,1.62,167.5,M,-34.4,M,,*52
$GPRMC,164939.250,A,4308.4746,N,07726.7442,W,31.16,265.36,191023,,,A*4D
$GPGGA,164939.500,4308.4744,N,07726.7472,W,1,07,1.62,167.7,M,-34.4,M,,*5E
$GPRMC,164939.750,A,4308.4742,N,07726.7501,W,31.08,264.98,191023,,,A*40
$GPGGA,164940.000,4308.4740,N,07726.7530,W,1,07,1.62,168.0,M,-34.4,M,,*5E
$GPRMC,164940.250,A,4308.4738,N,07726.7560,W,30.97,265.29,191023,,,A*4D
$GPGGA,164940.500,4308.4737,N,07726.7589,W,1,07,1.62,168.3,M,-34.4,M,,*5A
$GPRMC,164940.750,A,4308.4735,N,07726.7618,W,30.88,265.34,191023,,,A*4B
$GPGGA,164941.000,4308.4734,N,07726.7647,W,1,07,1.62,168.6,M,-34.4,M,,*59
$GPRMC,164941.250,A,4308.4732,N,07726.7676,W,30.73,265.07,191023,,,A*44
$GPGGA,164941.500,4308.4730,N,07726.7705,W,1,07,1.62,168.8,M,-34.4,M,,*51
$GPRMC,164941.750,A,4308.4728,N,07726.7735,W,30.85,264.10,191023,,,A*42
$GPGGA,164942.000,4308.4726,N,07726.7764,W,1,07,1.62,169.0,M,-34.4,M,,*5E
$GPRMC,164942.250,A,4308.4724,N,07726.7793,W,31.18,264.30,191023,,,A*43
$GPGGA,164942.500,4308.4722,N,07726.7823,W,1,07,1.62,169.1,M,-34.4,M,,*52
$GPRMC,164942.750,A,4308.4720,N,07726.7853,W,31.49,264.00,191023,,,A*46
$GPGGA,164943.000,4308.4718,N,07726.7883,W,1,07,1.62,169.1,M,-34.4,M,,*55
$GPRMC,164943.250,A,4308.4716,N,07726.7912,W,31.61,264.18,191023,,,A*40
$GPGGA,164943.500,4308.4715,N,07726.7941,W,1,07,1.62,169.0,M,-34.4,M,,*53
$GPRMC,164943.750,A,4308.4714,N,07726.7971,W,31.17,265.35,191023,,,A*4D
$GPGGA,164944.000,4308.4712,N,07726.8000,W,1,07,1.62,168.9,M,-34.4,M,,*5D
$GPRMC,164944.250,A,4308.4710,N,07726.8030,W,31.44,264.73,191023,,,A*4D
$GPGGA,164944.500,4308.4708,N,07726.8060,W,1,07,1.62,168.8,M,-34.4,M,,*54
$GPRMC,164944.750,A,4308.4706,N,07726.8090,W,32.15,263.60,191023,,,A*47
$GPGGA,164945.000,4308.4704,N,07726.8121,W,1,07,1.62,168.7,M,-34.4,M,,*57
$GPRMC,164945.250,A,4308.4701,N,07726.8152,W,32.71,263.63,191023,,,A*4A
$GPGGA,164945.500,4308.4699,N,07726.8183,W,1,07,1.62,168.6,M,-34.4,M,,*5E
$GPRMC,164945.750,A,4308.4697,N,07726.8214,W,32.92,263.49,191023,,,A*45
$GPGGA,164946.000,4308.4694,N,07726.8246,W,1,07,1.62,168.4,M,-34.4,M,,*5D
$GPRMC,164946.250,A,4308.4691,N,07726.8277,W,33.15,263.47,191023,,,A*40
$GPGGA,164946.500,4308.4689,N,07726.8310,W,1,07,1.62,168.2,M,-34.4,M,,*50
$GPRMC,164946.750,A,4308.4687,N,07726.8342,W,33.83,263.69,191023,,,A*46
$GPGGA,164947.000,4308.4684,N,07726.8374,W,1,07,1.62,168.1,M,-34.4,M,,*58
$GPRMC,164947.250,A,4308.4682,N,07726.8406,W,33.79,263.86,191023,,,A*44
$GPGGA,164947.500,4308.4679,N,07726.8438,W,1,07,1.62,168.0,M,-34.4,M,,*51
$GPRMC,164947.750,A,4308.4676,N,07726.8470,W,33.93,263.56,191023,,,A*42
$GPGGA,164948.000,4308.4673,N,07726.8503,W,1,07,1.62,167.9,M,-34.4,M,,*5E
$GPRMC,164948.250,A,4308.4671,N,07726.8535,W,34.24,263.93,191023,,,A*4D
$GPGGA,164948.500,4308.4668,N,07726.8568,W,1,07,1.62,167.8,M,-34.4,M,,*5D
$GPRMC,164948.750,A,4308.4666,N,07726.8601,W,34.42,264.46,191023,,,A*45
$GPGGA,164949.000,4308.4663,N,07726.8634,W,1,07,1.62,167.6,M,-34.4,M,,*56
$GPRMC,164949.250,A,4308.4661,N,07726.8667,W,34.43,263.95,191023,,,A*4E
$GPGGA,164949.500,4308.4658,N,07726.8700,W,1,07,1.62,167.5,M,-34.4,M,,*5E
$GPRMC,164949.750,A,4308.4656,N,07726.8733,W,34.74,263.93,191023,,,A*4D
$GPGGA,164950.000,4308.4654,N,07726.8766,W,1,07,1.63,167.3,M,-34.4,M,,*58
$GPRMC,164950.250,A,4308.4652,N,07726.8799,W,34.96,264.69,191023,,,A*4A
$GPGGA,164950.500,4308.4650,N,07726.8833,W,1,07,1.62,167.1,M,-34.4,M,,*55
$GPRMC,164950.750,A,4308.4649,N,07726.8866,W,35.00,265.28,191023,,,A*40
$GPGGA,164951.000,4308.4647,N,07726.8900,W,1,07,1.62,167.0,M,-34.4,M,,*57
$GPRMC,164951.250,A,4308.4646,N,07726.8933,W,34.96,265.16,191023,,,A*49
$GPGGA,164951.500,4308.4644,N,07726.8967,W,1,07,1.63,166.8,M,-34.4,M,,*58
$GPRMC,164951.750,A,4308.4643,N,07726.9000,W,34.96,265.33,191023,,,A*46
$GPGGA,164952.000,4308.4642,N,07726.9033,W,1,07,1.63,166.5,M,-34.4,M,,*5C
$GPRMC,164952.250,A,4308.4640,N,07726.9066,W,34.75,265.81,191023,,,A*47
$GPGGA,164952.500,4308.4638,N,07726.9100,W,1,07,1.63,166.2,M,-34.4,M,,*52
$GPRMC,164952.750,A,4308.4636,N,07726.9133,W,34.42,265.11,191023,,,A*4F
$GPGGA,164953.000,4308.4634,N,07726.9165,W,1,07,1.63,166.0,M,-34.4,M,,*5B
$GPRMC,164953.250,A,4308.4632,N,07726.9198,W,34.73,264.90,191023,,,A*44
$GPGGA,164953.500,4308.4630,N,07726.9232,W,1,07,1.63,165.8,M,-34.4,M,,*50
$GPRMC,164953.750,A,4308.4627,N,07726.9265,W,34.73,264.87,191023,,,A*42
$GPGGA,164954.000,4308.4625,N,07726.9298,W,1,07,1.63,165.4,M,-34.4,M,,*5A
$GPRMC,164954.250,A,4308.4623,N,07726.9331,W,34.94,264.83,191023,,,A*49
$GPGGA,164954.500,4308.4621,N,07726.9365,W,1,07,1.63,165.2,M,-34.4,M,,*5E
$GPRMC,164954.750,A,4308.4619,N,07726.9398,W,35.33,264.95,191023,,,A*4D
$GPGGA,164955.000,4308.4617,N,07726.9432,W,1,07,1.63,164.9,M,-34.4,M,,*50
$GPRMC,164955.250,A,4308.4615,N,07726.9466,W,35.47,265.09,191023,,,A*44
$GPGGA,164955.500,4308.4612,N,07726.9500,W,1,07,1.63,164.6,M,-34.4,M,,*5F
$GPRMC,164955.750,A,4308.4610,N,07726.9534,W,35.66,265.44,191023,,,A*48
$GPGGA,164956.000,4308.4608,N,07726.9568,W,1,07,1.63,164.4,M,-34.4,M,,*5E
$GPRMC,164956.250,A,4308.4606,N,07726.9602,W,35.69,265.97,191023,,,A*4E
$GPGGA,164956.500,4308.4604,N,07726.9637,W,1,07,1.63,164.0,M,-34.4,M,,*5A
$GPRMC,164956.750,A,4308.4602,N,07726.9671,W,36.00,265.62,191023,,,A*4D
$GPGGA,164957.000,4308.4601,N,07726.9705,W,1,07,1.63,163.9,M,-34.4,M,,*55
$GPRMC,164957.250,A,4308.4599,N,07726.9739,W,36.15,266.02,191023,,,A*44
$GPGGA,164957.500,4308.4597,N,07726.9773,W,1,07,1.63,163.8,M,-34.4,M,,*5C
$GPRMC,164957.750,A,4308.4595,N,07726.9808,W,36.19,265.85,191023,,,A*40
$GPGGA,164958.000,4308.4593,N,07726.9842,W,1,07,1.63,163.6,M,-34.4,M,,*51
$GPRMC,164958.250,A,4308.4591,N,07726.9877,W,36.27,265.32,191023,,,A*47
$GPGGA,164958.500,4308.4588,N,07726.9911,W,1,07,1.63,163.5,M,-34.4,M,,*5A
$GPRMC,164958.750,A,4308.4586,N,07726.9945,W,36.36,264.83,191023,,,A*4F
$GPGGA,164959.000,4308.4584,N,07726.9980,W,1,07,1.63,163.3,M,-34.4,M,,*5C
$GPRMC,164959.250,A,4308.4581,N,07727.0015,W,36.34,264.98,191023,,,A*40
$GPGGA,164959.500,4308.4579,N,07727.0049,W,1,07,1.63,163.2,M,-34.4,M,,*5E
$GPRMC,164959.750,A,4308.4577,N,07727.0084,W,36.47,265.61,191023,,,A*47
$GPGGA,165000.000,4308.4575,N,07727.0118,W,1,07,1.63,163.0,M,-34.4,M,,*54
$GPRMC,165000.250,A,4308.4573,N,07727.0153,W,36.47,265.97,191023,,,A*40
