Vers 81
USE_SERIAL_FEEDBACK=true
DEVELOPMENT_MODE=false
USE_RMC_ONLY=false

$GPRMC,164206.250,A,4308.2998,N,07726.2480,W,0.02,105.97,280923,,,A*79
$GPGGA,164206.500,4308.2997,N,07726.2480,W,1,03,2.82,184.4,M,-34.4,M,,*50
$GPRMC,164206.750,A,4308.2996,N,07726.2479,W,0.03,130.19,280923,,,A*75
$GPGGA,164207.000,4308.2995,N,07726.2479,W,1,03,2.83,184.4,M,-34.4,M,,*51
$GPRMC,164207.250,A,4308.2995,N,07726.2480,W,0.04,135.91,280923,,,A*76
$GPGGA,164207.500,4308.2994,N,07726.2480,W,1,03,2.83,184.4,M,-34.4,M,,*53
$GPRMC,164207.750,A,4308.2994,N,07726.2481,W,0.02,186.20,280923,,,A*77
$GPGGA,164208.000,4308.2994,N,07726.2482,W,1,03,2.83,184.4,M,-34.4,M,,*5B
$GPRMC,164208.000,A,4308.2994,N,07726.2482,W,0.06,145.62,2809236
$GPRMC,164208.084,A,4308.2995,N,07726.2482,W,0.13,120.01,28092308.144,4308.2995,N,07726.2483,W,1,03,2.83,184.4,M,-34.4,M,,*5A
$GPRMC,164208.500,A,4308.2997,N,07726.2487,W,1.38,308.57,280923,,,A*76
$GPGGA,164208.750,4308.2997,N,07726.2487,W,1,03,2.83,184.4,M,-34.4,M,,*5F
$GPRMC,164209.000,A,4308.2998,N,07726.2488,W,0.24,116.33,280923,,,A*71
$GPGGA,164209.250,4308.2999,N,07726.2488,W,1,03,2.83,184.4,M,-34.4,M,,*5A
$GPRMC,164209.500,A,4308.3000,N,07726.2489,W,0.18,146.21,280923,,,A*75
$GPGGA,164209.750,4308.3000,N,07726.2490,W,1,03,2.83,184.4,M,-34.4,M,,*5E
$GPRMC,164210.000,A,4308.3001,N,07726.2490,W,0.07,131.64,280923,,,A*7E
$GPGGA,164210.250,4308.3002,N,07726.2491,W,1,03,2.83,184.4,M,-34.4,M,,*50
$GPRMC,164210.500,A,4308.3002,N,07726.2491,W,0.07,193.63,280923,,,A*76
$GPGGA,164210.750,4308.3002,N,07726.2491,W,1,03,2.83,184.3,M,-34.4,M,,*52
$GPRMC,164211.000,A,4308.3003,N,07726.2491,W,0.02,118.49,280923,,,A*7D
$GPGGA,164211.250,4308.3003,N,07726.2491,W,1,03,2.83,184.3,M,-34.4,M,,*57
$GPRMC,164211.500,A,4308.3003,N,07726.2491,W,0.04,100.46,280923,,,A*78
$GPGGA,164211.750,4308.3004,N,07726.2491,W,1,03,2.83,184.3,M,-34.4,M,,*55
$GPRMC,164212.000,A,4308.3004,N,07726.2491,W,0.07,117.30,280923,,,A*7D
$GPGGA,164212.250,4308.3004,N,07726.2491,W,1,03,2.83,184.3,M,-34.4,M,,*53
$GPRMC,164212.500,A,4308.3004,N,07726.2491,W,0.08,137.81,280923,,,A*7F
$GPGGA,164212.750,4308.3005,N,07726.2491,W,1,03,2.83,184.3,M,-34.4,M,,*57
$GPRMC,164213.000,A,4308.3005,N,07726.2490,W,0.02,246.78,280923,,,A*72
$GPGGA,164213.250,4308.3005,N,07726.2490,W,1,03,2.83,184.3,M,-34.4,M,,*52
$GPRMC,164213.500,A,4308.3005,N,07726.2490,W,0.04,182.62,280923,,,A*71
$GPGGA,164213.750,4308.3005,N,07726.2490,W,1,03,2.83,184.4,M,-34.4,M,,*50
$GPRMC,164214.000,A,4308.3005,N,07726.2490,W,0.08,174.82,280923,,,A*78
$GPGGA,164214.083,4308.3005,N,07726.2490,W,1,03,2.83,184.4,M,-34,M,,*5E
$GPGGA,164214.500,4308.3006,N,07726.2490,W,1,03,2.83,184.4,M,-34.4,M,,*53
$GPRMC,164214.500,A,4308.3006,N,07726.2490,W,0.24,85.12,280923,,A*46
$GPGGA,164214.750,4308.3006,N,07726.2490,W,1,03,2.83,184.4,M,-34.4,M,,*54
$GPRMC,164214.750,A,4308.3006,N,07726.2490,W,0.23,86.16,280923,,A*41
$GPGGA,164215.000,4308.3007,N,07726.2490,W,1,03,2.83,184.4,M,-34.4,M,,*56
$GPRMC,164215.000,A,4308.3007,N,07726.2490,W,0.21,90.16,280923,,,A*46
$GPGGA,164215.250,4308.3007,N,07726.2491,W,1,03,2.83,184.4,M,-34.4,M,,*50
$GPRMC,164215.250,A,4308.3007,N,07726.2491,W,0.23,90.86,280923,$GPGGA,164215.500,4308.3007,N,07726.2491,W,1,03,2.83,184.4,M,-34.4,M,,*52
$GPRMC,164215.750,A,4308.3007,N,07726.2491,W,0.24,108.03,280923,,,A*74
$GPGGA,164216.000,4308.3007,N,07726.2492,W,1,03,2.83,184.4,M,-34.4,M,,*57
$GPRMC,164216.250,A,4308.3007,N,07726.2492,W,0.23,126.54,280923,,,A*78
$GPGGA,164216.500,4308.3007,N,07726.2492,W,1,03,2.83,184.4,M,-34.4,M,,*52
$GPRMC,164216.750,A,4308.3007,N,07726.2492,W,0.26,121.72,280923,,,A*7B
$GPGGA,164217.000,4308.3008,N,07726.2493,W,1,03,2.83,184.4,M,-34.4,M,,*58
$GPRMC,164217.250,A,4308.3008,N,07726.2493,W,0.23,107.28,280923,,,A*7F
$GPGGA,164217.500,4308.3009,N,07726.2494,W,1,03,2.83,184.4,M,-34.4,M,,*5B
$GPRMC,164217.750,A,4308.3009,N,07726.2495,W,0.19,104.27,280923,,,A*78
$GPGGA,164218.000,4308.3010,N,07726.2496,W,1,03,2.83,184.4,M,-34.4,M,,*5B
$GPRMC,164218.250,A,4308.3010,N,07726.2496,W,0.16,96.56,280923,,,A*4A
$GPGGA,164218.500,4308.3011,N,07726.2497,W,1,03,2.83,184.4,M,-34.4,M,,*5E
$GPRMC,164218.750,A,4308.3012,N,07726.2498,W,0.20,81.47,280923,,,A*40
$GPGGA,164219.000,4308.3013,N,07726.2498,W,1,03,2.83,184.4,M,-34.4,M,,*57
$GPRMC,164219.250,A,4308.3014,N,07726.2499,W,0.21,73.12,280923,,,A*4F
$GPGGA,164219.500,4308.3014,N,07726.2500,W,1,03,2.83,184.4,M,-34.4,M,,*55
$GPRMC,164219.750,A,4308.3015,N,07726.2500,W,0.20,73.33,280923,,,A*48
$GPGGA,164220.000,4308.3015,N,07726.2500,W,1,03,2.83,184.4,M,-34.4,M,,*5B
$GPGGA,164220.139,4308.3016,N,07726.2502,W,1,04,2.66,184.2,M,-34.4,M,,*5B
$GPRMC,164220.139,A,4308.3016,N,07726.2502,W,0.17,90.33,280923,,A*43
$GPGGA,164220.500,4308.3016,N,07726.2502,W,1,04,2.66,184.1,M,-34.4,M,,*56
$GPRMC,164220.500,A,4308.3016,N,07726.2502,W,0.18,96.67,280923,,,A*45
$GPGGA,164220.750,4308.3017,N,07726.2503,W,1,04,2.66,183.9,M,-34.4,M,,*5E
$GPRMC,164220.750,A,4308.3017,N,07726.2503,W,0.14,97.00,280923,,,A*4E
$GPGGA,164221.000,4308.3018,N,07726.2504,W,1,04,2.66,183.8,M,-34.4,M,,*54
$GPRMC,164221.000,A,4308.3018,N,07726.2504,W,0.13,112.95,280923,,,A*72
$GPGGA,164221.250,4308.3019,N,07726.2504,W,1,04,2.67,183.6,M,-34.4,M,,*5D
$GPRMC,164221.250,A,4308.3019,N,07726.2504,W,0.12,111.00,280923$GPGGA,164221.500,4308.3020,N,07726.2505,W,1,04,2.66,183.5,M,-34.4,M,,*56
$GPRMC,164221.750,A,4308.3021,N,07726.2506,W,0.15,88.22,280923,,,A*40
$GPGGA,164222.000,4308.3021,N,07726.2507,W,1,04,2.66,183.1,M,-34.4,M,,*57
$GPRMC,164222.250,A,4308.3022,N,07726.2507,W,0.12,80.98,280923,,,A*4A
$GPGGA,164222.500,4308.3023,N,07726.2508,W,1,04,2.66,182.7,M,-34.4,M,,*58
$GPRMC,164222.750,A,4308.3023,N,07726.2509,W,0.11,76.17,280923,,,A*4D
$GPGGA,164223.000,4308.3024,N,07726.2510,W,1,04,2.66,182.3,M,-34.4,M,,*56
$GPRMC,164223.250,A,4308.3024,N,07726.2511,W,0.06,136.36,280923,,,A*77
$GPGGA,164223.500,4308.3024,N,07726.2512,W,1,04,2.66,182.1,M,-34.4,M,,*53
$GPRMC,164223.750,A,4308.3024,N,07726.2512,W,0.12,199.82,280923,,,A*7E
$GPGGA,164224.000,4308.3025,N,07726.2514,W,1,04,2.67,181.9,M,-34.4,M,,*5C
$GPRMC,164224.250,A,4308.3025,N,07726.2514,W,0.11,194.96,280923,,,A*70
$GPGGA,164224.500,4308.3025,N,07726.2514,W,1,04,2.67,181.7,M,-34.4,M,,*57
$GPRMC,164224.750,A,4308.3026,N,07726.2515,W,0.13,198.85,280923,,,A*7B
$GPGGA,164225.000,4308.3026,N,07726.2516,W,1,04,2.67,181.5,M,-34.4,M,,*50
$GPRMC,164225.250,A,4308.3028,N,07726.2517,W,0.10,268.42,280923,,,A*77
$GPGGA,164225.500,4308.3028,N,07726.2517,W,1,04,2.67,181.4,M,-34.4,M,,*5B
$GPRMC,164225.750,A,4308.3029,N,07726.2518,W,0.05,0.20,280923,,,A*70
$GPGGA,164226.000,4308.3029,N,07726.2519,W,1,04,3.46,181.2,M,-34.4,M,,*56
$GPRMC,164226.250,A,4308.3029,N,07726.2519,W,0.06,27.37,280923,,,A*47
$GPGGA,164226.500,4308.3029,N,07726.2519,W,1,04,2.67,181.1,M,-34.4,M,,*52
$GPRMC,164226.750,A,4308.3030,N,07726.2520,W,0.09,46.77,280923,,,A*4C
$GPGGA,164227.000,4308.3031,N,07726.2521,W,1,04,2.66,180.9,M,-34.4,M,,*5C
$GPRMC,164227.250,A,4308.3031,N,07726.2522,W,0.08,356.35,280923,,,A*7E
$GPGGA,164227.500,4308.3031,N,07726.2523,W,1,04,3.46,180.7,M,-34.4,M,,*56
$GPRMC,164227.750,A,4308.3031,N,07726.2524,W,0.06,276.88,280923,,,A*76
$GPGGA,164228.000,4308.3031,N,07726.2524,W,1,04,2.66,180.5,M,-34.4,M,,*5A
$GPRMC,164228.250,A,4308.3031,N,07726.2525,W,0.04,147.11,280923,,,A*7E
$GPGGA,164228.500,4308.3031,N,07726.2525,W,1,04,2.66,180.3,M,-34.4,M,,*58
$GPRMC,164228.750,A,4308.3032,N,07726.2526,W,0.06,172.07,280923,,,A*78
$GPGGA,164229.000,4308.3032,N,07726.2527,W,1,04,2.67,180.1,M,-34.4,M,,*5E
$GPRMC,164229.250,A,4308.3033,N,07726.2528,W,0.04,299.18,280923,,,A*79
$GPGGA,164229.500,4308.3033,N,07726.2529,W,1,04,2.67,179.9,M,-34.4,M,,*5A
$GPRMC,164229.750,A,4308.3033,N,07726.2529,W,0.02,29.04,280923,,,A*4F
$GPGGA,164230.000,4308.3033,N,07726.2530,W,1,04,2.67,179.7,M,-34.4,M,,*51
$GPRMC,164230.250,A,4308.3033,N,07726.2531,W,0.02,139.37,280923,,,A*7B
$GPGGA,164230.500,4308.3033,N,07726.2532,W,1,04,2.67,179.6,M,-34.4,M,,*57
$GPRMC,164230.750,A,4308.3033,N,07726.2533,W,0.14,239.25,280923,,,A*7B
$GPGGA,164231.000,4308.3034,N,07726.2533,W,1,04,2.67,179.6,M,-34.4,M,,*55
$GPRMC,164231.250,A,4308.3034,N,07726.2533,W,0.04,234.18,280923,,,A*7A
$GPGGA,164231.500,4308.3034,N,07726.2532,W,1,04,2.67,179.6,M,-34.4,M,,*51
$GPRMC,164231.750,A,4308.3034,N,07726.2532,W,0.14,86.90,280923,,,A*44
$GPGGA,164232.000,4308.3034,N,07726.2531,W,1,04,2.67,179.6,M,-34.4,M,,*54
$GPRMC,164232.250,A,4308.3036,N,07726.2536,W,0.15,113.61,280923,,,A*76
$GPGGA,164232.500,4308.3038,N,07726.2540,W,1,05,1.59,178.6,M,-34.4,M,,*55
$GPRMC,164232.750,A,4308.3039,N,07726.2545,W,0.06,126.89,280923,,,A*7A
$GPGGA,164233.000,4308.3042,N,07726.2549,W,1,05,1.59,177.8,M,-34.4,M,,*54
$GPRMC,164233.250,A,4308.3043,N,07726.2551,W,0.10,26.53,280923,,,A*47
$GPGGA,164233.500,4308.3045,N,07726.2554,W,1,05,1.59,177.1,M,-34.4,M,,*53
$GPRMC,164233.750,A,4308.3046,N,07726.2557,W,0.11,16.73,280923,,,A*41
$GPGGA,164234.000,4308.3047,N,07726.2560,W,1,05,1.59,176.5,M,-34.4,M,,*51
$GPRMC,164234.250,A,4308.3048,N,07726.2562,W,0.05,333.80,280923,,,A*76
$GPGGA,164234.500,4308.3049,N,07726.2564,W,1,05,1.59,176.0,M,-34.4,M,,*5B
$GPRMC,164234.750,A,4308.3049,N,07726.2565,W,0.02,56.16,280923,,,A*4D
$GPGGA,164235.000,4308.3050,N,07726.2567,W,1,05,1.59,175.5,M,-34.4,M,,*52
$GPRMC,164235.250,A,4308.3050,N,07726.2568,W,0.07,186.29,280923,,,A*79
$GPGGA,164235.500,4308.3050,N,07726.2568,W,1,05,1.59,175.4,M,-34.4,M,,*59
$GPRMC,164235.750,A,4308.3050,N,07726.2568,W,0.08,177.80,280923,,,A*7E
$GPGGA,164236.000,4308.3050,N,07726.2568,W,1,05,1.59,175.4,M,-34.4,M,,*5F
$GPRMC,164236.250,A,4308.3050,N,07726.2568,W,0.09,13.71,280923,,,A*44
$GPGGA,164236.500,4308.3050,N,07726.2568,W,1,05,1.81,175.4,M,-34.4,M,,*5F
$GPRMC,164236.750,A,4308.3050,N,07726.2568,W,0.10,4.18,280923,,,A*70
$GPGGA,164237.000,4308.3050,N,07726.2568,W,1,05,1.81,175.4,M,-34.4,M,,*5B
$GPRMC,164237.250,A,4308.3050,N,07726.2568,W,0.16,351.24,280923,,,A*7E
$GPGGA,164237.500,4308.3050,N,07726.2568,W,1,05,1.81,175.4,M,-34.4,M,,*5E
$GPRMC,164237.750,A,4308.3050,N,07726.2568,W,0.26,21.63,280923,,,A*4F
$GPGGA,164238.000,4308.3050,N,07726.2568,W,1,05,1.59,175.4,M,-34.4,M,,*51
$GPRMC,164238.250,A,4308.3051,N,07726.2568,W,0.56,14.35,280923,,,A*46
$GPGGA,164238.500,4308.3051,N,07726.2568,W,1,05,1.81,175.4,M,-34.4,M,,*50
$GPRMC,164238.750,A,4308.3053,N,07726.2568,W,0.97,16.97,280923,,,A*46
$GPGGA,164239.000,4308.3056,N,07726.2567,W,1,05,1.59,175.3,M,-34.4,M,,*5E
$GPRMC,164239.250,A,4308.3060,N,07726.2567,W,2.03,14.74,280923,,,A*4D
$GPGGA,164239.500,4308.3062,N,07726.2567,W,1,05,1.81,175.2,M,-34.4,M,,*58
$GPRMC,164239.750,A,4308.3064,N,07726.2566,W,2.63,19.27,280923,,,A*40
$GPGGA,164240.000,4308.3067,N,07726.2565,W,1,05,1.59,175.1,M,-34.4,M,,*52
$GPRMC,164240.250,A,4308.3070,N,07726.2566,W,3.04,10.83,280923,,,A*49
$GPGGA,164240.500,4308.3072,N,07726.2566,W,1,05,1.81,175.0,M,-34.4,M,,*54
$GPRMC,164240.750,A,4308.3075,N,07726.2565,W,3.20,6.73,280923,,,A*74
$GPGGA,164241.000,4308.3078,N,07726.2565,W,1,05,1.81,175.0,M,-34.4,M,,*59
$GPRMC,164241.250,A,4308.3081,N,07726.2566,W,3.60,7.35,280923,,,A*7F
$GPGGA,164241.500,4308.3086,N,07726.2567,W,1,05,1.81,174.8,M,-34.4,M,,*56
$GPRMC,164241.750,A,4308.3093,N,07726.2568,W,4.93,2.92,280923,,,A*74
$GPGGA,164242.000,4308.3097,N,07726.2569,W,1,05,1.81,174.7,M,-34.4,M,,*51
$GPRMC,164242.250,A,4308.3100,N,07726.2569,W,4.52,0.24,280923,,,A*7A
$GPGGA,164242.500,4308.3103,N,07726.2569,W,1,05,1.81,174.6,M,-34.4,M,,*59
$GPRMC,164242.750,A,4308.3107,N,07726.2569,W,4.50,7.40,280923,,,A*7F
$GPGGA,164243.000,4308.3109,N,07726.2568,W,1,05,1.81,174.4,M,-34.4,M,,*54
$GPRMC,164243.250,A,4308.3110,N,07726.2568,W,3.14,7.55,280923,,,A*7F
$GPGGA,164243.500,4308.3111,N,07726.2568,W,1,05,1.81,174.4,M,-34.4,M,,*58
$GPRMC,164243.750,A,4308.3113,N,07726.2568,W,2.30,8.40,280923,,,A*75
$GPGGA,164244.000,4308.3114,N,07726.2567,W,1,05,1.81,174.3,M,-34.4,M,,*57
$GPRMC,164244.250,A,4308.3117,N,07726.2567,W,2.32,10.63,280923,,,A*46
$GPGGA,164244.500,4308.3119,N,07726.2567,W,1,05,1.81,174.2,M,-34.4,M,,*5E
$GPRMC,164244.750,A,4308.3121,N,07726.2567,W,2.78,11.16,280923,,,A*4B
$GPGGA,164245.000,4308.3123,N,07726.2567,W,1,05,1.81,174.1,M,-34.4,M,,*50
$GPRMC,164245.250,A,4308.3125,N,07726.2566,W,2.61,11.97,280923,,,A*4B
$GPGGA,164245.500,4308.3127,N,07726.2566,W,1,05,1.81,174.1,M,-34.4,M,,*50
$GPRMC,164245.750,A,4308.3129,N,07726.2566,W,2.51,13.75,280923,,,A*4F
$GPGGA,164246.000,4308.3131,N,07726.2565,W,1,05,1.81,174.1,M,-34.4,M,,*52
$GPRMC,164246.250,A,4308.3133,N,07726.2564,W,2.75,15.74,280923,,,A*41
$GPGGA,164246.500,4308.3135,N,07726.2564,W,1,05,1.59,174.0,M,-34.4,M,,*56
$GPRMC,164246.750,A,4308.3136,N,07726.2563,W,2.32,19.90,280923,,,A*43
$GPGGA,164247.000,4308.3138,N,07726.2562,W,1,05,1.59,173.9,M,-34.4,M,,*57
$GPRMC,164247.250,A,4308.3139,N,07726.2560,W,2.67,49.59,280923,,,A*4B
$GPGGA,164247.500,4308.3141,N,07726.2559,W,1,05,1.59,173.7,M,-34.4,M,,*5A
$GPRMC,164247.750,A,4308.3142,N,07726.2557,W,2.55,62.45,280923,,,A*43
$GPGGA,164248.000,4308.3143,N,07726.2556,W,1,05,1.59,173.6,M,-34.4,M,,*5C
$GPRMC,164248.250,A,4308.3144,N,07726.2554,W,2.37,66.55,280923,,,A*4D
$GPGGA,164248.500,4308.3145,N,07726.2552,W,1,05,1.59,173.5,M,-34.4,M,,*58
$GPRMC,164248.750,A,4308.3145,N,07726.2551,W,2.32,67.26,280923,,,A*4C
$GPGGA,164249.000,4308.3146,N,07726.2549,W,1,05,1.59,173.4,M,-34.4,M,,*54
$GPRMC,164249.250,A,4308.3147,N,07726.2548,W,2.21,63.55,280923,,,A*40
$GPGGA,164249.500,4308.3148,N,07726.2546,W,1,05,1.59,173.3,M,-34.4,M,,*57
$GPRMC,164249.750,A,4308.3149,N,07726.2545,W,2.21,57.80,280923,,,A*49
$GPGGA,164250.000,4308.3149,N,07726.2543,W,1,05,1.59,173.3,M,-34.4,M,,*5E
$GPRMC,164250.250,A,4308.3150,N,07726.2542,W,2.00,52.04,280923,,,A*41
$GPGGA,164250.500,4308.3151,N,07726.2542,W,1,05,1.59,173.2,M,-34.4,M,,*52
$GPRMC,164250.750,A,4308.3152,N,07726.2542,W,1.46,45.49,280923,,,A*48
$GPGGA,164251.000,4308.3152,N,07726.2543,W,1,05,1.59,173.1,M,-34.4,M,,*57
$GPRMC,164251.250,A,4308.3151,N,07726.2546,W,0.77,335.06,280923,,,A*77
$GPGGA,164251.500,4308.3150,N,07726.2551,W,1,05,1.59,173.1,M,-34.4,M,,*53
$GPRMC,164251.750,A,4308.3150,N,07726.2555,W,1.59,277.67,280923,,,A*7C
$GPGGA,164252.000,4308.3150,N,07726.2563,W,1,05,1.59,173.0,M,-34.4,M,,*55
$GPRMC,164252.250,A,4308.3150,N,07726.2567,W,2.74,273.85,280923,,,A*7F
$GPGGA,164252.500,4308.3150,N,07726.2580,W,1,05,1.59,173.0,M,-34.4,M,,*5D
$GPRMC,164252.750,A,4308.3151,N,07726.2587,W,5.48,268.78,280923,,,A*75
$GPGGA,164253.000,4308.3152,N,07726.2597,W,1,05,1.81,173.0,M,-34.4,M,,*58
$GPRMC,164253.250,A,4308.3153,N,07726.2606,W,7.70,272.07,280923,,,A*73
$GPGGA,164253.500,4308.3154,N,07726.2616,W,1,05,1.81,173.0,M,-34.4,M,,*51
$GPRMC,164253.750,A,4308.3155,N,07726.2625,W,9.19,272.82,280923,,,A*7D
$GPGGA,164254.000,4308.3158,N,07726.2636,W,1,05,1.81,173.1,M,-34.4,M,,*5C
$GPRMC,164254.250,A,4308.3160,N,07726.2648,W,11.17,278.49,280923,,,A*48
$GPGGA,164254.500,4308.3162,N,07726.2660,W,1,05,1.59,173.1,M,-34.4,M,,*56
$GPRMC,164254.750,A,4308.3164,N,07726.2672,W,12.31,279.76,280923,,,A*4A
$GPGGA,164255.000,4308.3167,N,07726.2686,W,1,05,1.59,173.1,M,-34.4,M,,*5F
$GPRMC,164255.250,A,4308.3170,N,07726.2699,W,13.42,281.33,280923,,,A*4D
$GPGGA,164255.500,4308.3173,N,07726.2712,W,1,05,1.59,173.1,M,-34.4,M,,*53
$GPRMC,164255.750,A,4308.3177,N,07726.2725,W,14.03,282.86,280923,,,A*46
$GPGGA,164256.000,4308.3179,N,07726.2738,W,1,05,1.59,173.0,M,-34.4,M,,*56
$GPRMC,164256.250,A,4308.3183,N,07726.2751,W,14.25,283.06,280923,,,A*45
$GPGGA,164256.500,4308.3187,N,07726.2765,W,1,06,1.40,172.8,M,-34.4,M,,*58
$GPRMC,164256.750,A,4308.3191,N,07726.2780,W,14.73,284.67,280923,,,A*4C
$GPGGA,164257.000,4308.3196,N,07726.2796,W,1,06,1.40,172.8,M,-34.4,M,,*50
$GPRMC,164257.250,A,4308.3201,N,07726.2810,W,15.49,287.21,280923,,,A*4D
$GPGGA,164257.500,4308.3206,N,07726.2826,W,1,06,1.40,172.8,M,-34.4,M,,*5B
$GPRMC,164257.750,A,4308.3211,N,07726.2840,W,15.93,289.42,280923,,,A*40
$GPGGA,164258.000,4308.3216,N,07726.2855,W,1,06,1.40,172.9,M,-34.4,M,,*55
$GPRMC,164258.250,A,4308.3222,N,07726.2870,W,16.30,290.78,280923,,,A*42
$GPGGA,164258.500,4308.3229,N,07726.2886,W,1,06,1.40,172.9,M,-34.4,M,,*52
$GPRMC,164258.750,A,4308.3234,N,07726.2902,W,16.97,292.18,280923,,,A*4D
$GPGGA,164259.000,4308.3241,N,07726.2918,W,1,06,1.40,173.0,M,-34.4,M,,*56
$GPRMC,164259.250,A,4308.3247,N,07726.2936,W,17.87,293.07,280923,,,A*45
$GPGGA,164259.500,4308.3254,N,07726.2954,W,1,06,1.40,172.9,M,-34.4,M,,*57
$GPRMC,164259.750,A,4308.3261,N,07726.2972,W,18.97,294.17,280923,,,A*4C
$GPGGA,164300.000,4308.3269,N,07726.2990,W,1,06,1.40,172.9,M,-34.4,M,,*59
$GPRMC,164300.250,A,4308.3276,N,07726.3008,W,19.96,295.77,280923,,,A*40
$GPGGA,164300.500,4308.3284,N,07726.3027,W,1,06,1.67,172.9,M,-34.4,M,,*5E
$GPRMC,164300.750,A,4308.3292,N,07726.3047,W,20.91,296.71,280923,,,A*4C
$GPGGA,164301.000,4308.3300,N,07726.3066,W,1,06,1.40,172.8,M,-34.4,M,,*56
$GPRMC,164301.250,A,4308.3309,N,07726.3086,W,21.55,297.75,280923,,,A*4A
$GPGGA,164301.500,4308.3319,N,07726.3105,W,1,06,1.40,172.8,M,-34.4,M,,*5F
$GPRMC,164301.750,A,4308.3329,N,07726.3124,W,22.17,299.30,280923,,,A*4E
$GPGGA,164302.000,4308.3340,N,07726.3144,W,1,06,1.40,172.8,M,-34.4,M,,*50
$GPRMC,164302.250,A,4308.3350,N,07726.3163,W,22.57,300.11,280923,,,A*43
$GPGGA,164302.500,4308.3359,N,07726.3183,W,1,06,1.40,172.8,M,-34.4,M,,*56
$GPRMC,164302.750,A,4308.3369,N,07726.3202,W,22.73,300.61,280923,,,A*49
$GPGGA,164303.000,4308.3379,N,07726.3221,W,1,06,1.40,172.8,M,-34.4,M,,*5B
$GPRMC,164303.250,A,4308.3389,N,07726.3240,W,22.72,301.41,280923,,,A*47
$GPGGA,164303.500,4308.3399,N,07726.3259,W,1,06,1.67,172.8,M,-34.4,M,,*5A
$GPRMC,164303.750,A,4308.3409,N,07726.3278,W,22.78,301.79,280923,,,A*47
$GPGGA,164304.000,4308.3418,N,07726.3297,W,1,06,1.40,172.8,M,-34.4,M,,*51
$GPRMC,164304.250,A,4308.3428,N,07726.3316,W,22.54,302.19,280923,,,A*44
$GPGGA,164304.500,4308.3437,N,07726.3334,W,1,06,1.67,172.8,M,-34.4,M,,*54
$GPRMC,164304.750,A,4308.3446,N,07726.3352,W,22.00,302.60,280923,,,A*46
$GPGGA,164305.000,4308.3454,N,07726.3369,W,1,06,1.40,172.8,M,-34.4,M,,*58
$GPRMC,164305.250,A,4308.3463,N,07726.3386,W,21.27,303.05,280923,,,A*48
$GPGGA,164305.500,4308.3472,N,07726.3403,W,1,06,1.67,172.7,M,-34.4,M,,*58
$GPRMC,164305.750,A,4308.3480,N,07726.3420,W,20.93,303.35,280923,,,A*46
$GPGGA,164306.000,4308.3489,N,07726.3436,W,1,06,1.40,172.7,M,-34.4,M,,*59
$GPRMC,164306.250,A,4308.3497,N,07726.3452,W,20.15,304.14,280923,,,A*49
$GPGGA,164306.500,4308.3505,N,07726.3467,W,1,06,1.67,172.7,M,-34.4,M,,*58
$GPRMC,164306.750,A,4308.3513,N,07726.3483,W,19.88,304.21,280923,,,A*45
$GPGGA,164307.000,4308.3520,N,07726.3498,W,1,06,1.40,172.7,M,-34.4,M,,*5E
$GPRMC,164307.250,A,4308.3528,N,07726.3513,W,19.29,304.77,280923,,,A*49
$GPGGA,164307.500,4308.3535,N,07726.3527,W,1,06,1.40,172.6,M,-34.4,M,,*5B
$GPRMC,164307.750,A,4308.3543,N,07726.3541,W,18.59,306.62,280923,,,A*46
$GPGGA,164308.000,4308.3552,N,07726.3553,W,1,06,1.40,172.6,M,-34.4,M,,*53
$GPRMC,164308.250,A,4308.3559,N,07726.3566,W,17.92,309.10,280923,,,A*40
$GPGGA,164308.500,4308.3568,N,07726.3579,W,1,06,1.67,172.6,M,-34.4,M,,*52
$GPRMC,164308.750,A,4308.3576,N,07726.3590,W,17.54,311.26,280923,,,A*47
$GPGGA,164309.000,4308.3584,N,07726.3601,W,1,06,1.67,172.6,M,-34.4,M,,*58
$GPRMC,164309.250,A,4308.3592,N,07726.3612,W,16.64,314.15,280923,,,A*47
$GPGGA,164309.500,4308.3599,N,07726.3622,W,1,06,1.67,172.6,M,-34.4,M,,*50
$GPRMC,164309.750,A,4308.3608,N,07726.3632,W,16.00,316.22,280923,,,A*44
$GPGGA,164310.000,4308.3616,N,07726.3642,W,1,06,1.40,172.7,M,-34.4,M,,*5B
$GPRMC,164310.250,A,4308.3625,N,07726.3652,W,15.69,318.35,280923,,,A*44
$GPGGA,164310.500,4308.3634,N,07726.3660,W,1,06,1.67,172.8,M,-34.4,M,,*54
$GPRMC,164310.750,A,4308.3643,N,07726.3670,W,15.34,321.08,280923,,,A*4D
$GPGGA,164311.000,4308.3652,N,07726.3678,W,1,06,1.40,172.9,M,-34.4,M,,*5D
$GPRMC,164311.250,A,4308.3661,N,07726.3686,W,15.40,324.44,280923,,,A*4E
$GPGGA,164311.500,4308.3672,N,07726.3692,W,1,06,1.40,173.0,M,-34.4,M,,*56
$GPRMC,164311.750,A,4308.3683,N,07726.3699,W,15.45,330.58,280923,,,A*44
$GPGGA,164312.000,4308.3694,N,07726.3705,W,1,06,1.40,173.0,M,-34.4,M,,*57
$GPRMC,164312.250,A,4308.3705,N,07726.3712,W,15.72,334.97,280923,,,A*4C
$GPGGA,164312.500,4308.3715,N,07726.3718,W,1,06,1.40,173.1,M,-34.4,M,,*57
$GPRMC,164312.750,A,4308.3726,N,07726.3724,W,15.78,336.76,280923,,,A*4A
$GPGGA,164313.000,4308.3737,N,07726.3729,W,1,06,1.40,173.2,M,-34.4,M,,*52
$GPRMC,164313.250,A,4308.3748,N,07726.3735,W,15.79,338.35,280923,,,A*4E
$GPGGA,164313.500,4308.3759,N,07726.3739,W,1,06,1.40,173.2,M,-34.4,M,,*5E
$GPRMC,164313.750,A,4308.3772,N,07726.3743,W,16.28,341.24,280923,,,A*4A
$GPGGA,164314.000,4308.3786,N,07726.3746,W,1,06,1.40,173.3,M,-34.4,M,,*57
$GPRMC,164314.250,A,4308.3798,N,07726.3749,W,16.93,344.74,280923,,,A*46
$GPGGA,164314.500,4308.3811,N,07726.3752,W,1,06,1.40,173.4,M,-34.4,M,,*51
$GPRMC,164314.750,A,4308.3822,N,07726.3756,W,16.94,346.10,280923,,,A*44
$GPGGA,164315.000,4308.3834,N,07726.3759,W,1,06,1.67,173.5,M,-34.4,M,,*5D
$GPRMC,164315.250,A,4308.3846,N,07726.3762,W,16.90,347.94,280923,,,A*4C
$GPGGA,164315.500,4308.3859,N,07726.3761,W,1,06,1.67,173.5,M,-34.4,M,,*58
$GPRMC,164315.750,A,4308.3873,N,07726.3762,W,17.57,352.79,280923,,,A*42
$GPGGA,164316.000,4308.3886,N,07726.3761,W,1,06,1.67,173.5,M,-34.4,M,,*5C
$GPRMC,164316.250,A,4308.3899,N,07726.3761,W,18.09,356.52,280923,,,A*4A
$GPGGA,164316.500,4308.3913,N,07726.3761,W,1,06,1.67,173.5,M,-34.4,M,,*54
$GPRMC,164316.750,A,4308.3925,N,07726.3761,W,18.27,358.20,280923,,,A*4E
$GPGGA,164317.000,4308.3938,N,07726.3761,W,1,06,1.67,173.6,M,-34.4,M,,*5A
$GPRMC,164317.250,A,4308.3950,N,07726.3760,W,18.05,0.82,280923,,,A*4F
$GPGGA,164317.500,4308.3963,N,07726.3759,W,1,06,1.67,173.7,M,-34.4,M,,*5B
$GPRMC,164317.750,A,4308.3976,N,07726.3757,W,18.08,3.12,280923,,,A*4D
$GPGGA,164318.000,4308.3989,N,07726.3755,W,1,06,1.67,173.8,M,-34.4,M,,*56
$GPRMC,164318.250,A,4308.4003,N,07726.3753,W,18.63,5.22,280923,,,A*47
$GPGGA,164318.500,4308.4016,N,07726.3750,W,1,06,1.67,173.9,M,-34.4,M,,*5F
$GPRMC,164318.750,A,4308.4029,N,07726.3747,W,18.90,7.33,280923,,,A*41
$GPGGA,164319.000,4308.4042,N,07726.3744,W,1,06,1.67,174.1,M,-34.4,M,,*50
$GPRMC,164319.250,A,4308.4055,N,07726.3740,W,18.91,9.85,280923,,,A*4B
$GPGGA,164319.500,4308.4068,N,07726.3736,W,1,06,1.67,174.3,M,-34.4,M,,*5A
$GPRMC,164319.750,A,4308.4080,N,07726.3732,W,18.98,11.19,280923,,,A*76
$GPGGA,164320.000,4308.4093,N,07726.3728,W,1,06,1.67,174.5,M,-34.4,M,,*58
$GPRMC,164320.250,A,4308.4107,N,07726.3724,W,19.21,11.88,280923,,,A*7B
$GPGGA,164320.500,4308.4120,N,07726.3720,W,1,06,1.67,174.6,M,-34.4,M,,*5F
$GPRMC,164320.750,A,4308.4134,N,07726.3716,W,19.40,11.98,280923,,,A*79
$GPGGA,164321.000,4308.4147,N,07726.3712,W,1,06,1.67,174.7,M,-34.4,M,,*5A
$GPRMC,164321.250,A,4308.4160,N,07726.3708,W,19.41,11.36,280923,,,A*76
$GPGGA,164321.500,4308.4174,N,07726.3705,W,1,06,1.67,174.7,M,-34.4,M,,*59
$GPRMC,164321.750,A,4308.4187,N,07726.3701,W,19.33,10.73,280923,,,A*76
$GPGGA,164322.000,4308.4200,N,07726.3698,W,1,06,1.67,174.8,M,-34.4,M,,*55
$GPRMC,164322.250,A,4308.4213,N,07726.3695,W,19.28,10.37,280923,,,A*78
$GPGGA,164322.500,4308.4225,N,07726.3692,W,1,06,1.67,174.9,M,-34.4,M,,*5C
$GPRMC,164322.750,A,4308.4237,N,07726.3689,W,19.01,10.06,280923,,,A*7F
$GPGGA,164323.000,4308.4249,N,07726.3686,W,1,06,1.67,174.9,M,-34.4,M,,*57
$GPRMC,164323.250,A,4308.4262,N,07726.3682,W,18.91,9.53,280923,,,A*40
$GPGGA,164323.500,4308.4274,N,07726.3678,W,1,06,1.67,175.0,M,-34.4,M,,*55
$GPRMC,164323.750,A,4308.4286,N,07726.3675,W,18.84,10.34,280923,,,A*7A
$GPGGA,164324.000,4308.4298,N,07726.3672,W,1,06,1.67,175.1,M,-34.4,M,,*5E
$GPRMC,164324.250,A,4308.4310,N,07726.3668,W,18.75,10.94,280923,,,A*7E
$GPGGA,164324.500,4308.4323,N,07726.3665,W,1,06,1.67,175.2,M,-34.4,M,,*5F
$GPRMC,164324.750,A,4308.4335,N,07726.3661,W,18.67,10.84,280923,,,A*77
$GPGGA,164325.000,4308.4347,N,07726.3658,W,1,06,1.67,175.3,M,-34.4,M,,*56
$GPRMC,164325.250,A,4308.4358,N,07726.3655,W,18.58,10.93,280923,,,A*75
$GPGGA,164325.500,4308.4369,N,07726.3652,W,1,06,1.67,175.5,M,-34.4,M,,*53
$GPRMC,164325.750,A,4308.4381,N,07726.3649,W,18.21,10.58,280923,,,A*70
$GPGGA,164326.000,4308.4392,N,07726.3647,W,1,06,1.67,175.5,M,-34.4,M,,*55
$GPRMC,164326.250,A,4308.4403,N,07726.3645,W,17.90,9.63,280923,,,A*42
$GPGGA,164326.500,4308.4414,N,07726.3642,W,1,06,1.67,175.6,M,-34.4,M,,*5F
$GPRMC,164326.750,A,4308.4426,N,07726.3640,W,17.77,9.35,280923,,,A*4F
$GPGGA,164327.000,4308.4437,N,07726.3638,W,1,06,1.67,175.8,M,-34.4,M,,*59
$GPRMC,164327.250,A,4308.4449,N,07726.3635,W,17.20,9.37,280923,,,A*40
$GPGGA,164327.500,4308.4460,N,07726.3632,W,1,06,1.67,175.8,M,-34.4,M,,*54
$GPRMC,164327.750,A,4308.4472,N,07726.3630,W,16.94,9.60,280923,,,A*44
$GPGGA,164328.000,4308.4483,N,07726.3627,W,1,06,1.66,175.9,M,-34.4,M,,*57
$GPRMC,164328.250,A,4308.4494,N,07726.3623,W,16.27,10.83,280923,,,A*79
$GPGGA,164328.500,4308.4504,N,07726.3620,W,1,06,1.67,175.8,M,-34.4,M,,*5B
$GPRMC,164328.750,A,4308.4514,N,07726.3616,W,15.56,11.64,280923,,,A*7E
$GPGGA,164329.000,4308.4523,N,07726.3613,W,1,06,1.67,175.6,M,-34.4,M,,*54
$GPRMC,164329.250,A,4308.4531,N,07726.3609,W,14.16,13.46,280923,,,A*74
$GPGGA,164329.500,4308.4538,N,07726.3606,W,1,06,1.67,175.4,M,-34.4,M,,*5D
$GPRMC,164329.750,A,4308.4545,N,07726.3603,W,12.90,14.50,280923,,,A*70
$GPGGA,164330.000,4308.4551,N,07726.3601,W,1,06,1.67,175.3,M,-34.4,M,,*5F
$GPRMC,164330.250,A,4308.4556,N,07726.3598,W,11.33,15.18,280923,,,A*79
$GPGGA,164330.500,4308.4560,N,07726.3596,W,1,06,1.40,175.1,M,-34.4,M,,*52
$GPRMC,164330.750,A,4308.4565,N,07726.3594,W,9.94,15.61,280923,,,A*4A
$GPGGA,164331.000,4308.4567,N,07726.3593,W,1,06,1.40,175.1,M,-34.4,M,,*54
$GPRMC,164331.250,A,4308.4564,N,07726.3593,W,7.22,17.53,280923,,,A*48
$GPGGA,164331.500,4308.4561,N,07726.3593,W,1,06,1.40,175.0,M,-34.4,M,,*56
$GPRMC,164331.750,A,4308.4559,N,07726.3592,W,4.89,19.56,280923,,,A*4B
$GPGGA,164332.000,4308.4559,N,07726.3590,W,1,06,1.40,174.9,M,-34.4,M,,*50
$GPRMC,164332.250,A,4308.4561,N,07726.3590,W,4.25,11.91,280923,,,A*41
$GPGGA,164332.500,4308.4565,N,07726.3588,W,1,06,1.67,174.8,M,-34.4,M,,*57
$GPRMC,164332.750,A,4308.4569,N,07726.3586,W,4.74,13.33,280923,,,A*45
$GPGGA,164333.000,4308.4576,N,07726.3584,W,1,06,1.67,174.7,M,-34.4,M,,*52
$GPRMC,164333.250,A,4308.4582,N,07726.3584,W,6.39,0.82,280923,,,A*75
$GPGGA,164333.500,4308.4588,N,07726.3586,W,1,06,1.67,174.8,M,-34.4,M,,*5B
$GPRMC,164333.750,A,4308.4593,N,07726.3588,W,7.50,350.62,280923,,,A*7A
$GPGGA,164334.000,4308.4598,N,07726.3590,W,1,06,1.67,174.7,M,-34.4,M,,*50
$GPRMC,164334.250,A,4308.4604,N,07726.3593,W,8.45,341.10,280923,,,A*71
$GPGGA,164334.500,4308.4610,N,07726.3597,W,1,06,1.67,174.7,M,-34.4,M,,*51
$GPRMC,164334.750,A,4308.4615,N,07726.3601,W,9.54,332.89,280923,,,A*79
$GPGGA,164335.000,4308.4621,N,07726.3609,W,1,06,1.40,174.7,M,-34.4,M,,*56
$GPRMC,164335.250,A,4308.4627,N,07726.3618,W,10.76,317.59,280923,,,A*46
$GPGGA,164335.500,4308.4633,N,07726.3627,W,1,06,1.40,174.8,M,-34.4,M,,*53
$GPRMC,164335.750,A,4308.4637,N,07726.3637,W,11.36,306.16,280923,,,A*41
$GPGGA,164336.000,4308.4640,N,07726.3649,W,1,06,1.40,174.8,M,-34.4,M,,*59
$GPRMC,164336.250,A,4308.4642,N,07726.3662,W,12.41,291.42,280923,,,A*48
$GPGGA,164336.500,4308.4645,N,07726.3675,W,1,06,1.66,174.9,M,-34.4,M,,*53
$GPRMC,164336.750,A,4308.4648,N,07726.3688,W,13.47,285.53,280923,,,A*41
$GPGGA,164337.000,4308.4650,N,07726.3701,W,1,06,1.66,174.9,M,-34.4,M,,*51
$GPRMC,164337.250,A,4308.4652,N,07726.3715,W,13.76,282.11,280923,,,A*48
$GPGGA,164337.500,4308.4654,N,07726.3730,W,1,06,1.67,175.0,M,-34.4,M,,*5B
$GPRMC,164337.750,A,4308.4656,N,07726.3745,W,14.74,279.06,280923,,,A*4B
$GPGGA,164338.000,4308.4659,N,07726.3760,W,1,06,1.40,175.0,M,-34.4,M,,*5C
$GPRMC,164338.250,A,4308.4661,N,07726.3777,W,15.56,277.65,280923,,,A*4E
$GPGGA,164338.500,4308.4663,N,07726.3794,W,1,06,1.67,175.0,M,-34.4,M,,*5E
$GPRMC,164338.750,A,4308.4665,N,07726.3811,W,16.69,276.81,280923,,,A*44
$GPGGA,164339.000,4308.4667,N,07726.3830,W,1,06,1.40,175.0,M,-34.4,M,,*5A
$GPRMC,164339.250,A,4308.4669,N,07726.3849,W,17.90,277.19,280923,,,A*46
$GPGGA,164339.500,4308.4671,N,07726.3869,W,1,06,1.40,175.0,M,-34.4,M,,*54
$GPRMC,164339.750,A,4308.4674,N,07726.3889,W,19.23,278.08,280923,,,A*4A
$GPGGA,164340.000,4308.4676,N,07726.3910,W,1,06,1.40,175.1,M,-34.4,M,,*56
$GPRMC,164340.250,A,4308.4679,N,07726.3932,W,20.78,279.23,280923,,,A*41
$GPGGA,164340.500,4308.4682,N,07726.3953,W,1,06,1.66,175.1,M,-34.4,M,,*5B
$GPRMC,164340.750,A,4308.4685,N,07726.3974,W,21.56,280.24,280923,,,A*49
$GPGGA,164341.000,4308.4688,N,07726.3996,W,1,06,1.40,175.2,M,-34.4,M,,*5B
$GPRMC,164341.250,A,4308.4691,N,07726.4016,W,21.71,280.44,280923,,,A*41
$GPGGA,164341.500,4308.4694,N,07726.4037,W,1,06,1.67,175.2,M,-34.4,M,,*53
$GPRMC,164341.750,A,4308.4696,N,07726.4057,W,21.13,280.27,280923,,,A*47
$GPGGA,164342.000,4308.4698,N,07726.4076,W,1,06,1.40,175.2,M,-34.4,M,,*59
$GPRMC,164342.250,A,4308.4701,N,07726.4095,W,20.18,280.24,280923,,,A*49
$GPGGA,164342.500,4308.4703,N,07726.4113,W,1,06,1.67,175.2,M,-34.4,M,,*58
$GPRMC,164342.750,A,4308.4706,N,07726.4130,W,19.28,280.94,280923,,,A*47
$GPGGA,164343.000,4308.4708,N,07726.4147,W,1,06,1.40,175.3,M,-34.4,M,,*52
$GPRMC,164343.250,A,4308.4710,N,07726.4164,W,18.36,281.66,280923,,,A*47
$GPGGA,164343.500,4308.4712,N,07726.4180,W,1,06,1.67,175.3,M,-34.4,M,,*52
$GPRMC,164343.750,A,4308.4715,N,07726.4196,W,17.18,282.42,280923,,,A*4C
$GPGGA,164344.000,4308.4717,N,07726.4211,W,1,06,1.40,175.3,M,-34.4,M,,*5B
$GPRMC,164344.250,A,4308.4718,N,07726.4225,W,15.72,282.97,280923,,,A*4E
$GPGGA,164344.500,4308.4719,N,07726.4239,W,1,06,1.66,175.3,M,-34.4,M,,*5E
$GPRMC,164344.750,A,4308.4721,N,07726.4252,W,14.28,282.72,280923,,,A*44
$GPGGA,164345.000,4308.4722,N,07726.4264,W,1,06,1.66,175.3,M,-34.4,M,,*5A
$GPRMC,164345.250,A,4308.4723,N,07726.4276,W,12.99,282.03,280923,,,A*4E
$GPGGA,164345.500,4308.4725,N,07726.4287,W,1,06,1.66,175.3,M,-34.4,M,,*55
$GPRMC,164345.750,A,4308.4726,N,07726.4297,W,11.22,281.95,280923,,,A*4E
$GPGGA,164346.000,4308.4727,N,07726.4306,W,1,06,1.40,175.3,M,-34.4,M,,*5D
$GPRMC,164346.250,A,4308.4727,N,07726.4314,W,9.46,280.23,280923,,,A*74
$GPGGA,164346.500,4308.4728,N,07726.4321,W,1,06,1.66,175.3,M,-34.4,M,,*56
$GPRMC,164346.750,A,4308.4729,N,07726.4328,W,7.75,279.39,280923,,,A*73
$GPGGA,164347.000,4308.4730,N,07726.4333,W,1,06,1.40,175.3,M,-34.4,M,,*5C
$GPRMC,164347.250,A,4308.4731,N,07726.4337,W,5.82,282.45,280923,,,A*75
$GPGGA,164347.500,4308.4732,N,07726.4341,W,1,06,1.66,175.3,M,-34.4,M,,*5A
$GPRMC,164347.750,A,4308.4732,N,07726.4345,W,4.51,281.19,280923,,,A*73
$GPGGA,164348.000,4308.4732,N,07726.4347,W,1,06,1.40,175.4,M,-34.4,M,,*55
$GPRMC,164348.250,A,4308.4733,N,07726.4349,W,2.86,286.79,280923,,,A*79
$GPGGA,164348.500,4308.4733,N,07726.4349,W,1,06,1.40,175.4,M,-34.4,M,,*5F
$GPRMC,164348.750,A,4308.4733,N,07726.4350,W,1.44,286.79,280923,,,A*79
$GPGGA,164349.000,4308.4733,N,07726.4349,W,1,06,1.40,175.5,M,-34.4,M,,*5A
$GPRMC,164349.250,A,4308.4733,N,07726.4349,W,0.87,286.79,280923,,,A*7B
$GPGGA,164349.500,4308.4732,N,07726.4348,W,1,06,1.40,175.7,M,-34.4,M,,*5D
$GPRMC,164349.750,A,4308.4732,N,07726.4348,W,0.68,286.79,280923,,,A*7F
$GPGGA,164350.000,4308.4732,N,07726.4347,W,1,06,1.67,175.8,M,-34.4,M,,*55
$GPRMC,164350.250,A,4308.4732,N,07726.4347,W,0.68,286.79,280923,,,A*7D
$GPGGA,164350.500,4308.4732,N,07726.4346,W,1,06,1.40,175.9,M,-34.4,M,,*55
$GPRMC,164350.750,A,4308.4732,N,07726.4346,W,0.70,286.79,280923,,,A*70
$GPGGA,164351.000,4308.4732,N,07726.4345,W,1,06,1.40,176.0,M,-34.4,M,,*58
$GPRMC,164351.250,A,4308.4732,N,07726.4345,W,0.70,286.79,280923,,,A*77
$GPGGA,164351.500,4308.4732,N,07726.4345,W,1,06,1.40,176.2,M,-34.4,M,,*5F
$GPRMC,164351.750,A,4308.4732,N,07726.4344,W,0.70,286.79,280923,,,A*73
$GPGGA,164352.000,4308.4732,N,07726.4344,W,1,06,1.40,176.3,M,-34.4,M,,*59
$GPRMC,164352.250,A,4308.4732,N,07726.4344,W,0.69,286.79,280923,,,A*7D
$GPGGA,164352.500,4308.4732,N,07726.4343,W,1,06,1.40,176.4,M,-34.4,M,,*5C
$GPRMC,164352.750,A,4308.4732,N,07726.4342,W,0.62,286.79,280923,,,A*75
$GPGGA,164353.000,4308.4733,N,07726.4342,W,1,06,1.40,176.4,M,-34.4,M,,*58
$GPRMC,164353.250,A,4308.4733,N,07726.4342,W,0.51,286.79,280923,,,A*70
$GPGGA,164353.500,4308.4733,N,07726.4341,W,1,06,1.40,176.5,M,-34.4,M,,*5F
$GPRMC,164353.750,A,4308.4733,N,07726.4341,W,0.41,286.79,280923,,,A*77
$GPGGA,164354.000,4308.4733,N,07726.4340,W,1,06,1.40,176.5,M,-34.4,M,,*5C
$GPRMC,164354.250,A,4308.4733,N,07726.4340,W,0.33,286.79,280923,,,A*71
$GPGGA,164354.500,4308.4733,N,07726.4340,W,1,06,1.40,176.6,M,-34.4,M,,*5A
$GPRMC,164354.750,A,4308.4734,N,07726.4340,W,0.29,286.79,280923,,,A*78
$GPGGA,164355.000,4308.4734,N,07726.4339,W,1,06,1.40,176.6,M,-34.4,M,,*57
$GPRMC,164355.250,A,4308.4734,N,07726.4339,W,0.22,286.79,280923,,,A*79
$GPGGA,164355.500,4308.4734,N,07726.4339,W,1,06,1.40,176.7,M,-34.4,M,,*53
$GPRMC,164355.750,A,4308.4734,N,07726.4339,W,0.16,286.79,280923,,,A*7B
$GPGGA,164356.000,4308.4734,N,07726.4339,W,1,06,1.40,176.7,M,-34.4,M,,*55
$GPRMC,164356.250,A,4308.4734,N,07726.4339,W,0.13,286.79,280923,,,A*78
$GPGGA,164356.500,4308.4734,N,07726.4339,W,1,06,1.40,176.7,M,-34.4,M,,*50
$GPRMC,164356.750,A,4308.4734,N,07726.4338,W,0.07,286.79,280923,,,A*79
$GPGGA,164357.000,4308.4734,N,07726.4338,W,1,06,1.40,176.8,M,-34.4,M,,*5A
$GPRMC,164357.250,A,4308.4734,N,07726.4338,W,0.05,286.79,280923,,,A*7F
$GPGGA,164357.500,4308.4734,N,07726.4338,W,1,06,1.40,176.8,M,-34.4,M,,*5F
$GPRMC,164357.750,A,4308.4734,N,07726.4338,W,0.02,286.79,280923,,,A*7D
$GPGGA,164358.000,4308.4734,N,07726.4338,W,1,06,1.66,176.8,M,-34.4,M,,*51
$GPRMC,164358.250,A,4308.4734,N,07726.4338,W,0.01,286.79,280923,,,A*74
$GPGGA,164358.500,4308.4734,N,07726.4338,W,1,06,1.40,176.8,M,-34.4,M,,*50
$GPRMC,164358.750,A,4308.4734,N,07726.4338,W,0.02,286.79,280923,,,A*72
$GPGGA,164359.000,4308.4734,N,07726.4338,W,1,06,1.40,176.8,M,-34.4,M,,*54
$GPRMC,164359.250,A,4308.4734,N,07726.4338,W,0.04,286.79,280923,,,A*70
$GPGGA,164359.500,4308.4734,N,07726.4338,W,1,06,1.40,176.9,M,-34.4,M,,*50
$GPRMC,164359.750,A,4308.4734,N,07726.4338,W,0.09,286.79,280923,,,A*78
$GPGGA,164400.000,4308.4734,N,07726.4338,W,1,06,1.40,176.9,M,-34.4,M,,*5E
$GPRMC,164400.250,A,4308.4734,N,07726.4338,W,0.13,286.79,280923,,,A*7D
$GPGGA,164400.500,4308.4733,N,07726.4338,W,1,06,1.40,176.9,M,-34.4,M,,*5C
$GPRMC,164400.750,A,4308.4733,N,07726.4338,W,0.17,286.79,280923,,,A*7B
$GPGGA,164401.000,4308.4733,N,07726.4338,W,1,06,1.40,176.9,M,-34.4,M,,*58
$GPRMC,164401.250,A,4308.4733,N,07726.4338,W,0.13,286.79,280923,,,A*7B
$GPGGA,164401.500,4308.4733,N,07726.4338,W,1,06,1.40,176.9,M,-34.4,M,,*5D
$GPRMC,164401.750,A,4308.4733,N,07726.4338,W,0.13,286.79,280923,,,A*7E
$GPGGA,164402.000,4308.4733,N,07726.4338,W,1,06,1.40,176.9,M,-34.4,M,,*5B
$GPRMC,164402.250,A,4308.4733,N,07726.4338,W,0.15,286.79,280923,,,A*7E
$GPGGA,164402.500,4308.4733,N,07726.4338,W,1,06,1.40,176.9,M,-34.4,M,,*5E
$GPRMC,164402.750,A,4308.4733,N,07726.4338,W,0.15,286.79,280923,,,A*7B
$GPGGA,164403.000,4308.4732,N,07726.4338,W,1,06,1.40,176.9,M,-34.4,M,,*5B
$GPRMC,164403.250,A,4308.4732,N,07726.4338,W,0.12,286.79,280923,,,A*79
$GPGGA,164403.500,4308.4732,N,07726.4338,W,1,06,1.40,177.0,M,-34.4,M,,*56
$GPRMC,164403.750,A,4308.4732,N,07726.4338,W,0.11,286.79,280923,,,A*7F
$GPGGA,164404.000,4308.4732,N,07726.4338,W,1,06,1.40,177.0,M,-34.4,M,,*54
$GPRMC,164404.250,A,4308.4732,N,07726.4338,W,0.09,286.79,280923,,,A*74
$GPGGA,164404.500,4308.4732,N,07726.4338,W,1,06,1.40,177.0,M,-34.4,M,,*51
$GPRMC,164404.750,A,4308.4732,N,07726.4338,W,0.06,286.79,280923,,,A*7E
$GPGGA,164405.000,4308.4732,N,07726.4338,W,1,06,1.40,177.0,M,-34.4,M,,*55
$GPRMC,164405.250,A,4308.4732,N,07726.4338,W,0.06,286.79,280923,,,A*7A
$GPGGA,164405.500,4308.4732,N,07726.4338,W,1,06,1.40,177.0,M,-34.4,M,,*50
$GPRMC,164405.750,A,4308.4732,N,07726.4338,W,0.06,286.79,280923,,,A*7F
$GPGGA,164406.000,4308.4732,N,07726.4338,W,1,06,1.40,177.0,M,-34.4,M,,*56
$GPRMC,164406.250,A,4308.4732,N,07726.4338,W,0.07,286.79,280923,,,A*78
$GPGGA,164406.500,4308.4732,N,07726.4338,W,1,06,1.40,177.0,M,-34.4,M,,*53
$GPRMC,164406.750,A,4308.4732,N,07726.4338,W,0.07,286.79,280923,,,A*7D
$GPGGA,164407.000,4308.4731,N,07726.4338,W,1,06,1.40,177.0,M,-34.4,M,,*54
$GPRMC,164407.250,A,4308.4731,N,07726.4338,W,0.06,286.79,280923,,,A*7B
$GPGGA,164407.500,4308.4731,N,07726.4338,W,1,06,1.40,177.0,M,-34.4,M,,*51
$GPRMC,164407.750,A,4308.4731,N,07726.4338,W,0.08,286.79,280923,,,A*70
$GPGGA,164408.000,4308.4731,N,07726.4338,W,1,06,1.40,177.0,M,-34.4,M,,*5B
$GPRMC,164408.250,A,4308.4731,N,07726.4338,W,0.09,286.79,280923,,,A*7B
$GPGGA,164408.500,4308.4731,N,07726.4338,W,1,06,1.40,177.0,M,-34.4,M,,*5E
$GPRMC,164408.750,A,4308.4731,N,07726.4338,W,0.10,286.79,280923,,,A*76
$GPGGA,164409.000,4308.4731,N,07726.4338,W,1,06,1.40,177.0,M,-34.4,M,,*5A
$GPRMC,164409.250,A,4308.4731,N,07726.4338,W,0.08,286.79,280923,,,A*7B
$GPGGA,164409.500,4308.4731,N,07726.4338,W,1,06,1.40,177.0,M,-34.4,M,,*5F
$GPRMC,164409.750,A,4308.4731,N,07726.4338,W,0.02,286.79,280923,,,A*74
$GPGGA,164410.000,4308.4731,N,07726.4337,W,1,06,1.40,177.0,M,-34.4,M,,*5D
$GPRMC,164410.250,A,4308.4731,N,07726.4337,W,0.02,286.79,280923,,,A*76
$GPGGA,164410.500,4308.4731,N,07726.4337,W,1,06,1.40,177.0,M,-34.4,M,,*58
$GPRMC,164410.750,A,4308.4731,N,07726.4337,W,0.03,286.79,280923,,,A*72
$GPGGA,164411.000,4308.4731,N,07726.4337,W,1,06,1.40,177.0,M,-34.4,M,,*5C
$GPRMC,164411.250,A,4308.4731,N,07726.4337,W,0.04,286.79,280923,,,A*71
$GPGGA,164411.500,4308.4731,N,07726.4337,W,1,06,1.40,177.0,M,-34.4,M,,*59
$GPRMC,164411.750,A,4308.4731,N,07726.4337,W,0.04,286.79,280923,,,A*74
$GPGGA,164412.000,4308.4731,N,07726.4337,W,1,06,1.40,177.0,M,-34.4,M,,*5F
$GPRMC,164412.250,A,4308.4731,N,07726.4337,W,0.07,286.79,280923,,,A*71
$GPGGA,164412.500,4308.4731,N,07726.4337,W,1,06,1.40,177.0,M,-34.4,M,,*5A
$GPRMC,164412.750,A,4308.4731,N,07726.4337,W,0.10,286.79,280923,,,A*72
$GPGGA,164413.000,4308.4731,N,07726.4337,W,1,06,1.40,177.0,M,-34.4,M,,*5E
$GPRMC,164413.250,A,4308.4731,N,07726.4337,W,0.18,286.79,280923,,,A*7E
$GPGGA,164413.500,4308.4731,N,07726.4337,W,1,06,1.40,177.0,M,-34.4,M,,*5B
$GPRMC,164413.750,A,4308.4731,N,07726.4336,W,0.20,286.79,280923,,,A*71
$GPGGA,164414.000,4308.4731,N,07726.4336,W,1,06,1.66,177.0,M,-34.4,M,,*5C
$GPRMC,164414.250,A,4308.4731,N,07726.4336,W,0.02,286.79,280923,,,A*73
$GPGGA,164414.500,4308.4731,N,07726.4336,W,1,06,1.66,177.0,M,-34.4,M,,*59
$GPRMC,164414.750,A,4308.4731,N,07726.4336,W,0.01,286.79,280923,,,A*75
$GPGGA,164415.000,4308.4731,N,07726.4336,W,1,06,1.66,177.0,M,-34.4,M,,*5D
$GPRMC,164415.250,A,4308.4731,N,07726.4336,W,0.00,286.79,280923,,,A*70
$GPGGA,164415.500,4308.4731,N,07726.4336,W,1,06,1.66,177.0,M,-34.4,M,,*58
$GPRMC,164415.750,A,4308.4731,N,07726.4336,W,0.01,286.79,280923,,,A*74
$GPGGA,164416.000,4308.4731,N,07726.4336,W,1,06,1.66,177.0,M,-34.4,M,,*5E
$GPRMC,164416.250,A,4308.4731,N,07726.4336,W,0.09,286.79,280923,,,A*7A
$GPGGA,164416.500,4308.4731,N,07726.4336,W,1,06,1.66,177.1,M,-34.4,M,,*5A
$GPRMC,164416.750,A,4308.4731,N,07726.4336,W,0.01,286.79,280923,,,A*77
$GPGGA,164417.000,4308.4731,N,07726.4336,W,1,06,1.66,177.1,M,-34.4,M,,*5E
$GPRMC,164417.250,A,4308.4731,N,07726.4336,W,0.01,286.79,280923,,,A*73
$GPGGA,164417.500,4308.4731,N,07726.4336,W,1,06,1.66,177.1,M,-34.4,M,,*5B
$GPRMC,164417.750,A,4308.4731,N,07726.4336,W,0.00,286.79,280923,,,A*77
$GPGGA,164418.000,4308.4731,N,07726.4336,W,1,06,1.66,177.1,M,-34.4,M,,*51
$GPRMC,164418.250,A,4308.4731,N,07726.4336,W,0.01,286.79,280923,,,A*7C
$GPGGA,164418.500,4308.4731,N,07726.4336,W,1,06,1.66,177.1,M,-34.4,M,,*54
$GPRMC,164418.750,A,4308.4731,N,07726.4336,W,0.01,286.79,280923,,,A*79
$GPGGA,164419.000,4308.4731,N,07726.4336,W,1,06,1.66,177.1,M,-34.4,M,,*50
$GPRMC,164419.250,A,4308.4731,N,07726.4336,W,0.01,286.79,280923,,,A*7D
$GPGGA,164419.500,4308.4731,N,07726.4336,W,1,06,1.66,177.1,M,-34.4,M,,*55
$GPRMC,164419.750,A,4308.4731,N,07726.4336,W,0.00,286.79,280923,,,A*79
$GPGGA,164420.000,4308.4731,N,07726.4336,W,1,06,1.66,177.1,M,-34.4,M,,*5A
$GPRMC,164420.250,A,4308.4731,N,07726.4336,W,0.01,286.79,280923,,,A*77
$GPGGA,164420.500,4308.4731,N,07726.4336,W,1,06,1.66,177.1,M,-34.4,M,,*5F
$GPRMC,164420.750,A,4308.4731,N,07726.4336,W,0.01,286.79,280923,,,A*72
$GPGGA,164421.000,4308.4731,N,07726.4336,W,1,06,1.66,177.1,M,-34.4,M,,*5B
$GPRMC,164421.250,A,4308.4731,N,07726.4336,W,0.01,286.79,280923,,,A*76
$GPGGA,164421.500,4308.4731,N,07726.4336,W,1,06,1.66,177.1,M,-34.4,M,,*5E
$GPRMC,164421.750,A,4308.4731,N,07726.4336,W,0.01,286.79,280923,,,A*73
$GPGGA,164422.000,4308.4731,N,07726.4336,W,1,06,1.66,177.1,M,-34.4,M,,*58
$GPRMC,164422.250,A,4308.4731,N,07726.4336,W,0.01,286.79,280923,,,A*75
$GPGGA,164422.500,4308.4731,N,07726.4336,W,1,06,1.66,177.1,M,-34.4,M,,*5D
$GPRMC,164422.750,A,4308.4731,N,07726.4336,W,0.04,286.79,280923,,,A*75
$GPGGA,164423.000,4308.4731,N,07726.4336,W,1,06,1.66,177.1,M,-34.4,M,,*59
$GPRMC,164423.250,A,4308.4731,N,07726.4336,W,0.00,286.79,280923,,,A*75
$GPGGA,164423.500,4308.4731,N,07726.4336,W,1,06,1.66,177.1,M,-34.4,M,,*5C
$GPRMC,164423.750,A,4308.4731,N,07726.4336,W,0.00,286.79,280923,,,A*70
$GPGGA,164424.000,4308.4731,N,07726.4336,W,1,06,1.66,177.1,M,-34.4,M,,*5E
$GPRMC,164424.250,A,4308.4731,N,07726.4336,W,0.00,286.79,280923,,,A*72
$GPGGA,164424.500,4308.4731,N,07726.4336,W,1,06,1.66,177.1,M,-34.4,M,,*5B
$GPRMC,164424.750,A,4308.4731,N,07726.4336,W,0.00,286.79,280923,,,A*77
$GPGGA,164425.000,4308.4731,N,07726.4336,W,1,06,1.66,177.1,M,-34.4,M,,*5F
$GPRMC,164425.250,A,4308.4731,N,07726.4336,W,0.00,286.79,280923,,,A*73
$GPGGA,164425.500,4308.4731,N,07726.4336,W,1,06,1.66,177.1,M,-34.4,M,,*5A
$GPRMC,164425.750,A,4308.4731,N,07726.4336,W,0.00,286.79,280923,,,A*76
$GPGGA,164426.000,4308.4731,N,07726.4336,W,1,06,1.66,177.1,M,-34.4,M,,*5C
$GPRMC,164426.250,A,4308.4731,N,07726.4336,W,0.00,286.79,280923,,,A*70
$GPGGA,164426.500,4308.4731,N,07726.4336,W,1,06,1.66,177.1,M,-34.4,M,,*59
$GPRMC,164426.750,A,4308.4731,N,07726.4336,W,0.00,286.79,280923,,,A*75
$GPGGA,164427.000,4308.4731,N,07726.4336,W,1,06,1.66,177.1,M,-34.4,M,,*5D
$GPRMC,164427.250,A,4308.4731,N,07726.4336,W,0.00,286.79,280923,,,A*71
$GPGGA,164427.500,4308.4731,N,07726.4336,W,1,06,1.66,177.1,M,-34.4,M,,*58
$GPRMC,164427.750,A,4308.4731,N,07726.4336,W,0.00,286.79,280923,,,A*74
$GPGGA,164428.000,4308.4731,N,07726.4336,W,1,06,1.66,177.1,M,-34.4,M,,*52
$GPRMC,164428.250,A,4308.4731,N,07726.4336,W,0.00,286.79,280923,,,A*7E
$GPGGA,164428.500,4308.4731,N,07726.4336,W,1,06,1.66,177.1,M,-34.4,M,,*57
$GPRMC,164428.750,A,4308.4731,N,07726.4336,W,0.00,286.79,280923,,,A*7B
$GPGGA,164429.000,4308.4731,N,07726.4336,W,1,06,1.66,177.1,M,-34.4,M,,*53
$GPRMC,164429.250,A,4308.4731,N,07726.4336,W,0.00,286.79,280923,,,A*7F
$GPGGA,164429.500,4308.4731,N,07726.4336,W,1,06,1.66,177.1,M,-34.4,M,,*56
$GPRMC,164429.750,A,4308.4731,N,07726.4336,W,0.00,286.79,280923,,,A*7A
$GPGGA,164430.000,4308.4731,N,07726.4336,W,1,06,1.66,177.1,M,-34.4,M,,*5B
$GPRMC,164430.250,A,4308.4731,N,07726.4336,W,0.00,286.79,280923,,,A*77
$GPGGA,164430.500,4308.4731,N,07726.4336,W,1,06,1.66,177.1,M,-34.4,M,,*5E
$GPRMC,164430.750,A,4308.4731,N,07726.4336,W,0.00,286.79,280923,,,A*72
$GPGGA,164431.000,4308.4731,N,07726.4336,W,1,06,1.66,177.1,M,-34.4,M,,*5A
$GPRMC,164431.250,A,4308.4731,N,07726.4336,W,0.00,286.79,280923,,,A*76
$GPGGA,164431.500,4308.4731,N,07726.4336,W,1,06,1.66,177.1,M,-34.4,M,,*5F
$GPRMC,164431.750,A,4308.4731,N,07726.4336,W,0.00,286.79,280923,,,A*73
$GPGGA,164432.000,4308.4731,N,07726.4336,W,1,06,1.66,177.1,M,-34.4,M,,*59
$GPRMC,164432.250,A,4308.4731,N,07726.4336,W,0.00,286.79,280923,,,A*75
$GPGGA,164432.500,4308.4731,N,07726.4336,W,1,06,1.66,177.1,M,-34.4,M,,*5C
$GPRMC,164432.750,A,4308.4731,N,07726.4336,W,0.00,286.79,280923,,,A*70
$GPGGA,164433.000,4308.4731,N,07726.4336,W,1,06,1.66,177.1,M,-34.4,M,,*58
$GPRMC,164433.250,A,4308.4731,N,07726.4336,W,0.00,286.79,280923,,,A*74
$GPGGA,164433.500,4308.4731,N,07726.4336,W,1,06,1.66,177.1,M,-34.4,M,,*5D
$GPRMC,164433.750,A,4308.4731,N,07726.4336,W,0.00,286.79,280923,,,A*71
$GPGGA,164434.000,4308.4731,N,07726.4336,W,1,06,1.66,177.1,M,-34.4,M,,*5F
$GPRMC,164434.250,A,4308.4731,N,07726.4336,W,0.00,286.79,280923,,,A*73
$GPGGA,164434.500,4308.4731,N,07726.4336,W,1,06,1.66,177.1,M,-34.4,M,,*5A
$GPRMC,164434.750,A,4308.4731,N,07726.4336,W,0.00,286.79,280923,,,A*76
$GPGGA,164435.000,4308.4731,N,07726.4336,W,1,06,1.66,177.1,M,-34.4,M,,*5E
$GPRMC,164435.250,A,4308.4731,N,07726.4336,W,0.00,286.79,280923,,,A*72
$GPGGA,164435.500,4308.4731,N,07726.4336,W,1,06,1.66,177.1,M,-34.4,M,,*5B
$GPRMC,164435.750,A,4308.4731,N,07726.4336,W,0.00,286.79,280923,,,A*77
$GPGGA,164436.000,4308.4731,N,07726.4336,W,1,06,1.66,177.1,M,-34.4,M,,*5D
$GPRMC,164436.250,A,4308.4731,N,07726.4336,W,0.00,286.79,280923,,,A*71
$GPGGA,164436.500,4308.4731,N,07726.4336,W,1,06,1.66,177.1,M,-34.4,M,,*58
$GPRMC,164436.750,A,4308.4731,N,07726.4336,W,0.00,286.79,280923,,,A*74
$GPGGA,164437.000,4308.4731,N,07726.4336,W,1,06,1.66,177.1,M,-34.4,M,,*5C
$GPRMC,164437.250,A,4308.4731,N,07726.4336,W,0.00,286.79,280923,,,A*70
$GPGGA,164437.500,4308.4731,N,07726.4337,W,1,06,1.66,177.1,M,-34.4,M,,*58
$GPRMC,164437.750,A,4308.4731,N,07726.4337,W,0.00,286.79,280923,,,A*74
$GPGGA,164438.000,4308.4731,N,07726.4337,W,1,06,1.66,177.1,M,-34.4,M,,*52
$GPRMC,164438.250,A,4308.4731,N,07726.4337,W,0.00,286.79,280923,,,A*7E
$GPGGA,164438.500,4308.4731,N,07726.4337,W,1,06,1.66,177.1,M,-34.4,M,,*57
$GPRMC,164438.750,A,4308.4731,N,07726.4337,W,0.00,286.79,280923,,,A*7B
$GPGGA,164439.000,4308.4731,N,07726.4337,W,1,06,1.66,177.1,M,-34.4,M,,*53
$GPRMC,164439.250,A,4308.4731,N,07726.4337,W,0.00,286.79,280923,,,A*7F
$GPGGA,164439.500,4308.4731,N,07726.4337,W,1,06,1.66,177.1,M,-34.4,M,,*56
$GPRMC,164439.750,A,4308.4731,N,07726.4337,W,0.01,286.79,280923,,,A*7B
$GPGGA,164440.000,4308.4731,N,07726.4337,W,1,06,1.66,177.1,M,-34.4,M,,*5D
$GPRMC,164440.250,A,4308.4731,N,07726.4337,W,0.00,286.79,280923,,,A*71
$GPGGA,164440.500,4308.4731,N,07726.4337,W,1,06,1.66,177.1,M,-34.4,M,,*58
$GPRMC,164440.750,A,4308.4731,N,07726.4337,W,0.00,286.79,280923,,,A*74
$GPGGA,164441.000,4308.4731,N,07726.4337,W,1,06,1.66,177.1,M,-34.4,M,,*5C
$GPRMC,164441.250,A,4308.4731,N,07726.4337,W,0.01,286.79,280923,,,A*71
$GPGGA,164441.500,4308.4731,N,07726.4337,W,1,06,1.66,177.1,M,-34.4,M,,*59
$GPRMC,164441.750,A,4308.4731,N,07726.4337,W,0.02,286.79,280923,,,A*77
$GPGGA,164442.000,4308.4731,N,07726.4337,W,1,06,1.40,177.1,M,-34.4,M,,*5B
$GPRMC,164442.250,A,4308.4731,N,07726.4337,W,0.14,286.79,280923,,,A*76
$GPGGA,164442.500,4308.4731,N,07726.4337,W,1,06,1.40,177.1,M,-34.4,M,,*5E
$GPRMC,164442.750,A,4308.4731,N,07726.4337,W,0.51,286.79,280923,,,A*72
$GPGGA,164443.000,4308.4731,N,07726.4338,W,1,06,1.40,177.1,M,-34.4,M,,*55
$GPRMC,164443.250,A,4308.4732,N,07726.4345,W,6.46,276.13,280923,,,A*73
$GPGGA,164443.500,4308.4732,N,07726.4354,W,1,06,1.66,177.1,M,-34.4,M,,*5D
$GPRMC,164443.750,A,4308.4733,N,07726.4364,W,8.97,275.14,280923,,,A*72
$GPGGA,164444.000,4308.4734,N,07726.4375,W,1,06,1.66,177.1,M,-34.4,M,,*5A
$GPRMC,164444.250,A,4308.4735,N,07726.4386,W,10.69,277.12,280923,,,A*46
$GPGGA,164444.500,4308.4736,N,07726.4399,W,1,06,1.66,177.1,M,-34.4,M,,*5F
$GPRMC,164444.750,A,4308.4736,N,07726.4412,W,12.46,274.65,280923,,,A*46
$GPGGA,164445.000,4308.4737,N,07726.4425,W,1,06,1.40,177.1,M,-34.4,M,,*5E
$GPRMC,164445.250,A,4308.4738,N,07726.4440,W,14.20,275.27,280923,,,A*4A
$GPGGA,164445.500,4308.4739,N,07726.4455,W,1,06,1.66,177.2,M,-34.4,M,,*55
$GPRMC,164445.750,A,4308.4741,N,07726.4470,W,14.96,276.05,280923,,,A*4C
$GPGGA,164446.000,4308.4742,N,07726.4486,W,1,06,1.66,177.2,M,-34.4,M,,*51
$GPRMC,164446.250,A,4308.4743,N,07726.4503,W,16.58,274.48,280923,,,A*46
$GPGGA,164446.500,4308.4744,N,07726.4521,W,1,06,1.66,177.3,M,-34.4,M,,*5F
$GPRMC,164446.750,A,4308.4745,N,07726.4539,W,18.11,274.25,280923,,,A*44
$GPGGA,164447.000,4308.4747,N,07726.4558,W,1,06,1.40,177.3,M,-34.4,M,,*52
$GPRMC,164447.250,A,4308.4749,N,07726.4578,W,19.42,276.63,280923,,,A*4E
$GPGGA,164447.500,4308.4751,N,07726.4598,W,1,06,1.66,177.3,M,-34.4,M,,*58
$GPRMC,164447.750,A,4308.4753,N,07726.4619,W,20.94,276.57,280923,,,A*42
$GPGGA,164448.000,4308.4755,N,07726.4641,W,1,06,1.40,177.3,M,-34.4,M,,*55
$GPRMC,164448.250,A,4308.4757,N,07726.4663,W,22.20,277.26,280923,,,A*4B
$GPGGA,164448.500,4308.4759,N,07726.4687,W,1,06,1.66,177.3,M,-34.4,M,,*52
$GPRMC,164448.750,A,4308.4760,N,07726.4711,W,24.00,276.75,280923,,,A*4D
$GPGGA,164449.000,4308.4762,N,07726.4737,W,1,06,1.40,177.4,M,-34.4,M,,*57
$GPRMC,164449.250,A,4308.4764,N,07726.4762,W,25.85,277.64,280923,,,A*44
$GPGGA,164449.500,4308.4767,N,07726.4788,W,1,06,1.40,177.5,M,-34.4,M,,*52
$GPRMC,164449.750,A,4308.4769,N,07726.4814,W,26.76,278.21,280923,,,A*43
$GPGGA,164450.000,4308.4772,N,07726.4841,W,1,06,1.40,177.6,M,-34.4,M,,*52
$GPRMC,164450.250,A,4308.4774,N,07726.4867,W,27.60,277.63,280923,,,A*49
$GPGGA,164450.500,4308.4777,N,07726.4894,W,1,06,1.40,177.6,M,-34.4,M,,*5A
$GPRMC,164450.750,A,4308.4779,N,07726.4922,W,28.43,277.33,280923,,,A*4A
$GPGGA,164451.000,4308.4781,N,07726.4950,W,1,06,1.40,177.7,M,-34.4,M,,*5F
$GPRMC,164451.250,A,4308.4783,N,07726.4978,W,28.94,276.50,280923,,,A*4A
$GPGGA,164451.500,4308.4786,N,07726.5006,W,1,06,1.40,177.8,M,-34.4,M,,*59
$GPRMC,164451.750,A,4308.4788,N,07726.5034,W,28.83,276.34,280923,,,A*40
$GPGGA,164452.000,4308.4791,N,07726.5062,W,1,06,1.40,177.9,M,-34.4,M,,*5A
$GPRMC,164452.250,A,4308.4793,N,07726.5090,W,29.02,275.81,280923,,,A*47
$GPGGA,164452.500,4308.4795,N,07726.5119,W,1,06,1.40,177.9,M,-34.4,M,,*56
$GPRMC,164452.750,A,4308.4797,N,07726.5148,W,29.97,274.96,280923,,,A*49
$GPGGA,164453.000,4308.4799,N,07726.5178,W,1,06,1.40,177.9,M,-34.4,M,,*59
$GPRMC,164453.250,A,4308.4801,N,07726.5208,W,30.67,274.04,280923,,,A*46
$GPGGA,164453.500,4308.4803,N,07726.5239,W,1,06,1.40,177.9,M,-34.4,M,,*56
$GPRMC,164453.750,A,4308.4805,N,07726.5269,W,30.96,273.85,280923,,,A*40
$GPGGA,164454.000,4308.4806,N,07726.5300,W,1,06,1.40,177.9,M,-34.4,M,,*5A
$GPRMC,164454.250,A,4308.4808,N,07726.5331,W,31.40,273.58,280923,,,A*49
$GPGGA,164454.500,4308.4809,N,07726.5363,W,1,06,1.40,177.9,M,-34.4,M,,*55
$GPRMC,164454.750,A,4308.4811,N,07726.5394,W,31.68,273.28,280923,,,A*46
$GPGGA,164455.000,4308.4812,N,07726.5426,W,1,06,1.40,177.9,M,-34.4,M,,*5D
$GPRMC,164455.250,A,4308.4813,N,07726.5458,W,31.92,272.68,280923,,,A*47
$GPGGA,164455.500,4308.4814,N,07726.5491,W,1,06,1.40,177.8,M,-34.4,M,,*53
$GPRMC,164455.750,A,4308.4815,N,07726.5523,W,32.13,272.23,280923,,,A*4C
$GPGGA,164456.000,4308.4817,N,07726.5557,W,1,06,1.40,177.8,M,-34.4,M,,*5D
$GPRMC,164456.250,A,4308.4818,N,07726.5591,W,33.77,272.67,280923,,,A*4D
$GPGGA,164456.500,4308.4820,N,07726.5624,W,1,06,1.40,177.7,M,-34.4,M,,*54
$GPRMC,164456.750,A,4308.4821,N,07726.5657,W,33.97,272.69,280923,,,A*4B
$GPGGA,164457.000,4308.4822,N,07726.5690,W,1,06,1.40,177.6,M,-34.4,M,,*5C
$GPRMC,164457.250,A,4308.4823,N,07726.5724,W,34.32,272.44,280923,,,A*4F
$GPGGA,164457.500,4308.4824,N,07726.5759,W,1,06,1.40,177.5,M,-34.4,M,,*58
$GPRMC,164457.750,A,4308.4825,N,07726.5793,W,34.80,272.27,280923,,,A*4C
$GPGGA,164458.000,4308.4826,N,07726.5827,W,1,06,1.40,177.4,M,-34.4,M,,*57
$GPRMC,164458.250,A,4308.4827,N,07726.5862,W,35.21,272.61,280923,,,A*4D
$GPGGA,164458.500,4308.4828,N,07726.5896,W,1,06,1.40,177.4,M,-34.4,M,,*56
$GPRMC,164458.750,A,4308.4829,N,07726.5931,W,35.52,272.49,280923,,,A*4F
$GPGGA,164459.000,4308.4830,N,07726.5967,W,1,06,1.40,177.3,M,-34.4,M,,*53
$GPRMC,164459.250,A,4308.4830,N,07726.6001,W,35.62,272.28,280923,,,A*4E
$GPGGA,164459.500,4308.4832,N,07726.6036,W,1,06,1.40,177.2,M,-34.4,M,,*5B
$GPRMC,164459.750,A,4308.4832,N,07726.6071,W,35.61,271.81,280923,,,A*4D
$GPGGA,164500.000,4308.4833,N,07726.6106,W,1,06,1.40,177.2,M,-34.4,M,,*50
$GPRMC,164500.250,A,4308.4834,N,07726.6141,W,35.87,271.77,280923,,,A*40
$GPGGA,164500.500,4308.4834,N,07726.6175,W,1,06,1.40,177.1,M,-34.4,M,,*55
$GPRMC,164500.750,A,4308.4835,N,07726.6211,W,35.73,271.38,280923,,,A*42
$GPGGA,164501.000,4308.4835,N,07726.6247,W,1,06,1.40,177.0,M,-34.4,M,,*53
$GPRMC,164501.250,A,4308.4834,N,07726.6283,W,35.97,270.57,280923,,,A*4E
$GPGGA,164501.500,4308.4834,N,07726.6319,W,1,06,1.40,176.9,M,-34.4,M,,*55
$GPRMC,164501.750,A,4308.4834,N,07726.6355,W,36.22,269.58,280923,,,A*4B
$GPGGA,164502.000,4308.4833,N,07726.6392,W,1,06,1.40,176.8,M,-34.4,M,,*56
$GPRMC,164502.250,A,4308.4832,N,07726.6428,W,36.33,268.75,280923,,,A*48
$GPGGA,164502.500,4308.4832,N,07726.6465,W,1,06,1.40,176.7,M,-34.4,M,,*52
$GPRMC,164502.750,A,4308.4831,N,07726.6500,W,36.55,268.68,280923,,,A*49
$GPGGA,164503.000,4308.4830,N,07726.6537,W,1,06,1.40,176.5,M,-34.4,M,,*50
$GPRMC,164503.250,A,4308.4829,N,07726.6574,W,36.95,268.32,280923,,,A*44
$GPGGA,164503.500,4308.4828,N,07726.6611,W,1,06,1.40,176.4,M,-34.4,M,,*5A
$GPRMC,164503.750,A,4308.4827,N,07726.6648,W,37.48,267.83,280923,,,A*47
$GPGGA,164504.000,4308.4825,N,07726.6685,W,1,06,1.40,176.3,M,-34.4,M,,*5F
$GPRMC,164504.250,A,4308.4824,N,07726.6722,W,37.96,267.41,280923,,,A*46
$GPGGA,164504.500,4308.4822,N,07726.6760,W,1,06,1.40,176.2,M,-34.4,M,,*56
$GPRMC,164504.750,A,4308.4820,N,07726.6797,W,38.19,266.93,280923,,,A*4F
$GPGGA,164505.000,4308.4818,N,07726.6834,W,1,06,1.40,176.2,M,-34.4,M,,*55
$GPRMC,164505.250,A,4308.4816,N,07726.6872,W,38.41,266.60,280923,,,A*4B
$GPGGA,164505.500,4308.4814,N,07726.6909,W,1,06,1.40,176.1,M,-34.4,M,,*50
$GPRMC,164505.750,A,4308.4811,N,07726.6946,W,38.42,266.23,280923,,,A*4B
$GPGGA,164506.000,4308.4809,N,07726.6984,W,1,06,1.40,176.1,M,-34.4,M,,*5F
$GPRMC,164506.250,A,4308.4807,N,07726.7021,W,38.37,266.22,280923,,,A*40
$GPGGA,164506.500,4308.4805,N,07726.7058,W,1,06,1.40,176.1,M,-34.4,M,,*5F
$GPRMC,164506.750,A,4308.4803,N,07726.7096,W,38.42,266.10,280923,,,A*4E
$GPGGA,164507.000,4308.4802,N,07726.7133,W,1,06,1.40,176.2,M,-34.4,M,,*53
$GPRMC,164507.250,A,4308.4799,N,07726.7170,W,38.49,266.14,280923,,,A*40
$GPGGA,164507.500,4308.4797,N,07726.7208,W,1,06,1.40,176.2,M,-34.4,M,,*5E
$GPRMC,164507.750,A,4308.4795,N,07726.7245,W,38.49,265.81,280923,,,A*43
$GPGGA,164508.000,4308.4793,N,07726.7281,W,1,06,1.40,176.2,M,-34.4,M,,*51
$GPRMC,164508.250,A,4308.4791,N,07726.7318,W,38.13,265.65,280923,,,A*41
$GPGGA,164508.500,4308.4788,N,07726.7355,W,1,06,1.40,176.3,M,-34.4,M,,*57
$GPRMC,164508.750,A,4308.4786,N,07726.7391,W,38.14,265.77,280923,,,A*47
$GPGGA,164509.000,4308.4785,N,07726.7428,W,1,06,1.40,176.4,M,-34.4,M,,*54
$GPRMC,164509.250,A,4308.4783,N,07726.7465,W,38.07,266.37,280923,,,A*4F
$GPGGA,164509.500,4308.4782,N,07726.7501,W,1,06,1.40,176.5,M,-34.4,M,,*5D
$GPRMC,164509.750,A,4308.4780,N,07726.7537,W,38.01,266.36,280923,,,A*48
$GPGGA,164510.000,4308.4779,N,07726.7573,W,1,06,1.40,176.6,M,-34.4,M,,*52
$GPRMC,164510.250,A,4308.4777,N,07726.7610,W,37.96,266.41,280923,,,A*4A
$GPGGA,164510.500,4308.4775,N,07726.7646,W,1,06,1.40,176.7,M,-34.4,M,,*5F
$GPRMC,164510.750,A,4308.4773,N,07726.7682,W,37.94,265.71,280923,,,A*42
$GPGGA,164511.000,4308.4771,N,07726.7719,W,1,06,1.40,176.8,M,-34.4,M,,*5B
$GPRMC,164511.250,A,4308.4768,N,07726.7755,W,37.92,264.17,280923,,,A*40
$GPGGA,164511.500,4308.4765,N,07726.7791,W,1,06,1.40,176.9,M,-34.4,M,,*5A
$GPRMC,164511.750,A,4308.4762,N,07726.7827,W,37.89,263.09,280923,,,A*47
$GPGGA,164512.000,4308.4759,N,07726.7863,W,1,06,1.40,176.9,M,-34.4,M,,*51
$GPRMC,164512.250,A,4308.4756,N,07726.7899,W,37.79,262.58,280923,,,A*49
$GPGGA,164512.500,4308.4754,N,07726.7935,W,1,06,1.40,176.9,M,-34.4,M,,*5B
$GPRMC,164512.750,A,4308.4751,N,07726.7971,W,37.74,263.09,280923,,,A*44
$GPGGA,164513.000,4308.4748,N,07726.8007,W,1,06,1.40,176.8,M,-34.4,M,,*54
$GPRMC,164513.250,A,4308.4746,N,07726.8045,W,38.18,263.32,280923,,,A*4A
$GPGGA,164513.500,4308.4743,N,07726.8082,W,1,06,1.40,176.7,M,-34.4,M,,*58
$GPRMC,164513.750,A,4308.4740,N,07726.8119,W,38.46,263.54,280923,,,A*4A
$GPGGA,164514.000,4308.4738,N,07726.8156,W,1,06,1.40,176.6,M,-34.4,M,,*5F
$GPRMC,164514.250,A,4308.4735,N,07726.8194,W,38.58,263.64,280923,,,A*43
$GPGGA,164514.500,4308.4732,N,07726.8232,W,1,06,1.40,176.5,M,-34.4,M,,*52
$GPRMC,164514.750,A,4308.4729,N,07726.8270,W,39.21,263.83,280923,,,A*44
$GPGGA,164515.000,4308.4726,N,07726.8308,W,1,06,1.40,176.4,M,-34.4,M,,*5A
$GPRMC,164515.250,A,4308.4723,N,07726.8347,W,39.49,263.80,280923,,,A*42
$GPGGA,164515.500,4308.4720,N,07726.8386,W,1,06,1.40,176.2,M,-34.4,M,,*59
$GPRMC,164515.750,A,4308.4718,N,07726.8424,W,39.58,264.11,280923,,,A*42
$GPGGA,164516.000,4308.4716,N,07726.8462,W,1,06,1.40,176.0,M,-34.4,M,,*55
$GPRMC,164516.250,A,4308.4714,N,07726.8500,W,39.57,264.65,280923,,,A*43
$GPGGA,164516.500,4308.4712,N,07726.8538,W,1,06,1.40,175.8,M,-34.4,M,,*51
$GPRMC,164516.750,A,4308.4710,N,07726.8576,W,39.31,265.36,280923,,,A*44
$GPGGA,164517.000,4308.4708,N,07726.8614,W,1,06,1.40,175.7,M,-34.4,M,,*5C
$GPRMC,164517.250,A,4308.4705,N,07726.8652,W,39.61,265.42,280923,,,A*47
$GPGGA,164517.500,4308.4703,N,07726.8691,W,1,06,1.40,175.5,M,-34.4,M,,*5D
$GPRMC,164517.750,A,4308.4701,N,07726.8728,W,39.64,265.23,280923,,,A*48
$GPGGA,164518.000,4308.4699,N,07726.8767,W,1,06,1.40,175.2,M,-34.4,M,,*5A
$GPRMC,164518.250,A,4308.4697,N,07726.8805,W,39.72,265.43,280923,,,A*4D
$GPGGA,164518.500,4308.4695,N,07726.8843,W,1,06,1.40,175.0,M,-34.4,M,,*58
$GPRMC,164518.750,A,4308.4693,N,07726.8882,W,39.83,265.42,280923,,,A*4C
$GPGGA,164519.000,4308.4691,N,07726.8920,W,1,06,1.40,174.8,M,-34.4,M,,*55
$GPRMC,164519.250,A,4308.4689,N,07726.8959,W,39.83,265.46,280923,,,A*40
$GPGGA,164519.500,4308.4686,N,07726.8997,W,1,06,1.40,174.6,M,-34.4,M,,*54
$GPRMC,164519.750,A,4308.4684,N,07726.9036,W,39.86,265.28,280923,,,A*44
$GPGGA,164520.000,4308.4682,N,07726.9074,W,1,06,1.40,174.4,M,-34.4,M,,*58
$GPRMC,164520.250,A,4308.4679,N,07726.9113,W,40.04,264.75,280923,,,A*42
$GPGGA,164520.500,4308.4676,N,07726.9152,W,1,06,1.40,174.2,M,-34.4,M,,*55
$GPRMC,164520.750,A,4308.4674,N,07726.9191,W,40.26,264.59,280923,,,A*4E
$GPGGA,164521.000,4308.4671,N,07726.9231,W,1,06,1.40,173.9,M,-34.4,M,,*5C
$GPRMC,164521.250,A,4308.4668,N,07726.9271,W,40.65,264.11,280923,,,A*41
$GPGGA,164521.500,4308.4665,N,07726.9310,W,1,06,1.66,173.7,M,-34.4,M,,*54
$GPRMC,164521.750,A,4308.4662,N,07726.9348,W,40.43,264.35,280923,,,A*47
$GPGGA,164522.000,4308.4660,N,07726.9387,W,1,06,1.40,173.4,M,-34.4,M,,*5E
$GPRMC,164522.250,A,4308.4657,N,07726.9426,W,40.52,264.24,280923,,,A*48
$GPGGA,164522.500,4308.4654,N,07726.9465,W,1,06,1.40,173.2,M,-34.4,M,,*51
$GPRMC,164522.750,A,4308.4652,N,07726.9504,W,40.74,264.58,280923,,,A*46
$GPGGA,164523.000,4308.4650,N,07726.9543,W,1,06,1.40,172.9,M,-34.4,M,,*5E
$GPRMC,164523.250,A,4308.4647,N,07726.9582,W,40.78,264.91,280923,,,A*41
$GPGGA,164523.500,4308.4645,N,07726.9621,W,1,06,1.40,172.6,M,-34.4,M,,*57
$GPRMC,164523.750,A,4308.4643,N,07726.9660,W,40.99,265.12,280923,,,A*4A
$GPGGA,164524.000,4308.4640,N,07726.9699,W,1,06,1.40,172.4,M,-34.4,M,,*51
$GPRMC,164524.250,A,4308.4637,N,07726.9738,W,41.10,265.43,280923,,,A*43
$GPGGA,164524.500,4308.4634,N,07726.9777,W,1,06,1.40,172.1,M,-34.4,M,,*53
$GPRMC,164524.750,A,4308.4632,N,07726.9817,W,41.31,265.49,280923,,,A*48
$GPGGA,164525.000,4308.4629,N,07726.9856,W,1,06,1.40,171.8,M,-34.4,M,,*5D
$GPRMC,164525.250,A,4308.4627,N,07726.9896,W,41.54,265.85,280923,,,A*42
$GPGGA,164525.500,4308.4624,N,07726.9936,W,1,06,1.40,171.6,M,-34.4,M,,*5C
$GPRMC,164525.750,A,4308.4622,N,07726.9976,W,41.95,266.08,280923,,,A*46
$GPGGA,164526.000,4308.4620,N,07727.0016,W,1,06,1.40,171.3,M,-34.4,M,,*58
$GPRMC,164526.250,A,4308.4618,N,07727.0057,W,42.23,266.48,280923,,,A*41
$GPGGA,164526.500,4308.4616,N,07727.0096,W,1,06,1.40,171.1,M,-34.4,M,,*52
$GPRMC,164526.750,A,4308.4614,N,07727.0137,W,42.31,266.56,280923,,,A*43
$GPGGA,164527.000,4308.4612,N,07727.0177,W,1,06,1.40,170.8,M,-34.4,M,,*54
$GPRMC,164527.250,A,4308.4610,N,07727.0217,W,42.21,267.19,280923,,,A*49
$GPGGA,164527.500,4308.4608,N,07727.0257,W,1,06,1.40,170.6,M,-34.4,M,,*55
$GPRMC,164527.750,A,4308.4607,N,07727.0298,W,42.45,267.38,280923,,,A*4C
$GPGGA,164528.000,4308.4605,N,07727.0339,W,1,06,1.40,170.4,M,-34.4,M,,*59
$GPRMC,164528.250,A,4308.4604,N,07727.0380,W,42.76,268.16,280923,,,A*4E
$GPGGA,164528.500,4308.4602,N,07727.0421,W,1,06,1.40,170.2,M,-34.4,M,,*53
$GPRMC,164528.750,A,4308.4601,N,07727.0463,W,42.99,268.60,280923,,,A*44
$GPGGA,164529.000,4308.4601,N,07727.0504,W,1,06,1.40,170.0,M,-34.4,M,,*50
$GPRMC,164529.250,A,4308.4600,N,07727.0545,W,43.28,269.34,280923,,,A*4F
$GPGGA,164529.500,4308.4600,N,07727.0587,W,1,06,1.40,169.9,M,-34.4,M,,*5E
$GPRMC,164529.750,A,4308.4601,N,07727.0629,W,43.50,270.23,280923,,,A*43
