Vers 81
USE_SERIAL_FEEDBACK=true
DEVELOPMENT_MODE=false
USE_RMC_ONLY=false

$GPRMC,213322.250,A,4308.3025,N,07726.2588,W,1.15,17.79,080923,,,A*4D
$GPGGA,213322.500,4308.3025,N,07726.2587,W,1,04,3.08,144.0,M,-34.4,M,,*5F
$GPRMC,213322.750,A,4308.3026,N,07726.2587,W,1.33,17.41,080923,,,A*4B
$GPGGA,213323.000,4308.3029,N,07726.2587,W,1,04,3.09,144.1,M,-34.4,M,,*57
$GPRMC,213323.250,A,4308.3029,N,07726.2585,W,1.88,22.37,080923,,,A*45
$GPGGA,213323.500,4308.3032,N,07726.2585,W,1,04,3.08,144.0,M,-34.4,M,,*5A
$GPRMC,213323.750,A,4308.3035,N,07726.2584,W,2.03,25.37,080923,,,A*4B
$GPGGA,213324.000,4308.3037,N,07726.2583,W,1,04,3.09,144.2,M,-34.4,M,,*58
$GPRMC,213324.250,A,4308.3039,N,07726.2582,W,2.29,31.30,080923,,,A*49
$GPGGA,213324.500,4308.3043,N,07726.2582,W,1,04,3.09,144.4,M,-34.4,M,,*59
$GPRMC,213324.750,A,4308.3045,N,07726.2581,W,2.87,39.24,080923,,,A*4D
$GPGGA,213325.000,4308.3049,N,07726.2579,W,1,04,3.08,144.8,M,-34.4,M,,*5E
$GPRMC,213325.250,A,4308.3051,N,07726.2577,W,2.86,50.41,080923,,,A*48
$GPGGA,213325.500,4308.3052,N,07726.2576,W,1,04,3.08,145.3,M,-34.4,M,,*54
$GPRMC,213325.750,A,4308.3054,N,07726.2574,W,2.67,55.25,080923,,,A*43
$GPGGA,213326.000,4308.3055,N,07726.2571,W,1,04,3.08,145.8,M,-34.4,M,,*59
$GPRMC,213326.250,A,4308.3054,N,07726.2568,W,2.44,67.14,080923,,,A*4A
$GPGGA,213326.500,4308.3055,N,07726.2566,W,1,04,3.09,146.1,M,-34.4,M,,*51
$GPRMC,213326.750,A,4308.3056,N,07726.2563,W,2.23,78.31,080923,,,A*4E
$GPGGA,213327.000,4308.3056,N,07726.2561,W,1,04,3.09,146.3,M,-34.4,M,,*53
$GPRMC,213327.250,A,4308.3056,N,07726.2559,W,2.19,90.77,080923,,,A*4E
$GPGGA,213327.500,4308.3056,N,07726.2557,W,1,04,3.09,146.7,M,-34.4,M,,*57
$GPRMC,213327.750,A,4308.3056,N,07726.2554,W,2.59,92.90,080923,,,A*49
$GPGGA,213328.000,4308.3056,N,07726.2551,W,1,04,3.09,147.0,M,-34.4,M,,*5D
$GPRMC,213328.250,A,4308.3056,N,07726.2549,W,2.59,108.86,080923,,,A*7A
$GPGGA,213328.500,4308.3055,N,07726.2547,W,1,04,3.09,147.3,M,-34.4,M,,*5F
$GPRMC,213328.750,A,4308.3055,N,07726.2545,W,2.53,118.38,080923,,,A*7E
$GPGGA,213329.000,4308.3055,N,07726.2544,W,1,04,3.09,147.6,M,-34.4,M,,*5D
$GPRMC,213329.250,A,4308.3055,N,07726.2542,W,2.41,116.83,080923,,,A*70
$GPGGA,213329.500,4308.3055,N,07726.2541,W,1,04,3.09,148.0,M,-34.4,M,,*54
$GPRMC,213329.750,A,4308.3055,N,07726.2540,W,2.32,122.99,080923,,,A*7F
$GPGGA,213330.000,4308.3054,N,07726.2538,W,1,04,3.09,148.4,M,-34.4,M,,*52
$GPRMC,213330.250,A,4308.3054,N,07726.2538,W,2.40,136.14,080923,,,A*79
$GPGGA,213330.500,4308.3054,N,07726.2537,W,1,04,3.09,149.0,M,-34.4,M,,*5D
$GPRMC,213330.750,A,4308.3054,N,07726.2536,W,2.36,135.52,080923,,,A*72
$GPGGA,213331.000,4308.3056,N,07726.2535,W,1,04,3.09,149.5,M,-34.4,M,,*5C
$GPRMC,213331.250,A,4308.3057,N,07726.2535,W,2.31,135.35,080923,,,A*70
$GPGGA,213331.500,4308.3058,N,07726.2535,W,1,04,3.09,150.1,M,-34.4,M,,*5B
$GPRMC,213331.750,A,4308.3061,N,07726.2537,W,2.01,142.24,080923,,,A*71
$GPGGA,213332.000,4308.3064,N,07726.2540,W,1,04,3.09,150.6,M,-34.4,M,,*57
$GPRMC,213332.250,A,4308.3068,N,07726.2543,W,1.42,153.03,080923,,,A*7C
$GPGGA,213332.500,4308.3071,N,07726.2545,W,1,04,3.09,151.1,M,-34.4,M,,*55
$GPRMC,213332.750,A,4308.3074,N,07726.2548,W,1.12,158.95,080923,,,A*7E
$GPGGA,213333.000,4308.3077,N,07726.2551,W,1,04,3.09,151.5,M,-34.4,M,,*56
$GPRMC,213333.250,A,4308.3079,N,07726.2554,W,1.12,192.07,080923,,,A*77
$GPGGA,213333.500,4308.3081,N,07726.2556,W,1,04,3.09,152.0,M,-34.4,M,,*5B
$GPRMC,213333.750,A,4308.3082,N,07726.2558,W,1.31,204.51,080923,,,A*74
$GPGGA,213334.000,4308.3084,N,07726.2560,W,1,04,3.09,152.4,M,-34.4,M,,*5D
$GPRMC,213334.250,A,4308.3086,N,07726.2563,W,1.30,217.49,080923,,,A*70
$GPGGA,213334.500,4308.3090,N,07726.2568,W,1,04,3.09,152.7,M,-34.4,M,,*56
$GPRMC,213334.750,A,4308.3092,N,07726.2573,W,2.20,244.22,080923,,,A*78
$GPGGA,213335.000,4308.3093,N,07726.2578,W,1,04,3.10,152.9,M,-34.4,M,,*56
$GPRMC,213335.250,A,4308.3096,N,07726.2583,W,2.59,257.41,080923,,,A*7E
$GPGGA,213335.500,4308.3098,N,07726.2586,W,1,04,3.10,153.2,M,-34.4,M,,*53
$GPRMC,213335.750,A,4308.3099,N,07726.2589,W,2.34,263.17,080923,,,A*71
$GPGGA,213336.000,4308.3100,N,07726.2592,W,1,04,3.10,153.5,M,-34.4,M,,*57
$GPRMC,213336.250,A,4308.3100,N,07726.2595,W,2.32,264.62,080923,,,A*78
$GPGGA,213336.500,4308.3101,N,07726.2598,W,1,04,3.10,153.6,M,-34.4,M,,*5A
$GPRMC,213336.750,A,4308.3103,N,07726.2602,W,2.49,266.99,080923,,,A*79
$GPGGA,213337.000,4308.3103,N,07726.2605,W,1,04,3.10,153.7,M,-34.4,M,,*5A
$GPRMC,213337.250,A,4308.3104,N,07726.2609,W,2.67,265.44,080923,,,A*7E
$GPGGA,213337.500,4308.3106,N,07726.2613,W,1,04,3.10,153.7,M,-34.4,M,,*5D
$GPRMC,213337.750,A,4308.3109,N,07726.2617,W,2.45,280.30,080923,,,A*71
$GPGGA,213338.000,4308.3111,N,07726.2620,W,1,04,3.10,153.6,M,-34.4,M,,*50
$GPRMC,213338.250,A,4308.3113,N,07726.2623,W,2.36,301.14,080923,,,A*7D
$GPGGA,213338.500,4308.3115,N,07726.2625,W,1,04,3.10,153.6,M,-34.4,M,,*54
$GPRMC,213338.750,A,4308.3117,N,07726.2628,W,2.44,315.69,080923,,,A*7D
$GPGGA,213339.000,4308.3119,N,07726.2629,W,1,04,3.10,153.6,M,-34.4,M,,*50
$GPRMC,213339.250,A,4308.3121,N,07726.2631,W,2.53,323.85,080923,,,A*75
$GPGGA,213339.500,4308.3123,N,07726.2632,W,1,04,3.10,153.6,M,-34.4,M,,*56
$GPRMC,213339.750,A,4308.3124,N,07726.2633,W,2.44,323.03,080923,,,A*7F
$GPGGA,213340.000,4308.3124,N,07726.2634,W,1,04,3.10,153.6,M,-34.4,M,,*5C
$GPRMC,213340.250,A,4308.3125,N,07726.2634,W,2.16,321.61,080923,,,A*73
$GPGGA,213340.500,4308.3126,N,07726.2635,W,1,03,27.65,153.6,M,-34.4,M,,*69
$GPRMC,213340.750,A,4308.3128,N,07726.2637,W,2.28,318.25,080923,,,A*7F
$GPGGA,213341.000,4308.3129,N,07726.2638,W,1,03,27.72,153.6,M,-34.4,M,,*69
$GPRMC,213341.250,A,4308.3132,N,07726.2640,W,2.36,327.38,080923,,,A*7F
$GPGGA,213341.500,4308.3134,N,07726.2641,W,1,04,3.10,153.5,M,-34.4,M,,*58
$GPRMC,213341.750,A,4308.3136,N,07726.2643,W,2.48,331.32,080923,,,A*79
$GPGGA,213342.000,4308.3136,N,07726.2642,W,1,03,27.83,153.5,M,-34.4,M,,*64
$GPRMC,213342.250,A,4308.3137,N,07726.2643,W,2.12,326.14,080923,,,A*73
$GPGGA,213342.500,4308.3138,N,07726.2643,W,1,03,27.89,153.5,M,-34.4,M,,*64
$GPRMC,213342.750,A,4308.3139,N,07726.2644,W,2.05,324.23,080923,,,A*7F
$GPGGA,213343.000,4308.3140,N,07726.2645,W,1,03,27.94,153.4,M,-34.4,M,,*64
$GPRMC,213343.250,A,4308.3143,N,07726.2647,W,2.25,324.08,080923,,,A*7E
$GPGGA,213343.500,4308.3145,N,07726.2649,W,1,04,3.10,153.4,M,-34.4,M,,*55
$GPRMC,213343.750,A,4308.3144,N,07726.2647,W,2.10,329.66,080923,,,A*7F
$GPGGA,213344.000,4308.3143,N,07726.2645,W,1,04,3.10,153.3,M,-34.4,M,,*5A
$GPRMC,213344.250,A,4308.3144,N,07726.2645,W,1.74,323.44,080923,,,A*74
$GPGGA,213344.500,4308.3143,N,07726.2644,W,1,04,3.10,153.4,M,-34.4,M,,*59
$GPRMC,213344.750,A,4308.3142,N,07726.2642,W,1.35,324.33,080923,,,A*72
$GPGGA,213345.000,4308.3143,N,07726.2642,W,1,04,3.10,153.5,M,-34.4,M,,*5A
$GPRMC,213345.250,A,4308.3144,N,07726.2642,W,1.50,340.03,080923,,,A*72
$GPGGA,213345.500,4308.3145,N,07726.2643,W,1,04,3.11,153.6,M,-34.4,M,,*5A
$GPRMC,213345.750,A,4308.3144,N,07726.2640,W,1.22,337.38,080923,,,A*78
$GPGGA,213346.000,4308.3143,N,07726.2639,W,1,04,3.10,153.6,M,-34.4,M,,*56
$GPRMC,213346.250,A,4308.3143,N,07726.2638,W,1.10,345.37,080923,,,A*7D
$GPGGA,213346.500,4308.3142,N,07726.2636,W,1,04,5.54,153.7,M,-34.4,M,,*5A
$GPRMC,213346.750,A,4308.3142,N,07726.2634,W,1.03,342.03,080923,,,A*77
$GPGGA,213347.000,4308.3142,N,07726.2634,W,1,04,3.11,153.9,M,-34.4,M,,*55
$GPRMC,213347.250,A,4308.3143,N,07726.2634,W,1.12,328.00,080923,,,A*7D
$GPGGA,213347.500,4308.3142,N,07726.2633,W,1,04,3.10,154.0,M,-34.4,M,,*58
$GPRMC,213347.750,A,4308.3141,N,07726.2631,W,1.12,328.25,080923,,,A*78
$GPGGA,213348.000,4308.3139,N,07726.2628,W,1,04,3.10,154.0,M,-34.4,M,,*54
$GPRMC,213348.250,A,4308.3138,N,07726.2626,W,0.98,345.57,080923,,,A*77
$GPGGA,213348.500,4308.3137,N,07726.2624,W,1,04,5.55,154.1,M,-34.4,M,,*55
$GPRMC,213348.750,A,4308.3136,N,07726.2623,W,0.91,343.35,080923,,,A*72
$GPGGA,213349.000,4308.3133,N,07726.2619,W,1,04,3.11,154.2,M,-34.4,M,,*5E
$GPRMC,213349.250,A,4308.3130,N,07726.2615,W,0.29,330.43,080923,,,A*73
$GPGGA,213349.500,4308.3128,N,07726.2613,W,1,04,3.11,154.2,M,-34.4,M,,*5B
$GPRMC,213349.750,A,4308.3130,N,07726.2614,W,0.37,325.04,080923,,,A*7F
$GPGGA,213350.000,4308.3133,N,07726.2617,W,1,03,28.78,154.2,M,-34.4,M,,*69
$GPRMC,213350.250,A,4308.3134,N,07726.2618,W,0.79,318.28,080923,,,A*70
$GPGGA,213350.500,4308.3134,N,07726.2618,W,1,03,28.83,154.2,M,-34.4,M,,*60
$GPRMC,213350.750,A,4308.3132,N,07726.2616,W,0.62,291.02,080923,,,A*7F
$GPGGA,213351.000,4308.3131,N,07726.2615,W,1,04,3.11,154.3,M,-34.4,M,,*58
$GPRMC,213351.250,A,4308.3126,N,07726.2609,W,0.29,300.46,080923,,,A*76
$GPGGA,213351.500,4308.3121,N,07726.2604,W,1,04,3.11,154.4,M,-34.4,M,,*5B
$GPRMC,213351.750,A,4308.3118,N,07726.2600,W,0.28,249.81,080923,,,A*71
$GPGGA,213352.000,4308.3116,N,07726.2598,W,1,04,3.11,154.6,M,-34.4,M,,*5D
$GPRMC,213352.250,A,4308.3112,N,07726.2593,W,0.15,322.11,080923,,,A*7F
$GPGGA,213352.500,4308.3107,N,07726.2587,W,1,04,3.11,154.7,M,-34.4,M,,*57
$GPRMC,213352.750,A,4308.3102,N,07726.2582,W,0.23,188.29,080923,,,A*77
$GPGGA,213353.000,4308.3100,N,07726.2580,W,1,04,3.11,154.8,M,-34.4,M,,*5C
$GPRMC,213353.250,A,4308.3097,N,07726.2577,W,0.65,141.76,080923,,,A*79
$GPGGA,213353.500,4308.3097,N,07726.2577,W,1,04,3.11,154.8,M,-34.4,M,,*5E
$GPRMC,213353.750,A,4308.3098,N,07726.2577,W,0.47,163.53,080923,,,A*74
$GPGGA,213354.000,4308.3098,N,07726.2577,W,1,04,3.11,154.8,M,-34.4,M,,*53
$GPRMC,213354.250,A,4308.3097,N,07726.2576,W,0.44,139.20,080923,,,A*70
$GPGGA,213354.500,4308.3095,N,07726.2575,W,1,04,3.11,154.8,M,-34.4,M,,*59
$GPRMC,213354.750,A,4308.3094,N,07726.2573,W,0.76,142.74,080923,,,A*7F
$GPGGA,213355.000,4308.3094,N,07726.2573,W,1,04,3.11,154.8,M,-34.4,M,,*5A
$GPRMC,213355.250,A,4308.3095,N,07726.2573,W,0.69,147.18,080923,,,A*7B
$GPGGA,213355.500,4308.3095,N,07726.2574,W,1,04,3.11,154.8,M,-34.4,M,,*59
$GPRMC,213355.750,A,4308.3095,N,07726.2573,W,0.66,144.73,080923,,,A*7F
$GPGGA,213356.000,4308.3095,N,07726.2574,W,1,04,3.11,154.8,M,-34.4,M,,*5F
$GPRMC,213356.250,A,4308.3154,N,07726.2631,W,0.28,318.75,080923,,,A*77
$GPGGA,213356.500,4308.3177,N,07726.2651,W,1,06,1.29,156.2,M,-34.4,M,,*50
$GPRMC,213356.750,A,4308.3192,N,07726.2664,W,0.19,347.81,080923,,,A*7B
$GPGGA,213357.000,4308.3200,N,07726.2671,W,1,06,1.38,157.1,M,-34.4,M,,*57
$GPRMC,213357.250,A,4308.3208,N,07726.2677,W,0.15,328.36,080923,,,A*74
$GPGGA,213357.500,4308.3213,N,07726.2680,W,1,06,1.29,157.7,M,-34.4,M,,*58
$GPRMC,213357.750,A,4308.3218,N,07726.2684,W,0.15,333.43,080923,,,A*74
$GPGGA,213358.000,4308.3221,N,07726.2686,W,1,06,1.29,158.3,M,-34.4,M,,*5E
$GPRMC,213358.250,A,4308.3224,N,07726.2688,W,0.03,161.17,080923,,,A*7E
$GPGGA,213358.500,4308.3226,N,07726.2689,W,1,06,1.29,158.7,M,-34.4,M,,*57
$GPRMC,213358.750,A,4308.3227,N,07726.2690,W,0.03,30.77,080923,,,A*42
$GPGGA,213359.000,4308.3228,N,07726.2690,W,1,06,1.29,159.2,M,-34.4,M,,*51
$GPRMC,213359.250,A,4308.3229,N,07726.2690,W,0.04,80.32,080923,,,A*45
$GPGGA,213359.500,4308.3229,N,07726.2689,W,1,06,1.29,159.6,M,-34.4,M,,*59
$GPRMC,213359.750,A,4308.3230,N,07726.2689,W,0.22,259.30,080923,,,A*70
$GPGGA,213400.000,4308.3230,N,07726.2690,W,1,06,1.29,159.9,M,-34.4,M,,*58
$GPRMC,213400.250,A,4308.3230,N,07726.2691,W,0.97,270.67,080923,,,A*70
$GPGGA,213400.500,4308.3230,N,07726.2692,W,1,06,1.29,160.0,M,-34.4,M,,*5C
$GPRMC,213400.750,A,4308.3230,N,07726.2694,W,2.22,274.40,080923,,,A*7D
$GPGGA,213401.000,4308.3229,N,07726.2695,W,1,06,1.29,160.1,M,-34.4,M,,*56
$GPRMC,213401.250,A,4308.3228,N,07726.2697,W,2.97,268.87,080923,,,A*7B
$GPGGA,213401.500,4308.3228,N,07726.2699,W,1,06,1.29,160.2,M,-34.4,M,,*5D
$GPRMC,213401.750,A,4308.3227,N,07726.2702,W,3.71,271.78,080923,,,A*7D
$GPGGA,213402.000,4308.3227,N,07726.2705,W,1,06,1.29,160.1,M,-34.4,M,,*53
$GPRMC,213402.250,A,4308.3226,N,07726.2709,W,4.45,272.61,080923,,,A*7A
$GPGGA,213402.500,4308.3225,N,07726.2714,W,1,07,1.30,159.9,M,-34.4,M,,*5F
$GPRMC,213402.750,A,4308.3224,N,07726.2718,W,5.13,275.89,080923,,,A*7E
$GPGGA,213403.000,4308.3223,N,07726.2723,W,1,07,1.30,159.6,M,-34.4,M,,*56
$GPRMC,213403.250,A,4308.3223,N,07726.2729,W,5.93,276.54,080923,,,A*74
$GPGGA,213403.500,4308.3222,N,07726.2734,W,1,07,1.30,159.4,M,-34.4,M,,*56
$GPRMC,213403.750,A,4308.3222,N,07726.2739,W,6.41,277.12,080923,,,A*7E
$GPGGA,213404.000,4308.3222,N,07726.2746,W,1,07,1.30,159.3,M,-34.4,M,,*56
$GPRMC,213404.250,A,4308.3222,N,07726.2752,W,7.02,277.62,080923,,,A*70
$GPGGA,213404.500,4308.3222,N,07726.2759,W,1,07,1.30,159.1,M,-34.4,M,,*5F
$GPRMC,213404.750,A,4308.3222,N,07726.2767,W,7.61,279.38,080923,,,A*77
$GPGGA,213405.000,4308.3222,N,07726.2774,W,1,07,1.30,159.0,M,-34.4,M,,*55
$GPRMC,213405.250,A,4308.3223,N,07726.2781,W,8.21,279.15,080923,,,A*7E
$GPGGA,213405.500,4308.3223,N,07726.2789,W,1,07,1.30,159.0,M,-34.4,M,,*53
$GPRMC,213405.750,A,4308.3224,N,07726.2797,W,8.69,280.53,080923,,,A*73
$GPGGA,213406.000,4308.3224,N,07726.2805,W,1,07,1.30,159.0,M,-34.4,M,,*59
$GPRMC,213406.250,A,4308.3225,N,07726.2814,W,8.94,279.80,080923,,,A*7A
$GPGGA,213406.500,4308.3225,N,07726.2821,W,1,07,1.30,159.0,M,-34.4,M,,*5B
$GPRMC,213406.750,A,4308.3226,N,07726.2830,W,9.40,279.42,080923,,,A*7C
$GPGGA,213407.000,4308.3228,N,07726.2839,W,1,07,1.30,159.1,M,-34.4,M,,*5A
$GPRMC,213407.250,A,4308.3229,N,07726.2849,W,10.12,282.37,080923,,,A*40
$GPGGA,213407.500,4308.3230,N,07726.2858,W,1,07,1.30,159.2,M,-34.4,M,,*52
$GPRMC,213407.750,A,4308.3232,N,07726.2867,W,10.44,283.86,080923,,,A*4B
$GPGGA,213408.000,4308.3234,N,07726.2877,W,1,07,1.30,159.3,M,-34.4,M,,*50
$GPRMC,213408.250,A,4308.3237,N,07726.2888,W,11.23,288.75,080923,,,A*42
$GPGGA,213408.500,4308.3241,N,07726.2899,W,1,07,1.21,159.5,M,-34.4,M,,*51
$GPRMC,213408.750,A,4308.3244,N,07726.2910,W,12.29,292.91,080923,,,A*4B
$GPGGA,213409.000,4308.3249,N,07726.2921,W,1,07,1.21,159.6,M,-34.4,M,,*5C
$GPRMC,213409.250,A,4308.3252,N,07726.2932,W,12.84,294.87,080923,,,A*4E
$GPGGA,213409.500,4308.3255,N,07726.2944,W,1,07,1.21,159.6,M,-34.4,M,,*57
$GPRMC,213409.750,A,4308.3258,N,07726.2955,W,13.17,295.21,080923,,,A*46
$GPGGA,213410.000,4308.3261,N,07726.2966,W,1,07,1.30,159.6,M,-34.4,M,,*5D
$GPRMC,213410.250,A,4308.3265,N,07726.2978,W,13.68,296.21,080923,,,A*41
$GPGGA,213410.500,4308.3269,N,07726.2990,W,1,07,1.21,159.6,M,-34.4,M,,*59
$GPRMC,213410.750,A,4308.3273,N,07726.3002,W,14.18,298.29,080923,,,A*40
$GPGGA,213411.000,4308.3277,N,07726.3014,W,1,07,1.30,159.6,M,-34.4,M,,*56
$GPRMC,213411.250,A,4308.3282,N,07726.3026,W,14.65,300.00,080923,,,A*4D
$GPGGA,213411.500,4308.3287,N,07726.3038,W,1,07,1.21,159.6,M,-34.4,M,,*52
$GPRMC,213411.750,A,4308.3291,N,07726.3050,W,14.87,300.13,080923,,,A*45
$GPGGA,213412.000,4308.3296,N,07726.3063,W,1,07,1.30,159.7,M,-34.4,M,,*5B
$GPRMC,213412.250,A,4308.3301,N,07726.3076,W,15.29,300.26,080923,,,A*4C
$GPGGA,213412.500,4308.3307,N,07726.3089,W,1,07,1.21,159.7,M,-34.4,M,,*53
$GPRMC,213412.750,A,4308.3312,N,07726.3102,W,15.82,300.39,080923,,,A*46
$GPGGA,213413.000,4308.3318,N,07726.3116,W,1,07,1.30,159.7,M,-34.4,M,,*5E
$GPRMC,213413.250,A,4308.3323,N,07726.3129,W,16.16,300.52,080923,,,A*4A
$GPGGA,213413.500,4308.3329,N,07726.3142,W,1,07,1.21,159.8,M,-34.4,M,,*57
$GPRMC,213413.750,A,4308.3334,N,07726.3156,W,16.45,301.20,080923,,,A*43
$GPGGA,213414.000,4308.3341,N,07726.3170,W,1,07,1.30,159.8,M,-34.4,M,,*5A
$GPRMC,213414.250,A,4308.3347,N,07726.3184,W,17.14,301.46,080923,,,A*4F
$GPGGA,213414.500,4308.3353,N,07726.3198,W,1,07,1.21,159.8,M,-34.4,M,,*5A
$GPRMC,213414.750,A,4308.3359,N,07726.3212,W,17.59,301.92,080923,,,A*49
$GPGGA,213415.000,4308.3366,N,07726.3227,W,1,07,1.30,159.9,M,-34.4,M,,*5E
$GPRMC,213415.250,A,4308.3372,N,07726.3241,W,17.70,301.82,080923,,,A*48
$GPGGA,213415.500,4308.3378,N,07726.3255,W,1,07,1.21,159.9,M,-34.4,M,,*51
$GPRMC,213415.750,A,4308.3385,N,07726.3270,W,17.81,302.05,080923,,,A*45
$GPGGA,213416.000,4308.3392,N,07726.3285,W,1,07,1.30,160.0,M,-34.4,M,,*5D
$GPRMC,213416.250,A,4308.3399,N,07726.3300,W,18.20,303.01,080923,,,A*49
$GPGGA,213416.500,4308.3406,N,07726.3315,W,1,07,1.21,160.0,M,-34.4,M,,*5A
$GPRMC,213416.750,A,4308.3413,N,07726.3330,W,18.61,303.20,080923,,,A*4C
$GPGGA,213417.000,4308.3421,N,07726.3345,W,1,07,1.30,160.0,M,-34.4,M,,*5E
$GPRMC,213417.250,A,4308.3428,N,07726.3360,W,18.84,303.53,080923,,,A*4A
$GPGGA,213417.500,4308.3436,N,07726.3376,W,1,07,1.21,160.0,M,-34.4,M,,*5D
$GPRMC,213417.750,A,4308.3443,N,07726.3391,W,19.17,303.74,080923,,,A*42
$GPGGA,213418.000,4308.3451,N,07726.3407,W,1,07,1.30,160.0,M,-34.4,M,,*57
$GPRMC,213418.250,A,4308.3459,N,07726.3422,W,19.42,304.19,080923,,,A*40
$GPGGA,213418.500,4308.3466,N,07726.3438,W,1,07,1.21,160.0,M,-34.4,M,,*5A
$GPRMC,213418.750,A,4308.3474,N,07726.3453,W,19.48,303.89,080923,,,A*48
$GPGGA,213419.000,4308.3481,N,07726.3469,W,1,07,1.30,160.0,M,-34.4,M,,*53
$GPRMC,213419.250,A,4308.3488,N,07726.3485,W,19.56,303.47,080923,,,A*49
$GPGGA,213419.500,4308.3497,N,07726.3501,W,1,07,1.21,160.0,M,-34.4,M,,*5E
$GPRMC,213419.750,A,4308.3505,N,07726.3517,W,19.79,305.12,080923,,,A*49
$GPGGA,213420.000,4308.3514,N,07726.3533,W,1,07,1.30,160.0,M,-34.4,M,,*5A
$GPRMC,213420.250,A,4308.3522,N,07726.3548,W,19.86,305.96,080923,,,A*45
$GPGGA,213420.500,4308.3530,N,07726.3564,W,1,07,1.21,160.0,M,-34.4,M,,*5B
$GPRMC,213420.750,A,4308.3540,N,07726.3580,W,19.90,308.14,080923,,,A*40
$GPGGA,213421.000,4308.3549,N,07726.3595,W,1,07,1.21,160.1,M,-34.4,M,,*5E
$GPRMC,213421.250,A,4308.3558,N,07726.3609,W,19.93,310.15,080923,,,A*44
$GPGGA,213421.500,4308.3568,N,07726.3624,W,1,07,1.21,160.1,M,-34.4,M,,*51
$GPRMC,213421.750,A,4308.3577,N,07726.3638,W,19.72,312.72,080923,,,A*42
$GPGGA,213422.000,4308.3587,N,07726.3651,W,1,07,1.21,160.1,M,-34.4,M,,*54
$GPRMC,213422.250,A,4308.3596,N,07726.3663,W,19.19,315.86,080923,,,A*44
$GPGGA,213422.500,4308.3607,N,07726.3674,W,1,07,1.22,160.2,M,-34.4,M,,*5D
$GPRMC,213422.750,A,4308.3617,N,07726.3686,W,19.13,319.62,080923,,,A*4C
$GPGGA,213423.000,4308.3628,N,07726.3697,W,1,07,1.30,160.3,M,-34.4,M,,*5B
$GPRMC,213423.250,A,4308.3640,N,07726.3708,W,19.08,323.51,080923,,,A*4E
$GPGGA,213423.500,4308.3652,N,07726.3718,W,1,07,1.21,160.5,M,-34.4,M,,*53
$GPRMC,213423.750,A,4308.3663,N,07726.3728,W,19.15,326.82,080923,,,A*4F
$GPGGA,213424.000,4308.3676,N,07726.3737,W,1,07,1.30,160.7,M,-34.4,M,,*58
$GPRMC,213424.250,A,4308.3688,N,07726.3746,W,19.42,331.84,080923,,,A*42
$GPGGA,213424.500,4308.3701,N,07726.3754,W,1,07,1.21,160.9,M,-34.4,M,,*57
$GPRMC,213424.750,A,4308.3714,N,07726.3763,W,20.00,334.81,080923,,,A*48
$GPGGA,213425.000,4308.3727,N,07726.3770,W,1,07,1.21,161.0,M,-34.4,M,,*59
$GPRMC,213425.250,A,4308.3741,N,07726.3777,W,20.31,338.46,080923,,,A*4C
$GPGGA,213425.500,4308.3754,N,07726.3783,W,1,07,1.21,161.3,M,-34.4,M,,*57
$GPRMC,213425.750,A,4308.3768,N,07726.3788,W,20.52,342.85,080923,,,A*45
$GPGGA,213426.000,4308.3783,N,07726.3793,W,1,07,1.30,161.4,M,-34.4,M,,*5D
$GPRMC,213426.250,A,4308.3797,N,07726.3797,W,20.57,346.17,080923,,,A*47
$GPGGA,213426.500,4308.3811,N,07726.3801,W,1,07,1.30,161.7,M,-34.4,M,,*5B
$GPRMC,213426.750,A,4308.3826,N,07726.3804,W,20.82,350.43,080923,,,A*4C
$GPGGA,213427.000,4308.3841,N,07726.3806,W,1,07,1.30,162.0,M,-34.4,M,,*59
$GPRMC,213427.250,A,4308.3856,N,07726.3808,W,21.21,353.14,080923,,,A*4A
$GPGGA,213427.500,4308.3871,N,07726.3809,W,1,07,1.29,162.3,M,-34.4,M,,*5B
$GPRMC,213427.750,A,4308.3886,N,07726.3809,W,21.37,356.49,080923,,,A*49
$GPGGA,213428.000,4308.3902,N,07726.3809,W,1,07,1.30,162.5,M,-34.4,M,,*5A
$GPRMC,213428.250,A,4308.3917,N,07726.3809,W,21.80,359.26,080923,,,A*40
$GPGGA,213428.500,4308.3933,N,07726.3808,W,1,07,1.30,162.6,M,-34.4,M,,*5F
$GPRMC,213428.750,A,4308.3949,N,07726.3807,W,22.07,1.83,080923,,,A*4D
$GPGGA,213429.000,4308.3964,N,07726.3804,W,1,07,1.30,162.7,M,-34.4,M,,*54
$GPRMC,213429.250,A,4308.3980,N,07726.3801,W,22.42,5.86,080923,,,A*4A
$GPGGA,213429.500,4308.3995,N,07726.3798,W,1,07,1.29,162.9,M,-34.4,M,,*53
$GPRMC,213429.750,A,4308.4010,N,07726.3794,W,22.14,7.54,080923,,,A*45
$GPGGA,213430.000,4308.4026,N,07726.3791,W,1,07,1.29,163.1,M,-34.4,M,,*58
$GPRMC,213430.250,A,4308.4041,N,07726.3787,W,22.01,8.97,080923,,,A*4A
$GPGGA,213430.500,4308.4057,N,07726.3783,W,1,07,1.30,163.3,M,-34.4,M,,*52
$GPRMC,213430.750,A,4308.4073,N,07726.3780,W,22.04,9.82,080923,,,A*49
$GPGGA,213431.000,4308.4089,N,07726.3776,W,1,07,1.30,163.4,M,-34.4,M,,*58
$GPRMC,213431.250,A,4308.4105,N,07726.3772,W,22.34,10.13,080923,,,A*73
$GPGGA,213431.500,4308.4121,N,07726.3768,W,1,07,1.30,163.6,M,-34.4,M,,*53
$GPRMC,213431.750,A,4308.4137,N,07726.3765,W,22.35,9.27,080923,,,A*4F
$GPGGA,213432.000,4308.4152,N,07726.3761,W,1,07,1.30,163.8,M,-34.4,M,,*56
$GPRMC,213432.250,A,4308.4168,N,07726.3758,W,22.11,8.81,080923,,,A*46
$GPGGA,213432.500,4308.4183,N,07726.3754,W,1,07,1.30,163.9,M,-34.4,M,,*58
$GPRMC,213432.750,A,4308.4199,N,07726.3750,W,22.01,8.63,080923,,,A*48
$GPGGA,213433.000,4308.4214,N,07726.3746,W,1,07,1.30,164.1,M,-34.4,M,,*5D
$GPRMC,213433.250,A,4308.4229,N,07726.3743,W,21.59,8.44,080923,,,A*4D
$GPGGA,213433.500,4308.4244,N,07726.3739,W,1,07,1.29,164.2,M,-34.4,M,,*5E
$GPRMC,213433.750,A,4308.4258,N,07726.3736,W,20.59,8.94,080923,,,A*40
$GPGGA,213434.000,4308.4272,N,07726.3733,W,1,07,1.30,164.3,M,-34.4,M,,*5A
$GPRMC,213434.250,A,4308.4286,N,07726.3729,W,20.02,9.09,080923,,,A*44
$GPGGA,213434.500,4308.4300,N,07726.3726,W,1,07,1.30,164.4,M,-34.4,M,,*58
$GPRMC,213434.750,A,4308.4314,N,07726.3724,W,19.58,8.93,080923,,,A*41
$GPGGA,213435.000,4308.4328,N,07726.3721,W,1,07,1.30,164.6,M,-34.4,M,,*53
$GPRMC,213435.250,A,4308.4342,N,07726.3718,W,19.11,8.45,080923,,,A*4F
$GPGGA,213435.500,4308.4355,N,07726.3715,W,1,07,1.29,164.7,M,-34.4,M,,*52
$GPRMC,213435.750,A,4308.4368,N,07726.3713,W,18.54,8.39,080923,,,A*42
$GPGGA,213436.000,4308.4381,N,07726.3710,W,1,07,1.29,165.0,M,-34.4,M,,*5E
$GPRMC,213436.250,A,4308.4394,N,07726.3708,W,18.20,8.59,080923,,,A*48
$GPGGA,213436.500,4308.4407,N,07726.3705,W,1,07,1.29,165.1,M,-34.4,M,,*57
$GPRMC,213436.750,A,4308.4419,N,07726.3703,W,17.90,7.55,080923,,,A*43
$GPGGA,213437.000,4308.4431,N,07726.3700,W,1,07,1.29,165.3,M,-34.4,M,,*51
$GPRMC,213437.250,A,4308.4443,N,07726.3698,W,17.34,8.65,080923,,,A*49
$GPGGA,213437.500,4308.4455,N,07726.3695,W,1,07,1.29,165.4,M,-34.4,M,,*5C
$GPRMC,213437.750,A,4308.4466,N,07726.3692,W,16.93,8.71,080923,,,A*48
$GPGGA,213438.000,4308.4478,N,07726.3690,W,1,07,1.30,165.6,M,-34.4,M,,*56
$GPRMC,213438.250,A,4308.4489,N,07726.3687,W,16.13,8.65,080923,,,A*4A
$GPGGA,213438.500,4308.4500,N,07726.3685,W,1,07,1.29,165.8,M,-34.4,M,,*5F
$GPRMC,213438.750,A,4308.4510,N,07726.3682,W,14.78,6.90,080923,,,A*40
$GPGGA,213439.000,4308.4519,N,07726.3679,W,1,07,1.29,165.9,M,-34.4,M,,*51
$GPRMC,213439.250,A,4308.4528,N,07726.3677,W,12.80,5.76,080923,,,A*4F
$GPGGA,213439.500,4308.4536,N,07726.3675,W,1,07,1.29,166.0,M,-34.4,M,,*5F
$GPRMC,213439.750,A,4308.4543,N,07726.3673,W,10.35,4.13,080923,,,A*4D
$GPGGA,213440.000,4308.4547,N,07726.3669,W,1,07,1.29,166.1,M,-34.4,M,,*5E
$GPRMC,213440.250,A,4308.4552,N,07726.3668,W,7.35,9.38,080923,,,A*7E
$GPGGA,213440.500,4308.4557,N,07726.3667,W,1,07,1.29,166.2,M,-34.4,M,,*57
$GPRMC,213440.750,A,4308.4561,N,07726.3666,W,5.34,10.19,080923,,,A*4D
$GPGGA,213441.000,4308.4565,N,07726.3665,W,1,07,1.29,166.3,M,-34.4,M,,*51
$GPRMC,213441.250,A,4308.4567,N,07726.3664,W,3.83,9.38,080923,,,A*7C
$GPGGA,213441.500,4308.4570,N,07726.3664,W,1,07,1.29,166.3,M,-34.4,M,,*51
$GPRMC,213441.750,A,4308.4572,N,07726.3663,W,3.47,5.22,080923,,,A*75
$GPGGA,213442.000,4308.4575,N,07726.3663,W,1,07,1.29,166.2,M,-34.4,M,,*54
$GPRMC,213442.250,A,4308.4577,N,07726.3662,W,3.19,4.43,080923,,,A*7A
$GPGGA,213442.500,4308.4579,N,07726.3662,W,1,07,1.29,166.2,M,-34.4,M,,*5C
$GPRMC,213442.750,A,4308.4582,N,07726.3661,W,3.35,3.37,080923,,,A*7C
$GPGGA,213443.000,4308.4585,N,07726.3661,W,1,07,1.29,166.1,M,-34.4,M,,*5B
$GPRMC,213443.250,A,4308.4588,N,07726.3660,W,4.15,5.44,080923,,,A*74
$GPGGA,213443.500,4308.4591,N,07726.3660,W,1,07,1.29,166.0,M,-34.4,M,,*5B
$GPRMC,213443.750,A,4308.4595,N,07726.3660,W,5.03,358.12,080923,,,A*73
$GPGGA,213444.000,4308.4601,N,07726.3659,W,1,07,1.29,166.0,M,-34.4,M,,*59
$GPRMC,213444.250,A,4308.4605,N,07726.3659,W,5.50,349.49,080923,,,A*79
$GPGGA,213444.500,4308.4609,N,07726.3659,W,1,07,1.29,166.1,M,-34.4,M,,*55
$GPRMC,213444.750,A,4308.4613,N,07726.3660,W,5.54,341.13,080923,,,A*72
$GPGGA,213445.000,4308.4617,N,07726.3661,W,1,07,1.29,166.0,M,-34.4,M,,*54
$GPRMC,213445.250,A,4308.4621,N,07726.3663,W,5.76,334.35,080923,,,A*72
$GPGGA,213445.500,4308.4625,N,07726.3666,W,1,07,1.21,166.0,M,-34.4,M,,*5F
$GPRMC,213445.750,A,4308.4629,N,07726.3670,W,6.70,320.76,080923,,,A*7A
$GPGGA,213446.000,4308.4634,N,07726.3675,W,1,07,1.29,165.9,M,-34.4,M,,*59
$GPRMC,213446.250,A,4308.4639,N,07726.3682,W,8.59,310.50,080923,,,A*72
$GPGGA,213446.500,4308.4645,N,07726.3690,W,1,07,1.21,165.9,M,-34.4,M,,*59
$GPRMC,213446.750,A,4308.4649,N,07726.3698,W,9.67,305.87,080923,,,A*79
$GPGGA,213447.000,4308.4653,N,07726.3707,W,1,07,1.21,165.8,M,-34.4,M,,*54
$GPRMC,213447.250,A,4308.4656,N,07726.3719,W,11.64,296.32,080923,,,A*44
$GPGGA,213447.500,4308.4659,N,07726.3732,W,1,07,1.21,165.7,M,-34.4,M,,*52
$GPRMC,213447.750,A,4308.4662,N,07726.3744,W,12.95,289.71,080923,,,A*4A
$GPGGA,213448.000,4308.4664,N,07726.3758,W,1,07,1.21,165.6,M,-34.4,M,,*5B
$GPRMC,213448.250,A,4308.4666,N,07726.3772,W,14.59,283.09,080923,,,A*42
$GPGGA,213448.500,4308.4667,N,07726.3787,W,1,07,1.21,165.5,M,-34.4,M,,*5C
$GPRMC,213448.750,A,4308.4668,N,07726.3803,W,16.06,278.19,080923,,,A*4D
$GPGGA,213449.000,4308.4669,N,07726.3820,W,1,07,1.29,165.3,M,-34.4,M,,*5A
$GPRMC,213449.250,A,4308.4670,N,07726.3837,W,17.34,275.34,080923,,,A*45
$GPGGA,213449.500,4308.4670,N,07726.3855,W,1,07,1.21,165.2,M,-34.4,M,,*5C
$GPRMC,213449.750,A,4308.4671,N,07726.3873,W,18.15,274.19,080923,,,A*43
$GPGGA,213450.000,4308.4671,N,07726.3891,W,1,07,1.29,165.1,M,-34.4,M,,*53
$GPRMC,213450.250,A,4308.4671,N,07726.3910,W,18.97,272.61,080923,,,A*49
$GPGGA,213450.500,4308.4672,N,07726.3930,W,1,07,1.21,165.0,M,-34.4,M,,*56
$GPRMC,213450.750,A,4308.4673,N,07726.3949,W,19.44,272.95,080923,,,A*46
$GPGGA,213451.000,4308.4673,N,07726.3968,W,1,07,1.21,164.9,M,-34.4,M,,*56
$GPRMC,213451.250,A,4308.4674,N,07726.3987,W,19.52,273.34,080923,,,A*4A
$GPGGA,213451.500,4308.4674,N,07726.4006,W,1,07,1.21,164.8,M,-34.4,M,,*53
$GPRMC,213451.750,A,4308.4676,N,07726.4025,W,19.50,273.91,080923,,,A*46
$GPGGA,213452.000,4308.4677,N,07726.4044,W,1,07,1.21,164.7,M,-34.4,M,,*5F
$GPRMC,213452.250,A,4308.4678,N,07726.4063,W,19.54,274.84,080923,,,A*4B
$GPGGA,213452.500,4308.4680,N,07726.4082,W,1,07,1.21,164.6,M,-34.4,M,,*59
$GPRMC,213452.750,A,4308.4681,N,07726.4100,W,19.59,276.21,080923,,,A*4C
$GPGGA,213453.000,4308.4683,N,07726.4118,W,1,07,1.29,164.5,M,-34.4,M,,*57
$GPRMC,213453.250,A,4308.4684,N,07726.4137,W,19.67,276.85,080923,,,A*4A
$GPGGA,213453.500,4308.4685,N,07726.4156,W,1,07,1.21,164.3,M,-34.4,M,,*50
$GPRMC,213453.750,A,4308.4686,N,07726.4174,W,19.75,276.73,080923,,,A*40
$GPGGA,213454.000,4308.4687,N,07726.4192,W,1,07,1.29,164.2,M,-34.4,M,,*51
$GPRMC,213454.250,A,4308.4688,N,07726.4210,W,19.28,277.30,080923,,,A*43
$GPGGA,213454.500,4308.4689,N,07726.4227,W,1,07,1.21,164.1,M,-34.4,M,,*5C
$GPRMC,213454.750,A,4308.4690,N,07726.4244,W,18.50,278.32,080923,,,A*4D
$GPGGA,213455.000,4308.4691,N,07726.4260,W,1,07,1.29,164.1,M,-34.4,M,,*5A
$GPRMC,213455.250,A,4308.4692,N,07726.4275,W,17.22,279.51,080923,,,A*47
$GPGGA,213455.500,4308.4694,N,07726.4289,W,1,07,1.21,163.9,M,-34.4,M,,*5A
$GPRMC,213455.750,A,4308.4696,N,07726.4304,W,16.02,281.36,080923,,,A*44
$GPGGA,213456.000,4308.4697,N,07726.4317,W,1,07,1.29,163.8,M,-34.4,M,,*50
$GPRMC,213456.250,A,4308.4698,N,07726.4329,W,14.33,282.97,080923,,,A*4B
$GPGGA,213456.500,4308.4699,N,07726.4340,W,1,08,1.15,163.7,M,-34.4,M,,*56
$GPRMC,213456.750,A,4308.4698,N,07726.4351,W,11.97,283.55,080923,,,A*45
$GPGGA,213457.000,4308.4698,N,07726.4361,W,1,08,1.23,163.6,M,-34.4,M,,*54
$GPRMC,213457.250,A,4308.4699,N,07726.4370,W,9.76,287.02,080923,,,A*73
$GPGGA,213457.500,4308.4700,N,07726.4378,W,1,08,1.15,163.6,M,-34.4,M,,*5C
$GPRMC,213457.750,A,4308.4702,N,07726.4385,W,7.82,289.42,080923,,,A*70
$GPGGA,213458.000,4308.4703,N,07726.4390,W,1,08,1.23,163.5,M,-34.4,M,,*55
$GPRMC,213458.250,A,4308.4704,N,07726.4396,W,6.02,294.19,080923,,,A*75
$GPGGA,213458.500,4308.4706,N,07726.4400,W,1,08,1.15,163.4,M,-34.4,M,,*5F
$GPRMC,213458.750,A,4308.4707,N,07726.4404,W,4.71,296.99,080923,,,A*73
$GPGGA,213459.000,4308.4708,N,07726.4408,W,1,08,1.23,163.4,M,-34.4,M,,*58
$GPRMC,213459.250,A,4308.4708,N,07726.4410,W,3.20,304.56,080923,,,A*77
$GPGGA,213459.500,4308.4709,N,07726.4412,W,1,08,1.15,163.4,M,-34.4,M,,*52
$GPRMC,213459.750,A,4308.4709,N,07726.4414,W,2.29,304.56,080923,,,A*7F
$GPGGA,213500.000,4308.4709,N,07726.4415,W,1,08,1.15,163.3,M,-34.4,M,,*5A
$GPRMC,213500.250,A,4308.4709,N,07726.4416,W,1.51,304.56,080923,,,A*79
$GPGGA,213500.500,4308.4708,N,07726.4417,W,1,08,1.15,163.3,M,-34.4,M,,*5C
$GPRMC,213500.750,A,4308.4708,N,07726.4417,W,1.01,304.56,080923,,,A*79
$GPGGA,213501.000,4308.4706,N,07726.4416,W,1,08,1.15,163.2,M,-34.4,M,,*56
$GPRMC,213501.250,A,4308.4704,N,07726.4416,W,0.09,304.56,080923,,,A*79
$GPGGA,213501.500,4308.4704,N,07726.4416,W,1,08,1.23,163.2,M,-34.4,M,,*54
$GPRMC,213501.750,A,4308.4703,N,07726.4416,W,0.05,304.56,080923,,,A*77
$GPGGA,213502.000,4308.4702,N,07726.4416,W,1,08,1.23,163.3,M,-34.4,M,,*55
$GPRMC,213502.250,A,4308.4702,N,07726.4416,W,0.05,304.56,080923,,,A*70
$GPGGA,213502.500,4308.4701,N,07726.4417,W,1,08,1.23,163.4,M,-34.4,M,,*55
$GPRMC,213502.750,A,4308.4701,N,07726.4417,W,0.04,304.56,080923,,,A*76
$GPGGA,213503.000,4308.4700,N,07726.4417,W,1,08,1.15,163.4,M,-34.4,M,,*55
$GPRMC,213503.250,A,4308.4699,N,07726.4417,W,0.03,304.56,080923,,,A*75
$GPGGA,213503.500,4308.4699,N,07726.4417,W,1,08,1.15,163.4,M,-34.4,M,,*51
$GPRMC,213503.750,A,4308.4699,N,07726.4417,W,0.01,304.56,080923,,,A*72
$GPGGA,213504.000,4308.4699,N,07726.4417,W,1,08,1.15,163.4,M,-34.4,M,,*53
$GPRMC,213504.250,A,4308.4699,N,07726.4417,W,0.03,304.56,080923,,,A*72
$GPGGA,213504.500,4308.4699,N,07726.4417,W,1,08,1.23,163.4,M,-34.4,M,,*53
$GPRMC,213504.750,A,4308.4699,N,07726.4417,W,0.05,304.56,080923,,,A*71
$GPGGA,213505.000,4308.4699,N,07726.4417,W,1,08,1.15,163.4,M,-34.4,M,,*52
$GPRMC,213505.250,A,4308.4699,N,07726.4417,W,0.03,304.56,080923,,,A*73
$GPGGA,213505.500,4308.4699,N,07726.4417,W,1,08,1.23,163.4,M,-34.4,M,,*52
$GPRMC,213505.750,A,4308.4699,N,07726.4417,W,0.02,304.56,080923,,,A*77
$GPGGA,213506.000,4308.4699,N,07726.4417,W,1,08,1.15,163.4,M,-34.4,M,,*51
$GPRMC,213506.250,A,4308.4699,N,07726.4417,W,0.04,304.56,080923,,,A*77
$GPGGA,213506.500,4308.4699,N,07726.4417,W,1,08,1.15,163.4,M,-34.4,M,,*54
$GPRMC,213506.750,A,4308.4699,N,07726.4417,W,0.01,304.56,080923,,,A*77
$GPGGA,213507.000,4308.4699,N,07726.4417,W,1,08,1.15,163.4,M,-34.4,M,,*50
$GPRMC,213507.250,A,4308.4699,N,07726.4417,W,0.02,304.56,080923,,,A*70
$GPGGA,213507.500,4308.4699,N,07726.4417,W,1,08,1.15,163.4,M,-34.4,M,,*55
$GPRMC,213507.750,A,4308.4699,N,07726.4417,W,0.49,304.56,080923,,,A*7A
$GPGGA,213508.000,4308.4699,N,07726.4418,W,1,08,1.15,163.4,M,-34.4,M,,*50
$GPRMC,213508.250,A,4308.4699,N,07726.4419,W,2.43,304.56,080923,,,A*76
$GPGGA,213508.500,4308.4700,N,07726.4421,W,1,08,1.15,163.4,M,-34.4,M,,*5E
$GPRMC,213508.750,A,4308.4700,N,07726.4425,W,3.91,278.15,080923,,,A*7E
$GPGGA,213509.000,4308.4700,N,07726.4428,W,1,08,1.23,163.5,M,-34.4,M,,*57
$GPRMC,213509.250,A,4308.4701,N,07726.4432,W,5.40,277.72,080923,,,A*79
$GPGGA,213509.500,4308.4701,N,07726.4437,W,1,08,1.23,163.5,M,-34.4,M,,*5D
$GPRMC,213509.750,A,4308.4701,N,07726.4444,W,6.68,278.59,080923,,,A*72
$GPGGA,213510.000,4308.4703,N,07726.4450,W,1,08,1.23,163.5,M,-34.4,M,,*53
$GPRMC,213510.250,A,4308.4704,N,07726.4457,W,7.85,277.18,080923,,,A*70
$GPGGA,213510.500,4308.4705,N,07726.4466,W,1,08,1.23,163.5,M,-34.4,M,,*55
$GPRMC,213510.750,A,4308.4706,N,07726.4474,W,8.83,278.14,080923,,,A*7C
$GPGGA,213511.000,4308.4708,N,07726.4482,W,1,08,1.23,163.6,M,-34.4,M,,*55
$GPRMC,213511.250,A,4308.4709,N,07726.4491,W,9.92,278.33,080923,,,A*78
$GPGGA,213511.500,4308.4710,N,07726.4501,W,1,08,1.23,163.7,M,-34.4,M,,*52
$GPRMC,213511.750,A,4308.4711,N,07726.4511,W,10.47,278.13,080923,,,A*4F
$GPGGA,213512.000,4308.4711,N,07726.4521,W,1,08,1.23,163.7,M,-34.4,M,,*57
$GPRMC,213512.250,A,4308.4712,N,07726.4531,W,10.88,276.86,080923,,,A*49
$GPGGA,213512.500,4308.4713,N,07726.4542,W,1,08,1.15,163.8,M,-34.4,M,,*5F
$GPRMC,213512.750,A,4308.4713,N,07726.4553,W,11.62,274.72,080923,,,A*45
$GPGGA,213513.000,4308.4713,N,07726.4565,W,1,08,1.23,163.9,M,-34.4,M,,*5A
$GPRMC,213513.250,A,4308.4714,N,07726.4577,W,12.69,273.96,080923,,,A*45
$GPGGA,213513.500,4308.4715,N,07726.4590,W,1,08,1.15,164.0,M,-34.4,M,,*58
$GPRMC,213513.750,A,4308.4716,N,07726.4604,W,13.79,274.44,080923,,,A*4D
$GPGGA,213514.000,4308.4717,N,07726.4619,W,1,08,1.23,164.1,M,-34.4,M,,*5E
$GPRMC,213514.250,A,4308.4719,N,07726.4634,W,15.25,275.50,080923,,,A*48
$GPGGA,213514.500,4308.4721,N,07726.4649,W,1,08,1.15,164.1,M,-34.4,M,,*5E
$GPRMC,213514.750,A,4308.4723,N,07726.4665,W,16.61,275.72,080923,,,A*43
$GPGGA,213515.000,4308.4726,N,07726.4681,W,1,08,1.23,164.0,M,-34.4,M,,*5D
$GPRMC,213515.250,A,4308.4728,N,07726.4698,W,17.80,276.44,080923,,,A*46
$GPGGA,213515.500,4308.4731,N,07726.4715,W,1,08,1.15,164.0,M,-34.4,M,,*57
$GPRMC,213515.750,A,4308.4733,N,07726.4733,W,19.31,275.87,080923,,,A*41
$GPGGA,213516.000,4308.4736,N,07726.4753,W,1,08,1.23,163.9,M,-34.4,M,,*5F
$GPRMC,213516.250,A,4308.4738,N,07726.4772,W,20.76,275.69,080923,,,A*40
$GPGGA,213516.500,4308.4741,N,07726.4792,W,1,08,1.15,163.8,M,-34.4,M,,*53
$GPRMC,213516.750,A,4308.4742,N,07726.4813,W,21.38,275.48,080923,,,A*48
$GPGGA,213517.000,4308.4744,N,07726.4833,W,1,08,1.23,163.9,M,-34.4,M,,*52
$GPRMC,213517.250,A,4308.4746,N,07726.4854,W,21.69,275.00,080923,,,A*43
$GPGGA,213517.500,4308.4748,N,07726.4876,W,1,08,1.23,163.9,M,-34.4,M,,*5A
$GPRMC,213517.750,A,4308.4750,N,07726.4897,W,22.20,275.27,080923,,,A*45
$GPGGA,213518.000,4308.4752,N,07726.4919,W,1,08,1.23,163.9,M,-34.4,M,,*53
$GPRMC,213518.250,A,4308.4753,N,07726.4941,W,22.92,274.89,080923,,,A*4A
$GPGGA,213518.500,4308.4755,N,07726.4964,W,1,08,1.23,164.0,M,-34.4,M,,*55
$GPRMC,213518.750,A,4308.4757,N,07726.4987,W,23.46,274.98,080923,,,A*49
$GPGGA,213519.000,4308.4759,N,07726.5010,W,1,08,1.23,164.1,M,-34.4,M,,*57
$GPRMC,213519.250,A,4308.4760,N,07726.5033,W,24.01,274.80,080923,,,A*43
$GPGGA,213519.500,4308.4762,N,07726.5057,W,1,08,1.15,164.2,M,-34.4,M,,*5F
$GPRMC,213519.750,A,4308.4764,N,07726.5080,W,24.24,275.23,080923,,,A*45
$GPGGA,213520.000,4308.4766,N,07726.5105,W,1,08,1.23,164.2,M,-34.4,M,,*57
$GPRMC,213520.250,A,4308.4768,N,07726.5129,W,24.48,275.11,080923,,,A*4F
$GPGGA,213520.500,4308.4770,N,07726.5153,W,1,08,1.15,164.2,M,-34.4,M,,*53
$GPRMC,213520.750,A,4308.4771,N,07726.5178,W,24.88,275.06,080923,,,A*4C
$GPGGA,213521.000,4308.4773,N,07726.5202,W,1,08,1.23,164.1,M,-34.4,M,,*55
$GPRMC,213521.250,A,4308.4775,N,07726.5227,W,25.29,274.66,080923,,,A*48
$GPGGA,213521.500,4308.4776,N,07726.5252,W,1,08,1.15,164.1,M,-34.4,M,,*55
$GPRMC,213521.750,A,4308.4778,N,07726.5278,W,25.89,273.78,080923,,,A*48
$GPGGA,213522.000,4308.4779,N,07726.5304,W,1,08,1.23,164.2,M,-34.4,M,,*58
$GPRMC,213522.250,A,4308.4781,N,07726.5330,W,26.27,273.24,080923,,,A*4B
$GPGGA,213522.500,4308.4782,N,07726.5356,W,1,08,1.23,164.2,M,-34.4,M,,*5E
$GPRMC,213522.750,A,4308.4783,N,07726.5382,W,26.53,273.05,080923,,,A*45
$GPGGA,213523.000,4308.4784,N,07726.5408,W,1,08,1.23,164.2,M,-34.4,M,,*50
$GPRMC,213523.250,A,4308.4786,N,07726.5435,W,26.74,273.26,080923,,,A*4B
$GPGGA,213523.500,4308.4787,N,07726.5461,W,1,08,1.15,164.2,M,-34.4,M,,*5C
$GPRMC,213523.750,A,4308.4788,N,07726.5488,W,26.95,272.89,080923,,,A*4D
$GPGGA,213524.000,4308.4789,N,07726.5515,W,1,08,1.23,164.2,M,-34.4,M,,*57
$GPRMC,213524.250,A,4308.4790,N,07726.5543,W,27.68,273.45,080923,,,A*42
$GPGGA,213524.500,4308.4791,N,07726.5570,W,1,08,1.15,164.1,M,-34.4,M,,*5E
$GPRMC,213524.750,A,4308.4792,N,07726.5597,W,28.54,273.21,080923,,,A*4E
$GPGGA,213525.000,4308.4793,N,07726.5625,W,1,08,1.23,164.2,M,-34.4,M,,*5D
$GPRMC,213525.250,A,4308.4794,N,07726.5652,W,28.75,273.10,080923,,,A*47
$GPGGA,213525.500,4308.4795,N,07726.5680,W,1,08,1.15,164.1,M,-34.4,M,,*57
$GPRMC,213525.750,A,4308.4797,N,07726.5708,W,29.11,273.29,080923,,,A*46
$GPGGA,213526.000,4308.4798,N,07726.5737,W,1,08,1.23,164.2,M,-34.4,M,,*57
$GPRMC,213526.250,A,4308.4799,N,07726.5765,W,29.20,273.13,080923,,,A*4E
$GPGGA,213526.500,4308.4801,N,07726.5794,W,1,08,1.15,164.2,M,-34.4,M,,*51
$GPRMC,213526.750,A,4308.4802,N,07726.5823,W,29.99,272.95,080923,,,A*46
$GPGGA,213527.000,4308.4803,N,07726.5852,W,1,08,1.23,164.2,M,-34.4,M,,*57
$GPRMC,213527.250,A,4308.4804,N,07726.5882,W,30.29,273.15,080923,,,A*45
$GPGGA,213527.500,4308.4805,N,07726.5911,W,1,08,1.15,164.2,M,-34.4,M,,*57
$GPRMC,213527.750,A,4308.4806,N,07726.5940,W,30.32,273.05,080923,,,A*46
$GPGGA,213528.000,4308.4808,N,07726.5969,W,1,08,1.23,164.2,M,-34.4,M,,*5A
$GPRMC,213528.250,A,4308.4809,N,07726.5999,W,30.66,272.93,080923,,,A*48
$GPGGA,213528.500,4308.4810,N,07726.6029,W,1,08,1.15,164.2,M,-34.4,M,,*5D
$GPRMC,213528.750,A,4308.4812,N,07726.6058,W,30.91,272.91,080923,,,A*4A
$GPGGA,213529.000,4308.4814,N,07726.6087,W,1,08,1.23,164.0,M,-34.4,M,,*5E
$GPRMC,213529.250,A,4308.4815,N,07726.6116,W,31.05,272.93,080923,,,A*4C
$GPGGA,213529.500,4308.4816,N,07726.6146,W,1,08,1.15,163.9,M,-34.4,M,,*5E
$GPRMC,213529.750,A,4308.4817,N,07726.6175,W,31.21,271.99,080923,,,A*41
$GPGGA,213530.000,4308.4818,N,07726.6205,W,1,08,1.23,164.0,M,-34.4,M,,*52
$GPRMC,213530.250,A,4308.4819,N,07726.6234,W,31.20,271.53,080923,,,A*43
$GPGGA,213530.500,4308.4819,N,07726.6264,W,1,08,1.15,164.1,M,-34.4,M,,*55
$GPRMC,213530.750,A,4308.4820,N,07726.6294,W,31.28,271.30,080923,,,A*4B
$GPGGA,213531.000,4308.4820,N,07726.6324,W,1,08,1.23,164.2,M,-34.4,M,,*58
$GPRMC,213531.250,A,4308.4820,N,07726.6354,W,31.64,270.34,080923,,,A*4F
$GPGGA,213531.500,4308.4820,N,07726.6384,W,1,08,1.15,164.2,M,-34.4,M,,*52
$GPRMC,213531.750,A,4308.4820,N,07726.6415,W,32.12,270.05,080923,,,A*48
$GPGGA,213532.000,4308.4820,N,07726.6446,W,1,08,1.23,164.3,M,-34.4,M,,*59
$GPRMC,213532.250,A,4308.4820,N,07726.6477,W,32.65,269.49,080923,,,A*4A
$GPGGA,213532.500,4308.4819,N,07726.6508,W,1,08,1.15,164.3,M,-34.4,M,,*58
$GPRMC,213532.750,A,4308.4819,N,07726.6540,W,32.78,269.46,080923,,,A*43
$GPGGA,213533.000,4308.4818,N,07726.6571,W,1,07,1.30,164.2,M,-34.4,M,,*5A
$GPRMC,213533.250,A,4308.4817,N,07726.6603,W,33.14,268.36,080923,,,A*40
$GPGGA,213533.500,4308.4816,N,07726.6634,W,1,07,1.22,164.3,M,-34.4,M,,*51
$GPRMC,213533.750,A,4308.4815,N,07726.6666,W,33.39,267.42,080923,,,A*47
$GPGGA,213534.000,4308.4814,N,07726.6698,W,1,08,1.23,164.2,M,-34.4,M,,*58
$GPRMC,213534.250,A,4308.4812,N,07726.6730,W,33.59,266.13,080923,,,A*43
$GPGGA,213534.500,4308.4810,N,07726.6762,W,1,08,1.23,164.1,M,-34.4,M,,*5E
$GPRMC,213534.750,A,4308.4808,N,07726.6794,W,33.78,265.42,080923,,,A*47
$GPGGA,213535.000,4308.4806,N,07726.6826,W,1,08,1.23,164.1,M,-34.4,M,,*52
$GPRMC,213535.250,A,4308.4804,N,07726.6858,W,33.83,264.57,080923,,,A*41
$GPGGA,213535.500,4308.4802,N,07726.6890,W,1,08,1.23,164.1,M,-34.4,M,,*5E
$GPRMC,213535.750,A,4308.4800,N,07726.6922,W,33.87,264.45,080923,,,A*4B
$GPGGA,213536.000,4308.4797,N,07726.6954,W,1,08,1.23,164.1,M,-34.4,M,,*52
$GPRMC,213536.250,A,4308.4795,N,07726.6986,W,34.12,264.40,080923,,,A*4E
$GPGGA,213536.500,4308.4793,N,07726.7019,W,1,08,1.23,164.1,M,-34.4,M,,*52
$GPRMC,213536.750,A,4308.4792,N,07726.7051,W,34.18,264.92,080923,,,A*4B
$GPGGA,213537.000,4308.4790,N,07726.7084,W,1,08,1.23,164.2,M,-34.4,M,,*52
$GPRMC,213537.250,A,4308.4788,N,07726.7117,W,34.22,265.41,080923,,,A*41
$GPGGA,213537.500,4308.4787,N,07726.7149,W,1,08,1.15,164.3,M,-34.4,M,,*55
$GPRMC,213537.750,A,4308.4785,N,07726.7182,W,34.25,265.76,080923,,,A*46
$GPGGA,213538.000,4308.4783,N,07726.7215,W,1,08,1.23,164.4,M,-34.4,M,,*53
$GPRMC,213538.250,A,4308.4782,N,07726.7248,W,34.46,265.34,080923,,,A*4D
$GPGGA,213538.500,4308.4780,N,07726.7281,W,1,08,1.15,164.6,M,-34.4,M,,*5F
$GPRMC,213538.750,A,4308.4778,N,07726.7314,W,34.75,265.72,080923,,,A*47
$GPGGA,213539.000,4308.4777,N,07726.7348,W,1,08,1.23,164.7,M,-34.4,M,,*53
$GPRMC,213539.250,A,4308.4775,N,07726.7381,W,34.99,265.80,080923,,,A*4D
$GPGGA,213539.500,4308.4773,N,07726.7415,W,1,08,1.15,164.9,M,-34.4,M,,*56
$GPRMC,213539.750,A,4308.4771,N,07726.7448,W,35.07,265.71,080923,,,A*46
$GPGGA,213540.000,4308.4770,N,07726.7482,W,1,08,1.23,165.0,M,-34.4,M,,*5D
$GPRMC,213540.250,A,4308.4768,N,07726.7515,W,35.07,266.15,080923,,,A*4D
$GPGGA,213540.500,4308.4766,N,07726.7548,W,1,08,1.15,165.2,M,-34.4,M,,*5F
$GPRMC,213540.750,A,4308.4765,N,07726.7581,W,34.78,265.93,080923,,,A*4C
$GPGGA,213541.000,4308.4763,N,07726.7614,W,1,08,1.23,165.4,M,-34.4,M,,*57
$GPRMC,213541.250,A,4308.4760,N,07726.7647,W,33.98,265.07,080923,,,A*40
$GPGGA,213541.500,4308.4758,N,07726.7679,W,1,08,1.15,165.6,M,-34.4,M,,*56
$GPRMC,213541.750,A,4308.4756,N,07726.7711,W,33.74,264.23,080923,,,A*47
$GPGGA,213542.000,4308.4754,N,07726.7743,W,1,08,1.23,165.7,M,-34.4,M,,*50
$GPRMC,213542.250,A,4308.4752,N,07726.7775,W,33.38,264.11,080923,,,A*4E
$GPGGA,213542.500,4308.4749,N,07726.7806,W,1,08,1.23,165.7,M,-34.4,M,,*57
$GPRMC,213542.750,A,4308.4747,N,07726.7837,W,32.43,263.92,080923,,,A*47
$GPGGA,213543.000,4308.4745,N,07726.7868,W,1,07,1.30,165.6,M,-34.4,M,,*5B
$GPRMC,213543.250,A,4308.4742,N,07726.7899,W,32.41,263.91,080923,,,A*43
$GPGGA,213543.500,4308.4740,N,07726.7930,W,1,07,1.22,165.4,M,-34.4,M,,*56
$GPRMC,213543.750,A,4308.4738,N,07726.7961,W,32.66,264.27,080923,,,A*42
$GPGGA,213544.000,4308.4736,N,07726.7993,W,1,08,1.23,165.1,M,-34.4,M,,*57
$GPRMC,213544.250,A,4308.4734,N,07726.8024,W,32.94,264.54,080923,,,A*42
$GPGGA,213544.500,4308.4732,N,07726.8056,W,1,08,1.23,164.9,M,-34.4,M,,*50
$GPRMC,213544.750,A,4308.4731,N,07726.8088,W,33.07,265.42,080923,,,A*49
$GPGGA,213545.000,4308.4729,N,07726.8120,W,1,07,1.30,164.6,M,-34.4,M,,*5C
$GPRMC,213545.250,A,4308.4727,N,07726.8152,W,33.26,265.50,080923,,,A*4C
$GPGGA,213545.500,4308.4725,N,07726.8184,W,1,07,1.22,164.3,M,-34.4,M,,*5D
$GPRMC,213545.750,A,4308.4724,N,07726.8217,W,34.46,265.47,080923,,,A*4F
$GPGGA,213546.000,4308.4722,N,07726.8250,W,1,07,1.30,164.2,M,-34.4,M,,*54
$GPRMC,213546.250,A,4308.4720,N,07726.8283,W,34.88,264.93,080923,,,A*4A
$GPGGA,213546.500,4308.4718,N,07726.8317,W,1,08,1.15,164.2,M,-34.4,M,,*52
$GPRMC,213546.750,A,4308.4715,N,07726.8350,W,34.93,264.86,080923,,,A*48
$GPGGA,213547.000,4308.4714,N,07726.8383,W,1,07,1.30,164.0,M,-34.4,M,,*5D
$GPRMC,213547.250,A,4308.4712,N,07726.8416,W,35.00,265.44,080923,,,A*4A
$GPGGA,213547.500,4308.4710,N,07726.8450,W,1,07,1.22,163.9,M,-34.4,M,,*58
$GPRMC,213547.750,A,4308.4708,N,07726.8483,W,35.20,265.45,080923,,,A*4B
$GPGGA,213548.000,4308.4706,N,07726.8516,W,1,07,1.30,163.6,M,-34.4,M,,*5A
$GPRMC,213548.250,A,4308.4704,N,07726.8549,W,35.29,264.82,080923,,,A*49
$GPGGA,213548.500,4308.4702,N,07726.8583,W,1,07,1.22,163.4,M,-34.4,M,,*56
$GPRMC,213548.750,A,4308.4700,N,07726.8616,W,35.41,264.33,080923,,,A*45
$GPGGA,213549.000,4308.4697,N,07726.8650,W,1,07,1.30,163.1,M,-34.4,M,,*54
$GPRMC,213549.250,A,4308.4695,N,07726.8683,W,35.65,264.16,080923,,,A*41
$GPGGA,213549.500,4308.4693,N,07726.8717,W,1,08,1.23,162.9,M,-34.4,M,,*53
$GPRMC,213549.750,A,4308.4691,N,07726.8751,W,35.86,264.17,080923,,,A*42
$GPGGA,213550.000,4308.4689,N,07726.8785,W,1,08,1.23,162.7,M,-34.4,M,,*50
$GPRMC,213550.250,A,4308.4687,N,07726.8819,W,35.92,264.71,080923,,,A*4E
$GPGGA,213550.500,4308.4685,N,07726.8853,W,1,08,1.23,162.5,M,-34.4,M,,*5F
$GPRMC,213550.750,A,4308.4683,N,07726.8888,W,36.02,265.52,080923,,,A*4D
$GPGGA,213551.000,4308.4682,N,07726.8923,W,1,08,1.23,162.4,M,-34.4,M,,*5B
$GPRMC,213551.250,A,4308.4680,N,07726.8957,W,36.68,265.37,080923,,,A*46
$GPGGA,213551.500,4308.4678,N,07726.8992,W,1,08,1.23,162.2,M,-34.4,M,,*57
$GPRMC,213551.750,A,4308.4675,N,07726.9026,W,36.68,264.95,080923,,,A*4E
$GPGGA,213552.000,4308.4673,N,07726.9061,W,1,08,1.23,162.2,M,-34.4,M,,*5E
$GPRMC,213552.250,A,4308.4671,N,07726.9096,W,36.86,264.85,080923,,,A*46
$GPGGA,213552.500,4308.4669,N,07726.9131,W,1,08,1.23,162.2,M,-34.4,M,,*54
$GPRMC,213552.750,A,4308.4666,N,07726.9166,W,36.78,265.12,080923,,,A*45
$GPGGA,213553.000,4308.4664,N,07726.9201,W,1,08,1.23,162.1,M,-34.4,M,,*5E
$GPRMC,213553.250,A,4308.4661,N,07726.9235,W,36.49,264.90,080923,,,A*4A
$GPGGA,213553.500,4308.4659,N,07726.9269,W,1,08,1.23,161.9,M,-34.4,M,,*50
$GPRMC,213553.750,A,4308.4657,N,07726.9304,W,36.48,265.38,080923,,,A*4B
$GPGGA,213554.000,4308.4654,N,07726.9338,W,1,08,1.23,161.6,M,-34.4,M,,*55
$GPRMC,213554.250,A,4308.4652,N,07726.9372,W,36.26,265.40,080923,,,A*4A
$GPGGA,213554.500,4308.4650,N,07726.9406,W,1,07,1.30,161.3,M,-34.4,M,,*56
$GPRMC,213554.750,A,4308.4648,N,07726.9441,W,36.35,265.36,080923,,,A*40
$GPGGA,213555.000,4308.4646,N,07726.9475,W,1,07,1.30,161.0,M,-34.4,M,,*52
$GPRMC,213555.250,A,4308.4644,N,07726.9509,W,36.38,265.32,080923,,,A*4C
$GPGGA,213555.500,4308.4642,N,07726.9544,W,1,08,1.15,160.8,M,-34.4,M,,*51
$GPRMC,213555.750,A,4308.4639,N,07726.9578,W,36.43,265.22,080923,,,A*48
$GPGGA,213556.000,4308.4637,N,07726.9613,W,1,08,1.23,160.5,M,-34.4,M,,*5C
$GPRMC,213556.250,A,4308.4636,N,07726.9647,W,36.40,265.59,080923,,,A*41
$GPGGA,213556.500,4308.4634,N,07726.9682,W,1,08,1.23,160.2,M,-34.4,M,,*55
$GPRMC,213556.750,A,4308.4632,N,07726.9716,W,36.61,265.62,080923,,,A*4E
$GPGGA,213557.000,4308.4630,N,07726.9751,W,1,08,1.23,160.0,M,-34.4,M,,*58
$GPRMC,213557.250,A,4308.4628,N,07726.9786,W,36.75,265.79,080923,,,A*47
$GPGGA,213557.500,4308.4626,N,07726.9821,W,1,08,1.23,159.7,M,-34.4,M,,*5F
$GPRMC,213557.750,A,4308.4624,N,07726.9856,W,36.77,265.72,080923,,,A*45
$GPGGA,213558.000,4308.4622,N,07726.9891,W,1,08,1.23,159.5,M,-34.4,M,,*58
$GPRMC,213558.250,A,4308.4620,N,07726.9926,W,37.11,265.85,080923,,,A*44
$GPGGA,213558.500,4308.4618,N,07726.9961,W,1,08,1.23,159.3,M,-34.4,M,,*5C
$GPRMC,213558.750,A,4308.4616,N,07726.9997,W,37.34,266.20,080923,,,A*45
$GPGGA,213559.000,4308.4614,N,07727.0032,W,1,07,1.30,159.1,M,-34.4,M,,*5C
$GPRMC,213559.250,A,4308.4612,N,07727.0068,W,37.81,265.81,080923,,,A*42
$GPGGA,213559.500,4308.4610,N,07727.0104,W,1,08,1.23,159.0,M,-34.4,M,,*55
$GPRMC,213559.750,A,4308.4608,N,07727.0140,W,38.09,265.55,080923,,,A*41
$GPGGA,213600.000,4308.4605,N,07727.0177,W,1,08,1.23,158.9,M,-34.4,M,,*57
$GPRMC,213600.250,A,4308.4603,N,07727.0213,W,38.37,265.64,080923,,,A*4A
$GPGGA,213600.500,4308.4602,N,07727.0250,W,1,08,1.15,158.8,M,-34.4,M,,*57
$GPRMC,213600.750,A,4308.4600,N,07727.0288,W,38.84,265.68,080923,,,A*4A
$GPGGA,213601.000,4308.4598,N,07727.0325,W,1,08,1.23,158.8,M,-34.4,M,,*55
$GPRMC,213601.250,A,4308.4597,N,07727.0363,W,39.03,266.68,080923,,,A*4A
$GPGGA,213601.500,4308.4596,N,07727.0401,W,1,08,1.15,158.7,M,-34.4,M,,*55
$GPRMC,213601.750,A,4308.4595,N,07727.0439,W,39.15,267.82,080923,,,A*47
$GPGGA,213602.000,4308.4594,N,07727.0477,W,1,08,1.23,158.7,M,-34.4,M,,*55
$GPRMC,213602.250,A,4308.4594,N,07727.0515,W,39.35,269.34,080923,,,A*4E
$GPGGA,213602.500,4308.4594,N,07727.0553,W,1,08,1.23,158.5,M,-34.4,M,,*55
$GPRMC,213602.750,A,4308.4594,N,07727.0591,W,39.46,270.60,080923,,,A*4A
$GPGGA,213603.000,4308.4595,N,07727.0630,W,1,08,1.23,158.4,M,-34.4,M,,*57
$GPRMC,213603.250,A,4308.4596,N,07727.0668,W,40.22,271.90,080923,,,A*4B
$GPGGA,213603.500,4308.4597,N,07727.0707,W,1,08,1.23,158.3,M,-34.4,M,,*52
$GPRMC,213603.750,A,4308.4599,N,07727.0746,W,40.62,272.97,080923,,,A*4C
$GPGGA,213604.000,4308.4601,N,07727.0786,W,1,08,1.23,158.1,M,-34.4,M,,*57
$GPRMC,213604.250,A,4308.4604,N,07727.0825,W,41.47,275.03,080923,,,A*4F
$GPGGA,213604.500,4308.4606,N,07727.0865,W,1,08,1.15,158.0,M,-34.4,M,,*53
$GPRMC,213604.750,A,4308.4609,N,07727.0905,W,41.53,275.59,080923,,,A*4E
$GPGGA,213605.000,4308.4612,N,07727.0944,W,1,08,1.23,157.9,M,-34.4,M,,*53
$GPRMC,213605.250,A,4308.4615,N,07727.0984,W,41.44,276.38,080923,,,A*4C
$GPGGA,213605.500,4308.4618,N,07727.1023,W,1,08,1.23,157.9,M,-34.4,M,,*55
$GPRMC,213605.750,A,4308.4622,N,07727.1062,W,41.45,277.01,080923,,,A*47
$GPGGA,213606.000,4308.4625,N,07727.1102,W,1,08,1.23,157.9,M,-34.4,M,,*5F
$GPRMC,213606.250,A,4308.4629,N,07727.1141,W,41.50,277.39,080923,,,A*45
$GPGGA,213606.500,4308.4633,N,07727.1180,W,1,08,1.23,157.8,M,-34.4,M,,*56
$GPRMC,213606.750,A,4308.4637,N,07727.1220,W,41.55,278.14,080923,,,A*4E
$GPGGA,213607.000,4308.4641,N,07727.1259,W,1,08,1.23,157.9,M,-34.4,M,,*51
$GPRMC,213607.250,A,4308.4647,N,07727.1299,W,41.60,279.68,080923,,,A*43
$GPGGA,213607.500,4308.4651,N,07727.1338,W,1,08,1.15,157.9,M,-34.4,M,,*56
$GPRMC,213607.750,A,4308.4657,N,07727.1378,W,41.72,280.09,080923,,,A*4B
$GPGGA,213608.000,4308.4662,N,07727.1417,W,1,08,1.23,158.0,M,-34.4,M,,*55
$GPRMC,213606.250,A,4308.4667,N,07727.1456,W,41.97,280.21,080923,,,A*46
$GPGGA,213606.500,4308.4671,N,07727.1495,W,1,07,1.25,158.1,M,-34.4,M,,*5E
$GPRMC,213606.750,A,4308.4675,N,07727.1535,W,41.83,280.08,080923,,,A*4A
$GPGGA,213607.000,4308.4679,N,07727.1574,W,1,08,1.23,158.5,M,-34.4,M,,*51
$GPRMC,213607.250,A,4308.4684,N,07727.1614,W,41.89,279.74,080923,,,A*47
$GPGGA,213607.500,4308.4689,N,07727.1653,W,1,08,1.23,158.3,M,-34.4,M,,*5B
$GPRMC,213607.750,A,4308.4693,N,07727.1693,W,41.72,279.66,080923,,,A*4C
$GPGGA,213608.000,4308.4697,N,07727.1732,W,1,08,1.23,158.4,M,-34.4,M,,*5F
$GPRMC,213608.250,A,4308.4702,N,07727.1772,W,41.63,279.21,080923,,,A*42
$GPGGA,213608.500,4308.4706,N,07727.1811,W,1,08,1.23,158.4,M,-34.4,M,,*5D
$GPRMC,213608.750,A,4308.4711,N,07727.1851,W,41.42,279.29,080923,,,A*40
$GPGGA,213609.000,4308.4715,N,07727.1890,W,1,08,1.23,158.3,M,-34.4,M,,*55
$GPRMC,213609.250,A,4308.4719,N,07727.1930,W,41.44,279.42,080923,,,A*41
$GPGGA,213609.500,4308.4723,N,07727.1969,W,1,08,1.15,158.3,M,-34.4,M,,*57
$GPRMC,213609.750,A,4308.4727,N,07727.2008,W,41.14,279.66,080923,,,A*4B
$GPGGA,213610.000,4308.4732,N,07727.2047,W,1,08,1.23,158.4,M,-34.4,M,,*5E
$GPRMC,213610.250,A,4308.4736,N,07727.2085,W,40.62,279.73,080923,,,A*47
$GPGGA,213610.500,4308.4740,N,07727.2123,W,1,08,1.15,158.5,M,-34.4,M,,*59
$GPRMC,213610.750,A,4308.4744,N,07727.2161,W,40.51,279.84,080923,,,A*44
$GPGGA,213611.000,4308.4749,N,07727.2199,W,1,08,1.23,158.6,M,-34.4,M,,*53
$GPRMC,213611.250,A,4308.4753,N,07727.2237,W,40.47,279.66,080923,,,A*4D
$GPGGA,213611.500,4308.4757,N,07727.2275,W,1,08,1.23,158.5,M,-34.4,M,,*5B
$GPRMC,213611.750,A,4308.4762,N,07727.2313,W,40.65,279.77,080923,,,A*4D
$GPGGA,213612.000,4308.4767,N,07727.2352,W,1,08,1.23,158.5,M,-34.4,M,,*5A
$GPRMC,213612.250,A,4308.4771,N,07727.2390,W,40.77,279.46,080923,,,A*43
$GPGGA,213612.500,4308.4776,N,07727.2429,W,1,08,1.15,158.4,M,-34.4,M,,*50
$GPRMC,213612.750,A,4308.4781,N,07727.2468,W,40.90,279.48,080923,,,A*4E
$GPGGA,213613.000,4308.4786,N,07727.2507,W,1,08,1.23,158.3,M,-34.4,M,,*54
$GPRMC,213613.250,A,4308.4790,N,07727.2546,W,41.12,279.68,080923,,,A*4E
$GPGGA,213613.500,4308.4795,N,07727.2585,W,1,08,1.23,158.3,M,-34.4,M,,*59
$GPRMC,213613.750,A,4308.4800,N,07727.2623,W,41.20,279.39,080923,,,A*48
$GPGGA,213614.000,4308.4804,N,07727.2660,W,1,08,1.23,158.1,M,-34.4,M,,*56
$GPRMC,213614.250,A,4308.4808,N,07727.2699,W,40.90,279.22,080923,,,A*43
$GPGGA,213614.500,4308.4812,N,07727.2737,W,1,08,1.15,158.0,M,-34.4,M,,*53
$GPRMC,213614.750,A,4308.4817,N,07727.2775,W,40.69,278.89,080923,,,A*4D
$GPGGA,213615.000,4308.4821,N,07727.2814,W,1,08,1.23,157.8,M,-34.4,M,,*5B
$GPRMC,213615.250,A,4308.4827,N,07727.2852,W,40.74,279.38,080923,,,A*47
$GPGGA,213615.500,4308.4832,N,07727.2890,W,1,08,1.23,157.3,M,-34.4,M,,*5B
$GPRMC,213615.750,A,4308.4838,N,07727.2927,W,40.69,279.54,080923,,,A*49
$GPGGA,213616.000,4308.4843,N,07727.2965,W,1,08,1.23,156.9,M,-34.4,M,,*5B
$GPRMC,213616.250,A,4308.4848,N,07727.3003,W,40.73,279.85,080923,,,A*41
$GPGGA,213616.500,4308.4854,N,07727.3041,W,1,08,1.23,156.5,M,-34.4,M,,*5A
$GPRMC,213616.750,A,4308.4860,N,07727.3079,W,40.95,280.69,080923,,,A*4F
$GPGGA,213617.000,4308.4865,N,07727.3117,W,1,08,1.23,156.2,M,-34.4,M,,*59
$GPRMC,213617.250,A,4308.4871,N,07727.3155,W,41.16,279.46,080923,,,A*45
$GPGGA,213617.500,4308.4875,N,07727.3194,W,1,08,1.23,155.9,M,-34.4,M,,*5E
$GPRMC,213617.750,A,4308.4880,N,07727.3232,W,41.15,278.93,080923,,,A*46
$GPGGA,213618.000,4308.4885,N,07727.3270,W,1,08,1.23,155.5,M,-34.4,M,,*5E
$GPRMC,213618.250,A,4308.4890,N,07727.3308,W,40.81,279.15,080923,,,A*46
$GPGGA,213618.500,4308.4895,N,07727.3347,W,1,08,1.23,155.1,M,-34.4,M,,*5B
$GPRMC,213618.750,A,4308.4900,N,07727.3386,W,40.79,279.22,080923,,,A*4E
$GPGGA,213619.000,4308.4905,N,07727.3424,W,1,08,1.23,154.7,M,-34.4,M,,*52
$GPRMC,213619.250,A,4308.4909,N,07727.3462,W,41.08,279.14,080923,,,A*4C
$GPGGA,213619.500,4308.4914,N,07727.3501,W,1,08,1.23,154.2,M,-34.4,M,,*54
$GPRMC,213619.750,A,4308.4918,N,07727.3539,W,40.86,279.60,080923,,,A*42
$GPGGA,213620.000,4308.4923,N,07727.3577,W,1,08,1.23,154.0,M,-34.4,M,,*5C
$GPRMC,213620.250,A,4308.4927,N,07727.3615,W,40.61,279.67,080923,,,A*42
$GPGGA,213620.500,4308.4931,N,07727.3653,W,1,08,1.23,153.8,M,-34.4,M,,*50
$GPRMC,213620.750,A,4308.4936,N,07727.3691,W,40.23,279.70,080923,,,A*4B
$GPGGA,213621.000,4308.4940,N,07727.3728,W,1,08,1.23,153.7,M,-34.4,M,,*50
$GPRMC,213621.250,A,4308.4945,N,07727.3766,W,40.22,280.27,080923,,,A*47
$GPGGA,213621.500,4308.4950,N,07727.3803,W,1,08,1.23,153.6,M,-34.4,M,,*53
$GPRMC,213621.750,A,4308.4954,N,07727.3841,W,40.00,279.66,080923,,,A*4B
$GPGGA,213622.000,4308.4958,N,07727.3878,W,1,08,1.23,153.5,M,-34.4,M,,*52
$GPRMC,213622.250,A,4308.4963,N,07727.3916,W,40.32,279.82,080923,,,A*41
$GPGGA,213622.500,4308.4967,N,07727.3954,W,1,08,1.23,153.3,M,-34.4,M,,*52
$GPRMC,213622.750,A,4308.4972,N,07727.3992,W,40.31,279.55,080923,,,A*41
$GPGGA,213623.000,4308.4976,N,07727.4030,W,1,08,1.23,153.1,M,-34.4,M,,*58
$GPRMC,213623.250,A,4308.4981,N,07727.4068,W,40.46,279.40,080923,,,A*46
$GPGGA,213623.500,4308.4985,N,07727.4106,W,1,08,1.15,152.9,M,-34.4,M,,*59
$GPRMC,213623.750,A,4308.4989,N,07727.4144,W,40.51,279.06,080923,,,A*40
$GPGGA,213624.000,4308.4994,N,07727.4182,W,1,08,1.23,152.8,M,-34.4,M,,*53
$GPRMC,213624.250,A,4308.4998,N,07727.4221,W,40.59,279.05,080923,,,A*49
$GPGGA,213624.500,4308.5003,N,07727.4259,W,1,08,1.23,152.6,M,-34.4,M,,*5B
$GPRMC,213624.750,A,4308.5007,N,07727.4297,W,40.62,279.14,080923,,,A*47
$GPGGA,213625.000,4308.5012,N,07727.4335,W,1,08,1.23,152.4,M,-34.4,M,,*56
$GPRMC,213625.250,A,4308.5016,N,07727.4373,W,40.34,279.25,080923,,,A*49
$GPGGA,213625.500,4308.5021,N,07727.4411,W,1,08,1.15,152.3,M,-34.4,M,,*50
$GPRMC,213625.750,A,4308.5025,N,07727.4448,W,40.32,279.32,080923,,,A*43
$GPGGA,213626.000,4308.5029,N,07727.4485,W,1,08,1.23,152.3,M,-34.4,M,,*56
$GPRMC,213626.250,A,4308.5034,N,07727.4522,W,39.49,279.64,080923,,,A*49
$GPGGA,213626.500,4308.5039,N,07727.4559,W,1,08,1.15,152.2,M,-34.4,M,,*56
$GPRMC,213626.750,A,4308.5044,N,07727.4596,W,39.55,279.66,080923,,,A*4B
$GPGGA,213627.000,4308.5048,N,07727.4633,W,1,08,1.23,152.2,M,-34.4,M,,*5E
$GPRMC,213627.250,A,4308.5052,N,07727.4670,W,39.61,279.50,080923,,,A*41
$GPGGA,213627.500,4308.5057,N,07727.4708,W,1,08,1.23,152.3,M,-34.4,M,,*5D
$GPRMC,213627.750,A,4308.5061,N,07727.4745,W,39.79,279.18,080923,,,A*46
$GPGGA,213628.000,4308.5066,N,07727.4783,W,1,08,1.23,152.4,M,-34.4,M,,*51
$GPRMC,213628.250,A,4308.5070,N,07727.4821,W,40.05,278.81,080923,,,A*45
$GPGGA,213628.500,4308.5074,N,07727.4858,W,1,08,1.15,152.4,M,-34.4,M,,*5B
$GPRMC,213628.750,A,4308.5079,N,07727.4896,W,40.12,278.54,080923,,,A*4B
$GPGGA,213629.000,4308.5083,N,07727.4934,W,1,08,1.23,152.5,M,-34.4,M,,*58
$GPRMC,213629.250,A,4308.5087,N,07727.4972,W,40.15,278.27,080923,,,A*46
$GPGGA,213629.500,4308.5091,N,07727.5010,W,1,08,1.23,152.5,M,-34.4,M,,*50
$GPRMC,213629.750,A,4308.5096,N,07727.5049,W,40.50,278.47,080923,,,A*44
$GPGGA,213630.000,4308.5100,N,07727.5087,W,1,08,1.23,152.5,M,-34.4,M,,*5A
$GPRMC,213630.250,A,4308.5104,N,07727.5126,W,40.83,278.68,080923,,,A*48
$GPGGA,213630.500,4308.5109,N,07727.5165,W,1,08,1.15,152.4,M,-34.4,M,,*5F
$GPRMC,213630.750,A,4308.5113,N,07727.5204,W,41.08,278.74,080923,,,A*47
$GPGGA,213631.000,4308.5118,N,07727.5243,W,1,08,1.23,152.3,M,-34.4,M,,*5E
$GPRMC,213631.250,A,4308.5122,N,07727.5282,W,41.38,278.97,080923,,,A*41
$GPGGA,213631.500,4308.5127,N,07727.5321,W,1,08,1.23,152.2,M,-34.4,M,,*53
$GPRMC,213631.750,A,4308.5132,N,07727.5361,W,41.59,279.06,080923,,,A*47
$GPGGA,213632.000,4308.5137,N,07727.5400,W,1,08,1.23,152.1,M,-34.4,M,,*53
$GPRMC,213632.250,A,4308.5142,N,07727.5439,W,41.70,279.53,080923,,,A*47
$GPGGA,213632.500,4308.5147,N,07727.5478,W,1,08,1.15,152.0,M,-34.4,M,,*5A
$GPRMC,213632.750,A,4308.5152,N,07727.5518,W,42.12,279.73,080923,,,A*44
$GPGGA,213633.000,4308.5158,N,07727.5557,W,1,08,1.23,151.7,M,-34.4,M,,*5D
$GPRMC,213633.250,A,4308.5163,N,07727.5597,W,42.14,280.00,080923,,,A*41
$GPGGA,213633.500,4308.5168,N,07727.5636,W,1,08,1.15,151.6,M,-34.4,M,,*5B
$GPRMC,213633.750,A,4308.5173,N,07727.5676,W,41.94,280.06,080923,,,A*44
$GPGGA,213634.000,4308.5178,N,07727.5715,W,1,08,1.23,151.5,M,-34.4,M,,*5E
$GPRMC,213634.250,A,4308.5183,N,07727.5754,W,41.67,279.74,080923,,,A*47
$GPGGA,213634.500,4308.5188,N,07727.5793,W,1,08,1.15,151.2,M,-34.4,M,,*58
$GPRMC,213634.750,A,4308.5193,N,07727.5832,W,41.37,279.23,080923,,,A*4B
$GPGGA,213635.000,4308.5198,N,07727.5870,W,1,08,1.23,151.0,M,-34.4,M,,*58
$GPRMC,213635.250,A,4308.5203,N,07727.5909,W,41.06,279.23,080923,,,A*4E
$GPGGA,213635.500,4308.5208,N,07727.5947,W,1,08,1.23,150.7,M,-34.4,M,,*54
$GPRMC,213635.750,A,4308.5212,N,07727.5986,W,41.07,278.93,080923,,,A*47
$GPGGA,213636.000,4308.5217,N,07727.6024,W,1,08,1.23,150.5,M,-34.4,M,,*51
$GPRMC,213636.250,A,4308.5221,N,07727.6062,W,40.84,278.79,080923,,,A*4F
$GPGGA,213636.500,4308.5225,N,07727.6101,W,1,08,1.15,150.1,M,-34.4,M,,*52
$GPRMC,213636.750,A,4308.5230,N,07727.6139,W,40.51,278.67,080923,,,A*42
$GPGGA,213637.000,4308.5233,N,07727.6177,W,1,08,1.23,149.9,M,-34.4,M,,*55
$GPRMC,213637.250,A,4308.5237,N,07727.6214,W,40.36,278.06,080923,,,A*4B
$GPGGA,213637.500,4308.5241,N,07727.6252,W,1,08,1.15,149.6,M,-34.4,M,,*5B
$GPRMC,213637.750,A,4308.5244,N,07727.6289,W,39.66,278.19,080923,,,A*4B
$GPGGA,213638.000,4308.5248,N,07727.6327,W,1,08,1.23,149.4,M,-34.4,M,,*5C
$GPRMC,213638.250,A,4308.5252,N,07727.6364,W,39.66,278.28,080923,,,A*46
$GPGGA,213638.500,4308.5257,N,07727.6402,W,1,08,1.23,149.2,M,-34.4,M,,*51
$GPRMC,213638.750,A,4308.5261,N,07727.6439,W,39.42,278.12,080923,,,A*43
$GPGGA,213639.000,4308.5264,N,07727.6476,W,1,08,1.23,149.0,M,-34.4,M,,*54
$GPRMC,213639.250,A,4308.5268,N,07727.6513,W,39.11,277.36,080923,,,A*48
$GPGGA,213639.500,4308.5272,N,07727.6550,W,1,08,1.23,148.9,M,-34.4,M,,*5B
$GPRMC,213639.750,A,4308.5275,N,07727.6587,W,39.05,277.28,080923,,,A*46
$GPGGA,213640.000,4308.5278,N,07727.6624,W,1,08,1.23,148.8,M,-34.4,M,,*5B
$GPRMC,213640.250,A,4308.5282,N,07727.6660,W,38.97,276.80,080923,,,A*46
$GPGGA,213640.500,4308.5285,N,07727.6697,W,1,08,1.15,148.7,M,-34.4,M,,*5E
$GPRMC,213640.750,A,4308.5288,N,07727.6733,W,38.48,276.07,080923,,,A*43
$GPGGA,213641.000,4308.5290,N,07727.6769,W,1,08,1.23,148.6,M,-34.4,M,,*5A
$GPRMC,213641.250,A,4308.5293,N,07727.6806,W,38.34,275.40,080923,,,A*4F
$GPGGA,213641.500,4308.5295,N,07727.6842,W,1,08,1.23,148.6,M,-34.4,M,,*5C
$GPRMC,213641.750,A,4308.5298,N,07727.6877,W,38.07,276.04,080923,,,A*44
$GPGGA,213642.000,4308.5300,N,07727.6912,W,1,08,1.23,148.5,M,-34.4,M,,*50
$GPRMC,213642.250,A,4308.5302,N,07727.6947,W,36.89,274.88,080923,,,A*4C
$GPGGA,213642.500,4308.5304,N,07727.6982,W,1,08,1.23,148.4,M,-34.4,M,,*59
$GPRMC,213642.750,A,4308.5306,N,07727.7017,W,37.01,274.55,080923,,,A*41
$GPGGA,213643.000,4308.5308,N,07727.7052,W,1,08,1.23,148.4,M,-34.4,M,,*54
$GPRMC,213643.250,A,4308.5310,N,07727.7086,W,36.65,274.81,080923,,,A*40
$GPGGA,213643.500,4308.5312,N,07727.7120,W,1,08,1.23,148.4,M,-34.4,M,,*5E
$GPRMC,213643.750,A,4308.5314,N,07727.7154,W,36.54,274.36,080923,,,A*41
$GPGGA,213644.000,4308.5315,N,07727.7187,W,1,08,1.23,148.3,M,-34.4,M,,*51
$GPRMC,213644.250,A,4308.5317,N,07727.7221,W,35.58,274.00,080923,,,A*4B
$GPGGA,213644.500,4308.5318,N,07727.7254,W,1,08,1.23,148.2,M,-34.4,M,,*55
$GPRMC,213644.750,A,4308.5319,N,07727.7287,W,35.36,273.81,080923,,,A*4A
$GPGGA,213645.000,4308.5321,N,07727.7321,W,1,08,1.23,148.2,M,-34.4,M,,*58
$GPRMC,213645.250,A,4308.5323,N,07727.7354,W,35.09,275.03,080923,,,A*48
$GPGGA,213645.500,4308.5325,N,07727.7387,W,1,08,1.23,148.2,M,-34.4,M,,*55
$GPRMC,213645.750,A,4308.5326,N,07727.7419,W,34.98,274.75,080923,,,A*4F
