Vers 81
USE_SERIAL_FEEDBACK=true
DEVELOPMENT_MODE=false
USE_RMC_ONLY=false

$GPGGA,223604.500,4305.1657,N,07740.8665,W,1,05,2.13,165.1,M,-34.4,M,,*5C
$GPRMC,223604.500,A,4305.1657,N,07740.8665,W,0.02,121.98,161023,,,A*70
$GPGGA,223604.750,4305.1657,N,07740.8665,W,1,05,2.13,165.2,M,-34.4,M,,*58
$GPRMC,223604.750,A,4305.1657,N,07740.8665,W,0.03,296.25,161023,,,A*7F
$GPGGA,223605.000,4305.1656,N,07740.8665,W,1,05,2.13,165.1,M,-34.4,M,,*59
$GPRMC,223605.000,A,4305.1656,N,07740.8665,W,0.02,119.21,161023,,,A*7C
$GPGGA,223605.250,4305.1655,N,07740.8665,W,1,05,2.13,165.0,M,-34.4,M,,*5C
$GPRMC,223605.250,A,4305.1655,N,07740.8665,W,0.00,88.16,161023,$GPGGA,223605.500,4305.1654,N,07740.8665,W,1,05,2.13,164.9,M,-34.4,M,,*57
$GPRMC,223605.750,A,4305.1653,N,07740.8665,W,0.02,76.35,161023,,,A*46
$GPGGA,223606.000,4305.1642,N,07740.8670,W,1,05,2.13,164.8,M,-34.4,M,,*53
$GPRMC,223606.250,A,4305.1636,N,07740.8673,W,0.01,22.50,161023,,,A*45
$GPGGA,223606.500,4305.1633,N,07740.8674,W,1,05,2.13,164.9,M,-34.4,M,,*55
$GPRMC,223606.750,A,4305.1631,N,07740.8675,W,0.02,354.12,161023,,,A*76
$GPGGA,223607.000,4305.1630,N,07740.8675,W,1,05,2.58,165.1,M,-34.4,M,,*55
$GPRMC,223607.250,A,4305.1629,N,07740.8676,W,0.10,207.20,161023,,,A*7D
$GPGGA,223607.500,4305.1630,N,07740.8675,W,1,05,2.13,165.4,M,-34.4,M,,*5A
$GPRMC,223607.750,A,4305.1631,N,07740.8675,W,0.04,207.71,161023,,,A*73
$GPGGA,223608.000,4305.1632,N,07740.8674,W,1,05,2.13,165.5,M,-34.4,M,,*52
$GPRMC,223606.250,A,4305.1639,N,07740.8670,W,0.09,204.65,161023,,,A*71
$GPGGA,223606.500,4305.1643,N,07740.8669,W,1,05,2.12,164.2,M,-34.4,M,,*54
$GPRMC,223606.750,A,4305.1640,N,07740.8670,W,0.02,144.66,161023,,,A*75
$GPGGA,223607.000,4305.1637,N,07740.8672,W,1,05,2.12,163.4,M,-34.4,M,,*58
$GPRMC,223607.250,A,4305.1634,N,07740.8673,W,0.03,251.71,161023,,,A*71
$GPGGA,223607.500,4305.1630,N,07740.8675,W,1,05,2.12,162.6,M,-34.4,M,,*5E
$GPRMC,223607.750,A,4305.1627,N,07740.8678,W,0.07,11.45,161023,,,A*48
$GPGGA,223608.000,4305.1623,N,07740.8680,W,1,05,2.58,161.5,M,-34.4,M,,*52
$GPRMC,223608.250,A,4305.1620,N,07740.8681,W,0.02,237.54,161023,,,A*70
$GPGGA,223608.500,4305.1618,N,07740.8683,W,1,05,2.13,160.8,M,-34.4,M,,*5F
$GPRMC,223608.750,A,4305.1616,N,07740.8684,W,0.03,164.49,161023,,,A*7D
$GPGGA,223609.000,4305.1615,N,07740.8686,W,1,05,2.12,160.2,M,-34.4,M,,*58
$GPRMC,223609.250,A,4305.1613,N,07740.8687,W,0.02,146.67,161023,,,A*72
$GPGGA,223609.500,4305.1611,N,07740.8688,W,1,05,2.12,159.8,M,-34.4,M,,*57
$GPRMC,223609.750,A,4305.1610,N,07740.8689,W,0.02,345.31,161023,,,A*78
$GPGGA,223610.000,4305.1608,N,07740.8689,W,1,05,2.58,159.2,M,-34.4,M,,*57
$GPRMC,223610.250,A,4305.1607,N,07740.8690,W,0.04,336.59,161023,,,A*77
$GPGGA,223610.500,4305.1606,N,07740.8691,W,1,05,2.12,158.8,M,-34.4,M,,*50
$GPRMC,223610.750,A,4305.1605,N,07740.8691,W,0.03,349.94,161023,,,A*7F
$GPGGA,223611.000,4305.1604,N,07740.8691,W,1,05,2.58,158.6,M,-34.4,M,,*56
$GPRMC,223611.250,A,4305.1604,N,07740.8692,W,0.03,26.45,161023,,,A*4F
$GPGGA,223611.500,4305.1603,N,07740.8692,W,1,05,2.12,158.3,M,-34.4,M,,*5C
$GPRMC,223611.750,A,4305.1603,N,07740.8693,W,0.05,206.94,161023,,,A*76
$GPGGA,223612.000,4305.1603,N,07740.8693,W,1,05,2.12,158.1,M,-34.4,M,,*59
$GPRMC,223612.250,A,4305.1603,N,07740.8694,W,0.06,14.62,161023,,,A*4C
$GPGGA,223612.500,4305.1602,N,07740.8694,W,1,05,2.58,157.8,M,-34.4,M,,*52
$GPRMC,223612.750,A,4305.1602,N,07740.8694,W,0.05,214.52,161023,,,A*7A
$GPGGA,223613.000,4305.1602,N,07740.8694,W,1,05,2.12,157.7,M,-34.4,M,,*57
$GPRMC,223613.250,A,4305.1601,N,07740.8694,W,0.04,202.52,161023,,,A*7B
$GPGGA,223613.500,4305.1601,N,07740.8694,W,1,05,2.12,157.5,M,-34.4,M,,*53
$GPRMC,223613.750,A,4305.1606,N,07740.8692,W,0.01,150.38,161023,,,A*72
$GPGGA,223614.000,4305.1610,N,07740.8690,W,1,05,2.12,157.4,M,-34.4,M,,*54
$GPRMC,223614.250,A,4305.1613,N,07740.8689,W,0.02,201.45,161023,,,A*70
$GPGGA,223614.500,4305.1616,N,07740.8688,W,1,05,2.12,157.2,M,-34.4,M,,*58
$GPRMC,223614.750,A,4305.1619,N,07740.8686,W,0.01,28.75,161023,,,A*49
$GPGGA,223615.000,4305.1621,N,07740.8685,W,1,05,2.12,157.1,M,-34.4,M,,*56
$GPRMC,223615.250,A,4305.1623,N,07740.8684,W,0.07,11.04,161023,,,A*4C
$GPGGA,223615.500,4305.1625,N,07740.8684,W,1,05,2.58,157.0,M,-34.4,M,,*59
$GPRMC,223615.750,A,4305.1627,N,07740.8683,W,0.04,197.11,161023,,,A*72
$GPGGA,223616.000,4305.1628,N,07740.8683,W,1,05,2.12,156.8,M,-34.4,M,,*52
$GPRMC,223616.250,A,4305.1629,N,07740.8682,W,0.01,346.04,161023,,,A*74
$GPGGA,223616.500,4305.1630,N,07740.8681,W,1,05,2.58,156.7,M,-34.4,M,,*5D
$GPRMC,223616.750,A,4305.1631,N,07740.8681,W,0.02,178.64,161023,,,A*71
$GPGGA,223617.000,4305.1632,N,07740.8681,W,1,05,2.12,156.6,M,-34.4,M,,*54
$GPRMC,223617.250,A,4305.1632,N,07740.8681,W,0.03,39.53,161023,,,A*47
$GPGGA,223617.500,4305.1634,N,07740.8681,W,1,05,2.12,156.5,M,-34.4,M,,*54
$GPRMC,223617.750,A,4305.1634,N,07740.8681,W,0.06,13.50,161023,,,A*4A
$GPGGA,223618.000,4305.1634,N,07740.8681,W,1,05,2.58,156.5,M,-34.4,M,,*50
$GPRMC,223618.250,A,4305.1633,N,07740.8682,W,0.04,204.55,161023,,,A*77
$GPGGA,223618.500,4305.1631,N,07740.8683,W,1,06,1.64,156.5,M,-34.4,M,,*5D
$GPRMC,223618.750,A,4305.1630,N,07740.8684,W,0.02,219.49,161023,,,A*70
$GPGGA,223619.000,4305.1628,N,07740.8685,W,1,06,1.64,156.5,M,-34.4,M,,*57
$GPRMC,223619.250,A,4305.1626,N,07740.8686,W,0.01,107.36,161023,,,A*76
$GPGGA,223619.500,4305.1624,N,07740.8687,W,1,06,1.64,156.4,M,-34.4,M,,*5D
$GPRMC,223619.750,A,4305.1623,N,07740.8687,W,0.05,165.50,161023,,,A*77
$GPGGA,223620.000,4305.1622,N,07740.8688,W,1,06,1.64,156.4,M,-34.4,M,,*5B
$GPRMC,223620.250,A,4305.1621,N,07740.8689,W,0.02,240.47,161023,,,A*71
$GPGGA,223620.500,4305.1620,N,07740.8689,W,1,06,1.64,156.3,M,-34.4,M,,*5A
$GPRMC,223620.750,A,4305.1619,N,07740.8690,W,0.01,73.47,161023,,,A*46
$GPGGA,223621.000,4305.1618,N,07740.8690,W,1,06,1.64,156.3,M,-34.4,M,,*5D
$GPRMC,223621.250,A,4305.1617,N,07740.8691,W,0.02,154.79,161023,,,A*77
$GPGGA,223621.500,4305.1616,N,07740.8691,W,1,06,1.64,156.2,M,-34.4,M,,*56
$GPRMC,223621.750,A,4305.1615,N,07740.8691,W,0.02,336.52,161023,,,A*7F
$GPGGA,223622.000,4305.1614,N,07740.8692,W,1,06,1.64,156.2,M,-34.4,M,,*51
$GPRMC,223622.250,A,4305.1613,N,07740.8692,W,0.02,47.65,161023,,,A*4D
$GPGGA,223622.500,4305.1613,N,07740.8693,W,1,06,1.64,156.2,M,-34.4,M,,*52
$GPRMC,223622.750,A,4305.1612,N,07740.8693,W,0.02,262.20,161023,,,A*7C
$GPGGA,223623.000,4305.1612,N,07740.8693,W,1,06,1.64,156.2,M,-34.4,M,,*57
$GPRMC,223623.250,A,4305.1611,N,07740.8694,W,0.02,226.82,161023,,,A*74
$GPGGA,223623.500,4305.1610,N,07740.8694,W,1,06,1.64,156.1,M,-34.4,M,,*54
$GPRMC,223623.750,A,4305.1609,N,07740.8695,W,0.01,161.34,161023,,,A*77
$GPGGA,223624.000,4305.1608,N,07740.8696,W,1,06,1.64,156.0,M,-34.4,M,,*5C
$GPRMC,223624.250,A,4305.1608,N,07740.8696,W,0.01,160.45,161023,,,A*70
$GPGGA,223624.500,4305.1609,N,07740.8696,W,1,08,1.05,156.4,M,-34.4,M,,*55
$GPRMC,223624.750,A,4305.1608,N,07740.8697,W,0.02,350.51,161023,,,A*73
$GPGGA,223625.000,4305.1608,N,07740.8697,W,1,08,1.08,156.5,M,-34.4,M,,*5D
$GPRMC,223625.250,A,4305.1608,N,07740.8698,W,0.03,341.43,161023,,,A*7A
$GPGGA,223625.500,4305.1609,N,07740.8698,W,1,08,1.05,156.8,M,-34.4,M,,*56
$GPRMC,223625.750,A,4305.1609,N,07740.8698,W,0.06,34.02,161023,,,A*4F
$GPGGA,223626.000,4305.1610,N,07740.8698,W,1,08,1.05,157.0,M,-34.4,M,,*51
$GPRMC,223626.250,A,4305.1610,N,07740.8698,W,0.03,199.86,161023,,,A*7E
$GPGGA,223626.500,4305.1611,N,07740.8698,W,1,08,1.05,157.3,M,-34.4,M,,*56
$GPRMC,223626.750,A,4305.1611,N,07740.8698,W,0.07,41.35,161023,,,A*42
$GPGGA,223627.000,4305.1611,N,07740.8698,W,1,08,1.05,157.4,M,-34.4,M,,*55
$GPRMC,223627.250,A,4305.1611,N,07740.8698,W,0.04,231.63,161023,,,A*73
$GPGGA,223627.500,4305.1612,N,07740.8698,W,1,08,1.05,157.6,M,-34.4,M,,*51
$GPRMC,223627.750,A,4305.1612,N,07740.8698,W,0.04,345.78,161023,,,A*7D
$GPGGA,223628.000,4305.1613,N,07740.8698,W,1,08,1.08,157.7,M,-34.4,M,,*56
$GPRMC,223628.250,A,4305.1613,N,07740.8697,W,0.04,217.68,161023,,,A*7E
$GPGGA,223628.500,4305.1614,N,07740.8697,W,1,08,1.05,157.9,M,-34.4,M,,*58
$GPRMC,223628.750,A,4305.1614,N,07740.8697,W,0.01,106.57,161023,,,A*76
$GPGGA,223629.000,4305.1614,N,07740.8697,W,1,08,1.05,158.0,M,-34.4,M,,*5A
$GPRMC,223629.250,A,4305.1614,N,07740.8697,W,0.03,348.11,161023,,,A*7A
$GPGGA,223629.500,4305.1614,N,07740.8697,W,1,08,1.08,158.1,M,-34.4,M,,*53
$GPRMC,223629.750,A,4305.1614,N,07740.8697,W,0.02,137.36,161023,,,A*71
$GPGGA,223630.000,4305.1615,N,07740.8697,W,1,08,1.05,158.1,M,-34.4,M,,*52
$GPRMC,223630.250,A,4305.1615,N,07740.8697,W,0.01,306.21,161023,,,A*78
$GPGGA,223630.500,4305.1615,N,07740.8697,W,1,08,1.05,158.3,M,-34.4,M,,*55
$GPRMC,223630.750,A,4305.1615,N,07740.8697,W,0.02,214.86,161023,,,A*71
$GPGGA,223631.000,4305.1615,N,07740.8697,W,1,08,1.05,158.3,M,-34.4,M,,*51
$GPRMC,223631.250,A,4305.1616,N,07740.8697,W,0.05,19.37,161023,,,A*44
$GPGGA,223631.500,4305.1616,N,07740.8697,W,1,08,1.05,158.4,M,-34.4,M,,*50
$GPRMC,223631.750,A,4305.1616,N,07740.8697,W,0.05,29.05,161023,,,A*43
$GPGGA,223632.000,4305.1616,N,07740.8697,W,1,08,1.05,158.4,M,-34.4,M,,*56
$GPRMC,223632.250,A,4305.1616,N,07740.8697,W,0.03,188.20,161023,,,A*7E
$GPGGA,223632.500,4305.1616,N,07740.8697,W,1,08,1.05,158.4,M,-34.4,M,,*53
$GPRMC,223632.750,A,4305.1616,N,07740.8697,W,0.04,310.23,161023,,,A*7C
$GPGGA,223633.000,4305.1616,N,07740.8697,W,1,08,1.05,158.4,M,-34.4,M,,*57
$GPRMC,223633.250,A,4305.1616,N,07740.8697,W,0.01,297.54,161023,,,A*73
$GPGGA,223633.500,4305.1616,N,07740.8697,W,1,08,1.05,158.5,M,-34.4,M,,*53
$GPRMC,223633.750,A,4305.1616,N,07740.8697,W,0.02,92.76,161023,,,A*42
$GPGGA,223634.000,4305.1616,N,07740.8697,W,1,08,1.05,158.5,M,-34.4,M,,*51
$GPRMC,223634.250,A,4305.1616,N,07740.8697,W,0.05,176.09,161023,,,A*74
$GPGGA,223634.500,4305.1616,N,07740.8697,W,1,08,1.05,158.5,M,-34.4,M,,*54
$GPRMC,223634.750,A,4305.1616,N,07740.8697,W,0.06,207.02,161023,,,A*7C
$GPGGA,223635.000,4305.1616,N,07740.8697,W,1,08,1.05,158.5,M,-34.4,M,,*50
$GPRMC,223635.250,A,4305.1616,N,07740.8697,W,0.02,244.57,161023,,,A*7B
$GPGGA,223635.500,4305.1616,N,07740.8697,W,1,08,1.05,158.5,M,-34.4,M,,*55
$GPRMC,223635.750,A,4305.1616,N,07740.8697,W,0.01,83.75,161023,,,A*44
$GPGGA,223636.000,4305.1616,N,07740.8697,W,1,08,1.05,158.5,M,-34.4,M,,*53
$GPRMC,223636.250,A,4305.1616,N,07740.8697,W,0.02,41.17,161023,,,A*4B
$GPGGA,223636.500,4305.1616,N,07740.8697,W,1,08,1.05,158.5,M,-34.4,M,,*56
$GPRMC,223636.750,A,4305.1616,N,07740.8697,W,0.04,165.65,161023,,,A*7A
$GPGGA,223637.000,4305.1616,N,07740.8697,W,1,08,1.05,158.5,M,-34.4,M,,*52
$GPRMC,223637.250,A,4305.1616,N,07740.8697,W,0.02,351.15,161023,,,A*7A
$GPGGA,223637.500,4305.1616,N,07740.8697,W,1,08,1.08,158.5,M,-34.4,M,,*5A
$GPRMC,223637.750,A,4305.1616,N,07740.8697,W,0.05,195.45,161023,,,A*77
$GPGGA,223638.000,4305.1616,N,07740.8697,W,1,08,1.05,158.5,M,-34.4,M,,*5D
$GPRMC,223638.250,A,4305.1616,N,07740.8697,W,0.03,9.64,161023,,,A*7C
$GPGGA,223638.500,4305.1616,N,07740.8697,W,1,08,1.08,158.5,M,-34.4,M,,*55
$GPRMC,223638.750,A,4305.1616,N,07740.8697,W,0.03,306.56,161023,,,A*74
$GPGGA,223639.000,4305.1616,N,07740.8697,W,1,08,1.05,158.5,M,-34.4,M,,*5C
$GPRMC,223639.250,A,4305.1616,N,07740.8697,W,0.01,352.10,161023,,,A*71
$GPGGA,223639.500,4305.1616,N,07740.8697,W,1,08,1.08,158.5,M,-34.4,M,,*54
$GPRMC,223639.750,A,4305.1616,N,07740.8697,W,0.02,306.25,161023,,,A*70
$GPGGA,223640.000,4305.1616,N,07740.8697,W,1,08,1.05,158.5,M,-34.4,M,,*52
$GPRMC,223640.250,A,4305.1616,N,07740.8697,W,0.02,298.39,161023,,,A*70
$GPGGA,223640.500,4305.1616,N,07740.8697,W,1,08,1.05,158.5,M,-34.4,M,,*57
$GPRMC,223640.750,A,4305.1616,N,07740.8697,W,0.01,104.50,161023,,,A*7F
$GPGGA,223641.000,4305.1616,N,07740.8697,W,1,08,1.05,158.5,M,-34.4,M,,*53
$GPRMC,223641.250,A,4305.1616,N,07740.8697,W,0.05,169.29,161023,,,A*7A
$GPGGA,223641.500,4305.1616,N,07740.8697,W,1,08,1.05,158.5,M,-34.4,M,,*56
$GPRMC,223641.750,A,4305.1616,N,07740.8697,W,0.01,304.47,161023,,,A*7A
$GPGGA,223642.000,4305.1616,N,07740.8697,W,1,08,1.05,158.5,M,-34.4,M,,*50
$GPRMC,223642.250,A,4305.1616,N,07740.8697,W,0.03,166.89,161023,,,A*7A
$GPGGA,223642.500,4305.1616,N,07740.8697,W,1,08,1.08,158.5,M,-34.4,M,,*58
$GPRMC,223642.750,A,4305.1616,N,07740.8697,W,0.00,221.46,161023,,,A*7F
$GPGGA,223643.000,4305.1616,N,07740.8697,W,1,08,1.08,158.5,M,-34.4,M,,*5C
$GPRMC,223643.250,A,4305.1616,N,07740.8697,W,0.01,8.14,161023,,,A*74
$GPGGA,223643.500,4305.1616,N,07740.8697,W,1,08,1.08,158.5,M,-34.4,M,,*59
$GPRMC,223643.750,A,4305.1616,N,07740.8697,W,0.00,25.25,161023,,,A*4D
$GPGGA,223644.000,4305.1616,N,07740.8697,W,1,08,1.08,158.5,M,-34.4,M,,*5B
$GPRMC,223644.250,A,4305.1616,N,07740.8697,W,0.01,25.24,161023,,,A*4F
$GPGGA,223644.500,4305.1616,N,07740.8697,W,1,08,1.08,158.5,M,-34.4,M,,*5E
$GPRMC,223644.750,A,4305.1616,N,07740.8697,W,0.01,170.93,161023,,,A*77
$GPGGA,223645.000,4305.1616,N,07740.8697,W,1,08,1.08,158.5,M,-34.4,M,,*5A
$GPRMC,223645.250,A,4305.1616,N,07740.8697,W,0.01,289.40,161023,,,A*78
$GPGGA,223645.500,4305.1616,N,07740.8697,W,1,08,1.08,158.5,M,-34.4,M,,*5F
$GPRMC,223645.750,A,4305.1616,N,07740.8697,W,0.01,253.17,161023,,,A*78
$GPGGA,223646.000,4305.1616,N,07740.8697,W,1,08,1.08,158.5,M,-34.4,M,,*59
$GPRMC,223646.250,A,4305.1616,N,07740.8697,W,0.00,221.12,161023,,,A*7F
$GPGGA,223646.500,4305.1616,N,07740.8697,W,1,08,1.08,158.5,M,-34.4,M,,*5C
$GPRMC,223646.750,A,4305.1616,N,07740.8697,W,0.01,252.53,161023,,,A*7A
$GPGGA,223647.000,4305.1616,N,07740.8697,W,1,08,1.08,158.5,M,-34.4,M,,*58
$GPRMC,223647.250,A,4305.1616,N,07740.8697,W,0.00,354.07,161023,,,A*79
$GPGGA,223647.500,4305.1616,N,07740.8697,W,1,08,1.08,158.5,M,-34.4,M,,*5D
$GPRMC,223647.750,A,4305.1616,N,07740.8697,W,0.01,171.75,161023,,,A*7D
$GPGGA,223648.000,4305.1616,N,07740.8697,W,1,08,1.08,158.5,M,-34.4,M,,*57
$GPRMC,223648.250,A,4305.1616,N,07740.8697,W,0.01,182.86,161023,,,A*77
$GPGGA,223648.500,4305.1616,N,07740.8697,W,1,08,1.08,158.5,M,-34.4,M,,*52
$GPRMC,223648.750,A,4305.1616,N,07740.8697,W,0.00,16.39,161023,,,A*4B
$GPGGA,223649.000,4305.1616,N,07740.8697,W,1,08,1.08,158.5,M,-34.4,M,,*56
$GPRMC,223649.250,A,4305.1616,N,07740.8697,W,0.01,162.31,161023,,,A*74
$GPGGA,223649.500,4305.1616,N,07740.8697,W,1,08,1.08,158.5,M,-34.4,M,,*53
$GPRMC,223649.750,A,4305.1616,N,07740.8697,W,0.01,124.63,161023,,,A*74
$GPGGA,223650.000,4305.1616,N,07740.8697,W,1,08,1.08,158.5,M,-34.4,M,,*5E
$GPRMC,223650.250,A,4305.1616,N,07740.8697,W,0.01,276.13,161023,,,A*7A
$GPGGA,223650.500,4305.1616,N,07740.8697,W,1,08,1.08,158.5,M,-34.4,M,,*5B
$GPRMC,223650.750,A,4305.1616,N,07740.8697,W,0.00,185.73,161023,,,A*77
$GPGGA,223651.000,4305.1616,N,07740.8697,W,1,08,1.08,158.5,M,-34.4,M,,*5F
$GPRMC,223651.250,A,4305.1616,N,07740.8697,W,0.01,262.24,161023,,,A*7A
$GPGGA,223651.500,4305.1616,N,07740.8697,W,1,08,1.08,158.5,M,-34.4,M,,*5A
$GPRMC,223651.750,A,4305.1616,N,07740.8697,W,0.01,182.04,161023,,,A*70
$GPGGA,223652.000,4305.1616,N,07740.8697,W,1,08,1.08,158.5,M,-34.4,M,,*5C
$GPRMC,223652.250,A,4305.1616,N,07740.8697,W,0.01,299.39,161023,,,A*71
$GPGGA,223652.500,4305.1616,N,07740.8697,W,1,08,1.08,158.5,M,-34.4,M,,*59
$GPRMC,223652.750,A,4305.1616,N,07740.8697,W,0.01,283.96,161023,,,A*7A
$GPGGA,223653.000,4305.1616,N,07740.8697,W,1,08,1.08,158.5,M,-34.4,M,,*5D
$GPRMC,223653.250,A,4305.1616,N,07740.8697,W,0.00,33.96,161023,,,A*46
$GPGGA,223653.500,4305.1616,N,07740.8697,W,1,08,1.08,158.5,M,-34.4,M,,*58
$GPRMC,223653.750,A,4305.1616,N,07740.8697,W,0.01,206.54,161023,,,A*78
$GPGGA,223654.000,4305.1616,N,07740.8697,W,1,08,1.08,158.5,M,-34.4,M,,*5A
$GPRMC,223654.250,A,4305.1616,N,07740.8697,W,0.01,48.87,161023,,,A*4C
$GPGGA,223654.500,4305.1616,N,07740.8697,W,1,08,1.08,158.5,M,-34.4,M,,*5F
$GPRMC,223654.750,A,4305.1616,N,07740.8697,W,0.01,136.17,161023,,,A*78
$GPGGA,223655.000,4305.1616,N,07740.8697,W,1,08,1.08,158.5,M,-34.4,M,,*5B
$GPRMC,223655.250,A,4305.1616,N,07740.8697,W,0.01,240.43,161023,,,A*7F
$GPGGA,223655.500,4305.1616,N,07740.8697,W,1,08,1.08,158.5,M,-34.4,M,,*5E
$GPRMC,223655.750,A,4305.1616,N,07740.8697,W,0.01,23.16,161023,,,A*4D
$GPGGA,223656.000,4305.1616,N,07740.8697,W,1,08,1.08,158.5,M,-34.4,M,,*58
$GPRMC,223656.250,A,4305.1616,N,07740.8697,W,0.00,183.05,161023,,,A*73
$GPGGA,223656.500,4305.1616,N,07740.8697,W,1,08,1.08,158.5,M,-34.4,M,,*5D
$GPRMC,223656.750,A,4305.1616,N,07740.8697,W,0.01,3.79,161023,,,A*75
$GPGGA,223657.000,4305.1616,N,07740.8697,W,1,08,1.08,158.5,M,-34.4,M,,*59
$GPRMC,223657.250,A,4305.1616,N,07740.8697,W,0.01,183.11,161023,,,A*76
$GPGGA,223657.500,4305.1616,N,07740.8697,W,1,08,1.08,158.5,M,-34.4,M,,*5C
$GPRMC,223657.750,A,4305.1616,N,07740.8697,W,0.01,258.59,161023,,,A*7A
$GPGGA,223658.000,4305.1616,N,07740.8697,W,1,08,1.08,158.5,M,-34.4,M,,*56
$GPRMC,223658.250,A,4305.1616,N,07740.8697,W,0.00,333.54,161023,,,A*70
$GPGGA,223658.500,4305.1616,N,07740.8697,W,1,08,1.08,158.5,M,-34.4,M,,*53
$GPRMC,223658.750,A,4305.1616,N,07740.8697,W,0.00,113.97,161023,,,A*7A
$GPGGA,223659.000,4305.1616,N,07740.8697,W,1,08,1.08,158.5,M,-34.4,M,,*57
$GPRMC,223659.250,A,4305.1616,N,07740.8697,W,0.01,197.60,161023,,,A*7B
$GPGGA,223659.500,4305.1616,N,07740.8697,W,1,08,1.08,158.5,M,-34.4,M,,*52
$GPRMC,223659.750,A,4305.1616,N,07740.8697,W,0.01,23.04,161023,,,A*42
$GPGGA,223700.000,4305.1616,N,07740.8697,W,1,08,1.08,158.5,M,-34.4,M,,*5A
$GPRMC,223700.250,A,4305.1616,N,07740.8697,W,0.01,19.24,161023,,,A*41
$GPGGA,223700.500,4305.1616,N,07740.8697,W,1,09,0.91,158.5,M,-34.4,M,,*5F
$GPRMC,223700.750,A,4305.1616,N,07740.8697,W,0.01,170.21,161023,,,A*7F
$GPGGA,223701.000,4305.1616,N,07740.8697,W,1,09,0.91,158.5,M,-34.4,M,,*5B
$GPRMC,223701.250,A,4305.1616,N,07740.8697,W,0.00,0.00,161023,,,A*7F
$GPGGA,223701.500,4305.1616,N,07740.8697,W,1,09,0.91,158.5,M,-34.4,M,,*5E
$GPRMC,223701.750,A,4305.1616,N,07740.8697,W,0.00,201.15,161023,,,A*7D
$GPGGA,223702.000,4305.1616,N,07740.8697,W,1,09,0.91,158.5,M,-34.4,M,,*58
$GPRMC,223702.250,A,4305.1616,N,07740.8697,W,0.00,192.50,161023,,,A*73
$GPGGA,223702.500,4305.1616,N,07740.8697,W,1,09,0.91,158.5,M,-34.4,M,,*5D
$GPRMC,223702.750,A,4305.1616,N,07740.8697,W,0.01,154.17,161023,,,A*7E
$GPGGA,223703.000,4305.1616,N,07740.8697,W,1,09,0.91,158.5,M,-34.4,M,,*59
$GPRMC,223703.250,A,4305.1616,N,07740.8697,W,0.01,211.52,161023,,,A*79
$GPGGA,223703.500,4305.1616,N,07740.8697,W,1,09,0.91,158.5,M,-34.4,M,,*5C
$GPRMC,223703.750,A,4305.1616,N,07740.8697,W,0.00,117.51,161023,,,A*7B
$GPGGA,223704.000,4305.1616,N,07740.8697,W,1,09,0.91,158.5,M,-34.4,M,,*5E
$GPRMC,223704.250,A,4305.1616,N,07740.8697,W,0.00,86.45,161023,,,A*45
$GPGGA,223704.500,4305.1616,N,07740.8697,W,1,09,0.91,158.5,M,-34.4,M,,*5B
$GPRMC,223704.750,A,4305.1616,N,07740.8697,W,0.01,44.82,161023,,,A*44
$GPGGA,223705.000,4305.1616,N,07740.8697,W,1,09,0.91,158.5,M,-34.4,M,,*5F
$GPRMC,223705.250,A,4305.1616,N,07740.8697,W,0.00,0.00,161023,,,A*7B
$GPGGA,223705.500,4305.1616,N,07740.8697,W,1,09,0.91,158.5,M,-34.4,M,,*5A
$GPRMC,223705.750,A,4305.1616,N,07740.8697,W,0.01,214.81,161023,,,A*71
$GPGGA,223706.000,4305.1616,N,07740.8697,W,1,09,0.91,158.5,M,-34.4,M,,*5C
$GPRMC,223706.250,A,4305.1616,N,07740.8697,W,0.01,144.16,161023,,,A*7F
$GPGGA,223706.500,4305.1616,N,07740.8697,W,1,09,0.91,158.5,M,-34.4,M,,*59
$GPRMC,223706.750,A,4305.1616,N,07740.8697,W,0.00,265.99,161023,,,A*7C
$GPGGA,223707.000,4305.1616,N,07740.8697,W,1,09,0.91,158.5,M,-34.4,M,,*5D
$GPRMC,223707.250,A,4305.1616,N,07740.8697,W,0.00,119.58,161023,,,A*7D
$GPGGA,223707.500,4305.1616,N,07740.8697,W,1,09,0.91,158.5,M,-34.4,M,,*58
$GPRMC,223707.750,A,4305.1616,N,07740.8697,W,0.00,54.68,161023,,,A*43
$GPGGA,223708.000,4305.1616,N,07740.8697,W,1,09,0.91,158.5,M,-34.4,M,,*52
$GPRMC,223708.250,A,4305.1616,N,07740.8697,W,0.01,165.74,161023,,,A*76
$GPGGA,223708.500,4305.1616,N,07740.8697,W,1,09,0.91,158.5,M,-34.4,M,,*57
$GPRMC,223708.750,A,4305.1616,N,07740.8697,W,0.01,29.75,161023,,,A*4B
$GPGGA,223709.000,4305.1616,N,07740.8697,W,1,09,0.91,158.5,M,-34.4,M,,*53
$GPRMC,223709.250,A,4305.1616,N,07740.8697,W,0.00,232.76,161023,,,A*75
$GPGGA,223709.500,4305.1616,N,07740.8697,W,1,09,0.91,158.5,M,-34.4,M,,*56
$GPRMC,223709.750,A,4305.1616,N,07740.8697,W,0.00,132.92,161023,,,A*79
$GPGGA,223710.000,4305.1616,N,07740.8697,W,1,09,0.91,158.5,M,-34.4,M,,*5B
$GPRMC,223710.250,A,4305.1616,N,07740.8697,W,0.01,182.83,161023,,,A*7E
$GPGGA,223710.500,4305.1616,N,07740.8697,W,1,09,0.91,158.5,M,-34.4,M,,*5E
$GPRMC,223710.750,A,4305.1616,N,07740.8697,W,0.02,4.13,161023,,,A*7E
$GPGGA,223711.000,4305.1616,N,07740.8697,W,1,09,0.91,158.5,M,-34.4,M,,*5A
$GPRMC,223711.250,A,4305.1616,N,07740.8697,W,0.00,15.76,161023,,,A*4B
$GPGGA,223711.500,4305.1616,N,07740.8697,W,1,09,0.91,158.5,M,-34.4,M,,*5F
$GPRMC,223711.750,A,4305.1616,N,07740.8697,W,0.00,128.54,161023,,,A*71
$GPGGA,223712.000,4305.1616,N,07740.8697,W,1,09,0.91,158.5,M,-34.4,M,,*59
$GPRMC,223712.250,A,4305.1616,N,07740.8697,W,0.01,230.53,161023,,,A*7B
$GPGGA,223712.500,4305.1616,N,07740.8697,W,1,09,0.91,158.5,M,-34.4,M,,*5C
$GPRMC,223712.750,A,4305.1616,N,07740.8697,W,0.01,15.53,161023,,,A*4B
$GPGGA,223713.000,4305.1616,N,07740.8697,W,1,09,0.91,158.5,M,-34.4,M,,*58
$GPRMC,223713.250,A,4305.1616,N,07740.8697,W,0.01,139.64,161023,,,A*74
$GPGGA,223713.500,4305.1616,N,07740.8697,W,1,09,0.91,158.5,M,-34.4,M,,*5D
$GPRMC,223713.750,A,4305.1616,N,07740.8697,W,0.01,103.94,161023,,,A*77
$GPGGA,223714.000,4305.1616,N,07740.8697,W,1,09,0.91,158.5,M,-34.4,M,,*5F
$GPRMC,223714.250,A,4305.1616,N,07740.8697,W,0.00,71.43,161023,,,A*4A
$GPGGA,223714.500,4305.1616,N,07740.8697,W,1,09,0.91,158.5,M,-34.4,M,,*5A
$GPRMC,223714.750,A,4305.1616,N,07740.8697,W,0.00,0.00,161023,,,A*7E
$GPGGA,223715.000,4305.1616,N,07740.8697,W,1,09,0.91,158.5,M,-34.4,M,,*5E
$GPRMC,223715.250,A,4305.1616,N,07740.8697,W,0.00,259.78,161023,,,A*7B
$GPGGA,223715.500,4305.1616,N,07740.8697,W,1,09,0.91,158.5,M,-34.4,M,,*5B
$GPRMC,223715.750,A,4305.1616,N,07740.8697,W,0.01,208.47,161023,,,A*77
$GPGGA,223716.000,4305.1616,N,07740.8697,W,1,09,0.91,158.5,M,-34.4,M,,*5D
$GPRMC,223716.250,A,4305.1616,N,07740.8697,W,0.00,294.67,161023,,,A*77
$GPGGA,223716.500,4305.1616,N,07740.8697,W,1,09,0.91,158.5,M,-34.4,M,,*58
$GPRMC,223716.750,A,4305.1616,N,07740.8697,W,0.01,32.22,161023,,,A*4C
$GPGGA,223717.000,4305.1616,N,07740.8697,W,1,09,0.91,158.5,M,-34.4,M,,*5C
$GPRMC,223717.250,A,4305.1616,N,07740.8697,W,0.01,194.10,161023,,,A*74
$GPGGA,223717.500,4305.1616,N,07740.8697,W,1,09,0.91,158.5,M,-34.4,M,,*59
$GPRMC,223717.750,A,4305.1616,N,07740.8697,W,0.01,333.23,161023,,,A*7E
$GPGGA,223718.000,4305.1616,N,07740.8697,W,1,09,0.91,158.5,M,-34.4,M,,*53
$GPRMC,223718.250,A,4305.1616,N,07740.8697,W,0.01,248.12,161023,,,A*7B
$GPGGA,223718.500,4305.1616,N,07740.8697,W,1,09,0.91,158.5,M,-34.4,M,,*56
$GPRMC,223718.750,A,4305.1616,N,07740.8697,W,0.00,82.02,161023,,,A*4A
$GPGGA,223719.000,4305.1616,N,07740.8697,W,1,09,0.91,158.5,M,-34.4,M,,*52
$GPRMC,223719.250,A,4305.1616,N,07740.8697,W,0.01,275.35,161023,,,A*71
$GPGGA,223719.500,4305.1616,N,07740.8697,W,1,09,0.91,158.5,M,-34.4,M,,*57
$GPRMC,223719.750,A,4305.1616,N,07740.8697,W,0.01,296.10,161023,,,A*7E
$GPGGA,223720.000,4305.1616,N,07740.8697,W,1,09,0.91,158.5,M,-34.4,M,,*58
$GPRMC,223720.250,A,4305.1616,N,07740.8697,W,0.01,127.73,161023,,,A*7D
$GPGGA,223720.500,4305.1616,N,07740.8697,W,1,09,0.91,158.5,M,-34.4,M,,*5D
$GPRMC,223720.750,A,4305.1616,N,07740.8697,W,0.00,58.50,161023,,,A*41
$GPGGA,223721.000,4305.1616,N,07740.8697,W,1,09,0.91,158.5,M,-34.4,M,,*59
$GPRMC,223721.250,A,4305.1616,N,07740.8697,W,0.01,101.67,161023,,,A*7D
$GPGGA,223721.500,4305.1616,N,07740.8697,W,1,09,0.91,158.5,M,-34.4,M,,*5C
$GPRMC,223721.750,A,4305.1616,N,07740.8697,W,0.01,106.09,161023,,,A*77
$GPGGA,223722.000,4305.1616,N,07740.8697,W,1,09,0.91,158.5,M,-34.4,M,,*5A
$GPRMC,223722.250,A,4305.1616,N,07740.8697,W,0.01,22.88,161023,,,A*4F
$GPGGA,223722.500,4305.1616,N,07740.8697,W,1,09,0.91,158.5,M,-34.4,M,,*5F
$GPRMC,223722.750,A,4305.1616,N,07740.8697,W,0.00,17.57,161023,,,A*4F
$GPGGA,223723.000,4305.1616,N,07740.8697,W,1,09,0.91,158.5,M,-34.4,M,,*5B
$GPRMC,223723.250,A,4305.1616,N,07740.8697,W,0.01,138.01,161023,,,A*75
$GPGGA,223723.500,4305.1616,N,07740.8697,W,1,09,0.91,158.5,M,-34.4,M,,*5E
$GPRMC,223723.750,A,4305.1616,N,07740.8697,W,0.01,184.90,161023,,,A*7F
$GPGGA,223724.000,4305.1616,N,07740.8697,W,1,09,0.91,158.5,M,-34.4,M,,*5C
$GPRMC,223724.250,A,4305.1616,N,07740.8697,W,0.01,295.37,161023,,,A*73
$GPGGA,223724.500,4305.1616,N,07740.8697,W,1,09,0.91,158.5,M,-34.4,M,,*59
$GPRMC,223724.750,A,4305.1616,N,07740.8697,W,0.01,39.07,161023,,,A*41
$GPGGA,223725.000,4305.1616,N,07740.8697,W,1,09,0.91,158.5,M,-34.4,M,,*5D
$GPRMC,223725.250,A,4305.1616,N,07740.8697,W,0.00,188.51,161023,,,A*7C
$GPGGA,223725.500,4305.1616,N,07740.8697,W,1,09,0.91,158.5,M,-34.4,M,,*58
$GPRMC,223725.750,A,4305.1616,N,07740.8697,W,0.01,181.74,161023,,,A*76
$GPGGA,223726.000,4305.1616,N,07740.8697,W,1,09,0.91,158.5,M,-34.4,M,,*5E
$GPRMC,223726.250,A,4305.1616,N,07740.8697,W,0.01,196.83,161023,,,A*7E
$GPGGA,223726.500,4305.1616,N,07740.8697,W,1,09,0.91,158.5,M,-34.4,M,,*5B
$GPRMC,223726.750,A,4305.1616,N,07740.8697,W,0.01,178.00,161023,,,A*70
$GPGGA,223727.000,4305.1616,N,07740.8697,W,1,09,0.91,158.5,M,-34.4,M,,*5F
$GPRMC,223727.250,A,4305.1616,N,07740.8697,W,0.01,60.78,161023,,,A*43
$GPGGA,223727.500,4305.1616,N,07740.8697,W,1,09,0.91,158.5,M,-34.4,M,,*5A
$GPRMC,223727.750,A,4305.1616,N,07740.8697,W,0.00,299.09,161023,,,A*75
$GPGGA,223728.000,4305.1616,N,07740.8697,W,1,09,0.91,158.5,M,-34.4,M,,*50
$GPRMC,223728.250,A,4305.1616,N,07740.8697,W,0.00,192.50,161023,,,A*7B
$GPGGA,223728.500,4305.1616,N,07740.8697,W,1,09,0.91,158.5,M,-34.4,M,,*55
$GPRMC,223728.750,A,4305.1616,N,07740.8697,W,0.00,155.91,161023,,,A*78
$GPGGA,223729.000,4305.1616,N,07740.8697,W,1,09,0.91,158.5,M,-34.4,M,,*51
$GPRMC,223729.250,A,4305.1616,N,07740.8697,W,0.01,198.33,161023,,,A*74
$GPGGA,223729.500,4305.1616,N,07740.8697,W,1,09,0.91,158.5,M,-34.4,M,,*54
$GPRMC,223729.750,A,4305.1616,N,07740.8697,W,0.00,6.31,161023,,,A*74
$GPGGA,223730.000,4305.1616,N,07740.8697,W,1,09,0.91,158.5,M,-34.4,M,,*59
$GPRMC,223730.250,A,4305.1616,N,07740.8697,W,0.01,339.47,161023,,,A*76
$GPGGA,223730.500,4305.1616,N,07740.8697,W,1,09,0.91,158.5,M,-34.4,M,,*5C
$GPRMC,223730.750,A,4305.1616,N,07740.8697,W,0.01,217.59,161023,,,A*71
$GPGGA,223731.000,4305.1616,N,07740.8697,W,1,09,0.91,158.5,M,-34.4,M,,*58
$GPRMC,223731.250,A,4305.1616,N,07740.8697,W,0.00,0.00,161023,,,A*7C
$GPGGA,223731.500,4305.1616,N,07740.8697,W,1,09,0.91,158.5,M,-34.4,M,,*5D
$GPRMC,223731.750,A,4305.1616,N,07740.8697,W,0.01,5.72,161023,,,A*78
$GPGGA,223732.000,4305.1616,N,07740.8697,W,1,09,0.91,158.5,M,-34.4,M,,*5B
$GPRMC,223732.250,A,4305.1616,N,07740.8697,W,0.01,25.18,161023,,,A*40
$GPGGA,223732.500,4305.1616,N,07740.8697,W,1,09,0.91,158.5,M,-34.4,M,,*5E
$GPRMC,223732.750,A,4305.1616,N,07740.8697,W,0.00,59.30,161023,,,A*45
$GPGGA,223733.000,4305.1616,N,07740.8697,W,1,09,0.91,158.5,M,-34.4,M,,*5A
$GPRMC,223733.250,A,4305.1616,N,07740.8697,W,0.00,148.54,161023,,,A*72
$GPGGA,223733.500,4305.1616,N,07740.8697,W,1,09,0.91,158.5,M,-34.4,M,,*5F
$GPRMC,223733.750,A,4305.1616,N,07740.8697,W,0.01,235.50,161023,,,A*7B
$GPGGA,223734.000,4305.1616,N,07740.8697,W,1,09,0.91,158.5,M,-34.4,M,,*5D
$GPRMC,223734.250,A,4305.1616,N,07740.8697,W,0.00,120.21,161023,,,A*79
$GPGGA,223734.500,4305.1616,N,07740.8697,W,1,09,0.91,158.5,M,-34.4,M,,*58
$GPRMC,223734.750,A,4305.1616,N,07740.8697,W,0.01,223.93,161023,,,A*74
$GPGGA,223735.000,4305.1616,N,07740.8697,W,1,09,0.91,158.5,M,-34.4,M,,*5C
$GPRMC,223735.250,A,4305.1616,N,07740.8697,W,0.00,34.12,161023,,,A*4C
$GPGGA,223735.500,4305.1616,N,07740.8697,W,1,09,0.91,158.5,M,-34.4,M,,*59
$GPRMC,223735.750,A,4305.1616,N,07740.8697,W,0.01,358.99,161023,,,A*72
$GPGGA,223736.000,4305.1616,N,07740.8697,W,1,09,0.91,158.5,M,-34.4,M,,*5F
$GPRMC,223736.250,A,4305.1616,N,07740.8697,W,0.00,252.16,161023,,,A*79
$GPGGA,223736.500,4305.1616,N,07740.8697,W,1,09,0.91,158.5,M,-34.4,M,,*5A
$GPRMC,223736.750,A,4305.1616,N,07740.8697,W,0.01,235.11,161023,,,A*7B
$GPGGA,223737.000,4305.1616,N,07740.8697,W,1,09,0.91,158.5,M,-34.4,M,,*5E
$GPRMC,223737.250,A,4305.1617,N,07740.8697,W,0.01,42.02,161023,,,A*4E
$GPGGA,223737.500,4305.1617,N,07740.8697,W,1,09,0.91,158.5,M,-34.4,M,,*5A
$GPRMC,223737.750,A,4305.1617,N,07740.8697,W,0.01,343.33,161023,,,A*7B
$GPGGA,223738.000,4305.1617,N,07740.8697,W,1,09,0.91,158.5,M,-34.4,M,,*50
$GPRMC,223738.250,A,4305.1617,N,07740.8697,W,0.00,32.78,161023,,,A*4A
$GPGGA,223738.500,4305.1617,N,07740.8697,W,1,09,0.91,158.5,M,-34.4,M,,*55
$GPRMC,223738.750,A,4305.1617,N,07740.8697,W,0.01,241.91,161023,,,A*7F
$GPGGA,223739.000,4305.1617,N,07740.8697,W,1,09,0.91,158.5,M,-34.4,M,,*51
$GPRMC,223739.250,A,4305.1617,N,07740.8697,W,0.01,210.51,161023,,,A*73
$GPGGA,223739.500,4305.1617,N,07740.8697,W,1,09,0.91,158.5,M,-34.4,M,,*54
$GPRMC,223739.750,A,4305.1617,N,07740.8697,W,0.00,249.95,161023,,,A*73
$GPGGA,223740.000,4305.1617,N,07740.8697,W,1,09,0.91,158.5,M,-34.4,M,,*5F
$GPRMC,223740.250,A,4305.1617,N,07740.8697,W,0.01,99.92,161023,,,A*41
$GPGGA,223740.500,4305.1617,N,07740.8697,W,1,09,0.91,158.5,M,-34.4,M,,*5A
$GPRMC,223740.750,A,4305.1617,N,07740.8697,W,0.01,246.60,161023,,,A*79
$GPGGA,223741.000,4305.1617,N,07740.8697,W,1,09,0.91,158.5,M,-34.4,M,,*5E
$GPRMC,223741.250,A,4305.1617,N,07740.8697,W,0.00,0.00,161023,,,A*7A
$GPGGA,223741.500,4305.1617,N,07740.8697,W,1,09,0.91,158.5,M,-34.4,M,,*5B
$GPRMC,223741.750,A,4305.1617,N,07740.8697,W,0.01,59.56,161023,,,A*41
$GPGGA,223742.000,4305.1617,N,07740.8697,W,1,09,0.91,158.5,M,-34.4,M,,*5D
$GPRMC,223742.250,A,4305.1617,N,07740.8697,W,0.01,105.81,161023,,,A*75
$GPGGA,223742.500,4305.1617,N,07740.8697,W,1,09,0.91,158.5,M,-34.4,M,,*58
$GPRMC,223742.750,A,4305.1617,N,07740.8697,W,0.00,118.71,161023,,,A*72
$GPGGA,223743.000,4305.1617,N,07740.8697,W,1,09,0.91,158.5,M,-34.4,M,,*5C
$GPRMC,223743.250,A,4305.1617,N,07740.8697,W,0.01,264.11,161023,,,A*79
$GPGGA,223743.500,4305.1617,N,07740.8697,W,1,09,0.91,158.5,M,-34.4,M,,*59
$GPRMC,223743.750,A,4305.1617,N,07740.8697,W,0.01,10.55,161023,,,A*4D
$GPGGA,223744.000,4305.1617,N,07740.8697,W,1,09,0.91,158.5,M,-34.4,M,,*5B
$GPRMC,223744.250,A,4305.1617,N,07740.8697,W,0.02,201.46,161023,,,A*7C
$GPGGA,223744.500,4305.1617,N,07740.8697,W,1,09,0.91,158.5,M,-34.4,M,,*5E
$GPRMC,223744.750,A,4305.1617,N,07740.8697,W,0.01,55.24,161023,,,A*4D
$GPGGA,223745.000,4305.1617,N,07740.8697,W,1,09,0.91,158.5,M,-34.4,M,,*5A
$GPRMC,223745.250,A,4305.1617,N,07740.8697,W,0.01,31.97,161023,,,A*43
$GPGGA,223745.500,4305.1617,N,07740.8697,W,1,09,0.91,158.6,M,-34.4,M,,*5C
$GPRMC,223745.750,A,4305.1617,N,07740.8697,W,0.00,272.28,161023,,,A*76
$GPGGA,223746.000,4305.1617,N,07740.8697,W,1,09,0.91,158.6,M,-34.4,M,,*5A
$GPRMC,223746.250,A,4305.1617,N,07740.8697,W,0.00,221.74,161023,,,A*7F
$GPGGA,223746.500,4305.1617,N,07740.8697,W,1,09,0.91,158.6,M,-34.4,M,,*5F
$GPRMC,223746.750,A,4305.1617,N,07740.8697,W,0.00,147.98,161023,,,A*7B
$GPGGA,223747.000,4305.1617,N,07740.8697,W,1,09,0.91,158.6,M,-34.4,M,,*5B
$GPRMC,223747.250,A,4305.1617,N,07740.8697,W,0.01,76.34,161023,,,A*4B
$GPGGA,223747.500,4305.1617,N,07740.8697,W,1,09,0.91,158.6,M,-34.4,M,,*5E
$GPRMC,223747.750,A,4305.1617,N,07740.8697,W,0.00,0.00,161023,,,A*79
$GPGGA,223748.000,4305.1617,N,07740.8697,W,1,09,0.91,158.6,M,-34.4,M,,*54
$GPRMC,223748.250,A,4305.1617,N,07740.8697,W,0.01,332.97,161023,,,A*7E
$GPGGA,223748.500,4305.1617,N,07740.8697,W,1,09,0.91,158.6,M,-34.4,M,,*51
$GPRMC,223748.750,A,4305.1617,N,07740.8697,W,0.00,194.63,161023,,,A*7F
$GPGGA,223749.000,4305.1617,N,07740.8697,W,1,09,0.91,158.6,M,-34.4,M,,*55
$GPRMC,223749.250,A,4305.1617,N,07740.8697,W,0.01,205.36,161023,,,A*71
$GPGGA,223749.500,4305.1617,N,07740.8697,W,1,09,0.91,158.6,M,-34.4,M,,*50
$GPRMC,223749.750,A,4305.1617,N,07740.8697,W,0.01,351.94,161023,,,A*7C
$GPGGA,223750.000,4305.1617,N,07740.8697,W,1,09,0.91,158.6,M,-34.4,M,,*5D
$GPRMC,223750.250,A,4305.1617,N,07740.8697,W,0.01,27.07,161023,,,A*49
$GPGGA,223750.500,4305.1617,N,07740.8697,W,1,09,0.91,158.6,M,-34.4,M,,*58
$GPRMC,223750.750,A,4305.1617,N,07740.8697,W,0.00,303.26,161023,,,A*7B
$GPGGA,223751.000,4305.1617,N,07740.8697,W,1,09,0.91,158.6,M,-34.4,M,,*5C
$GPRMC,223751.250,A,4305.1617,N,07740.8697,W,0.01,166.74,161023,,,A*78
$GPGGA,223751.500,4305.1617,N,07740.8697,W,1,09,0.91,158.6,M,-34.4,M,,*59
$GPRMC,223751.750,A,4305.1617,N,07740.8697,W,0.00,59.61,161023,,,A*45
$GPGGA,223752.000,4305.1617,N,07740.8697,W,1,09,0.91,158.6,M,-34.4,M,,*5F
$GPRMC,223752.250,A,4305.1617,N,07740.8697,W,0.00,6.52,161023,,,A*79
$GPGGA,223752.500,4305.1617,N,07740.8697,W,1,09,0.91,158.6,M,-34.4,M,,*5A
$GPRMC,223752.750,A,4305.1617,N,07740.8697,W,0.00,138.00,161023,,,A*77
$GPGGA,223753.000,4305.1617,N,07740.8697,W,1,09,0.91,158.6,M,-34.4,M,,*5E
$GPRMC,223753.250,A,4305.1617,N,07740.8697,W,0.01,104.63,161023,,,A*78
$GPGGA,223753.500,4305.1617,N,07740.8697,W,1,09,0.91,158.6,M,-34.4,M,,*5B
$GPRMC,223753.750,A,4305.1617,N,07740.8697,W,0.01,325.86,161023,,,A*77
$GPGGA,223754.000,4305.1617,N,07740.8697,W,1,09,0.91,158.6,M,-34.4,M,,*59
$GPRMC,223754.250,A,4305.1617,N,07740.8697,W,0.01,273.48,161023,,,A*75
$GPGGA,223754.500,4305.1617,N,07740.8697,W,1,09,0.91,158.6,M,-34.4,M,,*5C
$GPRMC,223754.750,A,4305.1617,N,07740.8697,W,0.00,341.01,161023,,,A*7C
$GPGGA,223755.000,4305.1617,N,07740.8697,W,1,09,0.91,158.6,M,-34.4,M,,*58
$GPRMC,223755.250,A,4305.1617,N,07740.8697,W,0.00,7.55,161023,,,A*78
$GPGGA,223755.500,4305.1617,N,07740.8697,W,1,09,0.91,158.6,M,-34.4,M,,*5D
$GPRMC,223755.750,A,4305.1617,N,07740.8697,W,0.01,23.45,161023,,,A*4B
$GPGGA,223756.000,4305.1617,N,07740.8697,W,1,09,0.91,158.6,M,-34.4,M,,*5B
$GPRMC,223756.250,A,4305.1617,N,07740.8697,W,0.00,9.28,161023,,,A*7F
$GPGGA,223756.500,4305.1617,N,07740.8697,W,1,09,0.91,158.6,M,-34.4,M,,*5E
$GPRMC,223756.750,A,4305.1617,N,07740.8697,W,0.01,136.92,161023,,,A*77
$GPGGA,223757.000,4305.1617,N,07740.8697,W,1,09,0.91,158.6,M,-34.4,M,,*5A
$GPRMC,223757.250,A,4305.1617,N,07740.8697,W,0.01,260.15,161023,,,A*7C
$GPGGA,223757.500,4305.1617,N,07740.8697,W,1,09,0.91,158.6,M,-34.4,M,,*5F
$GPRMC,223757.750,A,4305.1617,N,07740.8697,W,0.00,152.89,161023,,,A*7F
$GPGGA,223758.000,4305.1617,N,07740.8697,W,1,09,0.91,158.6,M,-34.4,M,,*55
$GPRMC,223758.250,A,4305.1617,N,07740.8697,W,0.01,9.84,161023,,,A*76
$GPGGA,223758.500,4305.1617,N,07740.8697,W,1,09,0.91,158.6,M,-34.4,M,,*50
$GPRMC,223758.750,A,4305.1617,N,07740.8697,W,0.01,149.42,161023,,,A*7C
$GPGGA,223759.000,4305.1617,N,07740.8697,W,1,09,0.91,158.6,M,-34.4,M,,*54
$GPRMC,223759.250,A,4305.1617,N,07740.8697,W,0.02,66.41,161023,,,A*44
$GPGGA,223759.500,4305.1617,N,07740.8697,W,1,09,0.91,158.6,M,-34.4,M,,*51
$GPRMC,223759.750,A,4305.1617,N,07740.8697,W,0.00,195.98,161023,,,A*7A
$GPGGA,223800.000,4305.1617,N,07740.8697,W,1,09,0.91,158.6,M,-34.4,M,,*57
$GPRMC,223800.250,A,4305.1617,N,07740.8697,W,0.00,339.06,161023,,,A*7F
$GPGGA,223800.500,4305.1617,N,07740.8697,W,1,09,0.91,158.6,M,-34.4,M,,*52
$GPRMC,223800.750,A,4305.1617,N,07740.8697,W,0.01,332.50,161023,,,A*73
$GPGGA,223801.000,4305.1617,N,07740.8697,W,1,09,0.91,158.6,M,-34.4,M,,*56
$GPRMC,223801.250,A,4305.1617,N,07740.8697,W,0.00,267.83,161023,,,A*79
$GPGGA,223801.500,4305.1617,N,07740.8697,W,1,09,0.91,158.6,M,-34.4,M,,*53
$GPRMC,223801.750,A,4305.1617,N,07740.8697,W,0.00,117.94,161023,,,A*7E
$GPGGA,223802.000,4305.1617,N,07740.8697,W,1,09,0.91,158.6,M,-34.4,M,,*55
$GPRMC,223802.250,A,4305.1617,N,07740.8697,W,0.01,195.92,161023,,,A*75
$GPGGA,223802.500,4305.1617,N,07740.8697,W,1,09,0.91,158.6,M,-34.4,M,,*50
$GPRMC,223802.750,A,4305.1617,N,07740.8697,W,0.00,331.13,161023,,,A*74
$GPGGA,223803.000,4305.1617,N,07740.8697,W,1,09,0.91,158.6,M,-34.4,M,,*54
$GPRMC,223803.250,A,4305.1617,N,07740.8697,W,0.00,180.08,161023,,,A*72
$GPGGA,223803.500,4305.1617,N,07740.8697,W,1,09,0.91,158.6,M,-34.4,M,,*51
$GPRMC,223803.750,A,4305.1617,N,07740.8697,W,0.00,348.55,161023,,,A*79
$GPGGA,223804.000,4305.1617,N,07740.8697,W,1,09,0.91,158.6,M,-34.4,M,,*53
$GPRMC,223804.250,A,4305.1617,N,07740.8697,W,0.01,295.23,161023,,,A*7A
$GPGGA,223804.500,4305.1617,N,07740.8697,W,1,09,0.91,158.6,M,-34.4,M,,*56
$GPRMC,223804.750,A,4305.1617,N,07740.8697,W,0.01,301.45,161023,,,A*73
$GPGGA,223805.000,4305.1617,N,07740.8697,W,1,09,0.91,158.6,M,-34.4,M,,*52
$GPRMC,223805.250,A,4305.1617,N,07740.8697,W,0.01,355.90,161023,,,A*7E
$GPGGA,223805.500,4305.1617,N,07740.8697,W,1,09,0.91,158.6,M,-34.4,M,,*57
$GPRMC,223805.750,A,4305.1617,N,07740.8697,W,0.00,5.71,161023,,,A*73
$GPGGA,223806.000,4305.1617,N,07740.8697,W,1,09,0.91,158.6,M,-34.4,M,,*51
$GPRMC,223806.250,A,4305.1617,N,07740.8697,W,0.00,147.84,161023,,,A*78
$GPGGA,223806.500,4305.1617,N,07740.8697,W,1,09,0.91,158.6,M,-34.4,M,,*54
$GPRMC,223806.750,A,4305.1617,N,07740.8697,W,0.00,162.52,161023,,,A*71
$GPGGA,223807.000,4305.1617,N,07740.8697,W,1,09,0.91,158.6,M,-34.4,M,,*50
$GPRMC,223807.250,A,4305.1617,N,07740.8697,W,0.01,128.13,161023,,,A*7F
$GPGGA,223807.500,4305.1617,N,07740.8697,W,1,09,0.91,158.6,M,-34.4,M,,*55
$GPRMC,223807.750,A,4305.1617,N,07740.8697,W,0.01,27.19,161023,,,A*4E
$GPGGA,223808.000,4305.1617,N,07740.8697,W,1,09,0.91,158.6,M,-34.4,M,,*5F
$GPRMC,223808.250,A,4305.1617,N,07740.8697,W,0.01,2.02,161023,,,A*79
$GPGGA,223808.500,4305.1617,N,07740.8697,W,1,09,0.91,158.6,M,-34.4,M,,*5A
$GPRMC,223808.750,A,4305.1617,N,07740.8697,W,0.01,227.35,161023,,,A*7D
$GPGGA,223809.000,4305.1617,N,07740.8697,W,1,09,0.91,158.6,M,-34.4,M,,*5E
$GPRMC,223809.250,A,4305.1617,N,07740.8697,W,0.00,0.00,161023,,,A*79
$GPGGA,223809.500,4305.1617,N,07740.8697,W,1,09,0.91,158.6,M,-34.4,M,,*5B
$GPRMC,223809.750,A,4305.1617,N,07740.8697,W,0.01,217.54,161023,,,A*78
$GPGGA,223810.000,4305.1617,N,07740.8697,W,1,09,0.91,158.6,M,-34.4,M,,*56
$GPRMC,223810.250,A,4305.1617,N,07740.8697,W,0.00,161.72,161023,,,A*72
$GPGGA,223810.500,4305.1617,N,07740.8697,W,1,09,0.91,158.6,M,-34.4,M,,*53
$GPRMC,223810.750,A,4305.1617,N,07740.8697,W,0.01,305.15,161023,,,A*77
$GPGGA,223811.000,4305.1617,N,07740.8697,W,1,09,0.91,158.6,M,-34.4,M,,*57
$GPRMC,223811.250,A,4305.1617,N,07740.8697,W,0.01,318.31,161023,,,A*79
$GPGGA,223811.500,4305.1617,N,07740.8697,W,1,09,0.91,158.6,M,-34.4,M,,*52
$GPRMC,223811.750,A,4305.1617,N,07740.8697,W,0.01,8.80,161023,,,A*74
$GPGGA,223812.000,4305.1617,N,07740.8697,W,1,09,0.91,158.6,M,-34.4,M,,*54
$GPRMC,223812.250,A,4305.1617,N,07740.8697,W,0.01,26.03,161023,,,A*45
$GPGGA,223812.500,4305.1617,N,07740.8697,W,1,09,0.91,158.6,M,-34.4,M,,*51
$GPRMC,223812.750,A,4305.1617,N,07740.8697,W,0.00,42.46,161023,,,A*42
$GPGGA,223813.000,4305.1617,N,07740.8697,W,1,09,0.91,158.6,M,-34.4,M,,*55
$GPRMC,223813.250,A,4305.1617,N,07740.8697,W,0.01,50.27,161023,,,A*43
$GPGGA,223813.500,4305.1617,N,07740.8697,W,1,09,0.91,158.6,M,-34.4,M,,*50
$GPRMC,223813.750,A,4305.1617,N,07740.8697,W,0.00,27.91,161023,,,A*4A
$GPGGA,223814.000,4305.1617,N,07740.8697,W,1,09,0.91,158.6,M,-34.4,M,,*52
$GPRMC,223814.250,A,4305.1617,N,07740.8697,W,0.00,93.63,161023,,,A*4A
$GPGGA,223814.500,4305.1617,N,07740.8697,W,1,09,0.91,158.6,M,-34.4,M,,*57
$GPRMC,223814.750,A,4305.1617,N,07740.8696,W,0.00,356.66,161023,,,A*71
$GPGGA,223815.000,4305.1617,N,07740.8696,W,1,09,0.91,158.6,M,-34.4,M,,*52
$GPRMC,223815.250,A,4305.1618,N,07740.8696,W,0.00,107.49,161023,,,A*71
$GPGGA,223815.500,4305.1618,N,07740.8696,W,1,09,0.91,158.7,M,-34.4,M,,*59
$GPRMC,223815.750,A,4305.1618,N,07740.8696,W,0.01,310.34,161023,,,A*7B
$GPGGA,223816.000,4305.1618,N,07740.8695,W,1,09,0.91,158.7,M,-34.4,M,,*5C
$GPRMC,223816.250,A,4305.1618,N,07740.8695,W,0.00,273.92,161023,,,A*77
$GPGGA,223816.500,4305.1619,N,07740.8695,W,1,09,0.91,158.8,M,-34.4,M,,*57
$GPRMC,223816.750,A,4305.1619,N,07740.8695,W,0.00,356.21,161023,,,A*7D
$GPGGA,223817.000,4305.1619,N,07740.8695,W,1,09,0.91,158.8,M,-34.4,M,,*53
$GPRMC,223817.250,A,4305.1619,N,07740.8694,W,0.00,160.20,161023,,,A*7E
$GPGGA,223817.500,4305.1619,N,07740.8694,W,1,09,0.91,158.9,M,-34.4,M,,*56
$GPRMC,223817.750,A,4305.1620,N,07740.8694,W,0.01,256.95,161023,,,A*78
$GPGGA,223818.000,4305.1620,N,07740.8694,W,1,09,0.91,158.9,M,-34.4,M,,*56
$GPRMC,223818.250,A,4305.1620,N,07740.8694,W,0.01,291.51,161023,,,A*71
$GPGGA,223818.500,4305.1620,N,07740.8694,W,1,09,0.91,158.9,M,-34.4,M,,*53
$GPRMC,223818.750,A,4305.1620,N,07740.8694,W,0.02,218.48,161023,,,A*7E
$GPGGA,223819.000,4305.1620,N,07740.8694,W,1,09,0.91,158.9,M,-34.4,M,,*57
$GPRMC,223819.250,A,4305.1620,N,07740.8694,W,0.01,162.86,161023,,,A*75
$GPGGA,223819.500,4305.1620,N,07740.8694,W,1,09,0.91,158.9,M,-34.4,M,,*52
$GPRMC,223819.750,A,4305.1620,N,07740.8694,W,0.00,308.48,161023,,,A*7D
$GPGGA,223820.000,4305.1620,N,07740.8694,W,1,09,0.91,158.9,M,-34.4,M,,*5D
$GPRMC,223820.250,A,4305.1620,N,07740.8694,W,0.00,216.88,161023,,,A*70
$GPGGA,223820.500,4305.1620,N,07740.8694,W,1,09,0.91,158.9,M,-34.4,M,,*58
$GPRMC,223820.750,A,4305.1620,N,07740.8694,W,0.01,334.46,161023,,,A*77
$GPGGA,223821.000,4305.1620,N,07740.8694,W,1,09,0.91,158.9,M,-34.4,M,,*5C
$GPRMC,223821.250,A,4305.1620,N,07740.8694,W,0.01,7.82,161023,,,A*78
$GPGGA,223821.500,4305.1620,N,07740.8694,W,1,09,0.91,158.9,M,-34.4,M,,*59
$GPRMC,223821.750,A,4305.1620,N,07740.8694,W,0.00,343.45,161023,,,A*74
$GPGGA,223822.000,4305.1620,N,07740.8694,W,1,09,0.91,158.9,M,-34.4,M,,*5F
$GPRMC,223822.250,A,4305.1620,N,07740.8694,W,0.01,151.91,161023,,,A*7B
$GPGGA,223822.500,4305.1620,N,07740.8694,W,1,09,0.91,158.9,M,-34.4,M,,*5A
$GPRMC,223822.750,A,4305.1620,N,07740.8694,W,0.00,114.99,161023,,,A*76
$GPGGA,223823.000,4305.1620,N,07740.8694,W,1,09,0.91,158.9,M,-34.4,M,,*5E
$GPRMC,223823.250,A,4305.1620,N,07740.8694,W,0.01,222.41,161023,,,A*70
$GPGGA,223823.500,4305.1620,N,07740.8694,W,1,09,0.91,158.9,M,-34.4,M,,*5B
$GPRMC,223823.750,A,4305.1620,N,07740.8694,W,0.00,65.78,161023,,,A*4F
$GPGGA,223824.000,4305.1620,N,07740.8694,W,1,09,0.91,158.9,M,-34.4,M,,*59
$GPRMC,223824.250,A,4305.1620,N,07740.8694,W,0.01,51.57,161023,,,A*46
$GPGGA,223824.500,4305.1620,N,07740.8694,W,1,09,0.91,158.9,M,-34.4,M,,*5C
$GPRMC,223824.750,A,4305.1620,N,07740.8694,W,0.01,115.12,161023,,,A*73
$GPGGA,223825.000,4305.1620,N,07740.8694,W,1,09,0.91,158.9,M,-34.4,M,,*58
$GPRMC,223825.250,A,4305.1620,N,07740.8694,W,0.01,10.68,161023,,,A*4E
$GPGGA,223825.500,4305.1620,N,07740.8694,W,1,09,0.91,158.9,M,-34.4,M,,*5D
$GPRMC,223825.750,A,4305.1620,N,07740.8694,W,0.00,83.68,161023,,,A*40
$GPGGA,223826.000,4305.1620,N,07740.8694,W,1,09,0.91,158.9,M,-34.4,M,,*5B
$GPRMC,223826.250,A,4305.1620,N,07740.8694,W,0.01,4.10,161023,,,A*77
$GPGGA,223826.500,4305.1620,N,07740.8694,W,1,09,0.91,158.9,M,-34.4,M,,*5E
$GPRMC,223826.750,A,4305.1620,N,07740.8694,W,0.01,206.66,161023,,,A*73
$GPGGA,223827.000,4305.1620,N,07740.8694,W,1,09,0.91,158.9,M,-34.4,M,,*5A
$GPRMC,223827.250,A,4305.1620,N,07740.8694,W,0.01,164.28,161023,,,A*7A
$GPGGA,223827.500,4305.1620,N,07740.8694,W,1,09,0.91,158.9,M,-34.4,M,,*5F
$GPRMC,223827.750,A,4305.1620,N,07740.8694,W,0.01,331.16,161023,,,A*70
$GPGGA,223828.000,4305.1620,N,07740.8694,W,1,09,0.91,158.9,M,-34.4,M,,*55
$GPRMC,223828.250,A,4305.1620,N,07740.8694,W,0.01,80.61,161023,,,A*43
$GPGGA,223828.500,4305.1620,N,07740.8694,W,1,09,0.91,158.9,M,-34.4,M,,*50
$GPRMC,223828.750,A,4305.1620,N,07740.8694,W,0.00,346.93,161023,,,A*73
$GPGGA,223829.000,4305.1620,N,07740.8694,W,1,09,0.91,158.9,M,-34.4,M,,*54
$GPRMC,223829.250,A,4305.1620,N,07740.8694,W,0.01,93.14,161023,,,A*42
$GPGGA,223829.500,4305.1620,N,07740.8694,W,1,09,0.91,158.9,M,-34.4,M,,*51
$GPRMC,223829.750,A,4305.1620,N,07740.8694,W,0.01,93.99,161023,,,A*42
$GPGGA,223830.000,4305.1620,N,07740.8694,W,1,09,0.91,158.9,M,-34.4,M,,*5C
$GPRMC,223830.250,A,4305.1620,N,07740.8694,W,0.01,337.78,161023,,,A*7D
$GPGGA,223830.500,4305.1620,N,07740.8694,W,1,09,0.91,158.9,M,-34.4,M,,*59
$GPRMC,223830.750,A,4305.1620,N,07740.8694,W,0.02,338.94,161023,,,A*76
$GPGGA,223831.000,4305.1620,N,07740.8694,W,1,09,0.91,158.9,M,-34.4,M,,*5D
$GPRMC,223831.250,A,4305.1620,N,07740.8694,W,0.09,352.17,161023,,,A*7E
$GPGGA,223831.500,4305.1620,N,07740.8694,W,1,09,0.91,158.9,M,-34.4,M,,*58
$GPRMC,223831.750,A,4305.1620,N,07740.8694,W,0.12,349.45,161023,,,A*7C
$GPGGA,223832.000,4305.1620,N,07740.8694,W,1,09,0.91,158.9,M,-34.4,M,,*5E
$GPRMC,223832.250,A,4305.1620,N,07740.8694,W,0.08,345.90,161023,,,A*75
$GPGGA,223832.500,4305.1620,N,07740.8694,W,1,09,0.91,158.9,M,-34.4,M,,*5B
$GPRMC,223832.750,A,4305.1620,N,07740.8694,W,0.20,334.50,161023,,,A*70
$GPGGA,223833.000,4305.1620,N,07740.8694,W,1,09,0.91,158.9,M,-34.4,M,,*5F
$GPRMC,223833.250,A,4305.1620,N,07740.8694,W,0.98,4.42,161023,,,A*74
$GPGGA,223833.500,4305.1620,N,07740.8694,W,1,09,0.91,158.9,M,-34.4,M,,*5A
$GPRMC,223833.750,A,4305.1621,N,07740.8693,W,1.62,14.35,161023,,,A*42
$GPGGA,223834.000,4305.1622,N,07740.8693,W,1,09,0.91,158.9,M,-34.4,M,,*5D
$GPRMC,223834.250,A,4305.1624,N,07740.8692,W,2.05,24.04,161023,,,A*47
$GPGGA,223834.500,4305.1625,N,07740.8692,W,1,09,0.91,158.9,M,-34.4,M,,*5E
$GPRMC,223834.750,A,4305.1626,N,07740.8691,W,1.95,32.66,161023,,,A*4A
$GPGGA,223835.000,4305.1628,N,07740.8689,W,1,09,0.91,158.9,M,-34.4,M,,*5D
$GPRMC,223835.250,A,4305.1629,N,07740.8688,W,2.21,39.82,161023,,,A*44
$GPGGA,223835.500,4305.1631,N,07740.8687,W,1,09,0.91,158.9,M,-34.4,M,,*5E
$GPRMC,223835.750,A,4305.1632,N,07740.8685,W,2.29,49.95,161023,,,A*4F
$GPGGA,223836.000,4305.1633,N,07740.8683,W,1,09,0.91,159.0,M,-34.4,M,,*56
$GPRMC,223836.250,A,4305.1634,N,07740.8681,W,2.39,58.67,161023,,,A*47
$GPGGA,223836.500,4305.1635,N,07740.8679,W,1,09,0.91,159.0,M,-34.4,M,,*50
$GPRMC,223836.750,A,4305.1636,N,07740.8677,W,2.66,63.12,161023,,,A*49
$GPGGA,223837.000,4305.1637,N,07740.8674,W,1,09,0.91,159.0,M,-34.4,M,,*5B
$GPRMC,223837.250,A,4305.1637,N,07740.8673,W,1.82,70.36,161023,,,A*45
$GPGGA,223837.500,4305.1638,N,07740.8671,W,1,09,0.91,159.0,M,-34.4,M,,*54
$GPRMC,223837.750,A,4305.1638,N,07740.8671,W,0.33,56.99,161023,,,A*47
$GPGGA,223838.000,4305.1638,N,07740.8671,W,1,09,0.91,159.0,M,-34.4,M,,*5E
$GPRMC,223838.250,A,4305.1638,N,07740.8672,W,1.55,250.50,161023,,,A*7E
$GPGGA,223838.500,4305.1638,N,07740.8674,W,1,09,0.91,159.0,M,-34.4,M,,*5E
$GPRMC,223838.750,A,4305.1637,N,07740.8677,W,3.83,250.04,161023,,,A*79
$GPGGA,223839.000,4305.1636,N,07740.8681,W,1,09,0.91,159.0,M,-34.4,M,,*5E
$GPRMC,223839.250,A,4305.1636,N,07740.8686,W,6.21,257.81,161023,,,A*75
$GPGGA,223839.500,4305.1635,N,07740.8692,W,1,09,0.91,159.0,M,-34.4,M,,*5A
$GPRMC,223839.750,A,4305.1635,N,07740.8699,W,8.09,268.25,161023,,,A*7B
$GPGGA,223840.000,4305.1635,N,07740.8707,W,1,09,0.91,159.0,M,-34.4,M,,*5C
$GPRMC,223840.250,A,4305.1636,N,07740.8716,W,9.52,278.58,161023,,,A*71
$GPGGA,223840.500,4305.1637,N,07740.8725,W,1,09,0.91,159.0,M,-34.4,M,,*5B
$GPRMC,223840.750,A,4305.1639,N,07740.8734,W,9.54,283.60,161023,,,A*72
$GPGGA,223841.000,4305.1641,N,07740.8742,W,1,09,0.91,158.9,M,-34.4,M,,*57
$GPRMC,223841.250,A,4305.1643,N,07740.8751,W,9.14,285.46,161023,,,A*7E
$GPGGA,223841.500,4305.1645,N,07740.8759,W,1,09,0.91,158.9,M,-34.4,M,,*5C
$GPRMC,223841.750,A,4305.1646,N,07740.8766,W,7.49,284.81,161023,,,A*76
$GPGGA,223842.000,4305.1648,N,07740.8772,W,1,09,0.91,158.8,M,-34.4,M,,*5F
$GPRMC,223842.250,A,4305.1649,N,07740.8778,W,5.78,283.02,161023,,,A*7C
$GPGGA,223842.500,4305.1650,N,07740.8783,W,1,09,0.91,158.8,M,-34.4,M,,*5D
$GPRMC,223842.750,A,4305.1650,N,07740.8787,W,4.03,279.98,161023,,,A*7A
$GPGGA,223843.000,4305.1651,N,07740.8790,W,1,09,0.91,158.8,M,-34.4,M,,*5A
$GPRMC,223843.250,A,4305.1651,N,07740.8793,W,3.15,277.69,161023,,,A*7A
$GPGGA,223843.500,4305.1652,N,07740.8796,W,1,09,0.91,158.8,M,-34.4,M,,*5A
$GPRMC,223843.750,A,4305.1652,N,07740.8799,W,3.51,278.44,161023,,,A*76
$GPGGA,223844.000,4305.1653,N,07740.8803,W,1,09,0.91,158.7,M,-34.4,M,,*55
$GPRMC,223844.250,A,4305.1653,N,07740.8807,W,4.26,282.45,161023,,,A*7E
$GPGGA,223844.500,4305.1654,N,07740.8811,W,1,09,0.91,158.7,M,-34.4,M,,*54
$GPRMC,223844.750,A,4305.1655,N,07740.8815,W,4.80,287.48,161023,,,A*7A
$GPGGA,223845.000,4305.1657,N,07740.8819,W,1,09,0.91,158.7,M,-34.4,M,,*5B
$GPRMC,223845.250,A,4305.1659,N,07740.8823,W,5.75,301.50,161023,,,A*7A
$GPGGA,223845.500,4305.1662,N,07740.8828,W,1,09,0.91,158.7,M,-34.4,M,,*5A
$GPRMC,223845.750,A,4305.1665,N,07740.8832,W,7.05,314.62,161023,,,A*70
$GPGGA,223846.000,4305.1669,N,07740.8836,W,1,09,0.91,158.7,M,-34.4,M,,*58
$GPRMC,223846.250,A,4305.1674,N,07740.8840,W,7.86,333.16,161023,,,A*7E
$GPGGA,223846.500,4305.1679,N,07740.8842,W,1,09,0.91,158.7,M,-34.4,M,,*5F
$GPRMC,223846.750,A,4305.1685,N,07740.8844,W,9.45,348.45,161023,,,A*7A
$GPGGA,223847.000,4305.1692,N,07740.8845,W,1,09,0.91,158.7,M,-34.4,M,,*59
$GPRMC,223847.250,A,4305.1700,N,07740.8846,W,11.44,357.37,161023,,,A*43
$GPGGA,223847.500,4305.1710,N,07740.8846,W,1,09,0.91,158.5,M,-34.4,M,,*56
$GPRMC,223847.750,A,4305.1720,N,07740.8845,W,13.55,0.03,161023,,,A*43
$GPGGA,223848.000,4305.1730,N,07740.8845,W,1,09,0.91,158.4,M,-34.4,M,,*5C
$GPRMC,223848.250,A,4305.1741,N,07740.8844,W,14.99,1.35,161023,,,A*4C
$GPGGA,223848.500,4305.1753,N,07740.8843,W,1,09,0.91,158.2,M,-34.4,M,,*5C
$GPRMC,223848.750,A,4305.1765,N,07740.8842,W,16.15,1.66,161023,,,A*49
$GPGGA,223849.000,4305.1777,N,07740.8841,W,1,09,0.91,158.0,M,-34.4,M,,*5E
$GPRMC,223849.250,A,4305.1790,N,07740.8841,W,17.37,1.10,161023,,,A*44
$GPGGA,223849.500,4305.1802,N,07740.8840,W,1,09,0.91,157.8,M,-34.4,M,,*50
$GPRMC,223849.750,A,4305.1815,N,07740.8839,W,18.24,0.66,161023,,,A*41
$GPGGA,223850.000,4305.1828,N,07740.8839,W,1,09,0.91,157.6,M,-34.4,M,,*55
$GPRMC,223850.250,A,4305.1842,N,07740.8838,W,19.08,359.74,161023,,,A*4C
$GPGGA,223850.500,4305.1856,N,07740.8838,W,1,09,0.91,157.3,M,-34.4,M,,*5D
$GPRMC,223850.750,A,4305.1869,N,07740.8838,W,19.35,359.37,161023,,,A*49
$GPGGA,223851.000,4305.1883,N,07740.8838,W,1,09,0.91,157.1,M,-34.4,M,,*53
$GPRMC,223851.250,A,4305.1897,N,07740.8839,W,19.36,358.96,161023,,,A*44
$GPGGA,223851.500,4305.1910,N,07740.8839,W,1,09,0.91,156.9,M,-34.4,M,,*55
$GPRMC,223851.750,A,4305.1924,N,07740.8839,W,19.36,358.70,161023,,,A*40
$GPGGA,223852.000,4305.1937,N,07740.8839,W,1,09,0.91,156.7,M,-34.4,M,,*58
$GPRMC,223852.250,A,4305.1951,N,07740.8839,W,19.40,359.59,161023,,,A*4F
$GPGGA,223852.500,4305.1964,N,07740.8839,W,1,09,0.91,156.5,M,-34.4,M,,*59
$GPRMC,223852.750,A,4305.1977,N,07740.8839,W,19.42,359.97,161023,,,A*4E
$GPGGA,223853.000,4305.1991,N,07740.8839,W,1,09,0.91,156.2,M,-34.4,M,,*50
$GPRMC,223853.250,A,4305.2004,N,07740.8838,W,19.40,0.01,161023,,,A*47
$GPGGA,223853.500,4305.2017,N,07740.8838,W,1,09,0.91,156.1,M,-34.4,M,,*53
$GPRMC,223853.750,A,4305.2031,N,07740.8838,W,19.38,359.21,161023,,,A*46
$GPGGA,223854.000,4305.2044,N,07740.8838,W,1,09,0.91,155.9,M,-34.4,M,,*5C
$GPRMC,223854.250,A,4305.2057,N,07740.8838,W,19.05,358.30,161023,,,A*4B
$GPGGA,223854.500,4305.2071,N,07740.8839,W,1,09,0.91,155.8,M,-34.4,M,,*5F
$GPRMC,223854.750,A,4305.2084,N,07740.8839,W,18.91,357.17,161023,,,A*47
$GPGGA,223855.000,4305.2097,N,07740.8840,W,1,09,0.91,155.6,M,-34.4,M,,*53
$GPRMC,223855.250,A,4305.2110,N,07740.8841,W,18.94,355.24,161023,,,A*47
$GPGGA,223855.500,4305.2124,N,07740.8842,W,1,09,0.91,155.5,M,-34.4,M,,*5E
$GPRMC,223855.750,A,4305.2137,N,07740.8844,W,18.82,354.11,161023,,,A*42
$GPGGA,223856.000,4305.2150,N,07740.8845,W,1,09,0.91,155.4,M,-34.4,M,,*5D
$GPRMC,223856.250,A,4305.2163,N,07740.8847,W,18.48,352.62,161023,,,A*42
$GPGGA,223856.500,4305.2176,N,07740.8849,W,1,09,0.91,155.2,M,-34.4,M,,*56
$GPRMC,223856.750,A,4305.2189,N,07740.8852,W,18.40,352.70,161023,,,A*4C
$GPGGA,223857.000,4305.2202,N,07740.8854,W,1,09,0.91,155.1,M,-34.4,M,,*5D
$GPRMC,223857.250,A,4305.2215,N,07740.8856,W,18.48,352.19,161023,,,A*4D
$GPGGA,223857.500,4305.2227,N,07740.8858,W,1,09,0.91,155.0,M,-34.4,M,,*52
$GPRMC,223857.750,A,4305.2240,N,07740.8860,W,18.44,351.24,161023,,,A*4C
$GPGGA,223858.000,4305.2253,N,07740.8863,W,1,09,0.91,154.9,M,-34.4,M,,*5B
$GPRMC,223858.250,A,4305.2266,N,07740.8866,W,17.61,352.11,161023,,,A*49
$GPGGA,223858.500,4305.2278,N,07740.8868,W,1,09,0.91,154.8,M,-34.4,M,,*5D
$GPRMC,223858.750,A,4305.2291,N,07740.8871,W,18.03,351.11,161023,,,A*4A
$GPGGA,223859.000,4305.2303,N,07740.8873,W,1,09,0.91,154.7,M,-34.4,M,,*51
$GPRMC,223859.250,A,4305.2315,N,07740.8876,W,16.85,350.65,161023,,,A*46
$GPGGA,223859.500,4305.2326,N,07740.8878,W,1,09,0.91,154.7,M,-34.4,M,,*58
$GPRMC,223859.750,A,4305.2336,N,07740.8880,W,13.61,351.59,161023,,,A*4A
$GPGGA,223900.000,4305.2345,N,07740.8882,W,1,09,0.91,154.7,M,-34.4,M,,*50
$GPRMC,223900.250,A,4305.2352,N,07740.8884,W,10.40,353.79,161023,,,A*44
$GPGGA,223900.500,4305.2359,N,07740.8885,W,1,09,0.91,154.7,M,-34.4,M,,*5F
$GPRMC,223900.750,A,4305.2364,N,07740.8885,W,7.80,355.65,161023,,,A*74
$GPGGA,223901.000,4305.2369,N,07740.8886,W,1,09,0.91,154.7,M,-34.4,M,,*5B
$GPRMC,223901.250,A,4305.2372,N,07740.8887,W,5.61,357.59,161023,,,A*75
$GPGGA,223901.500,4305.2376,N,07740.8887,W,1,09,0.91,154.7,M,-34.4,M,,*51
$GPRMC,223901.750,A,4305.2379,N,07740.8887,W,4.63,359.26,161023,,,A*7E
$GPGGA,223902.000,4305.2382,N,07740.8887,W,1,09,0.91,154.7,M,-34.4,M,,*5C
$GPRMC,223902.250,A,4305.2385,N,07740.8888,W,4.63,2.46,161023,,,A*7F
$GPGGA,223902.500,4305.2388,N,07740.8888,W,1,09,0.91,154.7,M,-34.4,M,,*5C
$GPRMC,223902.750,A,4305.2391,N,07740.8887,W,4.21,6.41,161023,,,A*75
$GPGGA,223903.000,4305.2394,N,07740.8887,W,1,09,0.91,154.8,M,-34.4,M,,*55
$GPRMC,223903.250,A,4305.2396,N,07740.8887,W,0.15,9.13,161023,,,A*7D
$GPGGA,223903.500,4305.2397,N,07740.8887,W,1,09,0.91,154.7,M,-34.4,M,,*5C
$GPRMC,223903.750,A,4305.2397,N,07740.8887,W,0.02,9.13,161023,,,A*7F
$GPGGA,223904.000,4305.2397,N,07740.8887,W,1,09,0.91,154.7,M,-34.4,M,,*5E
$GPRMC,223904.250,A,4305.2397,N,07740.8887,W,0.00,9.13,161023,,,A*7F
$GPGGA,223904.500,4305.2397,N,07740.8887,W,1,09,0.91,154.7,M,-34.4,M,,*5B
$GPRMC,223904.750,A,4305.2397,N,07740.8888,W,0.00,9.13,161023,,,A*75
$GPGGA,223905.000,4305.2397,N,07740.8888,W,1,09,0.91,154.8,M,-34.4,M,,*5F
$GPRMC,223905.250,A,4305.2398,N,07740.8889,W,0.00,9.13,161023,,,A*7F
$GPGGA,223905.500,4305.2398,N,07740.8889,W,1,09,0.91,154.8,M,-34.4,M,,*54
$GPRMC,223905.750,A,4305.2398,N,07740.8889,W,0.00,9.13,161023,,,A*7A
$GPGGA,223906.000,4305.2398,N,07740.8890,W,1,09,0.91,154.7,M,-34.4,M,,*55
$GPRMC,223906.250,A,4305.2398,N,07740.8890,W,0.00,9.13,161023,,,A*74
$GPGGA,223906.500,4305.2398,N,07740.8890,W,1,09,0.91,154.7,M,-34.4,M,,*50
$GPRMC,223906.750,A,4305.2398,N,07740.8890,W,0.01,9.13,161023,,,A*70
$GPGGA,223907.000,4305.2398,N,07740.8890,W,1,09,0.91,154.7,M,-34.4,M,,*54
$GPRMC,223907.250,A,4305.2399,N,07740.8890,W,0.02,9.13,161023,,,A*76
$GPGGA,223907.500,4305.2399,N,07740.8890,W,1,09,0.91,154.7,M,-34.4,M,,*50
$GPRMC,223907.750,A,4305.2399,N,07740.8890,W,0.07,9.13,161023,,,A*76
$GPGGA,223908.000,4305.2399,N,07740.8890,W,1,09,0.91,154.7,M,-34.4,M,,*5A
$GPRMC,223908.250,A,4305.2400,N,07740.8890,W,0.24,9.13,161023,,,A*7A
$GPGGA,223908.500,4305.2402,N,07740.8890,W,1,09,0.91,154.7,M,-34.4,M,,*5A
$GPRMC,223908.750,A,4305.2406,N,07740.8889,W,4.68,13.65,161023,,,A*47
$GPGGA,223909.000,4305.2410,N,07740.8888,W,1,09,0.91,154.7,M,-34.4,M,,*54
$GPRMC,223909.250,A,4305.2414,N,07740.8887,W,6.98,18.79,161023,,,A*45
$GPGGA,223909.500,4305.2419,N,07740.8884,W,1,09,0.91,154.8,M,-34.4,M,,*5B
$GPRMC,223909.750,A,4305.2424,N,07740.8880,W,9.02,27.58,161023,,,A*47
$GPGGA,223910.000,4305.2430,N,07740.8876,W,1,09,0.91,154.9,M,-34.4,M,,*51
$GPRMC,223910.250,A,4305.2437,N,07740.8870,W,10.99,38.52,161023,,,A*79
$GPGGA,223910.500,4305.2442,N,07740.8864,W,1,09,0.91,155.0,M,-34.4,M,,*5A
$GPRMC,223910.750,A,4305.2448,N,07740.8855,W,12.87,49.54,161023,,,A*7E
$GPGGA,223911.000,4305.2454,N,07740.8845,W,1,09,0.91,155.0,M,-34.4,M,,*5A
$GPRMC,223911.250,A,4305.2459,N,07740.8834,W,14.97,59.54,161023,,,A*7B
$GPGGA,223911.500,4305.2464,N,07740.8820,W,1,09,0.91,155.1,M,-34.4,M,,*5E
$GPRMC,223911.750,A,4305.2468,N,07740.8806,W,16.64,68.85,161023,,,A*7D
$GPGGA,223912.000,4305.2472,N,07740.8791,W,1,09,0.91,155.1,M,-34.4,M,,*5A
$GPRMC,223912.250,A,4305.2476,N,07740.8774,W,18.73,72.00,161023,,,A*70
$GPGGA,223912.500,4305.2480,N,07740.8757,W,2,09,0.91,155.2,M,-34.4,M,0000,0000*58
$GPRMC,223912.750,A,4305.2484,N,07740.8739,W,20.34,74.34,161023,,,D*7D
$GPGGA,223913.000,4305.2487,N,07740.8719,W,2,09,0.91,155.2,M,-34.4,M,0000,0000*51
$GPRMC,223913.250,A,4305.2491,N,07740.8699,W,22.08,75.81,161023,,,D*74
$GPGGA,223913.500,4305.2495,N,07740.8678,W,2,09,0.91,155.2,M,-34.4,M,0000,0000*51
$GPRMC,223913.750,A,4305.2499,N,07740.8656,W,23.41,76.41,161023,,,D*79
$GPGGA,223914.000,4305.2503,N,07740.8634,W,2,09,0.91,155.2,M,-34.4,M,0000,0000*55
$GPRMC,223914.250,A,4305.2507,N,07740.8611,W,24.76,76.58,161023,,,D*75
$GPGGA,223914.500,4305.2511,N,07740.8587,W,2,09,0.91,155.2,M,-34.4,M,0000,0000*58
$GPRMC,223914.750,A,4305.2515,N,07740.8563,W,25.52,77.07,161023,,,D*79
$GPGGA,223915.000,4305.2519,N,07740.8539,W,2,09,0.91,155.2,M,-34.4,M,0000,0000*51
$GPRMC,223915.250,A,4305.2522,N,07740.8515,W,26.11,78.00,161023,,,D*74
$GPGGA,223915.500,4305.2526,N,07740.8490,W,2,09,0.91,155.3,M,-34.4,M,0000,0000*5B
$GPRMC,223915.750,A,4305.2530,N,07740.8466,W,25.85,78.68,161023,,,D*77
$GPGGA,223916.000,4305.2533,N,07740.8442,W,2,09,0.91,155.3,M,-34.4,M,0000,0000*56
$GPRMC,223916.250,A,4305.2536,N,07740.8418,W,25.33,79.52,161023,,,D*7B
$GPGGA,223916.500,4305.2539,N,07740.8395,W,2,09,0.91,155.3,M,-34.4,M,0000,0000*54
$GPRMC,223916.750,A,4305.2542,N,07740.8371,W,25.06,80.91,161023,,,D*7A
$GPGGA,223917.000,4305.2545,N,07740.8347,W,2,09,0.91,155.3,M,-34.4,M,0000,0000*54
$GPRMC,223917.250,A,4305.2547,N,07740.8324,W,24.79,81.39,161023,,,D*71
$GPGGA,223917.500,4305.2549,N,07740.8300,W,2,09,0.91,155.2,M,-34.4,M,0000,0000*5F
$GPRMC,223917.750,A,4305.2552,N,07740.8277,W,24.30,82.25,161023,,,D*74
$GPGGA,223918.000,4305.2554,N,07740.8254,W,2,09,0.91,155.2,M,-34.4,M,0000,0000*59
$GPRMC,223918.250,A,4305.2556,N,07740.8231,W,23.89,83.27,161023,,,D*7E
$GPGGA,223918.500,4305.2558,N,07740.8209,W,2,09,0.91,155.2,M,-34.4,M,0000,0000*58
$GPRMC,223918.750,A,4305.2560,N,07740.8186,W,23.58,83.97,161023,,,D*76
$GPGGA,223919.000,4305.2561,N,07740.8164,W,2,09,0.91,155.2,M,-34.4,M,0000,0000*5E
$GPRMC,223919.250,A,4305.2563,N,07740.8141,W,23.28,84.90,161023,,,D*7D
$GPGGA,223919.500,4305.2564,N,07740.8119,W,2,09,0.91,155.2,M,-34.4,M,0000,0000*54
$GPRMC,223919.750,A,4305.2565,N,07740.8097,W,23.03,85.36,161023,,,D*70
$GPGGA,223920.000,4305.2567,N,07740.8076,W,2,09,0.91,155.2,M,-34.4,M,0000,0000*50
$GPRMC,223920.250,A,4305.2568,N,07740.8054,W,22.63,86.18,161023,,,D*75
$GPGGA,223920.500,4305.2569,N,07740.8033,W,2,09,0.91,155.2,M,-34.4,M,0000,0000*5A
$GPRMC,223920.750,A,4305.2570,N,07740.8011,W,22.31,86.23,161023,,,D*77
$GPGGA,223921.000,4305.2571,N,07740.7990,W,2,09,0.91,155.2,M,-34.4,M,0000,0000*58
$GPRMC,223921.250,A,4305.2572,N,07740.7969,W,21.85,85.78,161023,,,D*79
$GPGGA,223921.500,4305.2574,N,07740.7948,W,2,09,0.91,155.2,M,-34.4,M,0000,0000*5D
$GPRMC,223921.750,A,4305.2575,N,07740.7928,W,21.54,84.92,161023,,,D*77
$GPGGA,223922.000,4305.2577,N,07740.7908,W,2,09,0.91,155.3,M,-34.4,M,0000,0000*5D
$GPRMC,223922.250,A,4305.2578,N,07740.7887,W,21.24,84.31,161023,,,D*76
$GPGGA,223922.500,4305.2580,N,07740.7867,W,2,09,0.91,155.4,M,-34.4,M,0000,0000*5F
$GPRMC,223922.750,A,4305.2582,N,07740.7847,W,20.73,84.31,161023,,,D*79
$GPGGA,223923.000,4305.2583,N,07740.7828,W,2,09,0.91,155.4,M,-34.4,M,0000,0000*53
$GPRMC,223923.250,A,4305.2584,N,07740.7808,W,19.93,85.42,161023,,,D*71
$GPGGA,223923.500,4305.2586,N,07740.7790,W,2,09,0.91,155.3,M,-34.4,M,0000,0000*58
$GPRMC,223923.750,A,4305.2586,N,07740.7771,W,19.11,86.21,161023,,,D*7B
$GPGGA,223924.000,4305.2587,N,07740.7753,W,2,09,0.91,155.3,M,-34.4,M,0000,0000*54
$GPRMC,223924.250,A,4305.2588,N,07740.7736,W,17.88,87.15,161023,,,D*7C
$GPGGA,223924.500,4305.2588,N,07740.7719,W,2,09,0.91,155.3,M,-34.4,M,0000,0000*50
$GPRMC,223924.750,A,4305.2588,N,07740.7704,W,16.05,87.74,161023,,,D*7B
$GPGGA,223925.000,4305.2588,N,07740.7689,W,2,09,0.91,155.3,M,-34.4,M,0000,0000*5C
$GPRMC,223925.250,A,4305.2588,N,07740.7676,W,13.75,88.70,161023,,,D*72
$GPGGA,223925.500,4305.2588,N,07740.7664,W,2,09,0.91,155.2,M,-34.4,M,0000,0000*5B
$GPRMC,223925.750,A,4305.2588,N,07740.7652,W,11.52,89.23,161023,,,D*71
$GPGGA,223926.000,4305.2588,N,07740.7642,W,2,09,0.91,155.2,M,-34.4,M,0000,0000*59
$GPRMC,223926.250,A,4305.2588,N,07740.7633,W,9.28,89.55,161023,,,D*45
$GPGGA,223926.500,4305.2588,N,07740.7625,W,2,09,0.91,155.2,M,-34.4,M,0000,0000*5D
$GPRMC,223926.750,A,4305.2589,N,07740.7618,W,7.13,90.32,161023,,,D*47
$GPGGA,223927.000,4305.2589,N,07740.7612,W,2,09,0.91,155.2,M,-34.4,M,0000,0000*5C
$GPRMC,223927.250,A,4305.2589,N,07740.7606,W,6.06,90.47,161023,,,D*4B
$GPGGA,223927.500,4305.2590,N,07740.7600,W,2,09,0.91,155.2,M,-34.4,M,0000,0000*52
