Vers 81
USE_SERIAL_FEEDBACK=true
DEVELOPMENT_MODE=false
USE_RMC_ONLY=false

$GPRMC,161903.750,A,4308.3141,N,07726.2650,W,0.37,334.06,140923,,,A*74
$GPGGA,161904.000,4308.3143,N,07726.2650,W,1,03,5.20,184.3,M,-34.4,M,,*5E
$GPRMC,161904.250,A,4308.3146,N,07726.2652,W,0.35,326.15,140923,,,A*70
$GPGGA,161904.500,4308.3148,N,07726.2652,W,1,03,5.20,184.4,M,-34.4,M,,*55
$GPRMC,161904.750,A,4308.3148,N,07726.2652,W,0.22,187.78,140923,,,A*7F
$GPGGA,161905.000,4308.3147,N,07726.2651,W,1,03,5.20,184.4,M,-34.4,M,,*5D
$GPRMC,161905.250,A,4308.3147,N,07726.2650,W,0.12,196.32,140923,,,A*7B
$GPGGA,161905.500,4308.3145,N,07726.2649,W,1,03,5.20,184.4,M,-34.4,M,,*53
$GPRMC,161905.750,A,4308.3144,N,07726.2647,W,0.12,330.10,140923,,,A*75
$GPGGA,161906.000,4308.3143,N,07726.2646,W,1,03,5.20,184.4,M,-34.4,M,,*5C
$GPRMC,161906.250,A,4308.3143,N,07726.2645,W,0.18,336.49,140923,,,A*76
$GPGGA,161906.500,4308.3143,N,07726.2644,W,1,03,5.20,184.4,M,-34.4,M,,*5B
$GPRMC,161906.750,A,4308.3143,N,07726.2643,W,0.29,353.58,140923,,,A*74
$GPGGA,161907.000,4308.3142,N,07726.2642,W,1,03,60.06,184.4,M,-34.4,M,,*6F
$GPRMC,161907.250,A,4308.3142,N,07726.2641,W,0.28,355.56,140923,,,A*7A
$GPGGA,161907.500,4308.3141,N,07726.2640,W,1,03,60.07,184.4,M,-34.4,M,,*6A
$GPRMC,161907.750,A,4308.3141,N,07726.2639,W,0.47,352.79,140923,,,A*70
$GPGGA,161908.000,4308.3140,N,07726.2638,W,1,03,60.08,184.4,M,-34.4,M,,*61
$GPGGA,161908.500,4308.3139,N,07726.2637,W,1,03,60.09,184.4,M,-34.4,M,,*64
$GPRMC,161908.500,A,4308.3139,N,07726.2637,W,0.50,348.94,140923,,A*77
$GPGGA,161908.750,4308.3138,N,07726.2636,W,1,03,60.10,184.4,M,-34.4,M,,*6B
$GPRMC,161908.750,A,4308.3138,N,07726.2636,W,0.43,356.69,140923$GPGGA,161909.000,4308.3138,N,07726.2636,W,1,03,60.11,184.4,M,-34.4,M,,*69
$GPRMC,161909.250,A,4308.3137,N,07726.2636,W,0.37,353.11,140923,,,A*7D
$GPGGA,161909.500,4308.3137,N,07726.2635,W,1,03,5.21,184.4,M,-34.4,M,,*50
$GPRMC,161909.750,A,4308.3135,N,07726.2634,W,0.34,359.49,140923,,,A*7C
$GPGGA,161910.000,4308.3134,N,07726.2633,W,1,03,60.13,184.4,M,-34.4,M,,*6A
$GPRMC,161910.250,A,4308.3133,N,07726.2632,W,0.42,3.36,140923,,,A*74
$GPGGA,161910.500,4308.3130,N,07726.2630,W,1,03,60.14,184.4,M,-34.4,M,,*6F
$GPRMC,161910.750,A,4308.3128,N,07726.2629,W,0.30,16.07,140923,,,A*42
$GPGGA,161911.000,4308.3127,N,07726.2628,W,1,03,5.21,184.4,M,-34.4,M,,*51
$GPRMC,161911.250,A,4308.3126,N,07726.2627,W,0.22,31.84,140923,,,A*4B
$GPGGA,161911.500,4308.3125,N,07726.2626,W,1,03,5.21,184.4,M,-34.4,M,,*58
$GPRMC,161911.750,A,4308.3124,N,07726.2625,W,0.14,51.38,140923,,,A*4A
$GPGGA,161912.000,4308.3123,N,07726.2625,W,1,03,5.21,184.4,M,-34.4,M,,*5B
$GPRMC,161912.250,A,4308.3122,N,07726.2624,W,0.10,91.72,140923,,,A*4D
$GPGGA,161912.500,4308.3121,N,07726.2624,W,1,03,5.22,184.4,M,-34.4,M,,*5E
$GPRMC,161912.750,A,4308.3120,N,07726.2623,W,0.05,292.32,140923,,,A*7C
$GPGGA,161913.000,4308.3118,N,07726.2622,W,1,03,5.22,184.4,M,-34.4,M,,*56
$GPRMC,161913.250,A,4308.3116,N,07726.2621,W,0.09,215.02,140923,,,A*7F
$GPGGA,161913.500,4308.3116,N,07726.2621,W,1,03,5.22,184.4,M,-34.4,M,,*5E
$GPRMC,161913.750,A,4308.3116,N,07726.2620,W,0.06,124.91,140923,,,A*7F
$GPGGA,161914.000,4308.3116,N,07726.2620,W,1,03,5.22,184.4,M,-34.4,M,,*5D
$GPGGA,161914.139,4308.3116,N,07726.2619,W,1,03,5.22,184.4,M,-34.4,M,,*5C
$GPRMC,161914.139,A,4308.3116,N,07726.2619,W,0.13,63.81,140923,,A*4C
$GPGGA,161914.500,4308.3116,N,07726.2619,W,1,03,5.22,184.4,M,-34.4,M,,*52
$GPRMC,161914.500,A,4308.3116,N,07726.2619,W,0.11,55.78,140923,,A*43
$GPGGA,161914.750,4308.3116,N,07726.2619,W,1,03,5.22,184.4,M,-34.4,M,,*55
$GPRMC,161914.750,A,4308.3116,N,07726.2619,W,0.10,37.72,140923,,A*4B
$GPGGA,161915.000,4308.3116,N,07726.2619,W,1,03,5.22,184.4,M,-34.4,M,,*56
$GPRMC,161915.000,A,4308.3116,N,07726.2619,W,0.12,34.95,140923,,A*40
$GPGGA,161915.250,4308.3115,N,07726.2618,W,1,03,5.22,184.4,M,-34.4,M,,*53
$GPRMC,161915.250,A,4308.3115,N,07726.2618,W,0.11,31.04,140923,,A*4B
$GPGGA,161915.500,4308.3114,N,07726.2617,W,1,03,5.23,184.4,M,-34.4,M,,*5E
$GPRMC,161915.500,A,4308.3114,N,07726.2617,W,0.15,35.83,140923,,A*48
$GPGGA,161915.750,4308.3113,N,07726.2617,W,1,03,5.23,184.4,M,-34.4,M,,*5E
$GPRMC,161915.750,A,4308.3113,N,07726.2617,W,0.14,30.38,140923,$GPGGA,161916.000,4308.3112,N,07726.2616,W,1,03,5.23,184.4,M,-34.4,M,,*5F
$GPRMC,161916.250,A,4308.3112,N,07726.2616,W,0.11,47.41,140923,,,A*41
$GPGGA,161916.500,4308.3110,N,07726.2616,W,1,03,5.23,184.4,M,-34.4,M,,*58
$GPRMC,161916.750,A,4308.3110,N,07726.2616,W,0.05,19.47,140923,,,A*4E
$GPGGA,161917.000,4308.3111,N,07726.2616,W,1,03,5.23,184.4,M,-34.4,M,,*5D
$GPRMC,161917.250,A,4308.3110,N,07726.2616,W,0.06,26.13,140923,,,A*44
$GPGGA,161917.500,4308.3109,N,07726.2615,W,1,03,5.23,184.4,M,-34.4,M,,*52
$GPRMC,161917.750,A,4308.3108,N,07726.2615,W,0.02,66.33,140923,,,A*49
$GPGGA,161918.000,4308.3107,N,07726.2615,W,1,03,5.23,184.4,M,-34.4,M,,*56
$GPRMC,161918.250,A,4308.3107,N,07726.2615,W,0.08,209.96,140923,,,A*72
$GPGGA,161918.500,4308.3108,N,07726.2616,W,1,03,5.23,184.4,M,-34.4,M,,*5F
$GPRMC,161918.750,A,4308.3109,N,07726.2616,W,0.07,334.58,140923,,,A*78
$GPGGA,161919.000,4308.3110,N,07726.2616,W,1,03,5.23,184.3,M,-34.4,M,,*55
$GPRMC,161919.250,A,4308.3110,N,07726.2617,W,0.08,286.97,140923,,,A*71
$GPGGA,161919.500,4308.3110,N,07726.2617,W,1,03,5.24,184.3,M,-34.4,M,,*56
$GPRMC,161919.750,A,4308.3110,N,07726.2616,W,0.08,121.43,140923,,,A*72
$GPGGA,161920.000,4308.3111,N,07726.2616,W,1,03,5.24,184.3,M,-34.4,M,,*59
$GPGGA,161920.500,4308.3114,N,07726.2621,W,1,04,4.09,183.7,M,-34.4,M,,*57
$GPRMC,161920.500,A,4308.3114,N,07726.2621,W,0.06,110.93,140923,,A*7E
$GPGGA,161920.750,4308.3115,N,07726.2623,W,1,04,4.08,183.5,M,-34.4,M,,*50
$GPRMC,161920.750,A,4308.3115,N,07726.2623,W,0.09,192.29,140923,,A*7E
$GPGGA,161921.000,4308.3116,N,07726.2626,W,1,04,4.09,183.3,M,-34.4,M,,*52
$GPRMC,161921.000,A,4308.3116,N,07726.2626,W,0.11,216.11,140923,,A*76
$GPGGA,161921.250,4308.3118,N,07726.2627,W,1,04,4.08,183.1,M,-34.4,M,,*59
$GPRMC,161921.250,A,4308.3118,N,07726.2627,W,0.08,222.65,140923,,A*72
$GPGGA,161921.500,4308.3121,N,07726.2630,W,1,04,4.08,183.0,M,-34.4,M,,*56
$GPRMC,161921.500,A,4308.3121,N,07726.2630,W,0.07,279.67,140923,,A*7F
$GPGGA,161921.750,4308.3124,N,07726.2632,W,1,04,4.08,182.8,M,-34.4,M,,*5F
$GPRMC,161921.750,A,4308.3124,N,07726.2632,W,0.12,329.59,140923$GPGGA,161922.000,4308.3125,N,07726.2633,W,1,04,4.08,182.7,M,-34.4,M,,*51
$GPRMC,161922.250,A,4308.3126,N,07726.2635,W,0.09,305.77,140923,,,A*79
$GPGGA,161922.500,4308.3127,N,07726.2636,W,1,04,4.09,182.4,M,-34.4,M,,*51
$GPRMC,161922.750,A,4308.3128,N,07726.2638,W,0.12,291.34,140923,,,A*7E
$GPGGA,161923.000,4308.3129,N,07726.2639,W,1,04,4.09,182.1,M,-34.4,M,,*51
$GPRMC,161923.250,A,4308.3130,N,07726.2641,W,0.16,295.99,140923,,,A*7A
$GPGGA,161923.500,4308.3132,N,07726.2642,W,1,04,4.08,181.9,M,-34.4,M,,*58
$GPRMC,161923.750,A,4308.3134,N,07726.2644,W,0.26,332.46,140923,,,A*73
$GPGGA,161924.000,4308.3135,N,07726.2645,W,1,04,4.09,181.7,M,-34.4,M,,*55
$GPRMC,161924.250,A,4308.3135,N,07726.2646,W,0.16,317.97,140923,,,A*7A
$GPGGA,161924.500,4308.3136,N,07726.2648,W,1,04,4.09,181.6,M,-34.4,M,,*5F
$GPRMC,161924.750,A,4308.3137,N,07726.2649,W,0.18,315.05,140923,,,A*75
$GPGGA,161925.000,4308.3138,N,07726.2649,W,1,04,4.09,181.4,M,-34.4,M,,*56
$GPRMC,161925.250,A,4308.3138,N,07726.2650,W,0.10,313.32,140923,,,A*7C
$GPGGA,161925.500,4308.3137,N,07726.2650,W,1,04,4.09,181.3,M,-34.4,M,,*53
$GPRMC,161925.750,A,4308.3136,N,07726.2651,W,0.14,208.69,140923,,,A*77
$GPGGA,161926.000,4308.3137,N,07726.2651,W,1,04,4.09,181.3,M,-34.4,M,,*54
$GPRMC,161926.250,A,4308.3117,N,07726.2648,W,0.14,214.80,140923,,,A*70
$GPGGA,161926.500,4308.3107,N,07726.2646,W,1,06,1.35,177.8,M,-34.4,M,,*5E
$GPRMC,161926.750,A,4308.3100,N,07726.2645,W,0.10,241.15,140923,,,A*76
$GPGGA,161927.000,4308.3095,N,07726.2644,W,1,06,1.35,176.2,M,-34.4,M,,*59
$GPRMC,161927.250,A,4308.3090,N,07726.2644,W,0.08,254.95,140923,,,A*7E
$GPGGA,161927.500,4308.3087,N,07726.2643,W,1,06,1.35,175.0,M,-34.4,M,,*59
$GPRMC,161927.750,A,4308.3084,N,07726.2643,W,0.03,226.13,140923,,,A*79
$GPGGA,161928.000,4308.3082,N,07726.2643,W,1,06,1.34,174.2,M,-34.4,M,,*54
$GPRMC,161928.250,A,4308.3080,N,07726.2644,W,0.11,240.08,140923,,,A*79
$GPGGA,161928.500,4308.3078,N,07726.2643,W,1,06,1.35,173.5,M,-34.4,M,,*55
$GPRMC,161928.750,A,4308.3076,N,07726.2643,W,0.09,151.68,140923,,,A*7E
$GPGGA,161929.000,4308.3075,N,07726.2643,W,1,06,1.35,173.1,M,-34.4,M,,*58
$GPRMC,161929.250,A,4308.3075,N,07726.2644,W,0.12,176.89,140923,,,A*7E
$GPGGA,161929.500,4308.3074,N,07726.2644,W,1,06,1.35,172.8,M,-34.4,M,,*53
$GPRMC,161929.750,A,4308.3074,N,07726.2644,W,0.07,198.98,140923,,,A*7E
$GPGGA,161930.000,4308.3074,N,07726.2644,W,1,06,1.35,172.5,M,-34.4,M,,*53
$GPRMC,161930.250,A,4308.3073,N,07726.2644,W,0.02,209.61,140923,,,A*7C
$GPGGA,161930.500,4308.3073,N,07726.2644,W,1,06,1.34,172.2,M,-34.4,M,,*57
$GPRMC,161930.750,A,4308.3073,N,07726.2644,W,0.08,337.35,140923,,,A*7E
$GPGGA,161931.000,4308.3073,N,07726.2644,W,1,06,1.35,171.9,M,-34.4,M,,*5A
$GPRMC,161931.250,A,4308.3072,N,07726.2644,W,0.15,353.55,140923,,,A*73
$GPGGA,161931.500,4308.3072,N,07726.2644,W,1,06,1.49,171.8,M,-34.4,M,,*54
$GPRMC,161931.750,A,4308.3072,N,07726.2645,W,0.06,317.01,140923,,,A*74
$GPGGA,161932.000,4308.3071,N,07726.2645,W,1,06,1.35,171.8,M,-34.4,M,,*5B
$GPRMC,161932.250,A,4308.3071,N,07726.2645,W,0.07,279.93,140923,,,A*72
$GPGGA,161932.500,4308.3072,N,07726.2645,W,1,06,1.35,171.6,M,-34.4,M,,*53
$GPRMC,161932.750,A,4308.3072,N,07726.2645,W,0.13,295.52,140923,,,A*7E
$GPGGA,161933.000,4308.3072,N,07726.2645,W,1,06,1.34,171.5,M,-34.4,M,,*55
$GPRMC,161933.250,A,4308.3071,N,07726.2645,W,0.08,251.48,140923,,,A*70
$GPGGA,161933.500,4308.3071,N,07726.2644,W,1,06,1.35,171.5,M,-34.4,M,,*53
$GPRMC,161933.750,A,4308.3071,N,07726.2644,W,0.07,181.52,140923,,,A*7E
$GPGGA,161934.000,4308.3071,N,07726.2644,W,1,06,1.34,171.5,M,-34.4,M,,*50
$GPRMC,161934.250,A,4308.3071,N,07726.2643,W,0.10,177.85,140923,,,A*7E
$GPGGA,161934.500,4308.3071,N,07726.2643,W,1,06,1.34,171.4,M,-34.4,M,,*53
$GPRMC,161934.750,A,4308.3071,N,07726.2643,W,0.14,172.18,140923,,,A*7E
$GPGGA,161935.000,4308.3071,N,07726.2643,W,1,06,1.35,171.4,M,-34.4,M,,*56
$GPRMC,161935.250,A,4308.3071,N,07726.2643,W,0.14,187.44,140923,,,A*79
$GPGGA,161935.500,4308.3070,N,07726.2643,W,1,06,1.35,171.3,M,-34.4,M,,*55
$GPRMC,161935.750,A,4308.3070,N,07726.2643,W,0.12,189.02,140923,,,A*77
$GPGGA,161936.000,4308.3070,N,07726.2643,W,1,06,1.35,171.3,M,-34.4,M,,*53
$GPRMC,161936.250,A,4308.3070,N,07726.2643,W,0.05,118.49,140923,,,A*70
$GPGGA,161936.500,4308.3070,N,07726.2643,W,1,06,1.34,171.3,M,-34.4,M,,*57
$GPRMC,161936.750,A,4308.3070,N,07726.2643,W,0.04,57.13,140923,,,A*41
$GPGGA,161937.000,4308.3070,N,07726.2643,W,1,06,1.35,171.3,M,-34.4,M,,*52
$GPRMC,161937.250,A,4308.3070,N,07726.2643,W,0.03,37.66,140923,,,A*46
$GPGGA,161937.500,4308.3070,N,07726.2643,W,1,06,1.35,171.3,M,-34.4,M,,*57
$GPRMC,161937.750,A,4308.3070,N,07726.2643,W,0.06,347.89,140923,,,A*73
$GPGGA,161938.000,4308.3070,N,07726.2643,W,1,06,1.49,171.3,M,-34.4,M,,*56
$GPRMC,161938.250,A,4308.3070,N,07726.2643,W,0.02,226.27,140923,,,A*7F
$GPGGA,161938.500,4308.3070,N,07726.2643,W,1,06,1.35,171.3,M,-34.4,M,,*58
$GPRMC,161938.750,A,4308.3070,N,07726.2642,W,0.06,188.14,140923,,,A*78
$GPGGA,161939.000,4308.3070,N,07726.2643,W,1,06,1.35,171.3,M,-34.4,M,,*5C
$GPRMC,161939.250,A,4308.3070,N,07726.2643,W,0.14,233.53,140923,,,A*7E
$GPGGA,161939.500,4308.3070,N,07726.2643,W,1,06,1.35,171.3,M,-34.4,M,,*59
$GPRMC,161939.750,A,4308.3070,N,07726.2643,W,0.10,282.50,140923,,,A*76
$GPGGA,161940.000,4308.3070,N,07726.2643,W,1,06,1.35,171.3,M,-34.4,M,,*52
$GPRMC,161940.250,A,4308.3070,N,07726.2643,W,0.05,329.62,140923,,,A*78
$GPGGA,161940.500,4308.3070,N,07726.2643,W,1,06,1.35,171.3,M,-34.4,M,,*57
$GPRMC,161940.750,A,4308.3070,N,07726.2643,W,0.08,248.26,140923,,,A*76
$GPGGA,161941.000,4308.3070,N,07726.2643,W,1,06,1.35,171.3,M,-34.4,M,,*53
$GPRMC,161941.250,A,4308.3070,N,07726.2643,W,0.13,258.77,140923,,,A*7D
$GPGGA,161941.500,4308.3070,N,07726.2643,W,1,06,1.35,171.3,M,-34.4,M,,*56
$GPRMC,161941.750,A,4308.3070,N,07726.2643,W,0.17,225.42,140923,,,A*70
$GPGGA,161942.000,4308.3070,N,07726.2644,W,1,06,1.35,171.3,M,-34.4,M,,*57
$GPRMC,161942.250,A,4308.3070,N,07726.2644,W,0.15,216.29,140923,,,A*7E
$GPGGA,161942.500,4308.3070,N,07726.2644,W,1,06,1.35,171.3,M,-34.4,M,,*52
$GPRMC,161942.750,A,4308.3070,N,07726.2644,W,0.12,177.06,140923,,,A*75
$GPGGA,161943.000,4308.3070,N,07726.2644,W,1,06,1.35,171.3,M,-34.4,M,,*56
$GPRMC,161943.250,A,4308.3070,N,07726.2644,W,0.11,153.05,140923,,,A*77
$GPGGA,161943.500,4308.3070,N,07726.2644,W,1,06,1.35,171.3,M,-34.4,M,,*53
$GPRMC,161943.750,A,4308.3070,N,07726.2644,W,0.08,165.98,140923,,,A*7B
$GPGGA,161944.000,4308.3069,N,07726.2644,W,1,06,1.35,171.3,M,-34.4,M,,*59
$GPRMC,161944.250,A,4308.3069,N,07726.2644,W,0.02,246.87,140923,,,A*77
$GPGGA,161944.500,4308.3069,N,07726.2644,W,1,06,1.35,171.3,M,-34.4,M,,*5C
$GPRMC,161944.750,A,4308.3069,N,07726.2644,W,0.01,60.87,140923,,,A*47
$GPGGA,161945.000,4308.3069,N,07726.2644,W,1,06,1.35,171.3,M,-34.4,M,,*58
$GPRMC,161945.250,A,4308.3069,N,07726.2644,W,0.03,188.36,140923,,,A*7C
$GPGGA,161945.500,4308.3069,N,07726.2644,W,1,06,1.35,171.3,M,-34.4,M,,*5D
$GPRMC,161945.750,A,4308.3069,N,07726.2644,W,0.13,209.67,140923,,,A*76
$GPGGA,161946.000,4308.3069,N,07726.2644,W,1,06,1.35,171.3,M,-34.4,M,,*5B
$GPRMC,161946.250,A,4308.3069,N,07726.2644,W,0.07,176.74,140923,,,A*7C
$GPGGA,161946.500,4308.3069,N,07726.2644,W,1,06,1.49,171.3,M,-34.4,M,,*55
$GPRMC,161946.750,A,4308.3069,N,07726.2644,W,0.04,319.91,140923,,,A*7A
$GPGGA,161947.000,4308.3069,N,07726.2644,W,1,06,1.49,171.3,M,-34.4,M,,*51
$GPRMC,161947.250,A,4308.3069,N,07726.2644,W,0.03,306.03,140923,,,A*7C
$GPGGA,161947.500,4308.3069,N,07726.2644,W,1,06,1.49,171.3,M,-34.4,M,,*54
$GPRMC,161947.750,A,4308.3069,N,07726.2644,W,0.05,75.43,140923,,,A*4C
$GPGGA,161948.000,4308.3069,N,07726.2644,W,1,06,1.49,171.3,M,-34.4,M,,*5E
$GPRMC,161948.250,A,4308.3069,N,07726.2644,W,0.03,298.85,140923,,,A*7B
$GPGGA,161948.500,4308.3069,N,07726.2644,W,1,06,1.49,171.3,M,-34.4,M,,*5B
$GPRMC,161948.750,A,4308.3069,N,07726.2644,W,0.02,306.97,140923,,,A*7A
$GPGGA,161949.000,4308.3069,N,07726.2644,W,1,06,1.49,171.3,M,-34.4,M,,*5F
$GPRMC,161949.250,A,4308.3069,N,07726.2644,W,0.01,71.60,140923,,,A*46
$GPGGA,161949.500,4308.3069,N,07726.2644,W,1,06,1.49,171.3,M,-34.4,M,,*5A
$GPRMC,161949.750,A,4308.3069,N,07726.2644,W,0.03,23.75,140923,,,A*42
$GPGGA,161950.000,4308.3069,N,07726.2644,W,1,06,1.49,171.3,M,-34.4,M,,*57
$GPRMC,161950.250,A,4308.3069,N,07726.2644,W,0.05,359.26,140923,,,A*71
$GPGGA,161950.500,4308.3069,N,07726.2644,W,1,06,1.49,171.3,M,-34.4,M,,*52
$GPRMC,161950.750,A,4308.3069,N,07726.2644,W,0.01,196.61,140923,,,A*72
$GPGGA,161951.000,4308.3069,N,07726.2644,W,1,06,1.49,171.3,M,-34.4,M,,*56
$GPRMC,161951.250,A,4308.3069,N,07726.2644,W,0.01,283.38,140923,,,A*7D
$GPGGA,161951.500,4308.3069,N,07726.2644,W,1,06,1.49,171.3,M,-34.4,M,,*53
$GPRMC,161951.750,A,4308.3069,N,07726.2644,W,0.00,206.17,140923,,,A*79
$GPGGA,161952.000,4308.3069,N,07726.2644,W,1,06,1.49,171.3,M,-34.4,M,,*55
$GPRMC,161952.250,A,4308.3069,N,07726.2644,W,0.03,307.10,140923,,,A*7B
$GPGGA,161952.500,4308.3069,N,07726.2644,W,1,06,1.49,171.3,M,-34.4,M,,*50
$GPRMC,161952.750,A,4308.3069,N,07726.2644,W,0.01,235.74,140923,,,A*7E
$GPGGA,161953.000,4308.3069,N,07726.2644,W,1,06,1.49,171.3,M,-34.4,M,,*54
$GPRMC,161953.250,A,4308.3069,N,07726.2644,W,0.02,135.33,140923,,,A*79
$GPGGA,161953.500,4308.3069,N,07726.2644,W,1,06,1.49,171.3,M,-34.4,M,,*51
$GPRMC,161953.750,A,4308.3069,N,07726.2644,W,0.01,186.29,140923,,,A*7C
$GPGGA,161954.000,4308.3069,N,07726.2644,W,1,06,1.49,171.3,M,-34.4,M,,*53
$GPRMC,161954.250,A,4308.3069,N,07726.2644,W,0.02,339.69,140923,,,A*7F
$GPGGA,161954.500,4308.3069,N,07726.2644,W,1,06,1.49,171.3,M,-34.4,M,,*56
$GPRMC,161954.750,A,4308.3070,N,07726.2644,W,0.00,292.10,140923,,,A*7E
$GPGGA,161955.000,4308.3070,N,07726.2644,W,1,06,1.49,171.3,M,-34.4,M,,*5A
$GPRMC,161955.250,A,4308.3070,N,07726.2644,W,0.01,81.88,140923,,,A*4A
$GPGGA,161955.500,4308.3070,N,07726.2644,W,1,06,1.49,171.3,M,-34.4,M,,*5F
$GPRMC,161955.750,A,4308.3070,N,07726.2644,W,0.01,167.50,140923,,,A*73
$GPGGA,161956.000,4308.3070,N,07726.2644,W,1,06,1.49,171.3,M,-34.4,M,,*59
$GPRMC,161956.250,A,4308.3070,N,07726.2644,W,0.01,108.29,140923,,,A*72
$GPGGA,161956.500,4308.3070,N,07726.2644,W,1,06,1.49,171.3,M,-34.4,M,,*5C
$GPRMC,161956.750,A,4308.3070,N,07726.2644,W,0.00,123.52,140923,,,A*73
$GPGGA,161957.000,4308.3070,N,07726.2644,W,1,06,1.49,171.3,M,-34.4,M,,*58
$GPRMC,161957.250,A,4308.3070,N,07726.2644,W,0.01,101.24,140923,,,A*77
$GPGGA,161957.500,4308.3070,N,07726.2644,W,1,06,1.49,171.3,M,-34.4,M,,*5D
$GPRMC,161957.750,A,4308.3070,N,07726.2644,W,0.01,77.54,140923,,,A*45
$GPGGA,161958.000,4308.3070,N,07726.2644,W,1,06,1.49,171.3,M,-34.4,M,,*57
$GPRMC,161958.250,A,4308.3070,N,07726.2644,W,0.02,19.48,140923,,,A*49
$GPGGA,161958.500,4308.3070,N,07726.2644,W,1,06,1.49,171.3,M,-34.4,M,,*52
$GPRMC,161958.750,A,4308.3070,N,07726.2644,W,0.01,98.27,140923,,,A*4F
$GPGGA,161959.000,4308.3070,N,07726.2644,W,1,06,1.49,171.3,M,-34.4,M,,*56
$GPRMC,161959.250,A,4308.3070,N,07726.2644,W,0.00,352.31,140923,,,A*78
$GPGGA,161959.500,4308.3070,N,07726.2644,W,1,06,1.49,171.2,M,-34.4,M,,*52
$GPRMC,161959.750,A,4308.3070,N,07726.2644,W,0.01,7.20,140923,,,A*7F
$GPGGA,162000.000,4308.3070,N,07726.2644,W,1,06,1.49,171.2,M,-34.4,M,,*51
$GPRMC,162000.250,A,4308.3070,N,07726.2644,W,0.01,345.89,140923,,,A*7A
$GPGGA,162000.500,4308.3070,N,07726.2644,W,1,06,1.49,171.2,M,-34.4,M,,*54
$GPRMC,162000.750,A,4308.3070,N,07726.2644,W,0.01,270.54,140923,,,A*78
$GPGGA,162001.000,4308.3070,N,07726.2644,W,1,06,1.49,171.2,M,-34.4,M,,*50
$GPRMC,162001.250,A,4308.3070,N,07726.2644,W,0.01,78.31,140923,,,A*45
$GPGGA,162001.500,4308.3070,N,07726.2644,W,1,06,1.49,171.2,M,-34.4,M,,*55
$GPRMC,162001.750,A,4308.3070,N,07726.2644,W,0.01,90.00,140923,,,A*44
$GPGGA,162002.000,4308.3070,N,07726.2644,W,1,06,1.49,171.2,M,-34.4,M,,*53
$GPRMC,162002.250,A,4308.3070,N,07726.2644,W,0.01,357.29,140923,,,A*71
$GPGGA,162002.500,4308.3070,N,07726.2644,W,1,06,1.49,171.2,M,-34.4,M,,*56
$GPRMC,162002.750,A,4308.3070,N,07726.2644,W,0.01,346.48,140923,,,A*73
$GPGGA,162003.000,4308.3070,N,07726.2644,W,1,06,1.49,171.2,M,-34.4,M,,*52
$GPRMC,162003.250,A,4308.3070,N,07726.2644,W,0.01,322.74,140923,,,A*7A
$GPGGA,162003.500,4308.3070,N,07726.2644,W,1,06,1.49,171.2,M,-34.4,M,,*57
$GPRMC,162003.750,A,4308.3070,N,07726.2644,W,0.02,274.58,140923,,,A*70
$GPGGA,162004.000,4308.3070,N,07726.2644,W,1,06,1.49,171.2,M,-34.4,M,,*55
$GPRMC,162004.250,A,4308.3070,N,07726.2644,W,0.01,20.41,140923,,,A*4A
$GPGGA,162004.500,4308.3070,N,07726.2644,W,1,06,1.49,171.2,M,-34.4,M,,*50
$GPRMC,162004.750,A,4308.3070,N,07726.2644,W,0.00,145.86,140923,,,A*77
$GPGGA,162005.000,4308.3070,N,07726.2644,W,1,06,1.49,171.2,M,-34.4,M,,*54
$GPRMC,162005.250,A,4308.3070,N,07726.2644,W,0.01,57.79,140923,,,A*40
$GPGGA,162005.500,4308.3070,N,07726.2644,W,1,06,1.49,171.2,M,-34.4,M,,*51
$GPRMC,162005.750,A,4308.3070,N,07726.2644,W,0.01,87.91,140923,,,A*4E
$GPGGA,162006.000,4308.3070,N,07726.2644,W,1,06,1.49,171.2,M,-34.4,M,,*57
$GPRMC,162006.250,A,4308.3070,N,07726.2644,W,0.01,65.68,140923,,,A*42
$GPGGA,162006.500,4308.3070,N,07726.2644,W,1,06,1.49,171.2,M,-34.4,M,,*52
$GPRMC,162006.750,A,4308.3070,N,07726.2644,W,0.01,92.55,140923,,,A*41
$GPGGA,162007.000,4308.3070,N,07726.2644,W,1,06,1.49,171.2,M,-34.4,M,,*56
$GPRMC,162007.250,A,4308.3070,N,07726.2644,W,0.00,359.68,140923,,,A*7E
$GPGGA,162007.500,4308.3070,N,07726.2644,W,1,06,1.49,171.2,M,-34.4,M,,*53
$GPRMC,162007.750,A,4308.3070,N,07726.2644,W,0.00,6.77,140923,,,A*7C
$GPGGA,162008.000,4308.3070,N,07726.2644,W,1,06,1.49,171.2,M,-34.4,M,,*59
$GPRMC,162008.250,A,4308.3070,N,07726.2644,W,0.01,351.87,140923,,,A*79
$GPGGA,162008.500,4308.3070,N,07726.2644,W,1,06,1.49,171.2,M,-34.4,M,,*5C
$GPRMC,162008.750,A,4308.3070,N,07726.2644,W,0.01,136.15,140923,,,A*74
$GPGGA,162009.000,4308.3070,N,07726.2644,W,1,06,1.49,171.2,M,-34.4,M,,*58
$GPRMC,162009.250,A,4308.3070,N,07726.2644,W,0.01,54.55,140923,,,A*41
$GPGGA,162009.500,4308.3070,N,07726.2644,W,1,06,1.49,171.2,M,-34.4,M,,*5D
$GPRMC,162009.750,A,4308.3070,N,07726.2644,W,0.01,288.31,140923,,,A*75
$GPGGA,162010.000,4308.3070,N,07726.2644,W,1,06,1.49,171.2,M,-34.4,M,,*50
$GPRMC,162010.250,A,4308.3070,N,07726.2644,W,0.01,73.03,140923,,,A*4F
$GPGGA,162010.500,4308.3070,N,07726.2644,W,1,06,1.49,171.2,M,-34.4,M,,*55
$GPRMC,162010.750,A,4308.3070,N,07726.2644,W,0.01,87.33,140923,,,A*42
$GPGGA,162011.000,4308.3070,N,07726.2644,W,1,06,1.49,171.2,M,-34.4,M,,*51
$GPRMC,162011.250,A,4308.3070,N,07726.2644,W,0.01,89.50,140923,,,A*4D
$GPGGA,162011.500,4308.3070,N,07726.2644,W,1,06,1.49,171.2,M,-34.4,M,,*54
$GPRMC,162011.750,A,4308.3070,N,07726.2644,W,0.01,182.48,140923,,,A*7B
$GPGGA,162012.000,4308.3070,N,07726.2644,W,1,06,1.49,171.2,M,-34.4,M,,*52
$GPRMC,162012.250,A,4308.3070,N,07726.2644,W,0.00,279.56,140923,,,A*74
$GPGGA,162012.500,4308.3070,N,07726.2644,W,1,06,1.49,171.2,M,-34.4,M,,*57
$GPRMC,162012.750,A,4308.3070,N,07726.2644,W,0.02,116.29,140923,,,A*71
$GPGGA,162013.000,4308.3070,N,07726.2644,W,1,06,1.49,171.2,M,-34.4,M,,*53
$GPRMC,162013.250,A,4308.3070,N,07726.2644,W,0.01,99.10,140923,,,A*4A
$GPGGA,162013.500,4308.3070,N,07726.2644,W,1,06,1.49,171.2,M,-34.4,M,,*56
$GPRMC,162013.750,A,4308.3070,N,07726.2644,W,0.00,33.08,140923,,,A*47
$GPGGA,162014.000,4308.3070,N,07726.2644,W,1,06,1.49,171.2,M,-34.4,M,,*54
$GPRMC,162014.250,A,4308.3070,N,07726.2644,W,0.01,64.62,140923,,,A*4A
$GPGGA,162014.500,4308.3070,N,07726.2644,W,1,06,1.49,171.2,M,-34.4,M,,*51
$GPRMC,162014.750,A,4308.3070,N,07726.2644,W,0.01,17.89,140923,,,A*4E
$GPGGA,162015.000,4308.3070,N,07726.2644,W,1,06,1.49,171.2,M,-34.4,M,,*55
$GPRMC,162015.250,A,4308.3070,N,07726.2644,W,0.01,314.47,140923,,,A*78
$GPGGA,162015.500,4308.3070,N,07726.2644,W,1,06,1.49,171.2,M,-34.4,M,,*50
$GPRMC,162015.750,A,4308.3070,N,07726.2644,W,0.01,241.18,140923,,,A*76
$GPGGA,162016.000,4308.3070,N,07726.2644,W,1,06,1.49,171.2,M,-34.4,M,,*56
$GPRMC,162016.250,A,4308.3070,N,07726.2644,W,0.01,188.99,140923,,,A*7F
$GPGGA,162016.500,4308.3070,N,07726.2644,W,1,06,1.49,171.2,M,-34.4,M,,*53
$GPRMC,162016.750,A,4308.3070,N,07726.2644,W,0.01,80.31,140923,,,A*41
$GPGGA,162017.000,4308.3070,N,07726.2644,W,1,06,1.49,171.2,M,-34.4,M,,*57
$GPRMC,162017.250,A,4308.3070,N,07726.2644,W,0.00,112.88,140923,,,A*7C
$GPGGA,162017.500,4308.3070,N,07726.2644,W,1,06,1.49,171.2,M,-34.4,M,,*52
$GPRMC,162017.750,A,4308.3070,N,07726.2644,W,0.01,170.05,140923,,,A*79
$GPGGA,162018.000,4308.3070,N,07726.2644,W,1,06,1.49,171.2,M,-34.4,M,,*58
$GPRMC,162018.250,A,4308.3070,N,07726.2644,W,0.01,115.30,140923,,,A*76
$GPGGA,162018.500,4308.3070,N,07726.2644,W,1,06,1.49,171.2,M,-34.4,M,,*5D
$GPRMC,162018.750,A,4308.3070,N,07726.2644,W,0.02,52.65,140923,,,A*42
$GPGGA,162019.000,4308.3070,N,07726.2644,W,1,06,1.49,171.2,M,-34.4,M,,*59
$GPRMC,162019.250,A,4308.3070,N,07726.2644,W,0.00,162.45,140923,,,A*74
$GPGGA,162019.500,4308.3070,N,07726.2644,W,1,06,1.49,171.2,M,-34.4,M,,*5C
$GPRMC,162019.750,A,4308.3070,N,07726.2644,W,0.01,190.58,140923,,,A*71
$GPGGA,162020.000,4308.3070,N,07726.2644,W,1,06,1.49,171.2,M,-34.4,M,,*53
$GPRMC,162020.250,A,4308.3070,N,07726.2644,W,0.01,205.82,140923,,,A*76
$GPGGA,162020.500,4308.3070,N,07726.2644,W,1,07,1.20,171.2,M,-34.4,M,,*58
$GPRMC,162020.750,A,4308.3070,N,07726.2644,W,0.01,75.70,140923,,,A*4B
$GPGGA,162021.000,4308.3070,N,07726.2644,W,1,07,1.20,171.2,M,-34.4,M,,*5C
$GPRMC,162021.250,A,4308.3070,N,07726.2644,W,0.01,144.57,140923,,,A*79
$GPGGA,162021.500,4308.3070,N,07726.2644,W,1,07,1.20,171.2,M,-34.4,M,,*59
$GPRMC,162021.750,A,4308.3070,N,07726.2644,W,0.00,51.01,140923,,,A*4B
$GPGGA,162022.000,4308.3070,N,07726.2644,W,1,07,1.20,171.2,M,-34.4,M,,*5F
$GPRMC,162022.250,A,4308.3070,N,07726.2644,W,0.00,63.84,140923,,,A*41
$GPGGA,162022.500,4308.3070,N,07726.2644,W,1,07,1.20,171.2,M,-34.4,M,,*5A
$GPRMC,162022.750,A,4308.3070,N,07726.2644,W,0.00,102.97,140923,,,A*70
$GPGGA,162023.000,4308.3070,N,07726.2644,W,1,07,1.20,171.2,M,-34.4,M,,*5E
$GPRMC,162023.250,A,4308.3070,N,07726.2644,W,0.01,75.74,140923,,,A*49
$GPGGA,162023.500,4308.3070,N,07726.2644,W,1,07,1.20,171.2,M,-34.4,M,,*5B
$GPRMC,162023.750,A,4308.3070,N,07726.2644,W,0.00,240.21,140923,,,A*79
$GPGGA,162024.000,4308.3070,N,07726.2644,W,1,07,1.20,171.2,M,-34.4,M,,*59
$GPRMC,162024.250,A,4308.3070,N,07726.2644,W,0.00,0.00,140923,,,A*7E
$GPGGA,162024.500,4308.3070,N,07726.2644,W,1,07,1.20,171.2,M,-34.4,M,,*5C
$GPRMC,162024.750,A,4308.3070,N,07726.2644,W,0.02,254.31,140923,,,A*78
$GPGGA,162025.000,4308.3070,N,07726.2644,W,1,07,1.20,171.2,M,-34.4,M,,*58
$GPRMC,162025.250,A,4308.3070,N,07726.2644,W,0.00,356.65,140923,,,A*7C
$GPGGA,162025.500,4308.3070,N,07726.2644,W,1,07,1.20,171.2,M,-34.4,M,,*5D
$GPRMC,162025.750,A,4308.3070,N,07726.2644,W,0.01,117.22,140923,,,A*7C
$GPGGA,162026.000,4308.3070,N,07726.2644,W,1,07,1.20,171.2,M,-34.4,M,,*5B
$GPRMC,162026.250,A,4308.3070,N,07726.2644,W,0.01,186.38,140923,,,A*79
$GPGGA,162026.500,4308.3070,N,07726.2644,W,1,07,1.20,171.2,M,-34.4,M,,*5E
$GPRMC,162026.750,A,4308.3070,N,07726.2644,W,0.01,229.98,140923,,,A*70
$GPGGA,162027.000,4308.3070,N,07726.2644,W,1,07,1.20,171.2,M,-34.4,M,,*5A
$GPRMC,162027.250,A,4308.3070,N,07726.2644,W,0.01,31.39,140923,,,A*44
$GPGGA,162027.500,4308.3070,N,07726.2644,W,1,07,1.20,171.2,M,-34.4,M,,*5F
$GPRMC,162027.750,A,4308.3070,N,07726.2644,W,0.00,307.35,140923,,,A*7A
$GPGGA,162028.000,4308.3070,N,07726.2644,W,1,07,1.20,171.2,M,-34.4,M,,*55
$GPRMC,162028.250,A,4308.3070,N,07726.2644,W,0.00,308.13,140923,,,A*7B
$GPGGA,162028.500,4308.3070,N,07726.2644,W,1,07,1.20,171.2,M,-34.4,M,,*50
$GPRMC,162028.750,A,4308.3070,N,07726.2644,W,0.00,216.35,140923,,,A*74
$GPGGA,162029.000,4308.3070,N,07726.2644,W,1,07,1.20,171.2,M,-34.4,M,,*54
$GPRMC,162029.250,A,4308.3070,N,07726.2644,W,0.01,165.10,140923,,,A*71
$GPGGA,162029.500,4308.3070,N,07726.2644,W,1,07,1.20,171.2,M,-34.4,M,,*51
$GPRMC,162029.750,A,4308.3070,N,07726.2644,W,0.01,169.55,140923,,,A*79
$GPGGA,162030.000,4308.3070,N,07726.2644,W,1,07,1.20,171.2,M,-34.4,M,,*5C
$GPRMC,162030.250,A,4308.3070,N,07726.2644,W,0.00,0.00,140923,,,A*7B
$GPGGA,162030.500,4308.3070,N,07726.2644,W,1,07,1.20,171.2,M,-34.4,M,,*59
$GPRMC,162030.750,A,4308.3070,N,07726.2644,W,0.01,86.14,140923,,,A*44
$GPGGA,162031.000,4308.3070,N,07726.2644,W,1,07,1.20,171.2,M,-34.4,M,,*5D
$GPRMC,162031.250,A,4308.3070,N,07726.2644,W,0.01,22.31,140923,,,A*49
$GPGGA,162031.500,4308.3070,N,07726.2644,W,1,07,1.20,171.2,M,-34.4,M,,*58
$GPRMC,162031.750,A,4308.3070,N,07726.2644,W,0.01,48.33,140923,,,A*42
$GPGGA,162032.000,4308.3070,N,07726.2644,W,1,07,1.20,171.2,M,-34.4,M,,*5E
$GPRMC,162032.250,A,4308.3070,N,07726.2644,W,0.00,353.79,140923,,,A*72
$GPGGA,162032.500,4308.3070,N,07726.2644,W,1,07,1.20,171.2,M,-34.4,M,,*5B
$GPRMC,162032.750,A,4308.3070,N,07726.2644,W,0.00,183.34,140923,,,A*71
$GPGGA,162033.000,4308.3070,N,07726.2644,W,1,07,1.20,171.2,M,-34.4,M,,*5F
$GPRMC,162033.250,A,4308.3070,N,07726.2644,W,0.00,140.16,140923,,,A*7A
$GPGGA,162033.500,4308.3070,N,07726.2644,W,1,07,1.20,171.2,M,-34.4,M,,*5A
$GPRMC,162033.750,A,4308.3070,N,07726.2644,W,0.00,288.44,140923,,,A*7F
$GPGGA,162034.000,4308.3070,N,07726.2644,W,1,07,1.20,171.2,M,-34.4,M,,*58
$GPRMC,162034.250,A,4308.3070,N,07726.2644,W,0.00,19.44,140923,,,A*47
$GPGGA,162034.500,4308.3070,N,07726.2644,W,1,07,1.20,171.2,M,-34.4,M,,*5D
$GPRMC,162034.750,A,4308.3070,N,07726.2644,W,0.02,251.65,140923,,,A*7D
$GPGGA,162035.000,4308.3070,N,07726.2644,W,1,07,1.20,171.2,M,-34.4,M,,*59
$GPRMC,162035.250,A,4308.3070,N,07726.2644,W,0.01,122.95,140923,,,A*72
$GPGGA,162035.500,4308.3070,N,07726.2644,W,1,07,1.20,171.2,M,-34.4,M,,*5C
$GPRMC,162035.750,A,4308.3070,N,07726.2644,W,0.01,45.86,140923,,,A*45
$GPGGA,162036.000,4308.3070,N,07726.2644,W,1,07,1.20,171.2,M,-34.4,M,,*5A
$GPRMC,162036.250,A,4308.3070,N,07726.2644,W,0.01,32.41,140923,,,A*48
$GPGGA,162036.500,4308.3070,N,07726.2644,W,1,07,1.20,171.2,M,-34.4,M,,*5F
$GPRMC,162036.750,A,4308.3070,N,07726.2644,W,0.01,88.49,140923,,,A*44
$GPGGA,162037.000,4308.3070,N,07726.2644,W,1,07,1.20,171.2,M,-34.4,M,,*5B
$GPRMC,162037.250,A,4308.3070,N,07726.2644,W,0.01,81.62,140923,,,A*40
$GPGGA,162037.500,4308.3070,N,07726.2644,W,1,07,1.20,171.1,M,-34.4,M,,*5D
$GPRMC,162037.750,A,4308.3070,N,07726.2644,W,0.01,65.57,140923,,,A*49
$GPGGA,162038.000,4308.3070,N,07726.2644,W,1,07,1.20,171.1,M,-34.4,M,,*57
$GPRMC,162038.250,A,4308.3070,N,07726.2644,W,0.00,177.94,140923,,,A*7F
$GPGGA,162038.500,4308.3070,N,07726.2644,W,1,07,1.20,171.1,M,-34.4,M,,*52
$GPRMC,162038.750,A,4308.3070,N,07726.2644,W,0.00,312.50,140923,,,A*73
$GPGGA,162039.000,4308.3070,N,07726.2644,W,1,07,1.20,171.1,M,-34.4,M,,*56
$GPRMC,162039.250,A,4308.3070,N,07726.2644,W,0.01,243.15,140923,,,A*72
$GPGGA,162039.500,4308.3070,N,07726.2644,W,1,07,1.20,171.1,M,-34.4,M,,*53
$GPRMC,162039.750,A,4308.3070,N,07726.2644,W,0.02,60.29,140923,,,A*48
$GPGGA,162040.000,4308.3070,N,07726.2644,W,1,07,1.20,171.1,M,-34.4,M,,*58
$GPRMC,162040.250,A,4308.3070,N,07726.2644,W,0.00,146.32,140923,,,A*7E
$GPGGA,162040.500,4308.3070,N,07726.2644,W,1,07,1.20,171.1,M,-34.4,M,,*5D
$GPRMC,162040.750,A,4308.3070,N,07726.2644,W,0.00,19.31,140923,,,A*43
$GPGGA,162041.000,4308.3070,N,07726.2644,W,1,07,1.20,171.1,M,-34.4,M,,*59
$GPRMC,162041.250,A,4308.3070,N,07726.2644,W,0.02,35.93,140923,,,A*43
$GPGGA,162041.500,4308.3070,N,07726.2644,W,1,07,1.20,171.1,M,-34.4,M,,*5C
$GPRMC,162041.750,A,4308.3070,N,07726.2643,W,0.00,0.00,140923,,,A*7F
$GPGGA,162042.000,4308.3070,N,07726.2643,W,1,07,1.20,171.1,M,-34.4,M,,*5D
$GPRMC,162042.250,A,4308.3070,N,07726.2643,W,0.01,73.09,140923,,,A*45
$GPGGA,162042.500,4308.3070,N,07726.2643,W,1,07,1.20,171.1,M,-34.4,M,,*58
$GPRMC,162042.750,A,4308.3070,N,07726.2643,W,0.01,69.76,140923,,,A*43
$GPGGA,162043.000,4308.3070,N,07726.2643,W,1,07,1.20,171.1,M,-34.4,M,,*5C
$GPRMC,162043.250,A,4308.3070,N,07726.2643,W,0.00,17.47,140923,,,A*4D
$GPGGA,162043.500,4308.3070,N,07726.2643,W,1,07,1.20,171.1,M,-34.4,M,,*59
$GPRMC,162043.750,A,4308.3070,N,07726.2643,W,0.01,79.80,140923,,,A*4A
$GPGGA,162044.000,4308.3070,N,07726.2643,W,1,07,1.20,171.1,M,-34.4,M,,*5B
$GPRMC,162044.250,A,4308.3070,N,07726.2643,W,0.01,312.47,140923,,,A*7D
$GPGGA,162044.500,4308.3070,N,07726.2643,W,1,07,1.20,171.1,M,-34.4,M,,*5E
$GPRMC,162044.750,A,4308.3070,N,07726.2643,W,0.01,296.42,140923,,,A*70
$GPGGA,162045.000,4308.3070,N,07726.2643,W,1,07,1.20,171.2,M,-34.4,M,,*59
$GPRMC,162045.250,A,4308.3070,N,07726.2643,W,0.01,333.78,140923,,,A*73
$GPGGA,162045.500,4308.3070,N,07726.2643,W,1,07,1.20,171.2,M,-34.4,M,,*5C
$GPRMC,162045.750,A,4308.3070,N,07726.2643,W,0.01,309.22,140923,,,A*70
$GPGGA,162046.000,4308.3070,N,07726.2644,W,1,07,1.20,171.1,M,-34.4,M,,*5E
$GPRMC,162046.250,A,4308.3070,N,07726.2644,W,0.00,289.60,140923,,,A*7F
$GPGGA,162046.500,4308.3070,N,07726.2644,W,1,07,1.20,171.1,M,-34.4,M,,*5B
$GPRMC,162046.750,A,4308.3070,N,07726.2644,W,0.00,38.94,140923,,,A*49
$GPGGA,162047.000,4308.3070,N,07726.2644,W,1,07,1.20,171.1,M,-34.4,M,,*5F
$GPRMC,162047.250,A,4308.3070,N,07726.2644,W,0.01,351.29,140923,,,A*76
$GPGGA,162047.500,4308.3070,N,07726.2644,W,1,07,1.20,171.1,M,-34.4,M,,*5A
$GPRMC,162047.750,A,4308.3070,N,07726.2644,W,0.01,6.56,140923,,,A*7A
$GPGGA,162048.000,4308.3070,N,07726.2644,W,1,07,1.20,171.1,M,-34.4,M,,*50
$GPRMC,162048.250,A,4308.3070,N,07726.2644,W,0.01,352.19,140923,,,A*79
$GPGGA,162048.500,4308.3070,N,07726.2644,W,1,07,1.21,171.1,M,-34.4,M,,*54
$GPRMC,162048.750,A,4308.3070,N,07726.2644,W,0.00,163.23,140923,,,A*74
$GPGGA,162049.000,4308.3070,N,07726.2644,W,1,07,1.20,171.1,M,-34.4,M,,*51
$GPRMC,162049.250,A,4308.3070,N,07726.2644,W,0.01,328.90,140923,,,A*74
$GPGGA,162049.500,4308.3070,N,07726.2644,W,1,07,1.20,171.1,M,-34.4,M,,*54
$GPRMC,162049.750,A,4308.3070,N,07726.2644,W,0.01,249.07,140923,,,A*79
$GPGGA,162050.000,4308.3070,N,07726.2644,W,1,07,1.20,171.1,M,-34.4,M,,*59
$GPRMC,162050.250,A,4308.3070,N,07726.2644,W,0.01,54.36,140923,,,A*48
$GPGGA,162050.500,4308.3070,N,07726.2644,W,1,07,1.20,171.1,M,-34.4,M,,*5C
$GPRMC,162050.750,A,4308.3070,N,07726.2644,W,0.00,306.26,140923,,,A*79
$GPGGA,162051.000,4308.3070,N,07726.2644,W,1,07,1.20,171.1,M,-34.4,M,,*58
$GPRMC,162051.250,A,4308.3070,N,07726.2644,W,0.01,230.88,140923,,,A*7C
$GPGGA,162051.500,4308.3070,N,07726.2644,W,1,07,1.20,171.1,M,-34.4,M,,*5D
$GPRMC,162051.750,A,4308.3070,N,07726.2644,W,0.01,121.89,140923,,,A*7B
$GPGGA,162052.000,4308.3070,N,07726.2644,W,1,07,1.21,171.1,M,-34.4,M,,*5A
$GPRMC,162052.250,A,4308.3070,N,07726.2644,W,0.01,62.05,140923,,,A*4F
$GPGGA,162052.500,4308.3070,N,07726.2644,W,1,07,1.20,171.1,M,-34.4,M,,*5E
$GPRMC,162052.750,A,4308.3070,N,07726.2644,W,0.01,310.73,140923,,,A*7D
$GPGGA,162053.000,4308.3070,N,07726.2644,W,1,07,1.20,171.1,M,-34.4,M,,*5A
$GPRMC,162053.250,A,4308.3070,N,07726.2644,W,0.00,43.35,140923,,,A*4F
$GPGGA,162053.500,4308.3070,N,07726.2644,W,1,07,1.21,171.1,M,-34.4,M,,*5E
$GPRMC,162053.750,A,4308.3070,N,07726.2644,W,0.01,232.10,140923,,,A*78
$GPGGA,162053.999,4308.3070,N,07726.2644,W,1,07,1.20,171.1,M,-34.4,M,,*53
$GPRMC,162054.249,A,4308.3070,N,07726.2644,W,0.00,54.21,140923,,,A*43
$GPGGA,162054.500,4308.3070,N,07726.2644,W,1,07,1.20,171.1,M,-34.4,M,,*58
$GPRMC,162054.750,A,4308.3070,N,07726.2644,W,0.01,286.83,140923,,,A*7A
$GPGGA,162055.000,4308.3070,N,07726.2644,W,1,07,1.20,171.1,M,-34.4,M,,*5C
$GPRMC,162055.250,A,4308.3070,N,07726.2644,W,0.01,258.52,140923,,,A*71
$GPGGA,162055.500,4308.3070,N,07726.2644,W,1,07,1.20,171.1,M,-34.4,M,,*59
$GPRMC,162055.750,A,4308.3070,N,07726.2644,W,0.01,277.50,140923,,,A*7B
$GPGGA,162056.000,4308.3070,N,07726.2644,W,1,07,1.21,171.1,M,-34.4,M,,*5E
$GPRMC,162056.250,A,4308.3070,N,07726.2644,W,0.01,167.41,140923,,,A*7F
$GPGGA,162056.500,4308.3070,N,07726.2644,W,1,07,1.21,171.1,M,-34.4,M,,*5B
$GPRMC,162056.750,A,4308.3070,N,07726.2644,W,0.01,227.32,140923,,,A*79
$GPGGA,162057.000,4308.3070,N,07726.2644,W,1,07,1.20,171.1,M,-34.4,M,,*5E
$GPRMC,162057.250,A,4308.3070,N,07726.2644,W,0.01,296.59,140923,,,A*7A
$GPGGA,162057.500,4308.3070,N,07726.2644,W,1,07,1.20,171.1,M,-34.4,M,,*5B
$GPRMC,162057.750,A,4308.3070,N,07726.2644,W,0.01,243.22,140923,,,A*7B
$GPGGA,162058.000,4308.3070,N,07726.2644,W,1,07,1.21,171.1,M,-34.4,M,,*50
$GPRMC,162058.250,A,4308.3070,N,07726.2644,W,0.01,176.08,140923,,,A*7C
$GPGGA,162058.500,4308.3070,N,07726.2644,W,1,07,1.20,171.1,M,-34.4,M,,*54
$GPRMC,162058.750,A,4308.3070,N,07726.2644,W,0.01,219.14,140923,,,A*7E
$GPGGA,162059.000,4308.3070,N,07726.2644,W,1,07,1.20,171.1,M,-34.4,M,,*50
$GPRMC,162059.250,A,4308.3070,N,07726.2644,W,0.00,137.80,140923,,,A*79
$GPGGA,162059.500,4308.3070,N,07726.2644,W,1,07,1.21,171.1,M,-34.4,M,,*54
$GPRMC,162059.750,A,4308.3070,N,07726.2644,W,0.01,197.99,140923,,,A*7F
$GPGGA,162100.000,4308.3070,N,07726.2644,W,1,07,1.21,171.1,M,-34.4,M,,*5C
$GPRMC,162100.250,A,4308.3070,N,07726.2644,W,0.01,228.26,140923,,,A*74
$GPGGA,162100.500,4308.3070,N,07726.2644,W,1,07,1.21,171.1,M,-34.4,M,,*59
$GPRMC,162100.750,A,4308.3070,N,07726.2644,W,0.00,46.97,140923,,,A*40
$GPGGA,162101.000,4308.3070,N,07726.2644,W,1,07,1.21,171.1,M,-34.4,M,,*5D
$GPRMC,162101.250,A,4308.3070,N,07726.2644,W,0.01,292.27,140923,,,A*75
$GPGGA,162101.500,4308.3070,N,07726.2644,W,1,07,1.21,171.1,M,-34.4,M,,*58
$GPRMC,162101.750,A,4308.3070,N,07726.2644,W,0.01,267.38,140923,,,A*74
$GPGGA,162102.000,4308.3070,N,07726.2644,W,1,07,1.21,171.1,M,-34.4,M,,*5E
$GPRMC,162102.250,A,4308.3070,N,07726.2644,W,0.00,42.83,140923,,,A*46
$GPGGA,162102.500,4308.3070,N,07726.2644,W,1,07,1.21,171.1,M,-34.4,M,,*5B
$GPRMC,162102.750,A,4308.3070,N,07726.2644,W,0.00,290.31,140923,,,A*77
$GPGGA,162103.000,4308.3070,N,07726.2644,W,1,07,1.21,171.1,M,-34.4,M,,*5F
$GPRMC,162103.250,A,4308.3070,N,07726.2644,W,0.00,359.41,140923,,,A*70
$GPGGA,162103.500,4308.3070,N,07726.2644,W,1,07,1.21,171.1,M,-34.4,M,,*5A
$GPRMC,162103.750,A,4308.3070,N,07726.2644,W,0.00,159.07,140923,,,A*75
$GPGGA,162104.000,4308.3070,N,07726.2644,W,1,07,1.20,171.1,M,-34.4,M,,*59
$GPRMC,162104.250,A,4308.3070,N,07726.2644,W,0.00,2.93,140923,,,A*75
$GPGGA,162104.500,4308.3070,N,07726.2644,W,1,07,1.21,171.1,M,-34.4,M,,*5D
$GPRMC,162104.750,A,4308.3070,N,07726.2644,W,0.01,224.86,140923,,,A*73
$GPGGA,162105.000,4308.3070,N,07726.2644,W,1,07,1.21,171.1,M,-34.4,M,,*59
$GPRMC,162105.250,A,4308.3070,N,07726.2644,W,0.01,258.30,140923,,,A*71
$GPGGA,162105.500,4308.3070,N,07726.2644,W,1,07,1.21,171.1,M,-34.4,M,,*5C
$GPRMC,162105.750,A,4308.3070,N,07726.2644,W,0.00,56.53,140923,,,A*4C
$GPGGA,162106.000,4308.3070,N,07726.2644,W,1,07,1.21,171.1,M,-34.4,M,,*5A
$GPRMC,162106.250,A,4308.3070,N,07726.2644,W,0.01,139.78,140923,,,A*7A
$GPGGA,162106.500,4308.3070,N,07726.2644,W,1,07,1.21,171.1,M,-34.4,M,,*5F
$GPRMC,162106.750,A,4308.3070,N,07726.2644,W,0.01,228.71,140923,,,A*75
$GPGGA,162107.000,4308.3070,N,07726.2644,W,1,07,1.21,171.1,M,-34.4,M,,*5B
$GPRMC,162107.250,A,4308.3070,N,07726.2644,W,0.01,246.74,140923,,,A*7C
$GPGGA,162107.500,4308.3070,N,07726.2644,W,1,07,1.21,171.1,M,-34.4,M,,*5E
$GPRMC,162107.750,A,4308.3070,N,07726.2644,W,0.01,246.50,140923,,,A*7F
$GPGGA,162108.000,4308.3070,N,07726.2644,W,1,07,1.21,171.1,M,-34.4,M,,*54
$GPRMC,162108.250,A,4308.3070,N,07726.2644,W,0.01,331.40,140923,,,A*75
$GPGGA,162108.500,4308.3070,N,07726.2644,W,1,07,1.21,171.1,M,-34.4,M,,*51
$GPRMC,162108.750,A,4308.3070,N,07726.2644,W,0.01,116.29,140923,,,A*78
$GPGGA,162109.000,4308.3070,N,07726.2644,W,1,07,1.21,171.1,M,-34.4,M,,*55
$GPRMC,162109.250,A,4308.3070,N,07726.2644,W,0.00,140.89,140923,,,A*74
$GPGGA,162109.500,4308.3070,N,07726.2644,W,1,07,1.21,171.1,M,-34.4,M,,*50
$GPRMC,162109.750,A,4308.3070,N,07726.2644,W,0.01,113.82,140923,,,A*7D
$GPGGA,162110.000,4308.3070,N,07726.2644,W,1,07,1.21,171.1,M,-34.4,M,,*5D
$GPRMC,162110.250,A,4308.3070,N,07726.2644,W,0.01,163.24,140923,,,A*7B
$GPGGA,162110.500,4308.3070,N,07726.2644,W,1,07,1.21,171.0,M,-34.4,M,,*59
$GPRMC,162110.750,A,4308.3070,N,07726.2644,W,0.01,262.86,140923,,,A*74
$GPGGA,162111.000,4308.3070,N,07726.2644,W,1,07,1.21,171.0,M,-34.4,M,,*5D
$GPRMC,162111.250,A,4308.3070,N,07726.2644,W,0.01,100.70,140923,,,A*7E
$GPGGA,162111.500,4308.3070,N,07726.2644,W,1,07,1.21,171.0,M,-34.4,M,,*58
$GPRMC,162111.750,A,4308.3070,N,07726.2644,W,0.01,73.64,140923,,,A*4B
$GPGGA,162112.000,4308.3070,N,07726.2644,W,1,07,1.21,171.0,M,-34.4,M,,*5E
$GPRMC,162112.250,A,4308.3070,N,07726.2644,W,0.00,258.86,140923,,,A*7B
$GPGGA,162112.500,4308.3070,N,07726.2644,W,1,07,1.21,171.0,M,-34.4,M,,*5B
$GPRMC,162112.750,A,4308.3070,N,07726.2644,W,0.01,142.19,140923,,,A*71
$GPGGA,162113.000,4308.3070,N,07726.2644,W,1,07,1.21,171.0,M,-34.4,M,,*5F
$GPRMC,162113.250,A,4308.3070,N,07726.2644,W,0.01,92.48,140923,,,A*4D
$GPGGA,162113.500,4308.3069,N,07726.2644,W,2,07,1.20,170.9,M,-34.4,M,0000,0000*58
$GPRMC,162113.750,A,4308.3069,N,07726.2644,W,0.01,143.53,140923,,,D*72
$GPGGA,162114.000,4308.3068,N,07726.2645,W,2,07,1.21,170.8,M,-34.4,M,0000,0000*5A
$GPRMC,162114.250,A,4308.3067,N,07726.2645,W,0.02,171.93,140923,,,D*71
$GPGGA,162114.500,4308.3067,N,07726.2646,W,2,07,1.21,170.6,M,-34.4,M,0000,0000*5D
$GPRMC,162114.750,A,4308.3066,N,07726.2646,W,0.02,167.38,140923,,,D*70
$GPGGA,162115.000,4308.3066,N,07726.2646,W,2,07,1.21,170.5,M,-34.4,M,0000,0000*5B
$GPRMC,162115.250,A,4308.3066,N,07726.2647,W,0.03,194.07,140923,,,D*74
$GPGGA,162115.500,4308.3065,N,07726.2648,W,2,07,1.21,170.4,M,-34.4,M,0000,0000*52
$GPRMC,162115.750,A,4308.3064,N,07726.2648,W,0.05,210.80,140923,,,D*7A
$GPGGA,162116.000,4308.3064,N,07726.2649,W,2,07,1.21,170.4,M,-34.4,M,0000,0000*54
$GPRMC,162116.250,A,4308.3063,N,07726.2650,W,0.07,213.36,140923,,,D*7E
$GPGGA,162116.500,4308.3062,N,07726.2650,W,2,07,1.21,170.3,M,-34.4,M,0000,0000*58
$GPRMC,162116.750,A,4308.3062,N,07726.2651,W,0.09,211.86,140923,,,D*7C
$GPGGA,162117.000,4308.3061,N,07726.2651,W,2,07,1.21,170.2,M,-34.4,M,0000,0000*5F
$GPRMC,162117.250,A,4308.3061,N,07726.2651,W,0.10,214.04,140923,,,D*7C
$GPGGA,162117.500,4308.3060,N,07726.2652,W,2,07,1.21,170.2,M,-34.4,M,0000,0000*58
$GPRMC,162117.750,A,4308.3060,N,07726.2652,W,0.11,222.97,140923,,,D*75
$GPGGA,162118.000,4308.3059,N,07726.2653,W,2,07,1.21,170.1,M,-34.4,M,0000,0000*5A
$GPRMC,162118.250,A,4308.3059,N,07726.2653,W,0.12,225.79,140923,,,D*70
$GPGGA,162118.500,4308.3059,N,07726.2654,W,2,07,1.21,170.0,M,-34.4,M,0000,0000*59
$GPRMC,162118.750,A,4308.3058,N,07726.2654,W,0.12,221.43,140923,,,D*7E
$GPGGA,162119.000,4308.3058,N,07726.2654,W,2,07,1.21,170.0,M,-34.4,M,0000,0000*5C
$GPRMC,162119.250,A,4308.3058,N,07726.2655,W,0.13,221.87,140923,,,D*72
$GPGGA,162119.500,4308.3057,N,07726.2655,W,2,07,1.21,169.9,M,-34.4,M,0000,0000*56
$GPRMC,162119.750,A,4308.3057,N,07726.2656,W,0.13,224.39,140923,,,D*7B
$GPGGA,162120.000,4308.3057,N,07726.2656,W,2,07,1.21,169.7,M,-34.4,M,0000,0000*54
$GPRMC,162120.250,A,4308.3057,N,07726.2657,W,0.14,228.90,140923,,,D*7D
$GPGGA,162120.500,4308.3056,N,07726.2657,W,2,07,1.21,169.6,M,-34.4,M,0000,0000*50
$GPRMC,162120.750,A,4308.3056,N,07726.2657,W,0.13,225.81,140923,,,D*73
$GPGGA,162121.000,4308.3056,N,07726.2657,W,2,07,1.21,169.5,M,-34.4,M,0000,0000*57
$GPRMC,162121.250,A,4308.3056,N,07726.2657,W,0.11,225.02,140923,,,D*7E
$GPGGA,162121.500,4308.3056,N,07726.2658,W,2,07,1.21,169.4,M,-34.4,M,0000,0000*5C
$GPRMC,162121.750,A,4308.3056,N,07726.2658,W,0.10,229.13,140923,,,D*79
$GPGGA,162122.000,4308.3056,N,07726.2658,W,2,07,1.21,169.2,M,-34.4,M,0000,0000*5C
$GPRMC,162122.250,A,4308.3056,N,07726.2659,W,0.10,227.16,140923,,,D*75
$GPGGA,162122.500,4308.3055,N,07726.2659,W,2,07,1.21,169.1,M,-34.4,M,0000,0000*58
$GPRMC,162122.750,A,4308.3055,N,07726.2659,W,0.11,219.08,140923,,,D*70
$GPGGA,162123.000,4308.3054,N,07726.2659,W,2,07,1.21,169.0,M,-34.4,M,0000,0000*5C
$GPRMC,162123.250,A,4308.3054,N,07726.2659,W,0.11,218.76,140923,,,D*7D
$GPGGA,162123.500,4308.3054,N,07726.2659,W,2,07,1.21,168.9,M,-34.4,M,0000,0000*51
$GPRMC,162123.750,A,4308.3054,N,07726.2660,W,0.02,225.07,140923,,,D*78
$GPGGA,162124.000,4308.3054,N,07726.2660,W,2,07,1.21,168.8,M,-34.4,M,0000,0000*58
$GPRMC,162124.250,A,4308.3053,N,07726.2660,W,0.01,201.59,140923,,,D*73
$GPGGA,162124.500,4308.3053,N,07726.2660,W,2,07,1.21,168.7,M,-34.4,M,0000,0000*55
$GPRMC,162124.750,A,4308.3053,N,07726.2660,W,0.01,134.48,140923,,,D*73
$GPGGA,162125.000,4308.3053,N,07726.2660,W,2,07,1.21,168.6,M,-34.4,M,0000,0000*50
$GPRMC,162125.250,A,4308.3053,N,07726.2660,W,0.00,201.89,140923,,,D*7E
$GPGGA,162125.500,4308.3053,N,07726.2660,W,2,07,1.21,168.6,M,-34.4,M,0000,0000*55
$GPRMC,162125.750,A,4308.3053,N,07726.2660,W,0.00,286.61,140923,,,D*72
$GPGGA,162126.000,4308.3052,N,07726.2660,W,2,07,1.21,168.5,M,-34.4,M,0000,0000*51
$GPRMC,162126.250,A,4308.3052,N,07726.2661,W,0.00,245.02,140923,,,D*7E
$GPGGA,162126.500,4308.3052,N,07726.2661,W,2,07,1.21,168.5,M,-34.4,M,0000,0000*55
$GPRMC,162126.750,A,4308.3052,N,07726.2661,W,0.02,241.02,140923,,,D*7D
$GPGGA,162127.000,4308.3052,N,07726.2661,W,2,07,1.21,168.5,M,-34.4,M,0000,0000*51
$GPRMC,162127.250,A,4308.3053,N,07726.2661,W,0.01,90.22,140923,,,D*47
$GPGGA,162127.500,4308.3053,N,07726.2660,W,2,07,1.21,168.5,M,-34.4,M,0000,0000*54
$GPRMC,162127.750,A,4308.3053,N,07726.2660,W,0.00,31.46,140923,,,D*4B
$GPGGA,162128.000,4308.3053,N,07726.2660,W,2,07,1.21,168.5,M,-34.4,M,0000,0000*5E
$GPRMC,162128.250,A,4308.3053,N,07726.2660,W,0.00,0.00,140923,,,D*71
$GPGGA,162128.500,4308.3053,N,07726.2660,W,2,07,1.21,168.5,M,-34.4,M,0000,0000*5B
$GPRMC,162128.750,A,4308.3053,N,07726.2660,W,0.01,240.54,140923,,,D*72
$GPGGA,162129.000,4308.3052,N,07726.2659,W,2,07,1.21,168.5,M,-34.4,M,0000,0000*54
$GPRMC,162129.250,A,4308.3052,N,07726.2659,W,0.01,149.53,140923,,,D*70
$GPGGA,162129.500,4308.3052,N,07726.2658,W,2,07,1.21,168.4,M,-34.4,M,0000,0000*51
$GPRMC,162129.750,A,4308.3052,N,07726.2658,W,0.00,179.52,140923,,,D*77
$GPGGA,162130.000,4308.3051,N,07726.2658,W,2,07,1.21,168.3,M,-34.4,M,0000,0000*58
$GPRMC,162130.250,A,4308.3051,N,07726.2658,W,0.01,179.21,140923,,,D*7C
$GPGGA,162130.500,4308.3051,N,07726.2658,W,2,07,1.21,168.1,M,-34.4,M,0000,0000*5F
$GPRMC,162130.750,A,4308.3051,N,07726.2658,W,0.01,222.78,140923,,,D*78
$GPGGA,162131.000,4308.3051,N,07726.2658,W,2,07,1.21,168.0,M,-34.4,M,0000,0000*5A
$GPRMC,162131.250,A,4308.3051,N,07726.2657,W,0.00,60.22,140923,,,D*49
$GPGGA,162131.500,4308.3051,N,07726.2657,W,2,07,1.21,167.9,M,-34.4,M,0000,0000*56
$GPRMC,162131.750,A,4308.3051,N,07726.2658,W,0.01,277.42,140923,,,D*70
$GPGGA,162132.000,4308.3051,N,07726.2658,W,2,07,1.21,167.8,M,-34.4,M,0000,0000*5E
$GPRMC,162132.250,A,4308.3051,N,07726.2658,W,0.00,56.30,140923,,,D*43
$GPGGA,162132.500,4308.3051,N,07726.2658,W,2,07,1.21,167.6,M,-34.4,M,0000,0000*55
$GPRMC,162132.750,A,4308.3052,N,07726.2657,W,0.01,55.69,140923,,,D*44
$GPGGA,162133.000,4308.3052,N,07726.2657,W,2,07,1.21,167.4,M,-34.4,M,0000,0000*5F
$GPRMC,162133.250,A,4308.3052,N,07726.2657,W,0.01,356.79,140923,,,D*71
$GPGGA,162133.500,4308.3052,N,07726.2657,W,2,07,1.21,167.3,M,-34.4,M,0000,0000*5D
$GPRMC,162133.750,A,4308.3052,N,07726.2657,W,0.00,127.13,140923,,,D*7D
$GPGGA,162134.000,4308.3053,N,07726.2657,W,2,07,1.21,167.1,M,-34.4,M,0000,0000*5C
$GPRMC,162134.250,A,4308.3053,N,07726.2657,W,0.00,24.23,140923,,,D*4F
$GPGGA,162134.500,4308.3053,N,07726.2657,W,2,07,1.21,166.9,M,-34.4,M,0000,0000*50
$GPRMC,162134.750,A,4308.3053,N,07726.2656,W,0.01,68.05,140923,,,D*46
$GPGGA,162135.000,4308.3053,N,07726.2656,W,2,07,1.21,166.8,M,-34.4,M,0000,0000*54
$GPRMC,162135.250,A,4308.3053,N,07726.2656,W,0.01,97.88,140923,,,D*47
$GPGGA,162135.500,4308.3053,N,07726.2655,W,2,07,1.21,166.7,M,-34.4,M,0000,0000*5D
$GPRMC,162135.750,A,4308.3053,N,07726.2655,W,0.00,40.10,140923,,,D*4B
$GPGGA,162136.000,4308.3053,N,07726.2655,W,2,07,1.21,166.6,M,-34.4,M,0000,0000*5A
$GPRMC,162136.250,A,4308.3054,N,07726.2655,W,0.01,23.52,140923,,,D*48
$GPGGA,162136.500,4308.3054,N,07726.2655,W,2,07,1.21,166.5,M,-34.4,M,0000,0000*5B
$GPRMC,162136.750,A,4308.3054,N,07726.2655,W,0.00,21.61,140923,,,D*4E
$GPGGA,162137.000,4308.3054,N,07726.2654,W,2,07,1.21,166.4,M,-34.4,M,0000,0000*5F
$GPRMC,162137.250,A,4308.3054,N,07726.2654,W,0.01,75.70,140923,,,D*4B
$GPGGA,162137.500,4308.3054,N,07726.2654,W,2,07,1.21,166.3,M,-34.4,M,0000,0000*5D
$GPRMC,162137.750,A,4308.3054,N,07726.2654,W,0.01,257.27,140923,,,D*7E
$GPGGA,162138.000,4308.3054,N,07726.2654,W,2,07,1.21,166.3,M,-34.4,M,0000,0000*57
$GPRMC,162138.250,A,4308.3054,N,07726.2654,W,0.01,309.16,140923,,,D*7C
$GPGGA,162138.500,4308.3055,N,07726.2654,W,2,07,1.21,166.4,M,-34.4,M,0000,0000*54
$GPRMC,162138.750,A,4308.3055,N,07726.2654,W,0.01,298.68,140923,,,D*78
$GPGGA,162139.000,4308.3055,N,07726.2654,W,2,07,1.21,166.4,M,-34.4,M,0000,0000*50
$GPRMC,162139.250,A,4308.3055,N,07726.2654,W,0.00,90.69,140923,,,D*46
$GPGGA,162139.500,4308.3055,N,07726.2654,W,2,07,1.21,166.4,M,-34.4,M,0000,0000*55
$GPRMC,162139.750,A,4308.3055,N,07726.2654,W,0.00,50.78,140923,,,D*4F
$GPGGA,162140.000,4308.3055,N,07726.2653,W,2,07,1.21,166.4,M,-34.4,M,0000,0000*59
$GPRMC,162140.250,A,4308.3055,N,07726.2653,W,0.01,104.66,140923,,,D*7D
$GPGGA,162140.500,4308.3055,N,07726.2653,W,2,07,1.21,166.5,M,-34.4,M,0000,0000*5D
$GPRMC,162140.750,A,4308.3055,N,07726.2652,W,0.01,44.05,140923,,,D*49
$GPGGA,162141.000,4308.3055,N,07726.2652,W,2,07,1.21,166.6,M,-34.4,M,0000,0000*5B
$GPRMC,162141.250,A,4308.3055,N,07726.2652,W,0.00,1.58,140923,,,D*75
$GPGGA,162141.500,4308.3055,N,07726.2652,W,2,07,1.21,166.6,M,-34.4,M,0000,0000*5E
$GPRMC,162141.750,A,4308.3055,N,07726.2652,W,0.01,324.43,140923,,,D*7F
$GPGGA,162142.000,4308.3055,N,07726.2652,W,2,07,1.21,166.7,M,-34.4,M,0000,0000*59
$GPRMC,162142.250,A,4308.3055,N,07726.2651,W,0.00,0.00,140923,,,D*79
$GPGGA,162142.500,4308.3055,N,07726.2651,W,2,07,1.21,166.8,M,-34.4,M,0000,0000*50
$GPRMC,162142.750,A,4308.3055,N,07726.2651,W,0.00,177.55,140923,,,D*7D
$GPGGA,162143.000,4308.3055,N,07726.2651,W,2,07,1.21,166.9,M,-34.4,M,0000,0000*55
$GPRMC,162143.250,A,4308.3055,N,07726.2650,W,0.01,132.04,140923,,,D*7C
$GPGGA,162143.500,4308.3055,N,07726.2650,W,2,07,1.21,167.0,M,-34.4,M,0000,0000*59
$GPRMC,162143.750,A,4308.3054,N,07726.2650,W,0.01,193.23,140923,,,D*76
$GPGGA,162144.000,4308.3054,N,07726.2650,W,2,07,1.21,167.1,M,-34.4,M,0000,0000*5B
$GPRMC,162144.250,A,4308.3054,N,07726.2650,W,0.01,203.95,140923,,,D*73
$GPGGA,162144.500,4308.3054,N,07726.2649,W,2,07,1.21,167.2,M,-34.4,M,0000,0000*55
$GPRMC,162144.750,A,4308.3053,N,07726.2649,W,0.01,115.74,140923,,,D*72
$GPGGA,162145.000,4308.3053,N,07726.2649,W,2,07,1.21,167.3,M,-34.4,M,0000,0000*57
$GPRMC,162145.250,A,4308.3053,N,07726.2648,W,0.00,0.00,140923,,,D*70
$GPGGA,162145.500,4308.3053,N,07726.2648,W,2,07,1.21,167.4,M,-34.4,M,0000,0000*54
$GPRMC,162145.750,A,4308.3053,N,07726.2648,W,0.02,264.87,140923,,,D*78
$GPGGA,162146.000,4308.3053,N,07726.2648,W,2,07,1.21,167.4,M,-34.4,M,0000,0000*52
$GPRMC,162146.250,A,4308.3053,N,07726.2648,W,0.00,45.19,140923,,,D*4A
$GPGGA,162146.500,4308.3053,N,07726.2647,W,2,07,1.21,167.4,M,-34.4,M,0000,0000*58
$GPRMC,162146.750,A,4308.3053,N,07726.2647,W,0.01,168.57,140923,,,D*75
$GPGGA,162147.000,4308.3053,N,07726.2647,W,2,07,1.21,167.5,M,-34.4,M,0000,0000*5D
$GPRMC,162147.250,A,4308.3053,N,07726.2646,W,0.01,109.65,140923,,,D*76
$GPGGA,162147.500,4308.3053,N,07726.2646,W,2,07,1.21,167.5,M,-34.4,M,0000,0000*59
$GPRMC,162147.750,A,4308.3053,N,07726.2645,W,0.01,182.83,140923,,,D*7B
$GPGGA,162148.000,4308.3052,N,07726.2645,W,2,07,1.21,167.4,M,-34.4,M,0000,0000*50
$GPRMC,162148.250,A,4308.3052,N,07726.2645,W,0.00,178.30,140923,,,D*7C
$GPGGA,162148.500,4308.3052,N,07726.2645,W,2,07,1.21,167.3,M,-34.4,M,0000,0000*52
$GPRMC,162148.750,A,4308.3052,N,07726.2646,W,0.01,261.81,140923,,,D*7A
$GPGGA,162149.000,4308.3052,N,07726.2646,W,2,07,1.21,167.2,M,-34.4,M,0000,0000*54
$GPRMC,162149.250,A,4308.3052,N,07726.2646,W,0.00,249.78,140923,,,D*73
$GPGGA,162149.500,4308.3053,N,07726.2646,W,2,07,1.21,167.1,M,-34.4,M,0000,0000*53
$GPRMC,162149.750,A,4308.3053,N,07726.2645,W,0.01,53.85,140923,,,D*4E
$GPGGA,162150.000,4308.3053,N,07726.2645,W,2,07,1.21,167.0,M,-34.4,M,0000,0000*5C
$GPRMC,162150.250,A,4308.3053,N,07726.2645,W,0.01,65.42,140923,,,D*4D
$GPGGA,162150.500,4308.3053,N,07726.2645,W,2,07,1.21,166.9,M,-34.4,M,0000,0000*51
$GPRMC,162150.750,A,4308.3053,N,07726.2645,W,0.01,274.95,140923,,,D*70
$GPGGA,162151.000,4308.3053,N,07726.2645,W,2,07,1.21,166.7,M,-34.4,M,0000,0000*5B
$GPRMC,162151.250,A,4308.3054,N,07726.2645,W,0.01,319.70,140923,,,D*72
$GPGGA,162151.500,4308.3054,N,07726.2645,W,2,07,1.21,166.5,M,-34.4,M,0000,0000*5B
$GPRMC,162151.750,A,4308.3054,N,07726.2646,W,0.01,311.11,140923,,,D*7B
$GPGGA,162152.000,4308.3055,N,07726.2646,W,2,07,1.21,166.4,M,-34.4,M,0000,0000*5E
$GPRMC,162152.250,A,4308.3055,N,07726.2646,W,0.01,314.21,140923,,,D*7A
$GPGGA,162152.500,4308.3055,N,07726.2646,W,2,07,1.21,166.2,M,-34.4,M,0000,0000*5D
$GPRMC,162152.750,A,4308.3055,N,07726.2647,W,0.02,250.73,140923,,,D*7B
$GPGGA,162153.000,4308.3055,N,07726.2647,W,2,07,1.21,166.0,M,-34.4,M,0000,0000*5A
$GPRMC,162153.250,A,4308.3056,N,07726.2647,W,0.01,64.60,140923,,,D*48
$GPGGA,162153.500,4308.3056,N,07726.2646,W,2,07,1.21,165.8,M,-34.4,M,0000,0000*56
$GPRMC,162153.750,A,4308.3056,N,07726.2646,W,0.00,86.58,140923,,,D*4A
$GPGGA,162154.000,4308.3056,N,07726.2646,W,2,07,1.21,165.6,M,-34.4,M,0000,0000*5A
$GPRMC,162154.250,A,4308.3057,N,07726.2646,W,0.01,291.17,140923,,,D*77
$GPGGA,162154.500,4308.3057,N,07726.2647,W,2,07,1.21,165.4,M,-34.4,M,0000,0000*5D
$GPRMC,162154.750,A,4308.3057,N,07726.2647,W,0.00,230.68,140923,,,D*71
$GPGGA,162155.000,4308.3057,N,07726.2647,W,2,07,1.21,165.1,M,-34.4,M,0000,0000*5C
$GPRMC,162155.250,A,4308.3057,N,07726.2647,W,0.01,240.49,140923,,,D*70
$GPGGA,162155.500,4308.3057,N,07726.2647,W,2,07,1.21,164.9,M,-34.4,M,0000,0000*50
$GPRMC,162155.750,A,4308.3057,N,07726.2647,W,0.01,105.19,140923,,,D*72
$GPGGA,162156.000,4308.3057,N,07726.2646,W,2,07,1.21,164.7,M,-34.4,M,0000,0000*59
$GPRMC,162156.250,A,4308.3057,N,07726.2646,W,0.00,45.56,140923,,,D*4A
$GPGGA,162156.500,4308.3058,N,07726.2646,W,2,07,1.21,164.5,M,-34.4,M,0000,0000*51
$GPRMC,162156.750,A,4308.3058,N,07726.2646,W,0.01,69.49,140923,,,D*41
$GPGGA,162157.000,4308.3058,N,07726.2646,W,2,07,1.21,164.5,M,-34.4,M,0000,0000*55
$GPRMC,162157.250,A,4308.3058,N,07726.2646,W,0.01,82.70,140923,,,D*4A
$GPGGA,162157.500,4308.3058,N,07726.2646,W,2,07,1.21,164.5,M,-34.4,M,0000,0000*50
$GPRMC,162157.750,A,4308.3058,N,07726.2646,W,0.02,65.15,140923,,,D*46
$GPGGA,162158.000,4308.3058,N,07726.2646,W,2,07,1.21,164.5,M,-34.4,M,0000,0000*5A
$GPRMC,162158.250,A,4308.3058,N,07726.2646,W,0.00,299.64,140923,,,D*79
$GPGGA,162158.500,4308.3058,N,07726.2646,W,2,07,1.21,164.5,M,-34.4,M,0000,0000*5F
$GPRMC,162158.750,A,4308.3058,N,07726.2646,W,0.01,344.64,140923,,,D*7C
$GPGGA,162159.000,4308.3058,N,07726.2646,W,2,07,1.21,164.5,M,-34.4,M,0000,0000*5B
$GPRMC,162159.250,A,4308.3058,N,07726.2646,W,0.00,79.39,140923,,,D*4C
$GPGGA,162159.500,4308.3058,N,07726.2646,W,2,07,1.21,164.5,M,-34.4,M,0000,0000*5E
$GPRMC,162159.750,A,4308.3058,N,07726.2646,W,0.02,116.95,140923,,,D*75
$GPGGA,162200.000,4308.3058,N,07726.2646,W,2,07,1.21,164.5,M,-34.4,M,0000,0000*54
$GPRMC,162200.250,A,4308.3058,N,07726.2646,W,0.00,98.06,140923,,,D*40
$GPGGA,162200.500,4308.3058,N,07726.2646,W,2,07,1.21,164.5,M,-34.4,M,0000,0000*51
$GPRMC,162200.750,A,4308.3058,N,07726.2646,W,0.01,65.67,140923,,,D*41
$GPGGA,162201.000,4308.3058,N,07726.2646,W,2,07,1.21,164.5,M,-34.4,M,0000,0000*55
$GPRMC,162201.250,A,4308.3058,N,07726.2646,W,0.00,204.16,140923,,,D*77
$GPGGA,162201.500,4308.3058,N,07726.2646,W,2,07,1.21,164.5,M,-34.4,M,0000,0000*50
$GPRMC,162201.750,A,4308.3058,N,07726.2646,W,0.01,214.24,140923,,,D*73
$GPGGA,162202.000,4308.3058,N,07726.2646,W,2,07,1.21,164.5,M,-34.4,M,0000,0000*56
$GPRMC,162202.250,A,4308.3058,N,07726.2646,W,0.00,116.15,140923,,,D*77
$GPGGA,162202.500,4308.3058,N,07726.2646,W,2,07,1.21,164.4,M,-34.4,M,0000,0000*52
$GPRMC,162202.750,A,4308.3058,N,07726.2646,W,0.00,151.38,140923,,,D*7E
$GPGGA,162203.000,4308.3058,N,07726.2646,W,2,07,1.21,164.4,M,-34.4,M,0000,0000*56
$GPRMC,162203.250,A,4308.3058,N,07726.2646,W,0.01,254.84,140923,,,D*7A
$GPGGA,162203.500,4308.3058,N,07726.2646,W,2,07,1.21,164.4,M,-34.4,M,0000,0000*53
$GPRMC,162203.750,A,4308.3058,N,07726.2646,W,0.02,85.93,140923,,,D*44
$GPGGA,162204.000,4308.3058,N,07726.2646,W,2,07,1.21,164.4,M,-34.4,M,0000,0000*51
$GPRMC,162204.250,A,4308.3058,N,07726.2646,W,0.01,182.29,140923,,,D*72
$GPGGA,162204.500,4308.3058,N,07726.2646,W,2,07,1.21,164.4,M,-34.4,M,0000,0000*54
$GPRMC,162204.750,A,4308.3058,N,07726.2646,W,0.02,53.85,140923,,,D*4F
$GPGGA,162205.000,4308.3058,N,07726.2646,W,2,07,1.21,164.4,M,-34.4,M,0000,0000*50
$GPRMC,162205.250,A,4308.3058,N,07726.2646,W,0.00,126.02,140923,,,D*75
$GPGGA,162205.500,4308.3058,N,07726.2646,W,2,07,1.21,164.4,M,-34.4,M,0000,0000*55
$GPRMC,162205.750,A,4308.3058,N,07726.2646,W,0.01,200.38,140923,,,D*7F
$GPGGA,162206.000,4308.3058,N,07726.2646,W,2,07,1.21,164.4,M,-34.4,M,0000,0000*53
$GPRMC,162206.250,A,4308.3058,N,07726.2646,W,0.01,154.64,140923,,,D*72
$GPGGA,162206.500,4308.3058,N,07726.2646,W,2,07,1.21,164.4,M,-34.4,M,0000,0000*56
$GPRMC,162206.750,A,4308.3058,N,07726.2646,W,0.01,164.83,140923,,,D*7D
$GPGGA,162207.000,4308.3058,N,07726.2646,W,2,07,1.21,164.4,M,-34.4,M,0000,0000*52
$GPRMC,162207.250,A,4308.3058,N,07726.2646,W,0.00,122.90,140923,,,D*78
$GPGGA,162207.500,4308.3058,N,07726.2646,W,2,07,1.21,164.4,M,-34.4,M,0000,0000*57
$GPRMC,162207.750,A,4308.3058,N,07726.2646,W,0.01,107.65,140923,,,D*71
$GPGGA,162208.000,4308.3058,N,07726.2646,W,2,07,1.21,164.4,M,-34.4,M,0000,0000*5D
$GPRMC,162208.250,A,4308.3058,N,07726.2646,W,0.00,178.31,140923,,,D*73
$GPGGA,162208.500,4308.3058,N,07726.2646,W,2,07,1.21,164.4,M,-34.4,M,0000,0000*58
$GPRMC,162208.750,A,4308.3058,N,07726.2646,W,0.02,193.19,140923,,,D*7B
$GPGGA,162209.000,4308.3058,N,07726.2646,W,2,07,1.21,164.4,M,-34.4,M,0000,0000*5C
$GPRMC,162209.250,A,4308.3058,N,07726.2646,W,0.00,37.73,140923,,,D*4E
$GPGGA,162209.500,4308.3058,N,07726.2646,W,2,07,1.21,164.4,M,-34.4,M,0000,0000*59
$GPRMC,162209.750,A,4308.3058,N,07726.2646,W,0.01,213.49,140923,,,D*77
$GPGGA,162210.000,4308.3058,N,07726.2646,W,2,07,1.21,164.4,M,-34.4,M,0000,0000*54
$GPRMC,162210.250,A,4308.3058,N,07726.2646,W,0.01,182.03,140923,,,D*7F
$GPGGA,162210.500,4308.3058,N,07726.2646,W,2,07,1.21,164.4,M,-34.4,M,0000,0000*51
$GPRMC,162210.750,A,4308.3058,N,07726.2646,W,0.02,75.62,140923,,,D*47
$GPGGA,162211.000,4308.3058,N,07726.2646,W,2,07,1.21,164.4,M,-34.4,M,0000,0000*55
$GPRMC,162211.250,A,4308.3058,N,07726.2646,W,0.01,0.64,140923,,,D*74
$GPGGA,162211.500,4308.3058,N,07726.2646,W,2,07,1.21,164.4,M,-34.4,M,0000,0000*50
$GPRMC,162211.750,A,4308.3058,N,07726.2646,W,0.00,278.11,140923,,,D*7F
$GPGGA,162212.000,4308.3058,N,07726.2646,W,2,07,1.21,164.4,M,-34.4,M,0000,0000*56
$GPRMC,162212.250,A,4308.3058,N,07726.2646,W,0.00,242.05,140923,,,D*75
$GPGGA,162212.500,4308.3058,N,07726.2646,W,2,07,1.21,164.4,M,-34.4,M,0000,0000*53
$GPRMC,162212.750,A,4308.3058,N,07726.2646,W,0.00,126.62,140923,,,D*70
$GPGGA,162213.000,4308.3058,N,07726.2646,W,2,07,1.21,164.4,M,-34.4,M,0000,0000*57
$GPRMC,162213.250,A,4308.3058,N,07726.2646,W,0.00,221.00,140923,,,D*74
$GPGGA,162213.500,4308.3058,N,07726.2646,W,2,07,1.21,164.4,M,-34.4,M,0000,0000*52
$GPRMC,162213.750,A,4308.3058,N,07726.2646,W,0.01,317.11,140923,,,D*74
$GPGGA,162214.000,4308.3058,N,07726.2646,W,2,07,1.21,164.4,M,-34.4,M,0000,0000*50
$GPRMC,162214.250,A,4308.3058,N,07726.2646,W,0.00,100.89,140923,,,D*72
$GPGGA,162214.500,4308.3058,N,07726.2646,W,2,07,1.21,164.4,M,-34.4,M,0000,0000*55
$GPRMC,162214.750,A,4308.3058,N,07726.2646,W,0.01,187.57,140923,,,D*7A
$GPGGA,162215.000,4308.3058,N,07726.2646,W,2,07,1.21,164.4,M,-34.4,M,0000,0000*51
$GPRMC,162215.250,A,4308.3058,N,07726.2646,W,0.01,187.90,140923,,,D*75
$GPGGA,162215.500,4308.3058,N,07726.2646,W,2,07,1.21,164.4,M,-34.4,M,0000,0000*54
$GPRMC,162215.750,A,4308.3058,N,07726.2646,W,0.01,133.39,140923,,,D*7C
$GPGGA,162216.000,4308.3058,N,07726.2646,W,2,07,1.21,164.4,M,-34.4,M,0000,0000*52
$GPRMC,162216.250,A,4308.3058,N,07726.2646,W,0.01,152.76,140923,,,D*76
$GPGGA,162216.500,4308.3058,N,07726.2646,W,2,07,1.21,164.5,M,-34.4,M,0000,0000*56
$GPRMC,162216.750,A,4308.3058,N,07726.2646,W,0.01,221.26,140923,,,D*71
$GPGGA,162217.000,4308.3058,N,07726.2646,W,2,07,1.21,164.5,M,-34.4,M,0000,0000*52
$GPRMC,162217.250,A,4308.3058,N,07726.2646,W,0.01,148.13,140923,,,D*7F
$GPGGA,162217.500,4308.3058,N,07726.2646,W,2,07,1.21,164.5,M,-34.4,M,0000,0000*57
$GPRMC,162217.750,A,4308.3058,N,07726.2646,W,0.01,124.75,140923,,,D*70
$GPGGA,162218.000,4308.3058,N,07726.2646,W,2,07,1.21,164.5,M,-34.4,M,0000,0000*5D
$GPRMC,162218.250,A,4308.3058,N,07726.2646,W,0.01,164.49,140923,,,D*71
$GPGGA,162218.500,4308.3058,N,07726.2646,W,2,07,1.21,164.5,M,-34.4,M,0000,0000*58
$GPRMC,162218.750,A,4308.3058,N,07726.2646,W,0.01,145.78,140923,,,D*75
$GPGGA,162219.000,4308.3058,N,07726.2646,W,2,07,1.21,164.5,M,-34.4,M,0000,0000*5C
$GPRMC,162219.250,A,4308.3058,N,07726.2646,W,0.01,201.38,140923,,,D*76
$GPGGA,162219.500,4308.3058,N,07726.2646,W,2,07,1.21,164.5,M,-34.4,M,0000,0000*59
$GPRMC,162219.750,A,4308.3058,N,07726.2646,W,0.00,81.62,140923,,,D*47
$GPGGA,162220.000,4308.3058,N,07726.2646,W,2,07,1.21,164.5,M,-34.4,M,0000,0000*56
$GPRMC,162220.250,A,4308.3058,N,07726.2646,W,0.01,282.19,140923,,,D*74
$GPGGA,162220.500,4308.3058,N,07726.2646,W,2,07,1.21,164.5,M,-34.4,M,0000,0000*53
$GPRMC,162220.750,A,4308.3058,N,07726.2646,W,0.01,196.70,140923,,,D*78
$GPGGA,162221.000,4308.3057,N,07726.2646,W,2,07,1.21,164.5,M,-34.4,M,0000,0000*58
$GPRMC,162221.250,A,4308.3057,N,07726.2646,W,0.00,23.45,140923,,,D*4B
$GPGGA,162221.500,4308.3057,N,07726.2646,W,2,07,1.21,164.5,M,-34.4,M,0000,0000*5D
$GPRMC,162221.750,A,4308.3057,N,07726.2646,W,0.00,207.71,140923,,,D*7D
$GPGGA,162222.000,4308.3057,N,07726.2646,W,2,07,1.21,164.5,M,-34.4,M,0000,0000*5B
$GPRMC,162222.250,A,4308.3057,N,07726.2646,W,0.00,177.51,140923,,,D*7D
$GPGGA,162222.500,4308.3057,N,07726.2646,W,2,07,1.21,164.5,M,-34.4,M,0000,0000*5E
$GPRMC,162222.750,A,4308.3057,N,07726.2646,W,0.00,136.59,140923,,,D*75
$GPGGA,162223.000,4308.3057,N,07726.2646,W,2,07,1.21,164.5,M,-34.4,M,0000,0000*5A
$GPRMC,162223.250,A,4308.3057,N,07726.2646,W,0.01,120.72,140923,,,D*7E
$GPGGA,162223.500,4308.3057,N,07726.2646,W,2,07,1.21,164.5,M,-34.4,M,0000,0000*5F
