Vers 81
USE_SERIAL_FEEDBACK=true
DEVELOPMENT_MODE=false
USE_RMC_ONLY=false

$GPRMC,153528.000,A,4308.3003,N,07726.2590,W,0.15,275.33,231023,,,A*74
$GPGGA,153528.250,4308.3003,N,07726.2591,W,1,03,1.59,184.4,M,-34.4,M,,*5C
$GPRMC,153528.500,A,4308.3004,N,07726.2591,W,0.09,322.65,231023,,,A*7A
$GPGGA,153528.750,4308.3004,N,07726.2591,W,1,03,1.59,184.4,M,-34.4,M,,*5E
$GPRMC,153529.000,A,4308.3004,N,07726.2591,W,0.14,192.28,231023,,,A*72
$GPGGA,153529.250,4308.3004,N,07726.2591,W,1,03,1.59,184.4,M,-34.4,M,,*5A
$GPRMC,153529.500,A,4308.3004,N,07726.2591,W,0.07,212.52,231023,,,A*73
$GPGGA,153529.750,4308.3005,N,07726.2591,W,1,03,1.60,184.4,M,-34.4,M,,*54
$GPRMC,153530.000,A,4308.3006,N,07726.2592,W,0.22,356.66,231023,,,A*7E
$GPGGA,153530.250,4308.3007,N,07726.2592,W,1,03,22.79,184.4,M,-34.4,M,,*61
$GPRMC,153530.500,A,4308.3008,N,07726.2591,W,0.33,12.07,231023,,,A*42
$GPGGA,153530.750,4308.3009,N,07726.2591,W,1,03,22.79,184.4,M,-34.4,M,,*69
$GPRMC,153531.000,A,4308.3010,N,07726.2591,W,0.22,20.59,231023,,,A*45
$GPGGA,153531.250,4308.3011,N,07726.2591,W,1,03,1.60,184.4,M,-34.4,M,,*5D
$GPRMC,153531.500,A,4308.3011,N,07726.2591,W,0.19,16.60,231023,,,A*46
$GPGGA,153531.750,4308.3012,N,07726.2590,W,1,03,1.59,184.4,M,-34.4,M,,*50
$GPRMC,153532.000,A,4308.3013,N,07726.2590,W,0.16,21.86,231023,,,A*40
$GPGGA,153532.080,4308.3037,N,07726.2653,W,1,05,1.51,153.0,M,-3.4,M,,*52
$GPRMC,153532.500,A,4308.3037,N,07726.2652,W,0.40,234.38,231023,,,A*7E
$GPGGA,153532.750,4308.3036,N,07726.2653,W,1,05,1.51,153.2,M,-34.4,M,,*5B
$GPRMC,153533.000,A,4308.3036,N,07726.2652,W,0.45,221.57,231023,,,A*73
$GPGGA,153533.250,4308.3036,N,07726.2652,W,1,05,1.51,153.4,M,-34.4,M,,*58
$GPRMC,153533.500,A,4308.3036,N,07726.2652,W,0.33,209.36,231023,,,A*7A
$GPGGA,153533.750,4308.3037,N,07726.2651,W,1,05,1.51,153.4,M,-34.4,M,,*5F
$GPRMC,153534.000,A,4308.3037,N,07726.2651,W,0.22,197.83,231023,,,A*70
$GPGGA,153534.250,4308.3038,N,07726.2651,W,1,05,1.51,153.5,M,-34.4,M,,*53
$GPRMC,153534.500,A,4308.3038,N,07726.2651,W,0.19,219.74,231023,,,A*7F
$GPGGA,153534.750,4308.3039,N,07726.2651,W,1,05,1.51,153.4,M,-34.4,M,,*56
$GPRMC,153535.000,A,4308.3039,N,07726.2651,W,0.25,205.77,231023,,,A*7B
$GPGGA,153535.250,4308.3039,N,07726.2651,W,1,05,1.51,153.2,M,-34.4,M,,*54
$GPRMC,153535.500,A,4308.3040,N,07726.2652,W,0.25,217.50,231023,,,A*75
$GPGGA,153535.750,4308.3040,N,07726.2652,W,1,05,1.51,152.9,M,-34.4,M,,*56
$GPRMC,153536.000,A,4308.3040,N,07726.2652,W,0.19,193.87,231023,,,A*79
$GPGGA,153536.250,4308.3040,N,07726.2652,W,1,05,1.51,152.7,M,-34.4,M,,*5E
$GPRMC,153536.500,A,4308.3041,N,07726.2653,W,0.06,188.35,231023,,,A*71
$GPGGA,153536.750,4308.3041,N,07726.2653,W,1,05,1.51,152.5,M,-34.4,M,,*59
$GPRMC,153537.000,A,4308.3041,N,07726.2653,W,0.09,131.00,231023,,,A*7E
$GPGGA,153537.250,4308.3042,N,07726.2653,W,1,05,1.51,152.3,M,-34.4,M,,*58
$GPRMC,153537.500,A,4308.3042,N,07726.2653,W,0.05,159.99,231023,,,A*7A
$GPGGA,153537.750,4308.3042,N,07726.2653,W,1,05,1.51,152.3,M,-34.4,M,,*5D
$GPRMC,153538.000,A,4308.3043,N,07726.2653,W,0.04,126.61,231023,,,A*7F
$GPGGA,153538.250,4308.3043,N,07726.2653,W,1,05,1.51,152.2,M,-34.4,M,,*57
$GPRMC,153538.500,A,4308.3044,N,07726.2653,W,0.12,24.43,231023,,,A*49
$GPGGA,153538.750,4308.3044,N,07726.2652,W,1,05,1.51,152.1,M,-34.4,M,,*57
$GPRMC,153539.000,A,4308.3045,N,07726.2652,W,0.12,27.06,231023,,,A*4F
$GPGGA,153539.250,4308.3045,N,07726.2652,W,1,05,1.51,152.1,M,-34.4,M,,*52
$GPRMC,153539.500,A,4308.3045,N,07726.2652,W,0.09,25.71,231023,,,A*42
$GPGGA,153539.750,4308.3045,N,07726.2652,W,1,05,1.51,152.2,M,-34.4,M,,*54
$GPRMC,153540.000,A,4308.3045,N,07726.2652,W,0.09,321.57,231023,,,A*7A
$GPGGA,153540.250,4308.3046,N,07726.2651,W,1,05,1.51,152.2,M,-34.4,M,,*5F
$GPRMC,153540.500,A,4308.3047,N,07726.2651,W,0.15,340.70,231023,,,A*71
$GPGGA,153540.750,4308.3047,N,07726.2650,W,1,05,1.51,152.4,M,-34.4,M,,*5C
$GPRMC,153541.000,A,4308.3047,N,07726.2649,W,0.10,52.63,231023,,,A*4B
$GPGGA,153541.250,4308.3047,N,07726.2649,W,1,05,1.51,152.5,M,-34.4,M,,*51
$GPRMC,153541.500,A,4308.3048,N,07726.2648,W,0.14,63.73,231023,,,A*47
$GPGGA,153541.750,4308.3049,N,07726.2648,W,1,05,1.51,152.7,M,-34.4,M,,*59
$GPRMC,153542.000,A,4308.3049,N,07726.2648,W,0.17,38.56,231023,,,A*4A
$GPGGA,153542.250,4308.3050,N,07726.2648,W,1,05,1.51,152.8,M,-34.4,M,,*58
$GPRMC,153542.500,A,4308.3050,N,07726.2648,W,0.13,30.33,231023,,,A*48
$GPGGA,153542.750,4308.3051,N,07726.2648,W,1,05,1.51,153.0,M,-34.4,M,,*55
$GPRMC,153543.000,A,4308.3051,N,07726.2647,W,0.11,27.77,231023,,,A*46
$GPGGA,153543.250,4308.3052,N,07726.2647,W,1,05,1.51,153.1,M,-34.4,M,,*5C
$GPRMC,153543.500,A,4308.3052,N,07726.2647,W,0.09,14.80,231023,,,A*41
$GPGGA,153543.750,4308.3052,N,07726.2646,W,1,05,1.56,153.4,M,-34.4,M,,*5A
$GPRMC,153544.000,A,4308.3053,N,07726.2646,W,0.10,59.35,231023,,,A*4C
$GPGGA,153544.250,4308.3052,N,07726.2646,W,1,05,1.51,153.5,M,-34.4,M,,*5E
$GPRMC,153544.500,A,4308.3053,N,07726.2645,W,0.08,145.28,231023,,,A*73
$GPGGA,153544.750,4308.3053,N,07726.2645,W,1,05,1.51,153.6,M,-34.4,M,,*5A
$GPRMC,153545.000,A,4308.3054,N,07726.2645,W,0.04,28.50,231023,,,A*49
$GPGGA,153545.250,4308.3054,N,07726.2645,W,1,05,1.51,153.8,M,-34.4,M,,*57
$GPRMC,153545.500,A,4308.3054,N,07726.2645,W,0.03,240.23,231023,,,A*73
$GPGGA,153545.750,4308.3055,N,07726.2645,W,1,05,1.51,153.9,M,-34.4,M,,*52
$GPRMC,153546.000,A,4308.3055,N,07726.2645,W,0.01,106.55,231023,,,A*76
$GPGGA,153546.250,4308.3056,N,07726.2645,W,1,05,1.51,153.9,M,-34.4,M,,*57
$GPRMC,153546.500,A,4308.3056,N,07726.2645,W,0.06,348.47,231023,,,A*7C
$GPGGA,153546.750,4308.3057,N,07726.2645,W,1,05,1.56,154.0,M,-34.4,M,,*5A
$GPRMC,153547.000,A,4308.3057,N,07726.2645,W,0.08,161.07,231023,,,A*7A
$GPGGA,153547.250,4308.3058,N,07726.2645,W,1,05,1.51,154.0,M,-34.4,M,,*56
$GPRMC,153547.500,A,4308.3058,N,07726.2645,W,0.05,311.33,231023,,,A*7F
$GPGGA,153547.750,4308.3058,N,07726.2645,W,1,05,1.51,154.1,M,-34.4,M,,*52
$GPRMC,153548.000,A,4308.3059,N,07726.2645,W,0.05,121.51,231023,,,A*71
$GPGGA,153548.250,4308.3059,N,07726.2646,W,1,05,1.51,154.1,M,-34.4,M,,*5A
$GPRMC,153548.500,A,4308.3059,N,07726.2646,W,0.03,359.65,231023,,,A*7B
$GPGGA,153548.750,4308.3060,N,07726.2646,W,1,05,1.56,154.0,M,-34.4,M,,*53
$GPRMC,153549.000,A,4308.3060,N,07726.2646,W,0.03,177.25,231023,,,A*7F
$GPGGA,153549.250,4308.3060,N,07726.2646,W,1,05,1.51,154.0,M,-34.4,M,,*50
$GPRMC,153549.500,A,4308.3061,N,07726.2647,W,0.01,292.25,231023,,,A*70
$GPGGA,153549.750,4308.3061,N,07726.2647,W,1,05,1.51,154.0,M,-34.4,M,,*55
$GPRMC,153550.000,A,4308.3061,N,07726.2647,W,0.03,72.88,231023,,,A*44
$GPGGA,153550.250,4308.3061,N,07726.2647,W,1,05,1.51,154.0,M,-34.4,M,,*58
$GPRMC,153550.500,A,4308.3061,N,07726.2647,W,0.02,82.63,231023,,,A*4A
$GPGGA,153550.750,4308.3061,N,07726.2647,W,1,05,1.51,154.0,M,-34.4,M,,*5D
$GPRMC,153551.000,A,4308.3061,N,07726.2647,W,0.04,131.20,231023,,,A*76
$GPGGA,153551.250,4308.3061,N,07726.2647,W,1,05,1.51,154.0,M,-34.4,M,,*59
$GPRMC,153551.500,A,4308.3061,N,07726.2647,W,0.01,190.79,231023,,,A*71
$GPGGA,153551.750,4308.3061,N,07726.2647,W,1,05,1.51,154.0,M,-34.4,M,,*5C
$GPRMC,153552.000,A,4308.3062,N,07726.2647,W,0.06,305.03,231023,,,A*70
$GPGGA,153552.250,4308.3061,N,07726.2646,W,1,05,1.51,153.9,M,-34.4,M,,*55
$GPRMC,153552.500,A,4308.3062,N,07726.2646,W,0.05,169.10,231023,,,A*7D
$GPGGA,153552.750,4308.3062,N,07726.2646,W,1,05,1.51,153.9,M,-34.4,M,,*53
$GPRMC,153553.000,A,4308.3062,N,07726.2646,W,0.02,208.26,231023,,,A*7F
$GPGGA,153553.250,4308.3062,N,07726.2646,W,1,05,1.51,154.0,M,-34.4,M,,*59
$GPRMC,153553.500,A,4308.3062,N,07726.2646,W,0.05,221.59,231023,,,A*7E
$GPGGA,153553.750,4308.3062,N,07726.2646,W,1,05,1.51,154.0,M,-34.4,M,,*5C
$GPRMC,153554.000,A,4308.3062,N,07726.2646,W,0.01,60.33,231023,,,A*43
$GPGGA,153554.250,4308.3062,N,07726.2646,W,1,05,1.51,154.0,M,-34.4,M,,*5E
$GPRMC,153554.500,A,4308.3062,N,07726.2646,W,0.01,325.39,231023,,,A*7E
$GPGGA,153554.750,4308.3062,N,07726.2646,W,1,05,1.51,154.0,M,-34.4,M,,*5B
$GPRMC,153555.000,A,4308.3062,N,07726.2646,W,0.04,236.44,231023,,,A*76
$GPGGA,153555.250,4308.3062,N,07726.2646,W,1,05,1.51,154.0,M,-34.4,M,,*5F
$GPRMC,153555.500,A,4308.3062,N,07726.2646,W,0.03,85.47,231023,,,A*4D
$GPGGA,153555.750,4308.3062,N,07726.2646,W,1,05,1.51,153.9,M,-34.4,M,,*54
$GPRMC,153556.000,A,4308.3062,N,07726.2646,W,0.03,338.92,231023,,,A*76
$GPGGA,153556.250,4308.3062,N,07726.2646,W,1,05,1.51,153.9,M,-34.4,M,,*52
$GPRMC,153556.500,A,4308.3062,N,07726.2647,W,0.02,300.28,231023,,,A*79
$GPGGA,153556.750,4308.3062,N,07726.2647,W,1,05,1.51,153.8,M,-34.4,M,,*57
$GPRMC,153557.000,A,4308.3062,N,07726.2647,W,0.02,33.02,231023,,,A*46
$GPGGA,153557.250,4308.3062,N,07726.2647,W,1,05,1.51,153.8,M,-34.4,M,,*53
$GPRMC,153557.500,A,4308.3061,N,07726.2647,W,0.02,158.19,231023,,,A*76
$GPGGA,153557.750,4308.3062,N,07726.2647,W,1,05,1.51,153.7,M,-34.4,M,,*59
$GPRMC,153558.000,A,4308.3062,N,07726.2648,W,0.04,39.29,231023,,,A*43
$GPGGA,153558.250,4308.3062,N,07726.2648,W,1,05,1.51,153.6,M,-34.4,M,,*5D
$GPRMC,153558.500,A,4308.3062,N,07726.2648,W,0.02,38.73,231023,,,A*4E
$GPGGA,153558.750,4308.3061,N,07726.2648,W,1,05,1.51,153.6,M,-34.4,M,,*5B
$GPRMC,153559.000,A,4308.3061,N,07726.2648,W,0.02,107.46,231023,,,A*72
$GPGGA,153559.250,4308.3061,N,07726.2648,W,1,05,1.51,153.5,M,-34.4,M,,*5C
$GPRMC,153559.500,A,4308.3061,N,07726.2649,W,0.02,209.02,231023,,,A*7B
$GPGGA,153559.750,4308.3061,N,07726.2649,W,1,05,1.51,153.4,M,-34.4,M,,*59
$GPRMC,153600.000,A,4308.3061,N,07726.2649,W,0.06,229.45,231023,,,A*74
$GPGGA,153600.250,4308.3061,N,07726.2649,W,1,05,1.51,153.4,M,-34.4,M,,*53
$GPRMC,153600.500,A,4308.3061,N,07726.2649,W,0.07,213.28,231023,,,A*72
$GPGGA,153600.750,4308.3061,N,07726.2649,W,1,05,1.51,153.4,M,-34.4,M,,*56
$GPRMC,153601.000,A,4308.3061,N,07726.2649,W,0.08,142.91,231023,,,A*7C
$GPGGA,153601.250,4308.3061,N,07726.2649,W,1,05,1.51,153.4,M,-34.4,M,,*52
$GPRMC,153601.500,A,4308.3060,N,07726.2649,W,0.07,151.84,231023,,,A*71
$GPGGA,153601.750,4308.3060,N,07726.2649,W,1,05,1.51,153.4,M,-34.4,M,,*56
$GPRMC,153602.000,A,4308.3060,N,07726.2649,W,0.17,144.91,231023,,,A*76
$GPGGA,153602.250,4308.3060,N,07726.2649,W,1,06,1.35,153.4,M,-34.4,M,,*51
$GPRMC,153602.500,A,4308.3060,N,07726.2648,W,0.18,153.66,231023,,,A*73
$GPGGA,153602.750,4308.3060,N,07726.2648,W,1,06,1.35,153.4,M,-34.4,M,,*55
$GPRMC,153603.000,A,4308.3060,N,07726.2648,W,0.14,170.72,231023,,,A*7F
$GPGGA,153603.250,4308.3060,N,07726.2648,W,1,06,1.35,153.4,M,-34.4,M,,*51
$GPRMC,153603.500,A,4308.3060,N,07726.2648,W,0.05,199.62,231023,,,A*7C
$GPGGA,153603.750,4308.3060,N,07726.2648,W,1,06,1.35,153.4,M,-34.4,M,,*54
$GPRMC,153604.000,A,4308.3060,N,07726.2648,W,0.04,255.16,231023,,,A*7F
$GPGGA,153604.250,4308.3060,N,07726.2649,W,1,06,1.35,153.4,M,-34.4,M,,*57
$GPRMC,153604.500,A,4308.3060,N,07726.2649,W,0.05,247.10,231023,,,A*7F
$GPGGA,153604.750,4308.3060,N,07726.2649,W,1,06,1.35,153.4,M,-34.4,M,,*52
$GPRMC,153605.000,A,4308.3060,N,07726.2649,W,0.07,222.17,231023,,,A*7D
$GPGGA,153605.250,4308.3059,N,07726.2649,W,1,06,1.35,153.4,M,-34.4,M,,*5C
$GPRMC,153605.500,A,4308.3059,N,07726.2649,W,0.10,226.17,231023,,,A*70
$GPGGA,153605.750,4308.3059,N,07726.2649,W,1,06,1.34,153.4,M,-34.4,M,,*58
$GPRMC,153606.000,A,4308.3059,N,07726.2649,W,0.00,259.29,231023,,,A*72
$GPGGA,153606.250,4308.3059,N,07726.2649,W,1,06,1.35,153.4,M,-34.4,M,,*5F
$GPRMC,153606.500,A,4308.3059,N,07726.2649,W,0.13,46.90,231023,,,A*4B
$GPGGA,153606.750,4308.3059,N,07726.2649,W,1,06,1.35,153.4,M,-34.4,M,,*5A
$GPRMC,153607.000,A,4308.3060,N,07726.2649,W,0.47,34.39,231023,,,A*42
$GPGGA,153607.250,4308.3060,N,07726.2648,W,1,06,1.35,153.4,M,-34.4,M,,*55
$GPRMC,153607.500,A,4308.3060,N,07726.2648,W,0.50,34.39,231023,,,A*40
$GPGGA,153607.750,4308.3060,N,07726.2648,W,1,06,1.35,153.4,M,-34.4,M,,*50
$GPRMC,153608.000,A,4308.3061,N,07726.2648,W,0.54,16.05,231023,,,A*40
$GPGGA,153608.250,4308.3061,N,07726.2647,W,1,06,1.35,153.4,M,-34.4,M,,*54
$GPRMC,153608.500,A,4308.3061,N,07726.2647,W,0.55,28.13,231023,,,A*41
$GPGGA,153608.750,4308.3062,N,07726.2647,W,1,06,1.35,153.4,M,-34.4,M,,*52
$GPRMC,153609.000,A,4308.3062,N,07726.2647,W,0.48,24.56,231023,,,A*47
$GPGGA,153609.250,4308.3062,N,07726.2647,W,1,06,1.35,153.4,M,-34.4,M,,*56
$GPRMC,153609.500,A,4308.3063,N,07726.2647,W,0.42,21.63,231023,,,A*4A
$GPGGA,153609.750,4308.3063,N,07726.2647,W,1,06,1.36,153.4,M,-34.4,M,,*51
$GPRMC,153610.000,A,4308.3063,N,07726.2647,W,0.33,19.36,231023,,,A*4A
$GPGGA,153610.250,4308.3063,N,07726.2647,W,1,06,1.36,153.4,M,-34.4,M,,*5C
$GPRMC,153610.500,A,4308.3064,N,07726.2647,W,0.26,17.70,231023,,,A*40
$GPGGA,153610.750,4308.3064,N,07726.2647,W,1,06,1.36,153.4,M,-34.4,M,,*5E
$GPRMC,153611.000,A,4308.3064,N,07726.2647,W,0.20,16.19,231023,,,A*4C
$GPGGA,153611.250,4308.3064,N,07726.2647,W,1,06,1.36,153.4,M,-34.4,M,,*5A
$GPRMC,153611.500,A,4308.3064,N,07726.2647,W,0.15,14.25,231023,,,A*42
$GPGGA,153611.750,4308.3064,N,07726.2647,W,1,06,1.35,153.4,M,-34.4,M,,*5C
$GPRMC,153612.000,A,4308.3064,N,07726.2647,W,0.05,13.33,231023,,,A*45
$GPGGA,153612.250,4308.3064,N,07726.2647,W,1,06,1.34,153.4,M,-34.4,M,,*5B
$GPRMC,153612.500,A,4308.3064,N,07726.2647,W,0.05,14.52,231023,,,A*40
$GPGGA,153612.750,4308.3064,N,07726.2646,W,1,06,1.35,153.4,M,-34.4,M,,*5E
$GPRMC,153613.000,A,4308.3064,N,07726.2647,W,0.06,247.24,231023,,,A*72
$GPGGA,153613.250,4308.3064,N,07726.2647,W,1,06,1.35,153.4,M,-34.4,M,,*5B
$GPRMC,153613.500,A,4308.3064,N,07726.2647,W,0.03,45.17,231023,,,A*42
$GPGGA,153613.750,4308.3064,N,07726.2646,W,1,06,1.35,153.4,M,-34.4,M,,*5F
$GPRMC,153614.000,A,4308.3064,N,07726.2646,W,0.04,151.47,231023,,,A*77
$GPGGA,153614.250,4308.3064,N,07726.2646,W,1,06,1.35,153.4,M,-34.4,M,,*5D
$GPRMC,153614.500,A,4308.3064,N,07726.2646,W,0.05,172.65,231023,,,A*72
$GPGGA,153614.750,4308.3064,N,07726.2646,W,1,06,1.35,153.4,M,-34.4,M,,*58
$GPRMC,153615.000,A,4308.3064,N,07726.2646,W,0.01,28.74,231023,,,A*4C
$GPGGA,153615.250,4308.3064,N,07726.2646,W,1,06,1.35,153.4,M,-34.4,M,,*5C
$GPRMC,153615.500,A,4308.3064,N,07726.2646,W,0.03,171.46,231023,,,A*77
$GPGGA,153615.750,4308.3064,N,07726.2646,W,1,06,1.35,153.4,M,-34.4,M,,*59
$GPRMC,153616.000,A,4308.3064,N,07726.2646,W,0.01,238.36,231023,,,A*7A
$GPGGA,153616.250,4308.3064,N,07726.2646,W,1,06,1.35,153.4,M,-34.4,M,,*5F
$GPRMC,153616.500,A,4308.3064,N,07726.2646,W,0.02,112.94,231023,,,A*7F
$GPGGA,153616.750,4308.3064,N,07726.2646,W,1,06,1.35,153.4,M,-34.4,M,,*5A
$GPRMC,153617.000,A,4308.3064,N,07726.2646,W,0.03,66.60,231023,,,A*43
$GPGGA,153617.250,4308.3064,N,07726.2646,W,1,06,1.35,153.4,M,-34.4,M,,*5E
$GPRMC,153617.500,A,4308.3064,N,07726.2646,W,0.01,197.10,231023,,,A*7C
$GPGGA,153617.750,4308.3064,N,07726.2646,W,1,06,1.35,153.4,M,-34.4,M,,*5B
$GPRMC,153618.000,A,4308.3064,N,07726.2646,W,0.04,133.69,231023,,,A*73
$GPGGA,153618.250,4308.3064,N,07726.2646,W,1,06,1.35,153.4,M,-34.4,M,,*51
$GPRMC,153618.500,A,4308.3064,N,07726.2646,W,0.04,157.20,231023,,,A*79
$GPGGA,153618.750,4308.3064,N,07726.2646,W,1,06,1.34,153.4,M,-34.4,M,,*55
$GPRMC,153619.000,A,4308.3064,N,07726.2646,W,0.04,183.38,231023,,,A*7D
$GPGGA,153619.250,4308.3064,N,07726.2646,W,1,06,1.35,153.4,M,-34.4,M,,*50
$GPRMC,153619.500,A,4308.3064,N,07726.2646,W,0.02,171.91,231023,,,A*70
$GPGGA,153619.750,4308.3064,N,07726.2646,W,1,06,1.34,153.4,M,-34.4,M,,*54
$GPRMC,153620.000,A,4308.3064,N,07726.2646,W,0.01,344.51,231023,,,A*74
$GPGGA,153620.250,4308.3064,N,07726.2646,W,1,06,1.36,153.4,M,-34.4,M,,*59
$GPRMC,153620.500,A,4308.3064,N,07726.2646,W,0.02,15.73,231023,,,A*45
$GPGGA,153620.750,4308.3064,N,07726.2646,W,1,06,1.36,153.4,M,-34.4,M,,*5C
$GPRMC,153621.000,A,4308.3064,N,07726.2646,W,0.00,312.57,231023,,,A*71
$GPGGA,153621.250,4308.3064,N,07726.2646,W,1,06,1.36,153.4,M,-34.4,M,,*58
$GPRMC,153621.500,A,4308.3064,N,07726.2646,W,0.01,339.25,231023,,,A*79
$GPGGA,153621.750,4308.3064,N,07726.2646,W,1,06,1.36,153.4,M,-34.4,M,,*5D
$GPRMC,153622.000,A,4308.3064,N,07726.2646,W,0.01,169.83,231023,,,A*74
$GPGGA,153622.250,4308.3064,N,07726.2646,W,1,06,1.36,153.4,M,-34.4,M,,*5B
$GPRMC,153622.500,A,4308.3064,N,07726.2646,W,0.01,10.87,231023,,,A*4A
$GPGGA,153622.750,4308.3064,N,07726.2646,W,1,06,1.36,153.4,M,-34.4,M,,*5E
$GPRMC,153623.000,A,4308.3064,N,07726.2646,W,0.00,129.77,231023,,,A*7B
$GPGGA,153623.250,4308.3064,N,07726.2646,W,1,06,1.36,153.4,M,-34.4,M,,*5A
$GPRMC,153623.500,A,4308.3064,N,07726.2646,W,0.00,44.77,231023,,,A*44
$GPGGA,153623.750,4308.3064,N,07726.2646,W,1,06,1.36,153.4,M,-34.4,M,,*5F
$GPRMC,153624.000,A,4308.3064,N,07726.2646,W,0.01,267.24,231023,,,A*72
$GPGGA,153624.250,4308.3064,N,07726.2646,W,1,06,1.36,153.4,M,-34.4,M,,*5D
$GPRMC,153624.500,A,4308.3064,N,07726.2646,W,0.01,83.15,231023,,,A*4D
$GPGGA,153624.750,4308.3064,N,07726.2646,W,1,06,1.36,153.4,M,-34.4,M,,*58
$GPRMC,153625.000,A,4308.3064,N,07726.2646,W,0.01,278.58,231023,,,A*76
$GPGGA,153625.250,4308.3064,N,07726.2646,W,1,06,1.36,153.4,M,-34.4,M,,*5C
$GPRMC,153625.500,A,4308.3064,N,07726.2646,W,0.00,164.11,231023,,,A*71
$GPGGA,153625.750,4308.3064,N,07726.2646,W,1,06,1.36,153.4,M,-34.4,M,,*59
$GPRMC,153626.000,A,4308.3064,N,07726.2646,W,0.01,308.00,231023,,,A*7E
$GPGGA,153626.250,4308.3064,N,07726.2646,W,1,06,1.36,153.4,M,-34.4,M,,*5F
$GPRMC,153626.500,A,4308.3064,N,07726.2646,W,0.01,71.38,231023,,,A*4D
$GPGGA,153626.750,4308.3064,N,07726.2646,W,1,06,1.36,153.4,M,-34.4,M,,*5A
$GPRMC,153627.000,A,4308.3064,N,07726.2646,W,0.01,51.78,231023,,,A*4F
$GPGGA,153627.250,4308.3064,N,07726.2646,W,1,06,1.36,153.4,M,-34.4,M,,*5E
$GPRMC,153627.500,A,4308.3064,N,07726.2646,W,0.00,218.62,231023,,,A*7F
$GPGGA,153627.750,4308.3064,N,07726.2646,W,1,06,1.36,153.4,M,-34.4,M,,*5B
$GPRMC,153628.000,A,4308.3064,N,07726.2646,W,0.00,134.58,231023,,,A*71
$GPGGA,153628.250,4308.3064,N,07726.2646,W,1,06,1.36,153.4,M,-34.4,M,,*51
$GPRMC,153628.500,A,4308.3064,N,07726.2646,W,0.00,359.67,231023,,,A*71
$GPGGA,153628.750,4308.3064,N,07726.2646,W,1,06,1.36,153.4,M,-34.4,M,,*54
$GPRMC,153629.000,A,4308.3064,N,07726.2646,W,0.00,316.99,231023,,,A*7F
$GPGGA,153629.250,4308.3064,N,07726.2646,W,1,06,1.36,153.4,M,-34.4,M,,*50
$GPRMC,153629.500,A,4308.3064,N,07726.2646,W,0.01,44.98,231023,,,A*4E
$GPGGA,153629.750,4308.3064,N,07726.2646,W,1,06,1.36,153.5,M,-34.4,M,,*54
$GPRMC,153630.000,A,4308.3064,N,07726.2646,W,0.01,134.13,231023,,,A*76
$GPGGA,153630.250,4308.3064,N,07726.2646,W,1,06,1.36,153.5,M,-34.4,M,,*59
$GPRMC,153630.500,A,4308.3064,N,07726.2646,W,0.00,334.70,231023,,,A*75
$GPGGA,153630.750,4308.3064,N,07726.2646,W,1,06,1.36,153.5,M,-34.4,M,,*5C
$GPRMC,153631.000,A,4308.3064,N,07726.2646,W,0.01,136.63,231023,,,A*72
$GPGGA,153631.250,4308.3064,N,07726.2646,W,1,06,1.36,153.5,M,-34.4,M,,*58
$GPRMC,153631.500,A,4308.3064,N,07726.2646,W,0.01,67.78,231023,,,A*48
$GPGGA,153631.750,4308.3064,N,07726.2646,W,1,06,1.36,153.5,M,-34.4,M,,*5D
$GPRMC,153632.000,A,4308.3064,N,07726.2646,W,0.00,0.00,231023,,,A*71
$GPGGA,153632.250,4308.3064,N,07726.2646,W,1,06,1.36,153.5,M,-34.4,M,,*5B
$GPRMC,153632.500,A,4308.3064,N,07726.2646,W,0.00,162.09,231023,,,A*78
$GPGGA,153632.750,4308.3064,N,07726.2646,W,1,06,1.36,153.5,M,-34.4,M,,*5E
$GPRMC,153633.000,A,4308.3064,N,07726.2646,W,0.00,65.82,231023,,,A*49
$GPGGA,153633.250,4308.3064,N,07726.2646,W,1,06,1.36,153.5,M,-34.4,M,,*5A
$GPRMC,153633.500,A,4308.3064,N,07726.2646,W,0.00,9.56,231023,,,A*7F
$GPGGA,153633.750,4308.3064,N,07726.2646,W,1,06,1.36,153.5,M,-34.4,M,,*5F
$GPRMC,153634.000,A,4308.3064,N,07726.2646,W,0.00,353.76,231023,,,A*73
$GPGGA,153634.250,4308.3064,N,07726.2646,W,1,06,1.36,153.5,M,-34.4,M,,*5D
$GPRMC,153634.500,A,4308.3064,N,07726.2646,W,0.01,133.47,231023,,,A*71
$GPGGA,153634.750,4308.3064,N,07726.2646,W,1,06,1.36,153.5,M,-34.4,M,,*58
$GPRMC,153635.000,A,4308.3064,N,07726.2646,W,0.00,261.93,231023,,,A*79
$GPGGA,153635.250,4308.3064,N,07726.2646,W,1,06,1.36,153.5,M,-34.4,M,,*5C
$GPRMC,153635.500,A,4308.3064,N,07726.2646,W,0.01,149.53,231023,,,A*78
$GPGGA,153635.750,4308.3064,N,07726.2646,W,1,06,1.36,153.5,M,-34.4,M,,*59
$GPRMC,153636.000,A,4308.3064,N,07726.2646,W,0.01,250.47,231023,,,A*70
$GPGGA,153636.250,4308.3064,N,07726.2646,W,1,06,1.36,153.5,M,-34.4,M,,*5F
$GPRMC,153636.500,A,4308.3064,N,07726.2646,W,0.01,304.89,231023,,,A*77
$GPGGA,153636.750,4308.3064,N,07726.2646,W,1,06,1.36,153.5,M,-34.4,M,,*5A
$GPRMC,153637.000,A,4308.3064,N,07726.2646,W,0.01,338.71,231023,,,A*7B
$GPGGA,153637.250,4308.3064,N,07726.2646,W,1,06,1.36,153.5,M,-34.4,M,,*5E
$GPRMC,153637.500,A,4308.3064,N,07726.2646,W,0.01,278.07,231023,,,A*7A
$GPGGA,153637.750,4308.3064,N,07726.2646,W,1,06,1.36,153.5,M,-34.4,M,,*5B
$GPRMC,153638.000,A,4308.3064,N,07726.2646,W,0.00,111.48,231023,,,A*76
$GPGGA,153638.250,4308.3064,N,07726.2646,W,1,06,1.36,153.5,M,-34.4,M,,*51
$GPRMC,153638.500,A,4308.3064,N,07726.2646,W,0.01,153.87,231023,,,A*77
$GPGGA,153638.750,4308.3064,N,07726.2646,W,1,06,1.36,153.5,M,-34.4,M,,*54
$GPRMC,153639.000,A,4308.3064,N,07726.2646,W,0.00,130.13,231023,,,A*7A
$GPGGA,153639.250,4308.3064,N,07726.2646,W,1,06,1.36,153.5,M,-34.4,M,,*50
$GPRMC,153639.500,A,4308.3064,N,07726.2646,W,0.00,122.25,231023,,,A*79
$GPGGA,153639.750,4308.3064,N,07726.2646,W,1,06,1.36,153.5,M,-34.4,M,,*55
$GPRMC,153640.000,A,4308.3064,N,07726.2646,W,0.00,108.38,231023,,,A*76
$GPGGA,153640.250,4308.3064,N,07726.2646,W,1,06,1.36,153.5,M,-34.4,M,,*5E
$GPRMC,153640.500,A,4308.3064,N,07726.2646,W,0.01,146.30,231023,,,A*70
$GPGGA,153640.750,4308.3064,N,07726.2646,W,1,06,1.36,153.5,M,-34.4,M,,*5B
$GPRMC,153641.000,A,4308.3064,N,07726.2646,W,0.02,330.62,231023,,,A*73
$GPGGA,153641.250,4308.3064,N,07726.2646,W,1,06,1.36,153.5,M,-34.4,M,,*5F
$GPRMC,153641.500,A,4308.3064,N,07726.2646,W,0.00,155.41,231023,,,A*74
$GPGGA,153641.750,4308.3064,N,07726.2646,W,1,06,1.36,153.5,M,-34.4,M,,*5A
$GPRMC,153642.000,A,4308.3064,N,07726.2646,W,0.01,279.21,231023,,,A*78
$GPGGA,153642.250,4308.3064,N,07726.2646,W,1,06,1.36,153.5,M,-34.4,M,,*5C
$GPRMC,153642.500,A,4308.3064,N,07726.2646,W,0.00,128.78,231023,,,A*77
$GPGGA,153642.750,4308.3064,N,07726.2646,W,1,06,1.36,153.5,M,-34.4,M,,*59
$GPRMC,153643.000,A,4308.3064,N,07726.2646,W,0.01,353.95,231023,,,A*7F
$GPGGA,153643.250,4308.3064,N,07726.2646,W,1,06,1.36,153.5,M,-34.4,M,,*5D
$GPRMC,153643.500,A,4308.3064,N,07726.2646,W,0.01,199.22,231023,,,A*72
$GPGGA,153643.750,4308.3064,N,07726.2646,W,1,06,1.36,153.5,M,-34.4,M,,*58
$GPRMC,153644.000,A,4308.3064,N,07726.2646,W,0.00,147.48,231023,,,A*7E
$GPGGA,153644.250,4308.3064,N,07726.2646,W,1,06,1.36,153.5,M,-34.4,M,,*5A
$GPRMC,153644.500,A,4308.3064,N,07726.2646,W,0.00,276.71,231023,,,A*70
$GPGGA,153644.750,4308.3064,N,07726.2646,W,1,06,1.36,153.5,M,-34.4,M,,*5F
$GPRMC,153645.000,A,4308.3064,N,07726.2646,W,0.01,323.99,231023,,,A*72
$GPGGA,153645.250,4308.3064,N,07726.2646,W,1,06,1.36,153.5,M,-34.4,M,,*5B
$GPRMC,153645.500,A,4308.3064,N,07726.2646,W,0.01,100.48,231023,,,A*78
$GPGGA,153645.750,4308.3064,N,07726.2646,W,1,06,1.36,153.5,M,-34.4,M,,*5E
$GPRMC,153646.000,A,4308.3064,N,07726.2646,W,0.01,5.87,231023,,,A*79
$GPGGA,153646.250,4308.3064,N,07726.2646,W,1,06,1.36,153.5,M,-34.4,M,,*58
$GPRMC,153646.500,A,4308.3064,N,07726.2646,W,0.01,338.72,231023,,,A*7B
$GPGGA,153646.750,4308.3064,N,07726.2646,W,1,06,1.36,153.5,M,-34.4,M,,*5D
$GPRMC,153647.000,A,4308.3064,N,07726.2646,W,0.01,4.24,231023,,,A*70
$GPGGA,153647.250,4308.3064,N,07726.2646,W,1,06,1.36,153.5,M,-34.4,M,,*59
$GPRMC,153647.500,A,4308.3064,N,07726.2646,W,0.00,191.46,231023,,,A*7D
$GPGGA,153647.750,4308.3064,N,07726.2646,W,1,06,1.36,153.5,M,-34.4,M,,*5C
$GPRMC,153648.000,A,4308.3064,N,07726.2646,W,0.01,178.86,231023,,,A*7D
$GPGGA,153648.250,4308.3064,N,07726.2646,W,1,06,1.36,153.5,M,-34.4,M,,*56
$GPRMC,153648.500,A,4308.3064,N,07726.2646,W,0.01,89.68,231023,,,A*47
$GPGGA,153648.750,4308.3064,N,07726.2646,W,1,06,1.36,153.5,M,-34.4,M,,*53
$GPRMC,153649.000,A,4308.3064,N,07726.2646,W,0.03,4.90,231023,,,A*73
$GPGGA,153649.250,4308.3064,N,07726.2646,W,1,06,1.36,153.5,M,-34.4,M,,*57
$GPRMC,153649.500,A,4308.3065,N,07726.2646,W,0.08,47.17,231023,,,A*44
$GPGGA,153649.750,4308.3065,N,07726.2646,W,1,06,1.36,153.5,M,-34.4,M,,*53
$GPRMC,153650.000,A,4308.3065,N,07726.2646,W,0.86,33.91,231023,,,A*42
$GPGGA,153650.250,4308.3067,N,07726.2645,W,1,06,1.35,153.5,M,-34.4,M,,*5C
$GPRMC,153650.500,A,4308.3070,N,07726.2644,W,3.84,11.77,231023,,,A*48
$GPGGA,153650.750,4308.3073,N,07726.2643,W,1,06,1.36,153.5,M,-34.4,M,,*59
$GPRMC,153651.000,A,4308.3076,N,07726.2642,W,4.75,13.21,231023,,,A*44
$GPGGA,153651.250,4308.3079,N,07726.2641,W,1,06,1.36,153.6,M,-34.4,M,,*56
$GPRMC,153651.500,A,4308.3083,N,07726.2640,W,5.05,10.84,231023,,,A*43
$GPGGA,153651.750,4308.3086,N,07726.2639,W,1,06,1.36,153.6,M,-34.4,M,,*5C
$GPRMC,153652.000,A,4308.3090,N,07726.2638,W,5.17,10.92,231023,,,A*4C
$GPGGA,153652.250,4308.3093,N,07726.2637,W,1,06,1.36,153.6,M,-34.4,M,,*50
$GPRMC,153652.500,A,4308.3097,N,07726.2636,W,5.24,10.08,231023,,,A*43
$GPGGA,153652.750,4308.3100,N,07726.2635,W,1,06,1.36,153.6,M,-34.4,M,,*5C
$GPRMC,153653.000,A,4308.3104,N,07726.2634,W,5.33,8.50,231023,,,A*7C
$GPGGA,153653.250,4308.3108,N,07726.2633,W,1,06,1.36,153.6,M,-34.4,M,,*56
$GPRMC,153653.500,A,4308.3112,N,07726.2632,W,5.14,8.82,231023,,,A*72
$GPGGA,153653.750,4308.3115,N,07726.2631,W,1,06,1.36,153.5,M,-34.4,M,,*5E
$GPRMC,153654.000,A,4308.3118,N,07726.2631,W,4.43,6.39,231023,,,A*74
$GPGGA,153654.250,4308.3121,N,07726.2630,W,1,06,1.36,153.5,M,-34.4,M,,*5A
$GPRMC,153654.500,A,4308.3124,N,07726.2630,W,4.02,4.40,231023,,,A*76
$GPGGA,153654.750,4308.3127,N,07726.2629,W,1,06,1.36,153.5,M,-34.4,M,,*51
$GPRMC,153655.000,A,4308.3129,N,07726.2630,W,3.34,353.57,231023,,,A*7A
$GPGGA,153655.250,4308.3132,N,07726.2630,W,1,06,1.36,153.5,M,-34.4,M,,*59
$GPRMC,153655.500,A,4308.3134,N,07726.2630,W,3.50,347.93,231023,,,A*7C
$GPGGA,153655.750,4308.3136,N,07726.2631,W,1,06,1.36,153.5,M,-34.4,M,,*59
$GPRMC,153656.000,A,4308.3139,N,07726.2633,W,3.59,331.62,231023,,,A*72
$GPGGA,153656.250,4308.3141,N,07726.2635,W,1,06,1.35,153.5,M,-34.4,M,,*58
$GPRMC,153656.500,A,4308.3143,N,07726.2637,W,3.62,316.91,231023,,,A*7F
$GPGGA,153656.750,4308.3145,N,07726.2639,W,1,06,1.35,153.6,M,-34.4,M,,*56
$GPRMC,153657.000,A,4308.3146,N,07726.2641,W,3.48,311.87,231023,,,A*77
$GPGGA,153657.250,4308.3148,N,07726.2644,W,1,06,1.35,153.7,M,-34.4,M,,*54
$GPRMC,153657.500,A,4308.3148,N,07726.2646,W,2.98,292.79,231023,,,A*7C
$GPGGA,153657.750,4308.3149,N,07726.2649,W,1,06,1.34,153.8,M,-34.4,M,,*53
$GPRMC,153658.000,A,4308.3149,N,07726.2651,W,2.78,285.85,231023,,,A*7A
$GPGGA,153658.250,4308.3150,N,07726.2653,W,1,06,1.35,153.8,M,-34.4,M,,*5B
$GPRMC,153658.500,A,4308.3150,N,07726.2655,W,2.40,270.85,231023,,,A*72
$GPGGA,153658.750,4308.3149,N,07726.2657,W,1,06,1.34,153.9,M,-34.4,M,,*52
$GPRMC,153659.000,A,4308.3149,N,07726.2658,W,2.15,262.99,231023,,,A*7D
$GPGGA,153659.250,4308.3148,N,07726.2660,W,1,06,1.34,154.0,M,-34.4,M,,*5D
$GPRMC,153659.500,A,4308.3147,N,07726.2661,W,1.51,256.31,231023,,,A*7A
$GPGGA,153659.750,4308.3147,N,07726.2661,W,1,06,1.34,154.0,M,-34.4,M,,*56
$GPRMC,153700.000,A,4308.3147,N,07726.2660,W,0.08,336.63,231023,,,A*7E
$GPGGA,153700.250,4308.3147,N,07726.2659,W,1,06,1.35,154.1,M,-34.4,M,,*55
$GPRMC,153700.500,A,4308.3147,N,07726.2656,W,1.12,87.54,231023,,,A*49
$GPGGA,153700.750,4308.3146,N,07726.2650,W,1,06,1.35,154.1,M,-34.4,M,,*58
$GPRMC,153701.000,A,4308.3146,N,07726.2645,W,4.04,95.81,231023,,,A*47
$GPGGA,153701.250,4308.3145,N,07726.2640,W,1,06,1.35,154.2,M,-34.4,M,,*5D
$GPRMC,153701.500,A,4308.3145,N,07726.2633,W,6.65,95.14,231023,,,A*49
$GPGGA,153701.750,4308.3144,N,07726.2625,W,1,06,1.36,154.3,M,-34.4,M,,*58
$GPRMC,153702.000,A,4308.3143,N,07726.2616,W,9.11,95.75,231023,,,A*45
$GPGGA,153702.250,4308.3142,N,07726.2606,W,1,06,1.36,154.3,M,-34.4,M,,*59
$GPRMC,153702.500,A,4308.3142,N,07726.2596,W,10.66,94.03,231023,,,A*72
$GPGGA,153702.750,4308.3141,N,07726.2584,W,1,06,1.36,154.4,M,-34.4,M,,*51
$GPRMC,153703.000,A,4308.3139,N,07726.2570,W,12.73,92.57,231023,,,A*73
$GPGGA,153703.250,4308.3138,N,07726.2556,W,1,06,1.34,154.5,M,-34.4,M,,*57
$GPRMC,153703.500,A,4308.3137,N,07726.2542,W,14.22,91.80,231023,,,A*72
$GPGGA,153703.750,4308.3136,N,07726.2527,W,1,06,1.36,154.6,M,-34.4,M,,*5B
$GPRMC,153704.000,A,4308.3135,N,07726.2511,W,15.70,91.54,231023,,,A*7B
$GPGGA,153704.250,4308.3135,N,07726.2495,W,1,06,1.35,154.7,M,-34.4,M,,*50
$GPRMC,153704.500,A,4308.3135,N,07726.2479,W,16.72,91.28,231023,,,A*7B
$GPGGA,153704.750,4308.3135,N,07726.2461,W,1,06,1.36,154.8,M,-34.4,M,,*52
$GPRMC,153705.000,A,4308.3135,N,07726.2443,W,18.39,90.52,231023,,,A*7B
$GPGGA,153705.250,4308.3135,N,07726.2425,W,1,06,1.35,154.7,M,-34.4,M,,*5A
$GPRMC,153705.500,A,4308.3134,N,07726.2406,W,19.26,90.64,231023,,,A*74
$GPGGA,153705.750,4308.3134,N,07726.2387,W,1,06,1.36,154.6,M,-34.4,M,,*53
$GPRMC,153706.000,A,4308.3134,N,07726.2368,W,20.34,90.31,231023,,,A*74
$GPGGA,153706.250,4308.3134,N,07726.2349,W,1,06,1.36,154.6,M,-34.4,M,,*57
$GPRMC,153706.500,A,4308.3134,N,07726.2329,W,21.37,91.35,231023,,,A*73
$GPGGA,153706.750,4308.3133,N,07726.2308,W,1,06,1.36,154.6,M,-34.4,M,,*50
$GPRMC,153707.000,A,4308.3133,N,07726.2287,W,21.75,91.05,231023,,,A*70
$GPGGA,153707.250,4308.3132,N,07726.2266,W,1,06,1.36,154.6,M,-34.4,M,,*5C
$GPRMC,153707.500,A,4308.3132,N,07726.2245,W,22.39,90.88,231023,,,A*75
$GPGGA,153707.750,4308.3131,N,07726.2223,W,1,06,1.36,154.7,M,-34.4,M,,*5A
$GPRMC,153708.000,A,4308.3131,N,07726.2201,W,22.83,90.60,231023,,,A*7B
$GPGGA,153708.250,4308.3130,N,07726.2179,W,1,06,1.36,154.8,M,-34.4,M,,*52
$GPRMC,153708.500,A,4308.3130,N,07726.2157,W,22.40,90.95,231023,,,A*7A
$GPGGA,153708.750,4308.3130,N,07726.2135,W,1,06,1.36,154.7,M,-34.4,M,,*50
$GPRMC,153709.000,A,4308.3129,N,07726.2113,W,22.22,90.34,231023,,,A*79
$GPGGA,153709.250,4308.3129,N,07726.2092,W,1,06,1.36,154.7,M,-34.4,M,,*50
$GPRMC,153709.500,A,4308.3129,N,07726.2071,W,22.15,91.56,231023,,,A*78
$GPGGA,153709.750,4308.3128,N,07726.2050,W,1,06,1.36,154.6,M,-34.4,M,,*5B
$GPRMC,153710.000,A,4308.3128,N,07726.2029,W,21.81,91.06,231023,,,A*72
$GPGGA,153710.250,4308.3128,N,07726.2009,W,1,06,1.34,154.6,M,-34.4,M,,*58
$GPRMC,153710.500,A,4308.3127,N,07726.1988,W,21.85,91.27,231023,,,A*7E
$GPGGA,153710.750,4308.3127,N,07726.1967,W,1,06,1.36,154.6,M,-34.4,M,,*52
$GPRMC,153711.000,A,4308.3126,N,07726.1947,W,21.61,91.18,231023,,,A*7E
$GPGGA,153711.250,4308.3126,N,07726.1926,W,1,06,1.35,154.6,M,-34.4,M,,*51
$GPRMC,153711.500,A,4308.3125,N,07726.1906,W,21.71,92.27,231023,,,A*73
$GPGGA,153711.750,4308.3124,N,07726.1885,W,1,06,1.36,154.7,M,-34.4,M,,*5C
$GPRMC,153712.000,A,4308.3124,N,07726.1864,W,21.88,91.90,231023,,,A*78
$GPGGA,153712.250,4308.3123,N,07726.1843,W,1,06,1.35,154.8,M,-34.4,M,,*5B
$GPRMC,153712.500,A,4308.3123,N,07726.1822,W,22.18,91.87,231023,,,A*74
$GPGGA,153712.750,4308.3122,N,07726.1801,W,1,06,1.36,154.9,M,-34.4,M,,*5B
$GPRMC,153713.000,A,4308.3122,N,07726.1780,W,22.30,92.05,231023,,,A*75
$GPGGA,153713.250,4308.3121,N,07726.1759,W,1,06,1.34,155.1,M,-34.4,M,,*55
$GPRMC,153713.500,A,4308.3121,N,07726.1737,W,22.61,91.54,231023,,,A*7C
$GPGGA,153713.750,4308.3120,N,07726.1715,W,1,06,1.36,155.2,M,-34.4,M,,*58
$GPRMC,153714.000,A,4308.3120,N,07726.1693,W,22.86,91.53,231023,,,A*7E
$GPGGA,153714.250,4308.3120,N,07726.1671,W,1,06,1.34,155.2,M,-34.4,M,,*5B
$GPRMC,153714.500,A,4308.3120,N,07726.1649,W,22.91,91.07,231023,,,A*7B
$GPGGA,153714.750,4308.3120,N,07726.1627,W,1,06,1.36,155.3,M,-34.4,M,,*5E
$GPRMC,153715.000,A,4308.3120,N,07726.1606,W,22.92,89.98,231023,,,A*78
$GPGGA,153715.250,4308.3120,N,07726.1584,W,1,06,1.34,155.5,M,-34.4,M,,*54
$GPRMC,153715.500,A,4308.3122,N,07726.1563,W,22.62,86.31,231023,,,A*7C
$GPGGA,153715.750,4308.3124,N,07726.1540,W,1,06,1.36,155.6,M,-34.4,M,,*5C
$GPRMC,153716.000,A,4308.3126,N,07726.1519,W,22.57,82.34,231023,,,A*74
$GPGGA,153716.250,4308.3129,N,07726.1498,W,1,06,1.34,155.7,M,-34.4,M,,*50
$GPRMC,153716.500,A,4308.3133,N,07726.1477,W,22.18,78.19,231023,,,A*7D
$GPGGA,153716.750,4308.3137,N,07726.1456,W,1,06,1.36,155.8,M,-34.4,M,,*55
$GPRMC,153717.000,A,4308.3142,N,07726.1436,W,22.15,73.22,231023,,,A*74
$GPGGA,153717.250,4308.3148,N,07726.1416,W,1,06,1.36,156.0,M,-34.4,M,,*56
$GPRMC,153717.500,A,4308.3153,N,07726.1397,W,21.76,69.99,231023,,,A*70
$GPGGA,153717.750,4308.3161,N,07726.1379,W,1,06,1.35,156.1,M,-34.4,M,,*54
$GPRMC,153718.000,A,4308.3168,N,07726.1360,W,21.87,63.72,231023,,,A*7B
$GPGGA,153718.250,4308.3176,N,07726.1342,W,1,06,1.36,156.2,M,-34.4,M,,*50
$GPRMC,153718.500,A,4308.3184,N,07726.1325,W,21.77,58.06,231023,,,A*79
$GPGGA,153718.750,4308.3193,N,07726.1310,W,1,06,1.36,156.4,M,-34.4,M,,*5F
$GPRMC,153719.000,A,4308.3203,N,07726.1295,W,21.19,51.92,231023,,,A*77
$GPGGA,153719.250,4308.3214,N,07726.1280,W,1,06,1.35,156.6,M,-34.4,M,,*5E
$GPRMC,153719.500,A,4308.3226,N,07726.1266,W,21.59,44.71,231023,,,A*74
$GPGGA,153719.750,4308.3238,N,07726.1253,W,1,06,1.36,156.6,M,-34.4,M,,*58
$GPRMC,153720.000,A,4308.3251,N,07726.1240,W,21.51,38.10,231023,,,A*7B
$GPGGA,153720.250,4308.3263,N,07726.1228,W,1,06,1.36,156.5,M,-34.4,M,,*56
$GPRMC,153720.500,A,4308.3277,N,07726.1217,W,21.26,32.68,231023,,,A*7D
$GPGGA,153720.750,4308.3290,N,07726.1206,W,1,06,1.36,156.7,M,-34.4,M,,*51
$GPRMC,153721.000,A,4308.3304,N,07726.1196,W,21.38,27.34,231023,,,A*74
$GPGGA,153721.250,4308.3317,N,07726.1188,W,1,06,1.36,156.7,M,-34.4,M,,*5E
$GPRMC,153721.500,A,4308.3332,N,07726.1180,W,21.31,21.66,231023,,,A*7B
$GPGGA,153721.750,4308.3346,N,07726.1173,W,1,06,1.36,156.6,M,-34.4,M,,*5A
$GPRMC,153722.000,A,4308.3360,N,07726.1166,W,21.27,17.49,231023,,,A*7D
$GPGGA,153722.250,4308.3375,N,07726.1161,W,1,06,1.36,156.6,M,-34.4,M,,*5F
$GPRMC,153722.500,A,4308.3390,N,07726.1156,W,21.51,13.99,231023,,,A*7C
$GPGGA,153722.750,4308.3405,N,07726.1151,W,1,06,1.36,156.6,M,-34.4,M,,*59
$GPRMC,153723.000,A,4308.3421,N,07726.1148,W,21.85,9.34,231023,,,A*4F
$GPGGA,153723.250,4308.3436,N,07726.1145,W,1,06,1.36,156.6,M,-34.4,M,,*58
$GPRMC,153723.500,A,4308.3452,N,07726.1143,W,22.03,4.66,231023,,,A*42
$GPGGA,153723.750,4308.3467,N,07726.1142,W,1,06,1.36,156.7,M,-34.4,M,,*5F
$GPRMC,153724.000,A,4308.3483,N,07726.1141,W,22.27,3.19,231023,,,A*47
$GPGGA,153724.250,4308.3499,N,07726.1140,W,1,06,1.36,156.7,M,-34.4,M,,*5E
$GPRMC,153724.500,A,4308.3515,N,07726.1140,W,22.63,1.80,231023,,,A*4F
$GPGGA,153724.750,4308.3531,N,07726.1139,W,1,06,1.36,156.5,M,-34.4,M,,*54
$GPRMC,153725.000,A,4308.3547,N,07726.1139,W,22.84,2.00,231023,,,A*40
$GPGGA,153725.250,4308.3563,N,07726.1138,W,1,06,1.36,156.5,M,-34.4,M,,*56
$GPRMC,153725.500,A,4308.3580,N,07726.1138,W,22.90,1.35,231023,,,A*4F
$GPGGA,153725.750,4308.3596,N,07726.1137,W,1,06,1.36,156.5,M,-34.4,M,,*56
$GPRMC,153726.000,A,4308.3612,N,07726.1137,W,23.28,1.18,231023,,,A*43
$GPGGA,153726.250,4308.3629,N,07726.1137,W,1,06,1.36,156.5,M,-34.4,M,,*57
$GPRMC,153726.500,A,4308.3645,N,07726.1136,W,23.46,1.60,231023,,,A*42
$GPGGA,153726.750,4308.3661,N,07726.1136,W,1,06,1.36,156.5,M,-34.4,M,,*5F
$GPRMC,153727.000,A,4308.3678,N,07726.1135,W,23.53,1.88,231023,,,A*49
$GPGGA,153727.250,4308.3694,N,07726.1134,W,1,06,1.36,156.9,M,-34.4,M,,*5F
$GPRMC,153727.500,A,4308.3710,N,07726.1134,W,23.71,1.01,231023,,,A*43
$GPGGA,153727.750,4308.3727,N,07726.1133,W,1,06,1.36,156.9,M,-34.4,M,,*54
$GPRMC,153728.000,A,4308.3744,N,07726.1133,W,23.78,0.81,231023,,,A*4F
$GPGGA,153728.250,4308.3761,N,07726.1133,W,1,06,1.36,157.0,M,-34.4,M,,*54
$GPRMC,153728.500,A,4308.3777,N,07726.1132,W,23.80,0.68,231023,,,A*4B
$GPGGA,153728.750,4308.3794,N,07726.1132,W,1,06,1.36,157.1,M,-34.4,M,,*5B
$GPRMC,153729.000,A,4308.3811,N,07726.1132,W,23.91,0.37,231023,,,A*4A
$GPGGA,153729.250,4308.3828,N,07726.1133,W,1,06,1.36,157.2,M,-34.4,M,,*55
$GPRMC,153729.500,A,4308.3845,N,07726.1132,W,24.04,1.14,231023,,,A*45
$GPGGA,153729.750,4308.3862,N,07726.1132,W,1,06,1.36,157.2,M,-34.4,M,,*5F
$GPRMC,153730.000,A,4308.3878,N,07726.1132,W,24.07,0.41,231023,,,A*44
$GPGGA,153730.250,4308.3895,N,07726.1132,W,1,06,1.36,157.3,M,-34.4,M,,*5B
$GPRMC,153730.500,A,4308.3912,N,07726.1131,W,24.09,0.76,231023,,,A*45
$GPGGA,153730.750,4308.3929,N,07726.1131,W,1,06,1.36,157.5,M,-34.4,M,,*5D
$GPRMC,153731.000,A,4308.3945,N,07726.1131,W,23.59,1.17,231023,,,A*47
$GPGGA,153731.250,4308.3962,N,07726.1130,W,1,06,1.36,157.6,M,-34.4,M,,*54
$GPRMC,153731.500,A,4308.3978,N,07726.1130,W,23.20,1.33,231023,,,A*45
$GPGGA,153731.750,4308.3994,N,07726.1130,W,1,06,1.36,157.7,M,-34.4,M,,*59
$GPRMC,153732.000,A,4308.4009,N,07726.1129,W,22.50,1.44,231023,,,A*45
$GPGGA,153732.250,4308.4025,N,07726.1129,W,1,06,1.36,157.8,M,-34.4,M,,*5C
$GPRMC,153732.500,A,4308.4040,N,07726.1128,W,21.81,1.46,231023,,,A*41
$GPGGA,153732.750,4308.4056,N,07726.1127,W,1,06,1.36,158.0,M,-34.4,M,,*54
$GPRMC,153733.000,A,4308.4071,N,07726.1127,W,21.21,1.47,231023,,,A*43
$GPGGA,153733.250,4308.4085,N,07726.1126,W,1,06,1.36,158.1,M,-34.4,M,,*5E
$GPRMC,153733.500,A,4308.4100,N,07726.1126,W,20.64,1.57,231023,,,A*41
$GPGGA,153733.750,4308.4115,N,07726.1125,W,1,06,1.36,158.1,M,-34.4,M,,*50
$GPRMC,153734.000,A,4308.4129,N,07726.1124,W,20.18,2.18,231023,,,A*49
$GPGGA,153734.250,4308.4143,N,07726.1124,W,1,06,1.36,158.2,M,-34.4,M,,*53
$GPRMC,153734.500,A,4308.4157,N,07726.1123,W,19.74,2.69,231023,,,A*44
$GPGGA,153734.750,4308.4171,N,07726.1122,W,1,06,1.36,158.2,M,-34.4,M,,*51
$GPRMC,153735.000,A,4308.4184,N,07726.1121,W,19.09,2.58,231023,,,A*44
$GPGGA,153735.250,4308.4198,N,07726.1120,W,1,06,1.36,158.3,M,-34.4,M,,*51
$GPRMC,153735.500,A,4308.4210,N,07726.1119,W,17.97,2.33,231023,,,A*40
$GPGGA,153735.750,4308.4223,N,07726.1119,W,1,06,1.36,158.4,M,-34.4,M,,*5A
$GPRMC,153736.000,A,4308.4234,N,07726.1118,W,15.78,1.03,231023,,,A*42
$GPGGA,153736.250,4308.4245,N,07726.1118,W,1,06,1.36,158.8,M,-34.4,M,,*51
$GPRMC,153736.500,A,4308.4255,N,07726.1118,W,14.51,1.55,231023,,,A*49
$GPGGA,153736.750,4308.4266,N,07726.1117,W,1,06,1.36,158.9,M,-34.4,M,,*5B
$GPRMC,153737.000,A,4308.4275,N,07726.1117,W,13.06,2.09,231023,,,A*4F
$GPGGA,153737.250,4308.4284,N,07726.1117,W,1,06,1.36,159.0,M,-34.4,M,,*5B
$GPRMC,153737.500,A,4308.4292,N,07726.1116,W,11.29,2.28,231023,,,A*4E
$GPGGA,153737.750,4308.4299,N,07726.1116,W,1,06,1.36,159.1,M,-34.4,M,,*52
$GPRMC,153738.000,A,4308.4305,N,07726.1116,W,8.58,0.27,231023,,,A*78
$GPGGA,153738.250,4308.4310,N,07726.1115,W,1,06,1.36,159.2,M,-34.4,M,,*58
$GPRMC,153738.500,A,4308.4313,N,07726.1115,W,5.95,0.36,231023,,,A*75
$GPGGA,153738.750,4308.4316,N,07726.1115,W,1,06,1.36,159.3,M,-34.4,M,,*5A
$GPRMC,153739.000,A,4308.4319,N,07726.1115,W,3.39,356.42,231023,,,A*78
$GPGGA,153739.250,4308.4321,N,07726.1115,W,1,06,1.36,159.3,M,-34.4,M,,*5A
$GPRMC,153739.500,A,4308.4322,N,07726.1114,W,1.86,356.42,231023,,,A*72
$GPGGA,153739.750,4308.4323,N,07726.1113,W,1,06,1.36,159.2,M,-34.4,M,,*5A
$GPRMC,153740.000,A,4308.4323,N,07726.1113,W,0.71,356.42,231023,,,A*76
$GPGGA,153740.250,4308.4323,N,07726.1112,W,1,06,1.34,159.1,M,-34.4,M,,*51
$GPRMC,153740.500,A,4308.4322,N,07726.1111,W,0.35,356.42,231023,,,A*70
$GPGGA,153740.750,4308.4321,N,07726.1111,W,1,06,1.35,158.8,M,-34.4,M,,*5C
$GPRMC,153741.000,A,4308.4321,N,07726.1110,W,0.60,356.42,231023,,,A*76
$GPGGA,153741.250,4308.4320,N,07726.1109,W,1,06,1.34,158.7,M,-34.4,M,,*5E
$GPRMC,153741.500,A,4308.4319,N,07726.1108,W,0.69,356.42,231023,,,A*78
$GPGGA,153741.750,4308.4318,N,07726.1108,W,1,06,1.34,158.7,M,-34.4,M,,*51
$GPRMC,153742.000,A,4308.4318,N,07726.1107,W,0.77,356.42,231023,,,A*7F
$GPGGA,153742.250,4308.4317,N,07726.1107,W,1,06,1.35,158.7,M,-34.4,M,,*56
$GPRMC,153742.500,A,4308.4318,N,07726.1107,W,0.55,356.42,231023,,,A*7A
$GPGGA,153742.750,4308.4320,N,07726.1107,W,1,06,1.35,158.7,M,-34.4,M,,*57
$GPRMC,153743.000,A,4308.4320,N,07726.1107,W,0.82,356.42,231023,,,A*7F
$GPGGA,153743.250,4308.4321,N,07726.1106,W,1,06,1.34,158.7,M,-34.4,M,,*52
$GPRMC,153743.500,A,4308.4321,N,07726.1106,W,1.27,356.42,231023,,,A*74
$GPGGA,153743.750,4308.4322,N,07726.1106,W,1,06,1.36,158.7,M,-34.4,M,,*56
$GPRMC,153744.000,A,4308.4327,N,07726.1108,W,5.04,341.59,231023,,,A*77
$GPGGA,153744.250,4308.4334,N,07726.1113,W,1,06,1.36,158.8,M,-34.4,M,,*58
$GPRMC,153744.500,A,4308.4342,N,07726.1119,W,8.70,326.32,231023,,,A*73
$GPGGA,153744.750,4308.4350,N,07726.1127,W,1,06,1.36,158.9,M,-34.4,M,,*59
$GPRMC,153745.000,A,4308.4356,N,07726.1135,W,11.23,316.23,231023,,,A*41
$GPGGA,153745.250,4308.4362,N,07726.1144,W,1,06,1.34,158.9,M,-34.4,M,,*5B
$GPRMC,153745.500,A,4308.4368,N,07726.1154,W,12.21,307.75,231023,,,A*4C
$GPGGA,153745.750,4308.4374,N,07726.1165,W,1,06,1.36,158.9,M,-34.4,M,,*58
$GPRMC,153746.000,A,4308.4378,N,07726.1177,W,13.38,298.78,231023,,,A*49
$GPGGA,153746.250,4308.4382,N,07726.1190,W,1,06,1.34,159.0,M,-34.4,M,,*57
$GPRMC,153746.500,A,4308.4384,N,07726.1204,W,14.77,287.65,231023,,,A*46
$GPGGA,153746.750,4308.4386,N,07726.1219,W,1,06,1.36,159.1,M,-34.4,M,,*57
$GPRMC,153747.000,A,4308.4388,N,07726.1235,W,16.27,280.26,231023,,,A*4B
$GPGGA,153747.250,4308.4389,N,07726.1252,W,1,06,1.34,159.2,M,-34.4,M,,*52
$GPRMC,153747.500,A,4308.4391,N,07726.1269,W,17.54,277.71,231023,,,A*40
$GPGGA,153747.750,4308.4392,N,07726.1288,W,1,06,1.34,159.2,M,-34.4,M,,*5A
$GPRMC,153748.000,A,4308.4393,N,07726.1306,W,19.11,276.26,231023,,,A*4C
$GPGGA,153748.250,4308.4394,N,07726.1325,W,1,06,1.34,159.3,M,-34.4,M,,*51
$GPRMC,153748.500,A,4308.4395,N,07726.1345,W,20.30,275.75,231023,,,A*44
$GPGGA,153748.750,4308.4396,N,07726.1365,W,1,06,1.35,159.4,M,-34.4,M,,*54
$GPRMC,153749.000,A,4308.4398,N,07726.1386,W,21.33,278.16,231023,,,A*48
$GPGGA,153749.250,4308.4400,N,07726.1406,W,1,06,1.35,159.5,M,-34.4,M,,*5B
$GPRMC,153749.500,A,4308.4401,N,07726.1428,W,22.28,278.00,231023,,,A*47
$GPGGA,153749.750,4308.4403,N,07726.1450,W,1,06,1.36,159.6,M,-34.4,M,,*5E
$GPRMC,153750.000,A,4308.4405,N,07726.1472,W,23.42,278.90,231023,,,A*45
$GPGGA,153750.250,4308.4407,N,07726.1494,W,1,06,1.34,159.8,M,-34.4,M,,*53
$GPRMC,153750.500,A,4308.4410,N,07726.1517,W,24.30,279.25,231023,,,A*4B
$GPGGA,153750.750,4308.4412,N,07726.1541,W,1,06,1.34,159.9,M,-34.4,M,,*5A
$GPRMC,153751.000,A,4308.4415,N,07726.1565,W,25.29,279.82,231023,,,A*4B
$GPGGA,153751.250,4308.4418,N,07726.1590,W,1,06,1.34,160.0,M,-34.4,M,,*5B
$GPRMC,153751.500,A,4308.4421,N,07726.1614,W,26.13,279.62,231023,,,A*48
$GPGGA,153751.750,4308.4424,N,07726.1639,W,1,06,1.36,160.1,M,-34.4,M,,*52
$GPRMC,153752.000,A,4308.4426,N,07726.1665,W,27.05,278.48,231023,,,A*40
$GPGGA,153752.250,4308.4429,N,07726.1692,W,1,06,1.34,160.3,M,-34.4,M,,*58
$GPRMC,153752.500,A,4308.4431,N,07726.1719,W,27.92,277.88,231023,,,A*44
$GPGGA,153752.750,4308.4434,N,07726.1746,W,1,06,1.36,160.4,M,-34.4,M,,*5C
$GPRMC,153753.000,A,4308.4436,N,07726.1773,W,28.43,277.20,231023,,,A*4A
$GPGGA,153753.250,4308.4438,N,07726.1801,W,1,06,1.34,160.6,M,-34.4,M,,*58
$GPRMC,153753.500,A,4308.4440,N,07726.1829,W,28.94,276.07,231023,,,A*40
$GPGGA,153753.750,4308.4442,N,07726.1857,W,1,06,1.34,160.6,M,-34.4,M,,*53
$GPRMC,153754.000,A,4308.4443,N,07726.1885,W,29.23,275.96,231023,,,A*41
$GPGGA,153754.250,4308.4445,N,07726.1914,W,1,06,1.34,160.7,M,-34.4,M,,*51
$GPRMC,153754.500,A,4308.4447,N,07726.1942,W,29.63,275.96,231023,,,A*4E
$GPGGA,153754.750,4308.4449,N,07726.1971,W,1,06,1.36,160.8,M,-34.4,M,,*56
$GPRMC,153755.000,A,4308.4451,N,07726.2001,W,30.66,276.47,231023,,,A*42
$GPGGA,153755.250,4308.4453,N,07726.2030,W,1,06,1.34,160.9,M,-34.4,M,,*55
$GPRMC,153755.500,A,4308.4456,N,07726.2060,W,31.00,277.45,231023,,,A*45
$GPGGA,153755.750,4308.4458,N,07726.2090,W,1,06,1.36,161.0,M,-34.4,M,,*5B
$GPRMC,153756.000,A,4308.4461,N,07726.2120,W,31.98,278.32,231023,,,A*4C
$GPGGA,153756.250,4308.4464,N,07726.2150,W,1,06,1.34,161.1,M,-34.4,M,,*5C
$GPRMC,153756.500,A,4308.4467,N,07726.2180,W,32.32,278.45,231023,,,A*46
$GPGGA,153756.750,4308.4469,N,07726.2211,W,1,06,1.36,161.2,M,-34.4,M,,*53
$GPRMC,153757.000,A,4308.4473,N,07726.2241,W,32.75,278.35,231023,,,A*4D
$GPGGA,153757.250,4308.4476,N,07726.2272,W,1,06,1.34,161.4,M,-34.4,M,,*58
$GPRMC,153757.500,A,4308.4479,N,07726.2303,W,32.83,278.35,231023,,,A*4C
$GPGGA,153757.750,4308.4482,N,07726.2334,W,1,06,1.36,161.5,M,-34.4,M,,*56
$GPRMC,153758.000,A,4308.4485,N,07726.2365,W,32.57,278.09,231023,,,A*43
$GPGGA,153758.250,4308.4487,N,07726.2395,W,1,06,1.34,161.7,M,-34.4,M,,*52
$GPRMC,153758.500,A,4308.4490,N,07726.2425,W,31.44,276.94,231023,,,A*4A
$GPGGA,153758.750,4308.4492,N,07726.2454,W,1,06,1.36,161.9,M,-34.4,M,,*55
$GPRMC,153759.000,A,4308.4495,N,07726.2484,W,31.12,277.34,231023,,,A*48
$GPGGA,153759.250,4308.4497,N,07726.2513,W,1,06,1.35,162.1,M,-34.4,M,,*5E
$GPRMC,153759.500,A,4308.4500,N,07726.2542,W,30.85,277.02,231023,,,A*41
$GPGGA,153759.750,4308.4503,N,07726.2571,W,1,06,1.36,162.3,M,-34.4,M,,*52
$GPRMC,153800.000,A,4308.4505,N,07726.2600,W,30.67,277.49,231023,,,A*44
$GPGGA,153800.250,4308.4508,N,07726.2629,W,1,06,1.34,162.5,M,-34.4,M,,*55
$GPRMC,153800.500,A,4308.4510,N,07726.2657,W,30.25,277.53,231023,,,A*4A
$GPGGA,153800.750,4308.4512,N,07726.2685,W,1,06,1.36,162.7,M,-34.4,M,,*5D
$GPRMC,153801.000,A,4308.4515,N,07726.2713,W,29.99,277.77,231023,,,A*43
$GPGGA,153801.250,4308.4518,N,07726.2740,W,1,06,1.34,162.9,M,-34.4,M,,*57
$GPRMC,153801.500,A,4308.4520,N,07726.2768,W,29.44,277.64,231023,,,A*4E
$GPGGA,153801.750,4308.4522,N,07726.2796,W,1,06,1.34,162.9,M,-34.4,M,,*50
$GPRMC,153802.000,A,4308.4525,N,07726.2824,W,29.71,278.01,231023,,,A*40
$GPGGA,153802.250,4308.4528,N,07726.2853,W,1,06,1.36,163.2,M,-34.4,M,,*52
$GPRMC,153802.500,A,4308.4531,N,07726.2881,W,29.54,278.65,231023,,,A*4A
$GPGGA,153802.750,4308.4534,N,07726.2910,W,1,06,1.36,163.4,M,-34.4,M,,*5A
$GPRMC,153803.000,A,4308.4537,N,07726.2938,W,30.21,278.82,231023,,,A*48
$GPGGA,153803.250,4308.4540,N,07726.2967,W,1,06,1.34,163.6,M,-34.4,M,,*5D
$GPRMC,153803.500,A,4308.4543,N,07726.2996,W,30.54,278.89,231023,,,A*43
$GPGGA,153803.750,4308.4546,N,07726.3024,W,1,06,1.35,163.8,M,-34.4,M,,*5E
$GPRMC,153804.000,A,4308.4549,N,07726.3053,W,30.84,278.69,231023,,,A*49
$GPGGA,153804.250,4308.4552,N,07726.3083,W,1,06,1.34,164.0,M,-34.4,M,,*5A
$GPRMC,153804.500,A,4308.4554,N,07726.3112,W,31.01,278.24,231023,,,A*41
$GPGGA,153804.750,4308.4557,N,07726.3141,W,1,06,1.36,164.2,M,-34.4,M,,*55
$GPRMC,153805.000,A,4308.4560,N,07726.3170,W,30.77,277.93,231023,,,A*45
$GPGGA,153805.250,4308.4563,N,07726.3199,W,1,06,1.34,164.4,M,-34.4,M,,*57
$GPRMC,153805.500,A,4308.4566,N,07726.3227,W,30.61,278.19,231023,,,A*4D
$GPGGA,153805.750,4308.4569,N,07726.3255,W,1,06,1.34,164.6,M,-34.4,M,,*59
$GPRMC,153806.000,A,4308.4572,N,07726.3283,W,29.46,277.88,231023,,,A*4A
$GPGGA,153806.250,4308.4574,N,07726.3311,W,1,06,1.34,164.8,M,-34.4,M,,*5C
$GPRMC,153806.500,A,4308.4577,N,07726.3338,W,28.76,277.30,231023,,,A*4A
$GPGGA,153806.750,4308.4580,N,07726.3365,W,1,06,1.36,164.9,M,-34.4,M,,*52
$GPRMC,153807.000,A,4308.4582,N,07726.3392,W,28.31,277.11,231023,,,A*44
$GPGGA,153807.250,4308.4585,N,07726.3418,W,1,06,1.34,165.1,M,-34.4,M,,*55
$GPRMC,153807.500,A,4308.4587,N,07726.3444,W,27.38,277.27,231023,,,A*4B
$GPGGA,153807.750,4308.4590,N,07726.3469,W,1,06,1.36,165.1,M,-34.4,M,,*50
$GPRMC,153808.000,A,4308.4593,N,07726.3494,W,26.28,277.58,231023,,,A*41
$GPGGA,153808.250,4308.4595,N,07726.3519,W,1,06,1.34,165.2,M,-34.4,M,,*58
$GPRMC,153808.500,A,4308.4598,N,07726.3543,W,25.54,277.66,231023,,,A*41
$GPGGA,153808.750,4308.4600,N,07726.3567,W,1,06,1.34,165.2,M,-34.4,M,,*5B
$GPRMC,153809.000,A,4308.4603,N,07726.3590,W,25.03,277.81,231023,,,A*41
$GPGGA,153809.250,4308.4605,N,07726.3613,W,1,06,1.35,165.2,M,-34.4,M,,*5B
$GPRMC,153809.500,A,4308.4607,N,07726.3637,W,24.78,278.05,231023,,,A*40
$GPGGA,153809.750,4308.4610,N,07726.3660,W,1,06,1.34,165.1,M,-34.4,M,,*5C
$GPRMC,153810.000,A,4308.4612,N,07726.3683,W,24.78,278.14,231023,,,A*46
$GPGGA,153810.250,4308.4615,N,07726.3706,W,1,06,1.34,165.0,M,-34.4,M,,*54
$GPRMC,153810.500,A,4308.4617,N,07726.3729,W,24.82,278.27,231023,,,A*42
$GPGGA,153810.750,4308.4620,N,07726.3752,W,1,06,1.36,164.8,M,-34.4,M,,*5D
$GPRMC,153811.000,A,4308.4622,N,07726.3776,W,25.40,278.66,231023,,,A*40
$GPGGA,153811.250,4308.4625,N,07726.3800,W,1,06,1.34,164.7,M,-34.4,M,,*59
$GPRMC,153811.500,A,4308.4627,N,07726.3824,W,25.51,278.14,231023,,,A*4D
$GPGGA,153811.750,4308.4630,N,07726.3848,W,1,06,1.34,164.5,M,-34.4,M,,*56
$GPRMC,153812.000,A,4308.4632,N,07726.3872,W,25.71,278.10,231023,,,A*4A
$GPGGA,153812.250,4308.4635,N,07726.3896,W,1,06,1.34,164.3,M,-34.4,M,,*50
$GPRMC,153812.500,A,4308.4637,N,07726.3920,W,25.67,278.26,231023,,,A*4E
$GPGGA,153812.750,4308.4639,N,07726.3943,W,1,06,1.34,164.1,M,-34.4,M,,*52
$GPRMC,153813.000,A,4308.4642,N,07726.3967,W,25.21,278.66,231023,,,A*4D
$GPGGA,153813.250,4308.4644,N,07726.3990,W,1,06,1.34,163.9,M,-34.4,M,,*5D
$GPRMC,153813.500,A,4308.4646,N,07726.4014,W,24.11,277.52,231023,,,A*4C
$GPGGA,153813.750,4308.4648,N,07726.4036,W,1,06,1.34,163.6,M,-34.4,M,,*59
$GPRMC,153814.000,A,4308.4651,N,07726.4058,W,22.94,278.55,231023,,,A*43
$GPGGA,153814.250,4308.4653,N,07726.4079,W,1,06,1.34,163.5,M,-34.4,M,,*59
$GPRMC,153814.500,A,4308.4656,N,07726.4100,W,22.48,279.07,231023,,,A*4A
$GPGGA,153814.750,4308.4658,N,07726.4121,W,1,06,1.36,163.4,M,-34.4,M,,*58
$GPRMC,153815.000,A,4308.4661,N,07726.4141,W,21.55,279.41,231023,,,A*42
$GPGGA,153815.250,4308.4663,N,07726.4161,W,1,06,1.34,163.3,M,-34.4,M,,*55
$GPRMC,153815.500,A,4308.4665,N,07726.4180,W,20.32,279.13,231023,,,A*49
$GPGGA,153815.750,4308.4667,N,07726.4197,W,1,06,1.36,163.3,M,-34.4,M,,*5F
$GPRMC,153816.000,A,4308.4669,N,07726.4214,W,18.30,278.96,231023,,,A*48
$GPGGA,153816.250,4308.4671,N,07726.4230,W,1,06,1.34,163.2,M,-34.4,M,,*53
$GPRMC,153816.500,A,4308.4672,N,07726.4246,W,16.38,278.16,231023,,,A*4E
$GPGGA,153816.750,4308.4673,N,07726.4259,W,1,06,1.34,163.2,M,-34.4,M,,*5B
$GPRMC,153817.000,A,4308.4674,N,07726.4273,W,14.33,277.58,231023,,,A*46
$GPGGA,153817.250,4308.4676,N,07726.4285,W,1,06,1.34,163.2,M,-34.4,M,,*5B
$GPRMC,153817.500,A,4308.4678,N,07726.4297,W,12.60,278.56,231023,,,A*44
$GPGGA,153817.750,4308.4680,N,07726.4308,W,1,06,1.36,163.2,M,-34.4,M,,*51
$GPRMC,153818.000,A,4308.4681,N,07726.4318,W,10.87,278.48,231023,,,A*4A
$GPGGA,153818.250,4308.4682,N,07726.4328,W,1,06,1.34,163.1,M,-34.4,M,,*5A
$GPRMC,153818.500,A,4308.4683,N,07726.4336,W,9.37,278.91,231023,,,A*76
$GPGGA,153818.750,4308.4684,N,07726.4343,W,1,06,1.36,163.1,M,-34.4,M,,*56
$GPRMC,153819.000,A,4308.4684,N,07726.4350,W,7.82,277.91,231023,,,A*7A
$GPGGA,153819.250,4308.4684,N,07726.4357,W,1,06,1.34,163.0,M,-34.4,M,,*54
$GPRMC,153819.500,A,4308.4684,N,07726.4362,W,6.43,280.42,231023,,,A*74
$GPGGA,153819.750,4308.4684,N,07726.4366,W,1,06,1.34,163.0,M,-34.4,M,,*53
$GPRMC,153820.000,A,4308.4684,N,07726.4368,W,3.46,280.57,231023,,,A*75
$GPGGA,153820.250,4308.4684,N,07726.4371,W,1,06,1.34,162.9,M,-34.4,M,,*52
$GPRMC,153820.500,A,4308.4684,N,07726.4372,W,1.95,280.57,231023,,,A*77
$GPGGA,153820.750,4308.4683,N,07726.4372,W,1,06,1.34,162.9,M,-34.4,M,,*53
$GPRMC,153821.000,A,4308.4683,N,07726.4372,W,0.05,280.57,231023,,,A*7C
$GPGGA,153821.250,4308.4682,N,07726.4372,W,1,06,1.34,162.9,M,-34.4,M,,*56
$GPRMC,153821.500,A,4308.4682,N,07726.4372,W,0.04,280.57,231023,,,A*79
$GPGGA,153821.750,4308.4682,N,07726.4372,W,1,06,1.34,162.9,M,-34.4,M,,*53
$GPRMC,153822.000,A,4308.4681,N,07726.4371,W,0.00,280.57,231023,,,A*7B
$GPGGA,153822.250,4308.4681,N,07726.4371,W,1,06,1.34,163.0,M,-34.4,M,,*5D
$GPRMC,153822.500,A,4308.4680,N,07726.4370,W,0.00,280.57,231023,,,A*7E
$GPGGA,153822.750,4308.4679,N,07726.4370,W,1,06,1.36,163.0,M,-34.4,M,,*5C
$GPRMC,153823.000,A,4308.4679,N,07726.4370,W,0.00,280.57,231023,,,A*7C
$GPGGA,153823.250,4308.4678,N,07726.4369,W,1,06,1.34,163.0,M,-34.4,M,,*53
$GPRMC,153823.500,A,4308.4677,N,07726.4369,W,0.00,280.57,231023,,,A*7F
$GPGGA,153823.750,4308.4677,N,07726.4368,W,1,06,1.34,163.0,M,-34.4,M,,*58
$GPRMC,153824.000,A,4308.4677,N,07726.4368,W,0.00,280.57,231023,,,A*7C
$GPGGA,153824.250,4308.4676,N,07726.4368,W,1,06,1.35,163.1,M,-34.4,M,,*5B
$GPRMC,153824.500,A,4308.4677,N,07726.4368,W,0.00,280.57,231023,,,A*79
$GPGGA,153824.750,4308.4677,N,07726.4368,W,1,06,1.34,163.1,M,-34.4,M,,*5E
$GPRMC,153825.000,A,4308.4677,N,07726.4368,W,0.00,280.57,231023,,,A*7D
$GPGGA,153825.250,4308.4677,N,07726.4368,W,1,06,1.34,163.1,M,-34.4,M,,*5A
$GPRMC,153825.500,A,4308.4676,N,07726.4368,W,0.00,280.57,231023,,,A*79
$GPGGA,153825.750,4308.4676,N,07726.4368,W,1,06,1.34,163.1,M,-34.4,M,,*5E
$GPRMC,153826.000,A,4308.4677,N,07726.4368,W,0.00,280.57,231023,,,A*7E
$GPGGA,153826.250,4308.4677,N,07726.4368,W,1,06,1.34,163.1,M,-34.4,M,,*59
$GPRMC,153826.500,A,4308.4677,N,07726.4368,W,0.00,280.57,231023,,,A*7B
$GPGGA,153826.750,4308.4676,N,07726.4368,W,1,06,1.34,163.1,M,-34.4,M,,*5D
$GPRMC,153827.000,A,4308.4676,N,07726.4368,W,0.00,280.57,231023,,,A*7E
$GPGGA,153827.250,4308.4676,N,07726.4368,W,1,06,1.34,163.1,M,-34.4,M,,*59
$GPRMC,153827.500,A,4308.4676,N,07726.4368,W,0.00,280.57,231023,,,A*7B
$GPGGA,153827.750,4308.4676,N,07726.4368,W,1,06,1.34,163.1,M,-34.4,M,,*5C
$GPRMC,153828.000,A,4308.4676,N,07726.4368,W,0.00,280.57,231023,,,A*71
$GPGGA,153828.250,4308.4676,N,07726.4368,W,1,06,1.34,163.1,M,-34.4,M,,*56
$GPRMC,153828.500,A,4308.4676,N,07726.4368,W,0.00,280.57,231023,,,A*74
$GPGGA,153828.750,4308.4676,N,07726.4368,W,1,06,1.34,163.1,M,-34.4,M,,*53
$GPRMC,153829.000,A,4308.4676,N,07726.4368,W,0.00,280.57,231023,,,A*70
$GPGGA,153829.250,4308.4676,N,07726.4368,W,1,06,1.34,163.1,M,-34.4,M,,*57
$GPRMC,153829.500,A,4308.4676,N,07726.4368,W,0.00,280.57,231023,,,A*75
$GPGGA,153829.750,4308.4676,N,07726.4368,W,1,06,1.34,163.1,M,-34.4,M,,*52
$GPRMC,153830.000,A,4308.4676,N,07726.4368,W,0.00,280.57,231023,,,A*78
$GPGGA,153830.250,4308.4676,N,07726.4368,W,1,06,1.34,163.1,M,-34.4,M,,*5F
$GPRMC,153830.500,A,4308.4676,N,07726.4368,W,0.00,280.57,231023,,,A*7D
$GPGGA,153830.750,4308.4676,N,07726.4368,W,1,06,1.34,163.1,M,-34.4,M,,*5A
$GPRMC,153831.000,A,4308.4676,N,07726.4368,W,0.00,280.57,231023,,,A*79
$GPGGA,153831.250,4308.4676,N,07726.4368,W,1,06,1.34,163.1,M,-34.4,M,,*5E
$GPRMC,153831.500,A,4308.4676,N,07726.4368,W,0.00,280.57,231023,,,A*7C
$GPGGA,153831.750,4308.4676,N,07726.4368,W,1,06,1.34,163.1,M,-34.4,M,,*5B
$GPRMC,153832.000,A,4308.4676,N,07726.4368,W,0.00,280.57,231023,,,A*7A
$GPGGA,153832.250,4308.4676,N,07726.4368,W,1,06,1.36,163.1,M,-34.4,M,,*5F
$GPRMC,153832.500,A,4308.4676,N,07726.4368,W,0.00,280.57,231023,,,A*7F
$GPGGA,153832.750,4308.4676,N,07726.4368,W,1,06,1.34,163.1,M,-34.4,M,,*58
$GPRMC,153833.000,A,4308.4676,N,07726.4368,W,0.00,280.57,231023,,,A*7B
$GPGGA,153833.250,4308.4676,N,07726.4368,W,1,06,1.34,163.1,M,-34.4,M,,*5C
$GPRMC,153833.500,A,4308.4676,N,07726.4368,W,0.00,280.57,231023,,,A*7E
$GPGGA,153833.750,4308.4676,N,07726.4368,W,1,06,1.34,163.1,M,-34.4,M,,*59
$GPRMC,153834.000,A,4308.4676,N,07726.4368,W,0.00,280.57,231023,,,A*7C
$GPGGA,153834.250,4308.4676,N,07726.4368,W,1,06,1.34,163.1,M,-34.4,M,,*5B
$GPRMC,153834.500,A,4308.4676,N,07726.4368,W,0.00,280.57,231023,,,A*79
$GPGGA,153834.750,4308.4676,N,07726.4368,W,1,06,1.34,163.1,M,-34.4,M,,*5E
$GPRMC,153835.000,A,4308.4676,N,07726.4368,W,0.00,280.57,231023,,,A*7D
$GPGGA,153835.250,4308.4676,N,07726.4368,W,1,06,1.34,163.1,M,-34.4,M,,*5A
$GPRMC,153835.500,A,4308.4676,N,07726.4368,W,0.00,280.57,231023,,,A*78
$GPGGA,153835.750,4308.4676,N,07726.4368,W,1,06,1.34,163.1,M,-34.4,M,,*5F
$GPRMC,153836.000,A,4308.4676,N,07726.4368,W,0.00,280.57,231023,,,A*7E
$GPGGA,153836.250,4308.4676,N,07726.4368,W,1,06,1.36,163.1,M,-34.4,M,,*5B
$GPRMC,153836.500,A,4308.4676,N,07726.4368,W,0.00,280.57,231023,,,A*7B
$GPGGA,153836.750,4308.4676,N,07726.4368,W,1,06,1.34,163.1,M,-34.4,M,,*5C
$GPRMC,153837.000,A,4308.4676,N,07726.4368,W,0.00,280.57,231023,,,A*7F
$GPGGA,153837.250,4308.4676,N,07726.4368,W,1,06,1.34,163.1,M,-34.4,M,,*58
$GPRMC,153837.500,A,4308.4676,N,07726.4368,W,0.00,280.57,231023,,,A*7A
$GPGGA,153837.750,4308.4676,N,07726.4368,W,1,06,1.34,163.1,M,-34.4,M,,*5D
$GPRMC,153838.000,A,4308.4676,N,07726.4368,W,0.01,280.57,231023,,,A*71
$GPGGA,153838.250,4308.4676,N,07726.4368,W,1,06,1.34,163.1,M,-34.4,M,,*57
$GPRMC,153838.500,A,4308.4676,N,07726.4368,W,0.00,280.57,231023,,,A*75
$GPGGA,153838.750,4308.4676,N,07726.4368,W,1,06,1.34,163.1,M,-34.4,M,,*52
$GPRMC,153839.000,A,4308.4676,N,07726.4368,W,0.00,280.57,231023,,,A*71
$GPGGA,153839.250,4308.4676,N,07726.4368,W,1,06,1.34,163.1,M,-34.4,M,,*56
$GPRMC,153839.500,A,4308.4676,N,07726.4368,W,0.00,280.57,231023,,,A*74
$GPGGA,153839.750,4308.4676,N,07726.4368,W,1,06,1.34,163.1,M,-34.4,M,,*53
$GPRMC,153840.000,A,4308.4676,N,07726.4368,W,0.00,280.57,231023,,,A*7F
$GPGGA,153840.250,4308.4676,N,07726.4368,W,1,06,1.34,163.1,M,-34.4,M,,*58
$GPRMC,153840.500,A,4308.4676,N,07726.4368,W,0.00,280.57,231023,,,A*7A
$GPGGA,153840.750,4308.4676,N,07726.4368,W,1,06,1.34,163.1,M,-34.4,M,,*5D
$GPRMC,153841.000,A,4308.4676,N,07726.4368,W,0.00,280.57,231023,,,A*7E
$GPGGA,153841.250,4308.4676,N,07726.4368,W,1,06,1.34,163.1,M,-34.4,M,,*59
$GPRMC,153841.500,A,4308.4676,N,07726.4368,W,0.00,280.57,231023,,,A*7B
$GPGGA,153841.750,4308.4676,N,07726.4367,W,1,06,1.36,163.1,M,-34.4,M,,*51
$GPRMC,153842.000,A,4308.4676,N,07726.4367,W,0.00,280.57,231023,,,A*72
$GPGGA,153842.250,4308.4676,N,07726.4367,W,1,06,1.34,163.1,M,-34.4,M,,*55
$GPRMC,153842.500,A,4308.4676,N,07726.4367,W,0.00,280.57,231023,,,A*77
$GPGGA,153842.750,4308.4676,N,07726.4367,W,1,06,1.34,163.1,M,-34.4,M,,*50
$GPRMC,153843.000,A,4308.4676,N,07726.4367,W,0.00,280.57,231023,,,A*73
$GPGGA,153843.250,4308.4676,N,07726.4367,W,1,06,1.34,163.1,M,-34.4,M,,*54
$GPRMC,153843.500,A,4308.4676,N,07726.4367,W,0.00,280.57,231023,,,A*76
$GPGGA,153843.750,4308.4676,N,07726.4367,W,1,06,1.34,163.1,M,-34.4,M,,*51
$GPRMC,153844.000,A,4308.4676,N,07726.4368,W,0.94,280.57,231023,,,A*76
$GPGGA,153844.250,4308.4676,N,07726.4369,W,1,06,1.34,163.1,M,-34.4,M,,*5D
$GPRMC,153844.500,A,4308.4676,N,07726.4372,W,4.09,280.39,231023,,,A*70
$GPGGA,153844.750,4308.4676,N,07726.4376,W,1,06,1.36,163.1,M,-34.4,M,,*54
$GPRMC,153845.000,A,4308.4676,N,07726.4382,W,6.77,279.70,231023,,,A*7B
$GPGGA,153845.250,4308.4677,N,07726.4389,W,1,06,1.36,163.1,M,-34.4,M,,*51
$GPRMC,153845.500,A,4308.4678,N,07726.4397,W,9.69,279.01,231023,,,A*72
$GPGGA,153845.750,4308.4679,N,07726.4407,W,1,06,1.36,163.1,M,-34.4,M,,*5B
$GPRMC,153846.000,A,4308.4680,N,07726.4418,W,12.37,280.32,231023,,,A*44
$GPGGA,153846.250,4308.4682,N,07726.4430,W,1,06,1.36,163.1,M,-34.4,M,,*5D
$GPRMC,153846.500,A,4308.4684,N,07726.4443,W,14.35,283.00,231023,,,A*4D
$GPGGA,153846.750,4308.4686,N,07726.4457,W,1,06,1.36,163.1,M,-34.4,M,,*5D
$GPRMC,153847.000,A,4308.4688,N,07726.4472,W,16.44,282.33,231023,,,A*42
$GPGGA,153847.250,4308.4690,N,07726.4488,W,1,06,1.36,163.2,M,-34.4,M,,*5F
$GPRMC,153847.500,A,4308.4692,N,07726.4505,W,18.12,282.50,231023,,,A*45
$GPGGA,153847.750,4308.4695,N,07726.4523,W,1,06,1.36,163.3,M,-34.4,M,,*5E
$GPRMC,153848.000,A,4308.4697,N,07726.4541,W,20.44,274.27,231023,,,A*4B
$GPGGA,153848.250,4308.4699,N,07726.4561,W,1,06,1.34,163.2,M,-34.4,M,,*5D
$GPRMC,153848.500,A,4308.4701,N,07726.4582,W,22.17,277.93,231023,,,A*47
$GPGGA,153848.750,4308.4703,N,07726.4604,W,1,06,1.36,163.2,M,-34.4,M,,*58
$GPRMC,153849.000,A,4308.4705,N,07726.4626,W,23.57,278.58,231023,,,A*47
$GPGGA,153849.250,4308.4707,N,07726.4649,W,1,06,1.34,163.2,M,-34.4,M,,*53
$GPRMC,153849.500,A,4308.4710,N,07726.4672,W,24.84,279.20,231023,,,A*40
$GPGGA,153849.750,4308.4711,N,07726.4697,W,1,06,1.34,163.4,M,-34.4,M,,*54
$GPRMC,153850.000,A,4308.4712,N,07726.4722,W,26.51,276.64,231023,,,A*4E
$GPGGA,153850.250,4308.4715,N,07726.4748,W,1,06,1.36,163.5,M,-34.4,M,,*5D
$GPRMC,153850.500,A,4308.4717,N,07726.4773,W,27.45,277.23,231023,,,A*4C
$GPGGA,153850.750,4308.4719,N,07726.4799,W,1,06,1.36,163.7,M,-34.4,M,,*5A
$GPRMC,153851.000,A,4308.4721,N,07726.4825,W,27.53,277.21,231023,,,A*44
$GPGGA,153851.250,4308.4724,N,07726.4851,W,1,06,1.34,163.9,M,-34.4,M,,*57
$GPRMC,153851.500,A,4308.4726,N,07726.4877,W,27.82,277.30,231023,,,A*4D
$GPGGA,153851.750,4308.4729,N,07726.4904,W,1,06,1.36,164.1,M,-34.4,M,,*53
$GPRMC,153852.000,A,4308.4731,N,07726.4931,W,28.44,276.99,231023,,,A*49
$GPGGA,153852.250,4308.4733,N,07726.4958,W,1,06,1.34,164.3,M,-34.4,M,,*57
$GPRMC,153852.500,A,4308.4735,N,07726.4985,W,29.08,276.40,231023,,,A*4A
$GPGGA,153852.750,4308.4737,N,07726.5013,W,1,06,1.36,164.5,M,-34.4,M,,*55
$GPRMC,153853.000,A,4308.4739,N,07726.5041,W,29.66,275.89,231023,,,A*4C
$GPGGA,153853.250,4308.4742,N,07726.5070,W,1,06,1.34,164.6,M,-34.4,M,,*57
$GPRMC,153853.500,A,4308.4744,N,07726.5099,W,29.98,275.29,231023,,,A*4D
$GPGGA,153853.750,4308.4746,N,07726.5128,W,1,06,1.34,164.7,M,-34.4,M,,*5B
$GPRMC,153854.000,A,4308.4748,N,07726.5158,W,30.77,274.73,231023,,,A*48
$GPGGA,153854.250,4308.4750,N,07726.5188,W,1,06,1.34,164.8,M,-34.4,M,,*5B
