Vers 81
USE_SERIAL_FEEDBACK=true
DEVELOPMENT_MODE=false
USE_RMC_ONLY=false

$GPRMC,161957.250,A,4308.3063,N,07726.2639,W,0.03,141.83,170823,,,A*76
$GPGGA,161957.500,4308.3063,N,07726.2639,W,1,04,2.64,169.9,M,-34.4,M,,*58
$GPRMC,161957.750,A,4308.3063,N,07726.2638,W,0.03,78.25,170823,,,A*45
$GPGGA,161958.000,4308.3063,N,07726.2638,W,1,04,2.63,169.9,M,-34.4,M,,*54
$GPRMC,161958.250,A,4308.3064,N,07726.2638,W,0.02,104.74,170823,,,A*77
$GPGGA,161958.500,4308.3064,N,07726.2638,W,1,04,2.63,169.8,M,-34.4,M,,*57
$GPRMC,161958.750,A,4308.3064,N,07726.2637,W,0.04,3.39,170823,,,A*74
$GPGGA,161959.000,4308.3064,N,07726.2637,W,1,04,2.65,169.8,M,-34.4,M,,*5A
$GPRMC,161959.250,A,4308.3064,N,07726.2637,W,0.03,69.34,170823,,,A*46
$GPGGA,161959.500,4308.3064,N,07726.2637,W,1,04,2.63,169.8,M,-34.4,M,,*59
$GPRMC,161959.750,A,4308.3064,N,07726.2636,W,0.08,54.05,170823,,,A*45
$GPGGA,162000.000,4308.3064,N,07726.2636,W,1,04,2.63,169.7,M,-34.4,M,,*54
$GPRMC,162000.250,A,4308.3064,N,07726.2636,W,0.09,53.99,170823,,,A*45
$GPGGA,162000.500,4308.3065,N,07726.2635,W,1,04,2.63,169.7,M,-34.4,M,,*53
$GPRMC,162000.750,A,4308.3065,N,07726.2635,W,0.11,40.38,170823,,,A*42
$GPGGA,162001.000,4308.3064,N,07726.2635,W,1,04,2.63,169.7,M,-34.4,M,,*56
$GPRMC,162001.250,A,4308.3065,N,07726.2634,W,0.14,29.05,170823,,,A*43
$GPGGA,162001.500,4308.3065,N,07726.2634,W,1,04,2.63,169.6,M,-34.4,M,,*52
$GPRMC,162001.750,A,4308.3065,N,07726.2634,W,0.13,31.26,170823,,,A*49
$GPGGA,162002.000,4308.3065,N,07726.2634,W,1,04,2.63,169.5,M,-34.4,M,,*57
$GPRMC,162002.250,A,4308.3065,N,07726.2633,W,0.16,18.30,170823,,,A*41
$GPGGA,162002.500,4308.3065,N,07726.2633,W,1,06,1.56,169.4,M,-34.4,M,,*53
$GPRMC,162002.750,A,4308.3065,N,07726.2633,W,0.17,21.14,170823,,,A*49
$GPGGA,162003.000,4308.3065,N,07726.2632,W,1,06,1.56,169.3,M,-34.4,M,,*51
$GPRMC,162003.250,A,4308.3065,N,07726.2631,W,0.16,55.02,170823,,,A*4A
$GPGGA,162003.500,4308.3065,N,07726.2631,W,1,06,1.56,169.3,M,-34.4,M,,*57
$GPRMC,162003.750,A,4308.3065,N,07726.2630,W,0.22,62.48,170823,,,A*43
$GPGGA,162004.000,4308.3064,N,07726.2630,W,1,06,1.56,169.1,M,-34.4,M,,*57
$GPRMC,162004.250,A,4308.3064,N,07726.2629,W,0.22,25.32,170823,,,A*46
$GPGGA,162004.500,4308.3064,N,07726.2630,W,1,06,1.56,169.0,M,-34.4,M,,*53
$GPRMC,162004.750,A,4308.3064,N,07726.2629,W,0.11,8.78,170823,,,A*72
$GPGGA,162005.000,4308.3064,N,07726.2629,W,1,06,1.79,168.9,M,-34.4,M,,*5A
$GPRMC,162005.250,A,4308.3064,N,07726.2628,W,0.11,41.37,170823,,,A*41
$GPGGA,162005.500,4308.3064,N,07726.2628,W,1,06,1.56,168.8,M,-34.4,M,,*52
$GPRMC,162005.750,A,4308.3064,N,07726.2628,W,0.12,21.38,170823,,,A*4E
$GPGGA,162006.000,4308.3064,N,07726.2628,W,1,06,1.56,168.8,M,-34.4,M,,*54
$GPRMC,162006.250,A,4308.3064,N,07726.2628,W,0.07,199.96,170823,,,A*7A
$GPGGA,162006.500,4308.3064,N,07726.2628,W,1,06,1.56,168.8,M,-34.4,M,,*51
$GPRMC,162006.750,A,4308.3064,N,07726.2628,W,0.03,179.47,170823,,,A*79
$GPGGA,162007.000,4308.3064,N,07726.2628,W,1,06,1.56,168.8,M,-34.4,M,,*55
$GPRMC,162007.250,A,4308.3064,N,07726.2628,W,0.08,21.59,170823,,,A*45
$GPGGA,162007.500,4308.3064,N,07726.2628,W,1,06,1.56,168.8,M,-34.4,M,,*50
$GPRMC,162007.750,A,4308.3064,N,07726.2628,W,0.05,338.97,170823,,,A*74
$GPGGA,162008.000,4308.3064,N,07726.2628,W,1,06,1.56,168.8,M,-34.4,M,,*5A
$GPRMC,162008.250,A,4308.3064,N,07726.2628,W,0.09,332.88,170823,,,A*76
$GPGGA,162008.500,4308.3064,N,07726.2628,W,1,06,1.56,168.8,M,-34.4,M,,*5F
$GPRMC,162008.750,A,4308.3064,N,07726.2628,W,0.13,273.12,170823,,,A*7F
$GPGGA,162009.000,4308.3064,N,07726.2628,W,1,06,1.56,168.8,M,-34.4,M,,*5B
$GPRMC,162009.250,A,4308.3064,N,07726.2628,W,0.14,302.72,170823,,,A*7D
$GPGGA,162009.500,4308.3064,N,07726.2628,W,1,06,1.56,168.8,M,-34.4,M,,*5E
$GPRMC,162009.750,A,4308.3064,N,07726.2629,W,0.16,341.22,170823,,,A*79
$GPGGA,162010.000,4308.3065,N,07726.2629,W,1,06,1.56,168.8,M,-34.4,M,,*53
$GPRMC,162010.250,A,4308.3065,N,07726.2629,W,0.19,340.11,170823,,,A*7B
$GPGGA,162010.500,4308.3065,N,07726.2629,W,1,06,1.56,168.8,M,-34.4,M,,*56
$GPRMC,162010.750,A,4308.3065,N,07726.2629,W,0.22,349.41,170823,,,A*7A
$GPGGA,162011.000,4308.3065,N,07726.2629,W,1,06,1.79,168.8,M,-34.4,M,,*5F
$GPRMC,162011.250,A,4308.3065,N,07726.2629,W,0.20,5.55,170823,,,A*72
$GPGGA,162011.500,4308.3065,N,07726.2629,W,1,06,1.79,168.8,M,-34.4,M,,*5A
$GPRMC,162011.750,A,4308.3065,N,07726.2629,W,0.22,315.39,170823,,,A*7D
$GPGGA,162012.000,4308.3066,N,07726.2629,W,1,06,1.56,168.8,M,-34.4,M,,*52
$GPRMC,162012.250,A,4308.3066,N,07726.2629,W,0.19,317.76,170823,,,A*79
$GPGGA,162012.500,4308.3066,N,07726.2629,W,1,06,1.56,168.8,M,-34.4,M,,*57
$GPRMC,162012.750,A,4308.3066,N,07726.2629,W,0.14,340.56,170823,,,A*71
$GPGGA,162013.000,4308.3066,N,07726.2629,W,1,06,1.56,168.8,M,-34.4,M,,*53
$GPRMC,162013.250,A,4308.3066,N,07726.2629,W,0.14,326.73,170823,,,A*72
$GPGGA,162013.500,4308.3066,N,07726.2629,W,1,06,1.56,168.8,M,-34.4,M,,*56
$GPRMC,162013.750,A,4308.3066,N,07726.2630,W,0.18,297.43,170823,,,A*7B
$GPGGA,162014.000,4308.3066,N,07726.2630,W,1,06,1.56,168.8,M,-34.4,M,,*5C
$GPRMC,162014.250,A,4308.3066,N,07726.2630,W,0.07,218.80,170823,,,A*7F
$GPGGA,162014.500,4308.3066,N,07726.2630,W,1,06,1.56,168.8,M,-34.4,M,,*59
$GPRMC,162014.750,A,4308.3066,N,07726.2630,W,0.14,194.52,170823,,,A*70
$GPGGA,162015.000,4308.3066,N,07726.2630,W,1,06,1.56,168.8,M,-34.4,M,,*5D
$GPRMC,162015.250,A,4308.3066,N,07726.2630,W,0.10,213.26,170823,,,A*7F
$GPGGA,162015.500,4308.3066,N,07726.2630,W,1,06,1.56,168.8,M,-34.4,M,,*58
$GPRMC,162015.750,A,4308.3066,N,07726.2630,W,0.14,260.15,170823,,,A*7A
$GPGGA,162016.000,4308.3066,N,07726.2630,W,1,06,1.56,168.8,M,-34.4,M,,*5E
$GPRMC,162016.250,A,4308.3066,N,07726.2630,W,0.16,226.48,170823,,,A*74
$GPGGA,162016.500,4308.3066,N,07726.2630,W,1,06,1.79,168.8,M,-34.4,M,,*56
$GPRMC,162016.750,A,4308.3066,N,07726.2630,W,0.03,224.89,170823,,,A*7A
$GPGGA,162017.000,4308.3066,N,07726.2630,W,1,06,1.79,168.8,M,-34.4,M,,*52
$GPRMC,162017.250,A,4308.3066,N,07726.2630,W,0.03,113.41,170823,,,A*7D
$GPGGA,162017.500,4308.3066,N,07726.2630,W,1,06,1.79,168.8,M,-34.4,M,,*57
$GPRMC,162017.750,A,4308.3066,N,07726.2630,W,0.03,83.37,170823,,,A*41
$GPGGA,162018.000,4308.3066,N,07726.2630,W,1,06,1.79,168.8,M,-34.4,M,,*5D
$GPRMC,162018.250,A,4308.3066,N,07726.2630,W,0.05,58.72,170823,,,A*4A
$GPGGA,162018.500,4308.3066,N,07726.2630,W,1,06,1.79,168.8,M,-34.4,M,,*58
$GPRMC,162018.750,A,4308.3066,N,07726.2630,W,0.02,13.47,170823,,,A*41
$GPGGA,162019.000,4308.3066,N,07726.2630,W,1,06,1.79,168.8,M,-34.4,M,,*5C
$GPRMC,162019.250,A,4308.3066,N,07726.2630,W,0.03,33.80,170823,,,A*4D
$GPGGA,162019.500,4308.3066,N,07726.2630,W,1,06,1.79,168.8,M,-34.4,M,,*59
$GPRMC,162019.750,A,4308.3066,N,07726.2630,W,0.02,25.85,170823,,,A*4B
$GPGGA,162020.000,4308.3066,N,07726.2630,W,1,06,1.79,168.8,M,-34.4,M,,*56
$GPRMC,162020.250,A,4308.3066,N,07726.2630,W,0.01,204.80,170823,,,A*73
$GPGGA,162020.500,4308.3066,N,07726.2630,W,1,06,1.79,168.8,M,-34.4,M,,*53
$GPRMC,162020.750,A,4308.3066,N,07726.2630,W,0.01,14.20,170823,,,A*4F
$GPGGA,162021.000,4308.3066,N,07726.2630,W,1,06,1.79,168.8,M,-34.4,M,,*57
$GPRMC,162021.250,A,4308.3066,N,07726.2630,W,0.02,30.13,170823,,,A*4E
$GPGGA,162021.500,4308.3066,N,07726.2630,W,1,06,1.79,168.8,M,-34.4,M,,*52
$GPRMC,162021.750,A,4308.3066,N,07726.2630,W,0.01,186.03,170823,,,A*75
$GPGGA,162022.000,4308.3066,N,07726.2630,W,1,06,1.79,168.8,M,-34.4,M,,*54
$GPRMC,162022.250,A,4308.3066,N,07726.2630,W,0.01,252.86,170823,,,A*74
$GPGGA,162022.500,4308.3066,N,07726.2630,W,1,06,1.79,168.8,M,-34.4,M,,*51
$GPRMC,162022.750,A,4308.3066,N,07726.2630,W,0.01,315.19,170823,,,A*75
$GPGGA,162023.000,4308.3066,N,07726.2630,W,1,06,1.79,168.8,M,-34.4,M,,*55
$GPRMC,162023.250,A,4308.3066,N,07726.2630,W,0.01,347.89,170823,,,A*7F
$GPGGA,162023.500,4308.3066,N,07726.2630,W,1,06,1.79,168.8,M,-34.4,M,,*50
$GPRMC,162023.750,A,4308.3066,N,07726.2630,W,0.02,228.27,170823,,,A*75
$GPGGA,162024.000,4308.3066,N,07726.2630,W,1,06,1.79,168.8,M,-34.4,M,,*52
$GPRMC,162024.250,A,4308.3066,N,07726.2630,W,0.02,299.08,170823,,,A*70
$GPGGA,162024.500,4308.3066,N,07726.2630,W,1,06,1.79,168.7,M,-34.4,M,,*58
$GPRMC,162024.750,A,4308.3066,N,07726.2630,W,0.01,189.79,170823,,,A*72
$GPGGA,162025.000,4308.3066,N,07726.2630,W,1,06,1.79,168.7,M,-34.4,M,,*5C
$GPRMC,162025.250,A,4308.3066,N,07726.2630,W,0.00,88.11,170823,,,A*49
$GPGGA,162025.500,4308.3066,N,07726.2630,W,1,06,1.79,168.7,M,-34.4,M,,*59
$GPRMC,162025.750,A,4308.3066,N,07726.2630,W,0.01,121.74,170823,,,A*7C
$GPGGA,162026.000,4308.3066,N,07726.2630,W,1,06,1.79,168.7,M,-34.4,M,,*5F
$GPRMC,162026.250,A,4308.3066,N,07726.2630,W,0.01,2.55,170823,,,A*79
$GPGGA,162026.500,4308.3066,N,07726.2630,W,1,07,1.51,168.7,M,-34.4,M,,*51
$GPRMC,162026.750,A,4308.3066,N,07726.2630,W,0.02,49.91,170823,,,A*48
$GPGGA,162027.000,4308.3066,N,07726.2630,W,1,07,1.51,168.7,M,-34.4,M,,*55
$GPRMC,162027.250,A,4308.3066,N,07726.2630,W,0.01,130.70,170823,,,A*7F
$GPGGA,162027.500,4308.3066,N,07726.2630,W,1,07,1.51,168.7,M,-34.4,M,,*50
$GPRMC,162027.750,A,4308.3066,N,07726.2630,W,0.01,238.43,170823,,,A*71
$GPGGA,162028.000,4308.3066,N,07726.2630,W,1,07,1.51,168.7,M,-34.4,M,,*5A
$GPRMC,162028.250,A,4308.3066,N,07726.2630,W,0.01,173.71,170823,,,A*76
$GPGGA,162028.500,4308.3066,N,07726.2630,W,1,07,1.51,168.7,M,-34.4,M,,*5F
$GPRMC,162028.750,A,4308.3066,N,07726.2630,W,0.01,68.91,170823,,,A*46
$GPGGA,162029.000,4308.3066,N,07726.2630,W,1,07,1.51,168.7,M,-34.4,M,,*5B
$GPRMC,162029.250,A,4308.3066,N,07726.2630,W,0.00,0.00,170823,,,A*75
$GPGGA,162029.500,4308.3066,N,07726.2630,W,1,07,1.51,168.7,M,-34.4,M,,*5E
$GPRMC,162029.750,A,4308.3066,N,07726.2630,W,0.00,0.00,170823,,,A*70
$GPGGA,162030.000,4308.3066,N,07726.2630,W,1,07,1.51,168.7,M,-34.4,M,,*53
$GPRMC,162030.250,A,4308.3066,N,07726.2630,W,0.00,0.00,170823,,,A*7D
$GPGGA,162030.500,4308.3066,N,07726.2630,W,1,07,1.51,168.7,M,-34.4,M,,*56
$GPRMC,162030.750,A,4308.3066,N,07726.2630,W,0.00,60.71,170823,,,A*48
$GPGGA,162031.000,4308.3066,N,07726.2630,W,1,07,1.51,168.7,M,-34.4,M,,*52
$GPRMC,162031.250,A,4308.3066,N,07726.2630,W,0.00,0.00,170823,,,A*7C
$GPGGA,162031.500,4308.3066,N,07726.2630,W,1,07,1.51,168.7,M,-34.4,M,,*57
$GPRMC,162031.750,A,4308.3066,N,07726.2630,W,0.00,256.21,170823,,,A*7B
$GPGGA,162032.000,4308.3066,N,07726.2630,W,1,07,1.51,168.7,M,-34.4,M,,*51
$GPRMC,162032.250,A,4308.3066,N,07726.2630,W,0.01,113.67,170823,,,A*7C
$GPGGA,162032.500,4308.3066,N,07726.2630,W,1,07,1.51,168.7,M,-34.4,M,,*54
$GPRMC,162032.750,A,4308.3066,N,07726.2630,W,0.00,0.00,170823,,,A*7A
$GPGGA,162033.000,4308.3066,N,07726.2630,W,1,07,1.51,168.7,M,-34.4,M,,*50
$GPRMC,162033.250,A,4308.3066,N,07726.2630,W,0.00,172.47,170823,,,A*79
$GPGGA,162033.500,4308.3066,N,07726.2630,W,1,07,1.51,168.7,M,-34.4,M,,*55
$GPRMC,162033.750,A,4308.3066,N,07726.2630,W,0.00,69.92,170823,,,A*4F
$GPGGA,162034.000,4308.3066,N,07726.2630,W,1,07,1.51,168.7,M,-34.4,M,,*57
$GPRMC,162034.250,A,4308.3066,N,07726.2630,W,0.00,87.51,170823,,,A*42
$GPGGA,162034.500,4308.3066,N,07726.2630,W,1,07,1.51,168.7,M,-34.4,M,,*52
$GPRMC,162034.750,A,4308.3066,N,07726.2630,W,0.00,0.00,170823,,,A*7C
$GPGGA,162035.000,4308.3066,N,07726.2630,W,1,07,1.51,168.7,M,-34.4,M,,*56
$GPRMC,162035.250,A,4308.3066,N,07726.2630,W,0.00,230.86,170823,,,A*77
$GPGGA,162035.500,4308.3066,N,07726.2630,W,1,07,1.51,168.7,M,-34.4,M,,*53
$GPRMC,162035.750,A,4308.3066,N,07726.2630,W,0.00,183.05,170823,,,A*72
$GPGGA,162036.000,4308.3066,N,07726.2630,W,1,07,1.51,168.7,M,-34.4,M,,*55
$GPRMC,162036.250,A,4308.3066,N,07726.2630,W,0.00,240.75,170823,,,A*7F
$GPGGA,162036.500,4308.3066,N,07726.2630,W,1,07,1.51,168.7,M,-34.4,M,,*50
$GPRMC,162036.750,A,4308.3066,N,07726.2630,W,0.00,172.80,170823,,,A*72
$GPGGA,162037.000,4308.3066,N,07726.2630,W,1,07,1.51,168.7,M,-34.4,M,,*54
$GPRMC,162037.250,A,4308.3066,N,07726.2630,W,0.00,182.36,170823,,,A*74
$GPGGA,162037.500,4308.3066,N,07726.2630,W,1,07,1.51,168.7,M,-34.4,M,,*51
$GPRMC,162037.750,A,4308.3066,N,07726.2630,W,0.00,230.03,170823,,,A*7D
$GPGGA,162038.000,4308.3066,N,07726.2630,W,1,07,1.51,168.7,M,-34.4,M,,*5B
$GPRMC,162038.250,A,4308.3066,N,07726.2630,W,0.00,275.90,170823,,,A*7C
$GPGGA,162038.500,4308.3066,N,07726.2630,W,1,07,1.51,168.7,M,-34.4,M,,*5E
$GPRMC,162038.750,A,4308.3066,N,07726.2630,W,0.00,123.18,170823,,,A*79
$GPGGA,162039.000,4308.3066,N,07726.2630,W,1,07,1.51,168.7,M,-34.4,M,,*5A
$GPRMC,162039.250,A,4308.3066,N,07726.2630,W,0.01,94.38,170823,,,A*43
$GPGGA,162039.500,4308.3066,N,07726.2630,W,1,07,1.51,168.7,M,-34.4,M,,*5F
$GPRMC,162039.750,A,4308.3066,N,07726.2630,W,0.00,312.22,170823,,,A*71
$GPGGA,162040.000,4308.3066,N,07726.2630,W,1,07,1.51,168.7,M,-34.4,M,,*54
$GPRMC,162040.250,A,4308.3066,N,07726.2630,W,0.01,270.80,170823,,,A*76
$GPGGA,162040.500,4308.3066,N,07726.2630,W,1,07,1.51,168.7,M,-34.4,M,,*51
$GPRMC,162040.750,A,4308.3066,N,07726.2630,W,0.00,297.78,170823,,,A*7C
$GPGGA,162041.000,4308.3066,N,07726.2630,W,1,07,1.51,168.7,M,-34.4,M,,*55
$GPRMC,162041.250,A,4308.3066,N,07726.2630,W,0.01,242.41,170823,,,A*7B
$GPGGA,162041.500,4308.3066,N,07726.2630,W,1,07,1.51,168.7,M,-34.4,M,,*50
$GPRMC,162041.750,A,4308.3066,N,07726.2630,W,0.01,153.84,170823,,,A*74
$GPGGA,162042.000,4308.3066,N,07726.2630,W,1,07,1.51,168.7,M,-34.4,M,,*56
$GPRMC,162042.250,A,4308.3066,N,07726.2630,W,0.00,0.00,170823,,,A*78
$GPGGA,162042.500,4308.3066,N,07726.2630,W,1,07,1.51,168.7,M,-34.4,M,,*53
$GPRMC,162042.750,A,4308.3066,N,07726.2630,W,0.00,0.00,170823,,,A*7D
$GPGGA,162043.000,4308.3066,N,07726.2630,W,1,07,1.51,168.7,M,-34.4,M,,*57
$GPRMC,162043.250,A,4308.3066,N,07726.2630,W,0.00,105.06,170823,,,A*7B
$GPGGA,162043.500,4308.3066,N,07726.2630,W,1,07,1.51,168.7,M,-34.4,M,,*52
$GPRMC,162043.750,A,4308.3066,N,07726.2630,W,0.01,240.69,170823,,,A*74
$GPGGA,162044.000,4308.3066,N,07726.2630,W,1,07,1.51,168.7,M,-34.4,M,,*50
$GPRMC,162044.250,A,4308.3066,N,07726.2630,W,0.00,357.05,170823,,,A*7A
$GPGGA,162044.500,4308.3066,N,07726.2630,W,1,07,1.51,168.7,M,-34.4,M,,*55
$GPRMC,162044.750,A,4308.3066,N,07726.2630,W,0.01,164.29,170823,,,A*72
$GPGGA,162045.000,4308.3066,N,07726.2630,W,1,07,1.51,168.7,M,-34.4,M,,*51
$GPRMC,162045.250,A,4308.3066,N,07726.2630,W,0.01,306.08,170823,,,A*73
$GPGGA,162045.500,4308.3066,N,07726.2630,W,1,07,1.51,168.7,M,-34.4,M,,*54
$GPRMC,162045.750,A,4308.3066,N,07726.2630,W,0.01,188.29,170823,,,A*71
$GPGGA,162046.000,4308.3066,N,07726.2630,W,1,07,1.51,168.7,M,-34.4,M,,*52
$GPRMC,162046.250,A,4308.3066,N,07726.2630,W,0.00,100.26,170823,,,A*79
$GPGGA,162046.500,4308.3066,N,07726.2630,W,1,07,1.51,168.7,M,-34.4,M,,*57
$GPRMC,162046.750,A,4308.3066,N,07726.2630,W,0.00,340.66,170823,,,A*7E
$GPGGA,162047.000,4308.3066,N,07726.2630,W,1,07,1.51,168.7,M,-34.4,M,,*53
$GPRMC,162047.250,A,4308.3066,N,07726.2630,W,0.01,48.35,170823,,,A*46
$GPGGA,162047.500,4308.3066,N,07726.2630,W,1,07,1.51,168.7,M,-34.4,M,,*56
$GPRMC,162047.750,A,4308.3066,N,07726.2630,W,0.01,28.50,170823,,,A*46
$GPGGA,162048.000,4308.3066,N,07726.2630,W,1,07,1.51,168.7,M,-34.4,M,,*5C
$GPRMC,162048.250,A,4308.3066,N,07726.2630,W,0.00,0.00,170823,,,A*72
$GPGGA,162048.500,4308.3066,N,07726.2630,W,1,07,1.51,168.7,M,-34.4,M,,*59
$GPRMC,162048.750,A,4308.3066,N,07726.2630,W,0.00,256.69,170823,,,A*79
$GPGGA,162049.000,4308.3066,N,07726.2630,W,1,07,1.51,168.7,M,-34.4,M,,*5D
$GPRMC,162049.250,A,4308.3066,N,07726.2630,W,0.00,336.01,170823,,,A*74
$GPGGA,162049.500,4308.3066,N,07726.2630,W,1,07,1.51,168.7,M,-34.4,M,,*58
$GPRMC,162049.750,A,4308.3066,N,07726.2630,W,0.01,29.11,170823,,,A*4C
$GPGGA,162050.000,4308.3066,N,07726.2630,W,1,07,1.51,168.7,M,-34.4,M,,*55
$GPRMC,162050.250,A,4308.3066,N,07726.2630,W,0.01,66.14,170823,,,A*4F
$GPGGA,162050.500,4308.3066,N,07726.2630,W,1,07,1.51,168.7,M,-34.4,M,,*50
$GPRMC,162050.750,A,4308.3066,N,07726.2630,W,0.00,0.00,170823,,,A*7E
$GPGGA,162051.000,4308.3066,N,07726.2630,W,1,07,1.51,168.7,M,-34.4,M,,*54
$GPRMC,162051.250,A,4308.3066,N,07726.2630,W,0.00,0.00,170823,,,A*7A
$GPGGA,162051.500,4308.3066,N,07726.2630,W,1,07,1.51,168.7,M,-34.4,M,,*51
$GPRMC,162051.750,A,4308.3066,N,07726.2630,W,0.01,62.20,170823,,,A*48
$GPGGA,162052.000,4308.3066,N,07726.2630,W,1,07,1.51,168.7,M,-34.4,M,,*57
$GPRMC,162052.250,A,4308.3066,N,07726.2630,W,0.01,14.53,170823,,,A*4B
$GPGGA,162052.500,4308.3066,N,07726.2630,W,1,07,1.51,168.7,M,-34.4,M,,*52
$GPRMC,162052.750,A,4308.3066,N,07726.2630,W,0.01,183.80,170823,,,A*7F
$GPGGA,162053.000,4308.3066,N,07726.2630,W,1,07,1.51,168.7,M,-34.4,M,,*56
$GPRMC,162053.250,A,4308.3066,N,07726.2630,W,0.00,337.37,170823,,,A*7B
$GPGGA,162053.500,4308.3066,N,07726.2630,W,1,07,1.51,168.7,M,-34.4,M,,*53
$GPRMC,162053.750,A,4308.3066,N,07726.2630,W,0.00,23.00,170823,,,A*4C
$GPGGA,162054.000,4308.3066,N,07726.2630,W,1,07,1.51,168.7,M,-34.4,M,,*51
$GPRMC,162054.250,A,4308.3066,N,07726.2630,W,0.00,184.00,170823,,,A*72
$GPGGA,162054.500,4308.3066,N,07726.2630,W,1,07,1.51,168.7,M,-34.4,M,,*54
$GPRMC,162054.750,A,4308.3066,N,07726.2630,W,0.01,147.35,170823,,,A*7F
$GPGGA,162055.000,4308.3066,N,07726.2630,W,1,07,1.51,168.7,M,-34.4,M,,*50
$GPRMC,162055.250,A,4308.3066,N,07726.2630,W,0.00,103.68,170823,,,A*72
$GPGGA,162055.500,4308.3066,N,07726.2630,W,1,07,1.51,168.7,M,-34.4,M,,*55
$GPRMC,162055.750,A,4308.3066,N,07726.2630,W,0.01,4.90,170823,,,A*77
$GPGGA,162056.000,4308.3066,N,07726.2630,W,1,07,1.51,168.7,M,-34.4,M,,*53
$GPRMC,162056.250,A,4308.3066,N,07726.2630,W,0.00,301.44,170823,,,A*7F
$GPGGA,162056.500,4308.3066,N,07726.2630,W,1,07,1.51,168.7,M,-34.4,M,,*56
$GPRMC,162056.750,A,4308.3066,N,07726.2630,W,0.01,347.02,170823,,,A*7B
$GPGGA,162057.000,4308.3066,N,07726.2630,W,1,07,1.51,168.7,M,-34.4,M,,*52
$GPRMC,162057.250,A,4308.3066,N,07726.2630,W,0.01,157.98,170823,,,A*7F
$GPGGA,162057.500,4308.3066,N,07726.2630,W,1,07,1.51,168.7,M,-34.4,M,,*57
$GPRMC,162057.750,A,4308.3066,N,07726.2630,W,0.00,0.92,170823,,,A*72
$GPGGA,162058.000,4308.3066,N,07726.2630,W,1,07,1.51,168.7,M,-34.4,M,,*5D
$GPRMC,162058.250,A,4308.3066,N,07726.2630,W,0.00,322.06,170823,,,A*76
$GPGGA,162058.500,4308.3066,N,07726.2630,W,1,07,1.51,168.7,M,-34.4,M,,*58
$GPRMC,162058.750,A,4308.3066,N,07726.2630,W,0.01,184.34,170823,,,A*7D
$GPGGA,162059.000,4308.3066,N,07726.2630,W,1,07,1.51,168.7,M,-34.4,M,,*5C
$GPRMC,162059.250,A,4308.3066,N,07726.2630,W,0.00,283.43,170823,,,A*7C
$GPGGA,162059.500,4308.3066,N,07726.2630,W,1,07,1.51,168.7,M,-34.4,M,,*59
$GPRMC,162059.750,A,4308.3066,N,07726.2630,W,0.00,274.67,170823,,,A*77
$GPGGA,162100.000,4308.3066,N,07726.2630,W,1,07,1.51,168.7,M,-34.4,M,,*51
$GPRMC,162100.250,A,4308.3066,N,07726.2630,W,0.01,57.40,170823,,,A*48
$GPGGA,162100.500,4308.3066,N,07726.2630,W,1,07,1.51,168.7,M,-34.4,M,,*54
$GPRMC,162100.750,A,4308.3066,N,07726.2630,W,0.00,159.56,170823,,,A*74
$GPGGA,162101.000,4308.3066,N,07726.2630,W,1,07,1.51,168.7,M,-34.4,M,,*50
$GPRMC,162101.250,A,4308.3066,N,07726.2630,W,0.01,337.06,170823,,,A*7E
$GPGGA,162101.500,4308.3066,N,07726.2630,W,1,07,1.51,168.7,M,-34.4,M,,*55
$GPRMC,162101.750,A,4308.3066,N,07726.2630,W,0.01,91.15,170823,,,A*46
$GPGGA,162102.000,4308.3066,N,07726.2630,W,1,07,1.51,168.7,M,-34.4,M,,*53
$GPRMC,162102.250,A,4308.3066,N,07726.2630,W,0.00,148.86,170823,,,A*7E
$GPGGA,162102.500,4308.3066,N,07726.2630,W,1,07,1.51,168.7,M,-34.4,M,,*56
$GPRMC,162102.750,A,4308.3066,N,07726.2630,W,0.01,116.87,170823,,,A*70
$GPGGA,162103.000,4308.3066,N,07726.2630,W,1,07,1.51,168.7,M,-34.4,M,,*52
$GPRMC,162103.250,A,4308.3066,N,07726.2630,W,0.00,98.55,170823,,,A*4D
$GPGGA,162103.500,4308.3066,N,07726.2630,W,1,07,1.51,168.6,M,-34.4,M,,*56
$GPRMC,162103.750,A,4308.3066,N,07726.2630,W,0.01,53.34,170823,,,A*49
$GPGGA,162104.000,4308.3066,N,07726.2630,W,1,07,1.51,168.6,M,-34.4,M,,*54
$GPRMC,162104.250,A,4308.3066,N,07726.2630,W,0.01,338.56,170823,,,A*71
$GPGGA,162104.500,4308.3066,N,07726.2630,W,1,07,1.51,168.6,M,-34.4,M,,*51
$GPRMC,162104.750,A,4308.3066,N,07726.2630,W,0.01,237.85,170823,,,A*74
$GPGGA,162105.000,4308.3066,N,07726.2630,W,1,07,1.51,168.6,M,-34.4,M,,*55
$GPRMC,162105.250,A,4308.3066,N,07726.2630,W,0.01,325.68,170823,,,A*71
$GPGGA,162105.500,4308.3066,N,07726.2630,W,1,07,1.51,168.6,M,-34.4,M,,*50
$GPRMC,162105.750,A,4308.3066,N,07726.2630,W,0.01,291.80,170823,,,A*7C
$GPGGA,162106.000,4308.3066,N,07726.2630,W,1,07,1.51,168.6,M,-34.4,M,,*56
$GPRMC,162106.250,A,4308.3066,N,07726.2630,W,0.00,255.04,170823,,,A*7F
$GPGGA,162106.500,4308.3066,N,07726.2630,W,1,07,1.51,168.6,M,-34.4,M,,*53
$GPRMC,162106.750,A,4308.3066,N,07726.2630,W,0.01,357.36,170823,,,A*79
$GPGGA,162107.000,4308.3065,N,07726.2630,W,1,07,1.51,168.6,M,-34.4,M,,*54
$GPRMC,162107.250,A,4308.3065,N,07726.2630,W,0.00,286.28,170823,,,A*7D
$GPGGA,162107.500,4308.3065,N,07726.2630,W,1,07,1.51,168.6,M,-34.4,M,,*51
$GPRMC,162107.750,A,4308.3065,N,07726.2630,W,0.01,166.72,170823,,,A*7B
$GPGGA,162108.000,4308.3065,N,07726.2630,W,1,07,1.51,168.6,M,-34.4,M,,*5B
$GPRMC,162108.250,A,4308.3065,N,07726.2630,W,0.00,0.00,170823,,,A*74
$GPGGA,162108.500,4308.3065,N,07726.2630,W,1,07,1.51,168.6,M,-34.4,M,,*5E
$GPRMC,162108.750,A,4308.3065,N,07726.2630,W,0.00,199.70,170823,,,A*77
$GPGGA,162109.000,4308.3065,N,07726.2630,W,1,07,1.51,168.6,M,-34.4,M,,*5A
$GPRMC,162109.250,A,4308.3065,N,07726.2629,W,0.01,73.64,170823,,,A*4A
$GPGGA,162109.500,4308.3065,N,07726.2629,W,1,07,1.51,168.6,M,-34.4,M,,*57
$GPRMC,162109.750,A,4308.3065,N,07726.2629,W,0.00,334.80,170823,,,A*74
$GPGGA,162110.000,4308.3065,N,07726.2629,W,1,07,1.51,168.6,M,-34.4,M,,*5A
$GPRMC,162110.250,A,4308.3065,N,07726.2629,W,0.01,341.61,170823,,,A*75
$GPGGA,162110.500,4308.3065,N,07726.2629,W,1,07,1.51,168.6,M,-34.4,M,,*5F
$GPRMC,162110.750,A,4308.3065,N,07726.2629,W,0.01,141.89,170823,,,A*74
$GPGGA,162111.000,4308.3065,N,07726.2629,W,1,07,1.51,168.6,M,-34.4,M,,*5B
$GPRMC,162111.250,A,4308.3065,N,07726.2629,W,0.01,244.64,170823,,,A*75
$GPGGA,162111.500,4308.3065,N,07726.2629,W,1,07,1.51,168.6,M,-34.4,M,,*5E
$GPRMC,162111.750,A,4308.3065,N,07726.2629,W,0.01,187.24,170823,,,A*78
$GPGGA,162112.000,4308.3065,N,07726.2629,W,1,07,1.51,168.6,M,-34.4,M,,*58
$GPRMC,162112.250,A,4308.3065,N,07726.2629,W,0.00,50.15,170823,,,A*46
$GPGGA,162112.500,4308.3065,N,07726.2629,W,1,07,1.51,168.6,M,-34.4,M,,*5D
$GPRMC,162112.750,A,4308.3065,N,07726.2629,W,0.02,191.51,170823,,,A*7D
$GPGGA,162113.000,4308.3065,N,07726.2629,W,1,07,1.51,168.6,M,-34.4,M,,*59
$GPRMC,162113.250,A,4308.3065,N,07726.2629,W,0.00,0.00,170823,,,A*76
$GPGGA,162113.500,4308.3065,N,07726.2629,W,1,07,1.51,168.6,M,-34.4,M,,*5C
$GPRMC,162113.750,A,4308.3065,N,07726.2629,W,0.01,55.95,170823,,,A*4E
$GPGGA,162114.000,4308.3065,N,07726.2629,W,1,07,1.51,168.6,M,-34.4,M,,*5E
$GPRMC,162114.250,A,4308.3065,N,07726.2629,W,0.01,63.17,170823,,,A*43
$GPGGA,162114.500,4308.3065,N,07726.2629,W,1,07,1.51,168.6,M,-34.4,M,,*5B
$GPRMC,162114.750,A,4308.3065,N,07726.2629,W,0.01,295.47,170823,,,A*78
$GPGGA,162115.000,4308.3065,N,07726.2629,W,1,07,1.51,168.6,M,-34.4,M,,*5F
$GPRMC,162115.250,A,4308.3065,N,07726.2629,W,0.01,180.27,170823,,,A*7D
$GPGGA,162115.500,4308.3065,N,07726.2629,W,1,07,1.51,168.6,M,-34.4,M,,*5A
$GPRMC,162115.750,A,4308.3065,N,07726.2629,W,0.00,354.49,170823,,,A*7A
$GPGGA,162116.000,4308.3065,N,07726.2629,W,1,07,1.51,168.6,M,-34.4,M,,*5C
$GPRMC,162116.250,A,4308.3065,N,07726.2629,W,0.01,101.50,170823,,,A*77
$GPGGA,162116.500,4308.3065,N,07726.2629,W,1,07,1.51,168.6,M,-34.4,M,,*59
$GPRMC,162116.750,A,4308.3065,N,07726.2629,W,0.00,126.54,170823,,,A*72
$GPGGA,162117.000,4308.3065,N,07726.2629,W,1,07,1.51,168.6,M,-34.4,M,,*5D
$GPRMC,162117.250,A,4308.3065,N,07726.2629,W,0.01,344.86,170823,,,A*7E
$GPGGA,162117.500,4308.3065,N,07726.2629,W,1,07,1.51,168.6,M,-34.4,M,,*58
$GPRMC,162117.750,A,4308.3065,N,07726.2629,W,0.01,113.59,170823,,,A*79
$GPGGA,162118.000,4308.3065,N,07726.2629,W,1,07,1.51,168.6,M,-34.4,M,,*52
$GPRMC,162118.250,A,4308.3065,N,07726.2629,W,0.00,353.23,170823,,,A*79
$GPGGA,162118.500,4308.3065,N,07726.2629,W,1,07,1.51,168.6,M,-34.4,M,,*57
$GPRMC,162118.750,A,4308.3065,N,07726.2629,W,0.00,65.65,170823,,,A*48
$GPGGA,162119.000,4308.3065,N,07726.2629,W,1,07,1.51,168.6,M,-34.4,M,,*53
$GPRMC,162119.250,A,4308.3065,N,07726.2629,W,0.01,53.89,170823,,,A*4A
$GPGGA,162119.500,4308.3065,N,07726.2629,W,1,07,1.51,168.6,M,-34.4,M,,*56
$GPRMC,162119.750,A,4308.3065,N,07726.2629,W,0.01,200.85,170823,,,A*77
$GPGGA,162120.000,4308.3065,N,07726.2629,W,1,07,1.51,168.6,M,-34.4,M,,*59
$GPRMC,162120.250,A,4308.3065,N,07726.2629,W,0.00,186.89,170823,,,A*78
$GPGGA,162120.500,4308.3065,N,07726.2629,W,1,08,1.41,168.6,M,-34.4,M,,*52
$GPRMC,162120.750,A,4308.3065,N,07726.2629,W,0.02,228.41,170823,,,A*7C
$GPGGA,162121.000,4308.3065,N,07726.2629,W,1,08,1.41,168.6,M,-34.4,M,,*56
$GPRMC,162121.250,A,4308.3065,N,07726.2629,W,0.01,297.00,170823,,,A*7A
$GPGGA,162121.500,4308.3065,N,07726.2629,W,1,08,1.41,168.6,M,-34.4,M,,*53
$GPRMC,162121.750,A,4308.3065,N,07726.2629,W,0.00,311.16,170823,,,A*76
$GPGGA,162122.000,4308.3065,N,07726.2629,W,1,08,1.41,168.6,M,-34.4,M,,*55
$GPRMC,162122.250,A,4308.3065,N,07726.2629,W,0.01,176.86,170823,,,A*7B
$GPGGA,162122.500,4308.3065,N,07726.2629,W,1,08,1.41,168.6,M,-34.4,M,,*50
$GPRMC,162122.750,A,4308.3065,N,07726.2629,W,0.01,36.22,170823,,,A*45
$GPGGA,162123.000,4308.3065,N,07726.2629,W,1,08,1.41,168.6,M,-34.4,M,,*54
$GPRMC,162123.250,A,4308.3065,N,07726.2629,W,0.00,0.00,170823,,,A*75
$GPGGA,162123.500,4308.3065,N,07726.2629,W,1,08,1.41,168.6,M,-34.4,M,,*51
$GPRMC,162123.750,A,4308.3065,N,07726.2629,W,0.00,188.07,170823,,,A*76
$GPGGA,162124.000,4308.3065,N,07726.2629,W,1,08,1.41,168.6,M,-34.4,M,,*53
$GPRMC,162124.250,A,4308.3065,N,07726.2629,W,0.00,182.93,170823,,,A*73
$GPGGA,162124.500,4308.3065,N,07726.2629,W,1,08,1.41,168.6,M,-34.4,M,,*56
$GPRMC,162124.750,A,4308.3065,N,07726.2629,W,0.00,266.71,170823,,,A*73
$GPGGA,162125.000,4308.3065,N,07726.2629,W,1,08,1.41,168.6,M,-34.4,M,,*52
$GPRMC,162125.250,A,4308.3065,N,07726.2629,W,0.00,32.99,170823,,,A*42
$GPGGA,162125.500,4308.3065,N,07726.2629,W,1,08,1.41,168.6,M,-34.4,M,,*57
$GPRMC,162125.750,A,4308.3065,N,07726.2629,W,0.00,295.19,170823,,,A*70
$GPGGA,162126.000,4308.3065,N,07726.2629,W,1,08,1.41,168.6,M,-34.4,M,,*51
$GPRMC,162126.250,A,4308.3065,N,07726.2629,W,0.00,265.81,170823,,,A*78
$GPGGA,162126.500,4308.3065,N,07726.2629,W,1,08,1.41,168.6,M,-34.4,M,,*54
$GPRMC,162126.750,A,4308.3065,N,07726.2629,W,0.00,0.00,170823,,,A*75
$GPGGA,162127.000,4308.3065,N,07726.2629,W,1,08,1.41,168.6,M,-34.4,M,,*50
$GPRMC,162127.250,A,4308.3065,N,07726.2629,W,0.00,85.89,170823,,,A*4D
$GPGGA,162127.500,4308.3065,N,07726.2629,W,1,08,1.41,168.6,M,-34.4,M,,*55
$GPRMC,162127.750,A,4308.3065,N,07726.2629,W,0.00,116.79,170823,,,A*7C
$GPGGA,162128.000,4308.3065,N,07726.2629,W,1,08,1.41,168.6,M,-34.4,M,,*5F
$GPRMC,162128.250,A,4308.3065,N,07726.2629,W,0.00,203.71,170823,,,A*79
$GPGGA,162128.500,4308.3065,N,07726.2629,W,1,08,1.41,168.6,M,-34.4,M,,*5A
$GPRMC,162128.750,A,4308.3065,N,07726.2629,W,0.00,152.26,170823,,,A*79
$GPGGA,162129.000,4308.3065,N,07726.2629,W,1,08,1.41,168.6,M,-34.4,M,,*5E
$GPRMC,162129.250,A,4308.3065,N,07726.2629,W,0.00,105.52,170823,,,A*7C
$GPGGA,162129.500,4308.3065,N,07726.2629,W,1,08,1.41,168.6,M,-34.4,M,,*5B
$GPRMC,162129.750,A,4308.3065,N,07726.2629,W,0.00,200.79,170823,,,A*76
$GPGGA,162130.000,4308.3065,N,07726.2629,W,1,08,1.41,168.6,M,-34.4,M,,*56
$GPRMC,162130.250,A,4308.3065,N,07726.2629,W,0.00,198.26,170823,,,A*73
$GPGGA,162130.500,4308.3065,N,07726.2629,W,1,08,1.41,168.6,M,-34.4,M,,*53
$GPRMC,162130.750,A,4308.3065,N,07726.2629,W,0.01,286.80,170823,,,A*77
$GPGGA,162131.000,4308.3065,N,07726.2629,W,1,08,1.41,168.6,M,-34.4,M,,*57
$GPRMC,162131.250,A,4308.3065,N,07726.2629,W,0.01,338.94,170823,,,A*72
$GPGGA,162131.500,4308.3065,N,07726.2629,W,1,08,1.41,168.6,M,-34.4,M,,*52
$GPRMC,162131.750,A,4308.3065,N,07726.2629,W,0.00,279.93,170823,,,A*75
$GPGGA,162132.000,4308.3065,N,07726.2629,W,1,08,1.41,168.6,M,-34.4,M,,*54
$GPRMC,162132.250,A,4308.3065,N,07726.2629,W,0.00,252.07,170823,,,A*77
$GPGGA,162132.500,4308.3065,N,07726.2629,W,1,08,1.41,168.6,M,-34.4,M,,*51
$GPRMC,162132.750,A,4308.3065,N,07726.2629,W,0.01,306.60,170823,,,A*72
$GPGGA,162133.000,4308.3065,N,07726.2629,W,1,08,1.41,168.6,M,-34.4,M,,*55
$GPRMC,162133.250,A,4308.3065,N,07726.2629,W,0.01,263.36,170823,,,A*77
$GPGGA,162133.500,4308.3065,N,07726.2629,W,1,08,1.41,168.6,M,-34.4,M,,*50
$GPRMC,162133.750,A,4308.3065,N,07726.2629,W,0.01,212.65,170823,,,A*72
$GPGGA,162134.000,4308.3065,N,07726.2629,W,1,08,1.41,168.6,M,-34.4,M,,*52
$GPRMC,162134.250,A,4308.3065,N,07726.2629,W,0.00,355.72,170823,,,A*75
$GPGGA,162134.500,4308.3065,N,07726.2629,W,1,08,1.41,168.6,M,-34.4,M,,*57
$GPRMC,162134.750,A,4308.3065,N,07726.2629,W,0.00,353.92,170823,,,A*78
$GPGGA,162135.000,4308.3065,N,07726.2629,W,1,08,1.41,168.6,M,-34.4,M,,*53
$GPRMC,162135.250,A,4308.3065,N,07726.2629,W,0.01,315.28,170823,,,A*7E
$GPGGA,162135.500,4308.3065,N,07726.2629,W,1,08,1.41,168.6,M,-34.4,M,,*56
$GPRMC,162135.750,A,4308.3065,N,07726.2629,W,0.00,0.00,170823,,,A*77
$GPGGA,162136.000,4308.3065,N,07726.2629,W,1,08,1.41,168.6,M,-34.4,M,,*50
$GPRMC,162136.250,A,4308.3065,N,07726.2629,W,0.00,28.75,170823,,,A*49
$GPGGA,162136.500,4308.3065,N,07726.2629,W,1,08,1.41,168.6,M,-34.4,M,,*55
$GPRMC,162136.750,A,4308.3065,N,07726.2629,W,0.00,300.98,170823,,,A*76
$GPGGA,162137.000,4308.3065,N,07726.2629,W,1,07,1.42,168.6,M,-34.4,M,,*5D
$GPRMC,162137.250,A,4308.3065,N,07726.2629,W,0.01,243.96,170823,,,A*7B
$GPGGA,162137.500,4308.3065,N,07726.2629,W,1,08,1.41,168.6,M,-34.4,M,,*54
$GPRMC,162137.750,A,4308.3065,N,07726.2629,W,0.01,304.04,170823,,,A*77
$GPGGA,162138.000,4308.3065,N,07726.2629,W,1,07,1.42,168.6,M,-34.4,M,,*52
$GPRMC,162138.250,A,4308.3065,N,07726.2629,W,0.01,211.80,170823,,,A*74
$GPGGA,162138.500,4308.3065,N,07726.2629,W,1,08,1.41,168.6,M,-34.4,M,,*5B
$GPRMC,162138.750,A,4308.3065,N,07726.2629,W,0.00,165.39,170823,,,A*72
$GPGGA,162139.000,4308.3065,N,07726.2629,W,1,08,1.41,168.6,M,-34.4,M,,*5F
$GPRMC,162139.250,A,4308.3065,N,07726.2629,W,0.00,87.61,170823,,,A*46
$GPGGA,162139.500,4308.3065,N,07726.2629,W,1,08,1.41,168.6,M,-34.4,M,,*5A
$GPRMC,162139.750,A,4308.3065,N,07726.2629,W,0.01,351.18,170823,,,A*74
$GPGGA,162140.000,4308.3065,N,07726.2629,W,1,08,1.41,168.6,M,-34.4,M,,*51
$GPRMC,162140.250,A,4308.3065,N,07726.2629,W,0.02,96.98,170823,,,A*4C
$GPGGA,162140.500,4308.3065,N,07726.2629,W,1,08,1.41,168.6,M,-34.4,M,,*54
$GPRMC,162140.750,A,4308.3065,N,07726.2629,W,0.01,306.25,170823,,,A*76
$GPGGA,162141.000,4308.3065,N,07726.2629,W,1,08,1.41,168.6,M,-34.4,M,,*50
$GPRMC,162141.250,A,4308.3065,N,07726.2629,W,0.01,325.56,170823,,,A*77
$GPGGA,162141.500,4308.3065,N,07726.2629,W,1,08,1.41,168.6,M,-34.4,M,,*55
$GPRMC,162141.750,A,4308.3065,N,07726.2629,W,0.00,189.84,170823,,,A*78
$GPGGA,162142.000,4308.3065,N,07726.2629,W,1,08,1.41,168.6,M,-34.4,M,,*53
$GPRMC,162142.250,A,4308.3065,N,07726.2629,W,0.01,79.22,170823,,,A*4D
$GPGGA,162142.500,4308.3065,N,07726.2629,W,1,08,1.41,168.6,M,-34.4,M,,*56
$GPRMC,162142.750,A,4308.3065,N,07726.2629,W,0.00,12.33,170823,,,A*44
$GPGGA,162143.000,4308.3065,N,07726.2629,W,1,08,1.41,168.6,M,-34.4,M,,*52
$GPRMC,162143.250,A,4308.3065,N,07726.2629,W,0.00,350.43,170823,,,A*72
$GPGGA,162143.500,4308.3065,N,07726.2629,W,1,08,1.41,168.6,M,-34.4,M,,*57
$GPRMC,162143.750,A,4308.3065,N,07726.2629,W,0.00,317.21,170823,,,A*70
$GPGGA,162144.000,4308.3065,N,07726.2629,W,1,08,1.41,168.6,M,-34.4,M,,*55
$GPRMC,162144.250,A,4308.3065,N,07726.2629,W,0.01,68.57,170823,,,A*49
$GPGGA,162144.500,4308.3065,N,07726.2629,W,1,08,1.41,168.6,M,-34.4,M,,*50
$GPRMC,162144.750,A,4308.3065,N,07726.2629,W,0.00,205.85,170823,,,A*7B
$GPGGA,162145.000,4308.3065,N,07726.2629,W,1,08,1.41,168.6,M,-34.4,M,,*54
$GPRMC,162145.250,A,4308.3065,N,07726.2629,W,0.01,38.03,170823,,,A*4C
$GPGGA,162145.500,4308.3065,N,07726.2629,W,1,08,1.41,168.6,M,-34.4,M,,*51
$GPRMC,162145.750,A,4308.3065,N,07726.2629,W,0.01,153.86,170823,,,A*78
$GPGGA,162146.000,4308.3065,N,07726.2629,W,1,08,1.41,168.6,M,-34.4,M,,*57
$GPRMC,162146.250,A,4308.3065,N,07726.2629,W,0.01,260.44,170823,,,A*73
$GPGGA,162146.500,4308.3065,N,07726.2629,W,1,08,1.41,168.6,M,-34.4,M,,*52
$GPRMC,162146.750,A,4308.3065,N,07726.2629,W,0.01,208.56,170823,,,A*7B
$GPGGA,162147.000,4308.3065,N,07726.2629,W,1,08,1.41,168.6,M,-34.4,M,,*56
$GPRMC,162147.250,A,4308.3065,N,07726.2629,W,0.01,279.17,170823,,,A*7C
$GPGGA,162147.500,4308.3065,N,07726.2629,W,1,08,1.41,168.6,M,-34.4,M,,*53
$GPRMC,162147.750,A,4308.3065,N,07726.2629,W,0.00,318.22,170823,,,A*78
$GPGGA,162148.000,4308.3065,N,07726.2629,W,1,08,1.41,168.6,M,-34.4,M,,*59
$GPRMC,162148.250,A,4308.3065,N,07726.2629,W,0.00,350.89,170823,,,A*7F
$GPGGA,162148.500,4308.3065,N,07726.2629,W,1,08,1.41,168.6,M,-34.4,M,,*5C
$GPRMC,162148.750,A,4308.3065,N,07726.2629,W,0.00,161.24,170823,,,A*7D
$GPGGA,162149.000,4308.3065,N,07726.2629,W,1,08,1.41,168.6,M,-34.4,M,,*58
$GPRMC,162149.250,A,4308.3065,N,07726.2629,W,0.00,316.47,170823,,,A*7E
$GPGGA,162149.500,4308.3065,N,07726.2629,W,1,08,1.41,168.6,M,-34.4,M,,*5D
$GPRMC,162149.750,A,4308.3065,N,07726.2629,W,0.00,340.01,170823,,,A*7A
$GPGGA,162150.000,4308.3065,N,07726.2629,W,1,08,1.41,168.6,M,-34.4,M,,*50
$GPRMC,162150.250,A,4308.3065,N,07726.2629,W,0.01,97.46,170823,,,A*4C
$GPGGA,162150.500,4308.3065,N,07726.2629,W,1,08,1.41,168.6,M,-34.4,M,,*55
$GPRMC,162150.750,A,4308.3065,N,07726.2629,W,0.01,285.14,170823,,,A*7F
$GPGGA,162151.000,4308.3065,N,07726.2629,W,1,08,1.41,168.6,M,-34.4,M,,*51
$GPRMC,162151.250,A,4308.3065,N,07726.2629,W,0.01,224.77,170823,,,A*75
$GPGGA,162151.500,4308.3065,N,07726.2629,W,1,08,1.41,168.6,M,-34.4,M,,*54
$GPRMC,162151.750,A,4308.3065,N,07726.2629,W,0.01,135.21,170823,,,A*70
$GPGGA,162152.000,4308.3065,N,07726.2629,W,1,08,1.41,168.6,M,-34.4,M,,*52
$GPRMC,162152.250,A,4308.3065,N,07726.2629,W,0.02,8.13,170823,,,A*7B
$GPGGA,162152.500,4308.3065,N,07726.2629,W,1,08,1.41,168.6,M,-34.4,M,,*57
$GPRMC,162152.750,A,4308.3065,N,07726.2629,W,0.00,0.00,170823,,,A*76
$GPGGA,162153.000,4308.3065,N,07726.2629,W,1,08,1.41,168.6,M,-34.4,M,,*53
$GPRMC,162153.250,A,4308.3065,N,07726.2629,W,0.00,148.30,170823,,,A*7C
$GPGGA,162153.500,4308.3065,N,07726.2629,W,1,08,1.41,168.6,M,-34.4,M,,*56
$GPRMC,162153.750,A,4308.3065,N,07726.2629,W,0.00,239.93,170823,,,A*75
$GPGGA,162154.000,4308.3065,N,07726.2629,W,1,08,1.41,168.6,M,-34.4,M,,*54
$GPRMC,162154.250,A,4308.3065,N,07726.2629,W,0.01,320.31,170823,,,A*77
$GPGGA,162154.500,4308.3065,N,07726.2629,W,1,08,1.41,168.6,M,-34.4,M,,*51
$GPRMC,162154.750,A,4308.3065,N,07726.2629,W,0.00,106.05,170823,,,A*72
$GPGGA,162155.000,4308.3065,N,07726.2629,W,1,08,1.41,168.6,M,-34.4,M,,*55
$GPRMC,162155.250,A,4308.3065,N,07726.2629,W,0.00,302.56,170823,,,A*76
$GPGGA,162155.500,4308.3065,N,07726.2629,W,1,08,1.41,168.6,M,-34.4,M,,*50
$GPRMC,162155.750,A,4308.3065,N,07726.2629,W,0.00,76.38,170823,,,A*4B
$GPGGA,162156.000,4308.3065,N,07726.2629,W,1,08,1.41,168.6,M,-34.4,M,,*56
$GPRMC,162156.250,A,4308.3065,N,07726.2629,W,0.01,13.10,170823,,,A*45
$GPGGA,162156.500,4308.3065,N,07726.2629,W,1,08,1.41,168.6,M,-34.4,M,,*53
$GPRMC,162156.750,A,4308.3065,N,07726.2629,W,0.01,338.80,170823,,,A*73
$GPGGA,162157.000,4308.3065,N,07726.2629,W,1,08,1.41,168.6,M,-34.4,M,,*57
$GPRMC,162157.250,A,4308.3065,N,07726.2629,W,0.00,295.75,170823,,,A*7A
$GPGGA,162157.500,4308.3065,N,07726.2629,W,1,08,1.41,168.6,M,-34.4,M,,*52
$GPRMC,162157.750,A,4308.3065,N,07726.2629,W,0.01,56.53,170823,,,A*47
$GPGGA,162158.000,4308.3065,N,07726.2629,W,1,08,1.41,168.6,M,-34.4,M,,*58
$GPRMC,162158.250,A,4308.3065,N,07726.2629,W,0.01,101.00,170823,,,A*78
$GPGGA,162158.500,4308.3065,N,07726.2629,W,1,08,1.41,168.6,M,-34.4,M,,*5D
$GPRMC,162158.750,A,4308.3065,N,07726.2629,W,0.02,66.17,170823,,,A*48
$GPGGA,162159.000,4308.3065,N,07726.2629,W,1,08,1.41,168.6,M,-34.4,M,,*59
$GPRMC,162159.250,A,4308.3065,N,07726.2629,W,0.01,33.99,170823,,,A*49
$GPGGA,162159.500,4308.3065,N,07726.2629,W,1,08,1.41,168.6,M,-34.4,M,,*5C
$GPRMC,162159.750,A,4308.3065,N,07726.2629,W,0.01,63.90,170823,,,A*40
$GPGGA,162200.000,4308.3065,N,07726.2629,W,1,08,1.41,168.6,M,-34.4,M,,*56
$GPRMC,162200.250,A,4308.3065,N,07726.2629,W,0.01,68.20,170823,,,A*4A
$GPGGA,162200.500,4308.3065,N,07726.2629,W,1,08,1.41,168.6,M,-34.4,M,,*53
$GPRMC,162200.750,A,4308.3065,N,07726.2629,W,0.00,318.47,170823,,,A*7B
$GPGGA,162201.000,4308.3065,N,07726.2629,W,1,08,1.41,168.6,M,-34.4,M,,*57
$GPRMC,162201.250,A,4308.3065,N,07726.2629,W,0.01,356.79,170823,,,A*79
$GPGGA,162201.500,4308.3065,N,07726.2629,W,1,08,1.41,168.6,M,-34.4,M,,*52
$GPRMC,162201.750,A,4308.3065,N,07726.2629,W,0.01,27.40,170823,,,A*43
$GPGGA,162202.000,4308.3065,N,07726.2629,W,1,08,1.41,168.6,M,-34.4,M,,*54
$GPRMC,162202.250,A,4308.3065,N,07726.2629,W,0.00,155.97,170823,,,A*7A
$GPGGA,162202.500,4308.3065,N,07726.2629,W,1,08,1.41,168.6,M,-34.4,M,,*51
$GPRMC,162202.750,A,4308.3065,N,07726.2629,W,0.01,133.48,170823,,,A*7C
$GPGGA,162203.000,4308.3065,N,07726.2629,W,1,08,1.41,168.6,M,-34.4,M,,*55
$GPRMC,162203.250,A,4308.3065,N,07726.2629,W,0.01,112.18,170823,,,A*7E
$GPGGA,162203.500,4308.3065,N,07726.2629,W,1,08,1.41,168.6,M,-34.4,M,,*50
$GPRMC,162203.750,A,4308.3065,N,07726.2629,W,0.00,118.04,170823,,,A*7D
$GPGGA,162204.000,4308.3065,N,07726.2629,W,1,08,1.41,168.6,M,-34.4,M,,*52
$GPRMC,162204.250,A,4308.3065,N,07726.2629,W,0.01,156.81,170823,,,A*79
$GPGGA,162204.500,4308.3065,N,07726.2629,W,1,08,1.41,168.6,M,-34.4,M,,*57
$GPRMC,162204.750,A,4308.3065,N,07726.2629,W,0.01,60.38,170823,,,A*4A
$GPGGA,162205.000,4308.3065,N,07726.2629,W,1,08,1.41,168.6,M,-34.4,M,,*53
$GPRMC,162205.250,A,4308.3065,N,07726.2629,W,0.00,160.21,170823,,,A*76
$GPGGA,162205.500,4308.3065,N,07726.2629,W,1,08,1.41,168.6,M,-34.4,M,,*56
$GPRMC,162205.750,A,4308.3065,N,07726.2629,W,0.01,113.28,170823,,,A*7F
$GPGGA,162206.000,4308.3065,N,07726.2629,W,1,08,1.41,168.6,M,-34.4,M,,*50
$GPRMC,162206.250,A,4308.3065,N,07726.2629,W,0.01,76.01,170823,,,A*40
$GPGGA,162206.500,4308.3065,N,07726.2629,W,1,08,1.41,168.6,M,-34.4,M,,*55
$GPRMC,162206.750,A,4308.3065,N,07726.2629,W,0.01,179.87,170823,,,A*75
$GPGGA,162207.000,4308.3065,N,07726.2629,W,1,08,1.41,168.6,M,-34.4,M,,*51
$GPRMC,162207.250,A,4308.3065,N,07726.2629,W,0.00,45.98,170823,,,A*40
$GPGGA,162207.500,4308.3065,N,07726.2629,W,1,08,1.41,168.6,M,-34.4,M,,*54
$GPRMC,162207.750,A,4308.3065,N,07726.2629,W,0.01,103.73,170823,,,A*72
$GPGGA,162208.000,4308.3065,N,07726.2629,W,1,08,1.41,168.6,M,-34.4,M,,*5E
$GPRMC,162208.250,A,4308.3065,N,07726.2629,W,0.01,111.00,170823,,,A*7F
$GPGGA,162208.500,4308.3065,N,07726.2629,W,1,08,1.41,168.6,M,-34.4,M,,*5B
$GPRMC,162208.750,A,4308.3065,N,07726.2628,W,0.01,102.68,170823,,,A*77
$GPGGA,162209.000,4308.3065,N,07726.2628,W,1,08,1.41,168.6,M,-34.4,M,,*5E
$GPRMC,162209.250,A,4308.3065,N,07726.2628,W,0.01,94.28,170823,,,A*49
$GPGGA,162209.500,4308.3065,N,07726.2628,W,1,08,1.41,168.6,M,-34.4,M,,*5B
$GPRMC,162209.750,A,4308.3065,N,07726.2628,W,0.03,335.46,170823,,,A*7E
$GPGGA,162210.000,4308.3065,N,07726.2628,W,1,08,1.41,168.6,M,-34.4,M,,*56
$GPRMC,162210.250,A,4308.3065,N,07726.2628,W,0.01,252.95,170823,,,A*7F
$GPGGA,162210.500,4308.3065,N,07726.2628,W,1,08,1.41,168.6,M,-34.4,M,,*53
$GPRMC,162210.750,A,4308.3065,N,07726.2628,W,0.02,42.93,170823,,,A*4C
$GPGGA,162211.000,4308.3065,N,07726.2628,W,1,08,1.41,168.6,M,-34.4,M,,*57
$GPRMC,162211.250,A,4308.3065,N,07726.2628,W,0.00,53.94,170823,,,A*4D
$GPGGA,162211.500,4308.3065,N,07726.2628,W,1,08,1.41,168.6,M,-34.4,M,,*52
$GPRMC,162211.750,A,4308.3065,N,07726.2628,W,0.01,7.26,170823,,,A*71
$GPGGA,162212.000,4308.3065,N,07726.2628,W,1,08,1.41,168.6,M,-34.4,M,,*54
$GPRMC,162212.250,A,4308.3065,N,07726.2628,W,0.01,188.25,170823,,,A*72
$GPGGA,162212.500,4308.3065,N,07726.2628,W,1,08,1.41,168.6,M,-34.4,M,,*51
$GPRMC,162212.750,A,4308.3065,N,07726.2628,W,0.01,345.85,170823,,,A*7E
$GPGGA,162213.000,4308.3065,N,07726.2628,W,1,08,1.41,168.6,M,-34.4,M,,*55
$GPRMC,162213.250,A,4308.3065,N,07726.2628,W,0.01,124.58,170823,,,A*7F
$GPGGA,162213.500,4308.3065,N,07726.2628,W,1,08,1.41,168.6,M,-34.4,M,,*50
$GPRMC,162213.750,A,4308.3065,N,07726.2628,W,0.01,295.80,170823,,,A*76
$GPGGA,162214.000,4308.3065,N,07726.2628,W,1,08,1.41,168.6,M,-34.4,M,,*52
$GPRMC,162214.250,A,4308.3065,N,07726.2628,W,0.01,279.23,170823,,,A*7F
$GPGGA,162214.500,4308.3065,N,07726.2628,W,1,08,1.41,168.6,M,-34.4,M,,*57
$GPRMC,162214.750,A,4308.3065,N,07726.2628,W,0.01,167.83,170823,,,A*7C
$GPGGA,162215.000,4308.3065,N,07726.2628,W,1,08,1.41,168.6,M,-34.4,M,,*53
$GPRMC,162215.250,A,4308.3065,N,07726.2628,W,0.01,60.35,170823,,,A*43
$GPGGA,162215.500,4308.3065,N,07726.2628,W,1,08,1.41,168.6,M,-34.4,M,,*56
$GPRMC,162215.750,A,4308.3065,N,07726.2628,W,0.00,323.77,170823,,,A*75
$GPGGA,162216.000,4308.3065,N,07726.2628,W,1,08,1.41,168.6,M,-34.4,M,,*50
$GPRMC,162216.250,A,4308.3065,N,07726.2628,W,0.01,261.75,170823,,,A*77
$GPGGA,162216.500,4308.3065,N,07726.2628,W,1,08,1.41,168.6,M,-34.4,M,,*55
$GPRMC,162216.750,A,4308.3065,N,07726.2628,W,0.00,182.46,170823,,,A*7D
$GPGGA,162217.000,4308.3065,N,07726.2628,W,1,08,1.41,168.6,M,-34.4,M,,*51
$GPRMC,162217.250,A,4308.3065,N,07726.2628,W,0.01,48.44,170823,,,A*4D
$GPGGA,162217.500,4308.3065,N,07726.2628,W,1,08,1.41,168.6,M,-34.4,M,,*54
$GPRMC,162217.750,A,4308.3065,N,07726.2628,W,0.00,209.14,170823,,,A*7B
$GPGGA,162218.000,4308.3065,N,07726.2628,W,1,08,1.41,168.6,M,-34.4,M,,*5E
$GPRMC,162218.250,A,4308.3065,N,07726.2628,W,0.00,209.68,170823,,,A*7A
$GPGGA,162218.500,4308.3065,N,07726.2628,W,1,08,1.41,168.6,M,-34.4,M,,*5B
$GPRMC,162218.750,A,4308.3065,N,07726.2628,W,0.00,149.02,170823,,,A*74
$GPGGA,162219.000,4308.3065,N,07726.2628,W,1,08,1.41,168.6,M,-34.4,M,,*5F
$GPRMC,162219.250,A,4308.3065,N,07726.2628,W,0.00,34.06,170823,,,A*4F
$GPGGA,162219.500,4308.3065,N,07726.2628,W,1,08,1.41,168.6,M,-34.4,M,,*5A
$GPRMC,162219.750,A,4308.3065,N,07726.2628,W,0.00,113.46,170823,,,A*7A
$GPGGA,162220.000,4308.3065,N,07726.2628,W,1,08,1.41,168.6,M,-34.4,M,,*55
$GPRMC,162220.250,A,4308.3065,N,07726.2628,W,0.01,13.84,170823,,,A*4B
$GPGGA,162220.500,4308.3065,N,07726.2628,W,1,08,1.41,168.6,M,-34.4,M,,*50
$GPRMC,162220.750,A,4308.3065,N,07726.2628,W,0.01,151.01,170823,,,A*74
$GPGGA,162221.000,4308.3065,N,07726.2628,W,1,08,1.41,168.6,M,-34.4,M,,*54
$GPRMC,162221.250,A,4308.3065,N,07726.2628,W,0.01,119.33,170823,,,A*7D
$GPGGA,162221.500,4308.3065,N,07726.2628,W,1,08,1.41,168.6,M,-34.4,M,,*51
$GPRMC,162221.750,A,4308.3065,N,07726.2628,W,0.01,327.17,170823,,,A*71
$GPGGA,162222.000,4308.3065,N,07726.2628,W,1,08,1.41,168.6,M,-34.4,M,,*57
$GPRMC,162222.250,A,4308.3065,N,07726.2628,W,0.01,82.08,170823,,,A*45
$GPGGA,162222.500,4308.3065,N,07726.2628,W,1,08,1.41,168.6,M,-34.4,M,,*52
$GPRMC,162222.750,A,4308.3065,N,07726.2628,W,0.01,329.48,170823,,,A*76
$GPGGA,162223.000,4308.3065,N,07726.2628,W,1,08,1.41,168.6,M,-34.4,M,,*56
$GPRMC,162223.250,A,4308.3065,N,07726.2628,W,0.00,194.43,170823,,,A*7C
$GPGGA,162223.500,4308.3065,N,07726.2628,W,1,08,1.41,168.6,M,-34.4,M,,*53
$GPRMC,162223.750,A,4308.3065,N,07726.2628,W,0.01,117.35,170823,,,A*72
$GPGGA,162224.000,4308.3065,N,07726.2628,W,1,08,1.41,168.6,M,-34.4,M,,*51
$GPRMC,162224.250,A,4308.3065,N,07726.2628,W,0.00,230.26,170823,,,A*75
$GPGGA,162224.500,4308.3065,N,07726.2628,W,1,08,1.41,168.6,M,-34.4,M,,*54
$GPRMC,162224.750,A,4308.3065,N,07726.2628,W,0.00,350.71,170823,,,A*75
$GPGGA,162225.000,4308.3065,N,07726.2628,W,1,08,1.41,168.6,M,-34.4,M,,*50
$GPRMC,162225.250,A,4308.3065,N,07726.2628,W,0.01,358.45,170823,,,A*7F
$GPGGA,162225.500,4308.3065,N,07726.2628,W,1,08,1.41,168.6,M,-34.4,M,,*55
$GPRMC,162225.750,A,4308.3065,N,07726.2628,W,0.01,248.47,170823,,,A*78
$GPGGA,162226.000,4308.3065,N,07726.2628,W,1,08,1.41,168.6,M,-34.4,M,,*53
$GPRMC,162226.250,A,4308.3065,N,07726.2628,W,0.01,317.26,170823,,,A*72
$GPGGA,162226.500,4308.3065,N,07726.2628,W,1,08,1.41,168.6,M,-34.4,M,,*56
$GPRMC,162226.750,A,4308.3065,N,07726.2628,W,0.01,338.88,170823,,,A*7E
$GPGGA,162227.000,4308.3065,N,07726.2628,W,1,08,1.41,168.6,M,-34.4,M,,*52
$GPRMC,162227.250,A,4308.3065,N,07726.2628,W,0.00,337.64,170823,,,A*76
$GPGGA,162227.500,4308.3065,N,07726.2628,W,1,08,1.41,168.6,M,-34.4,M,,*57
$GPRMC,162227.750,A,4308.3065,N,07726.2628,W,0.00,189.53,170823,,,A*70
$GPGGA,162228.000,4308.3065,N,07726.2628,W,1,08,1.41,168.6,M,-34.4,M,,*5D
$GPRMC,162228.250,A,4308.3065,N,07726.2628,W,0.00,63.36,170823,,,A*4C
$GPGGA,162228.500,4308.3065,N,07726.2628,W,1,08,1.41,168.6,M,-34.4,M,,*58
$GPRMC,162228.750,A,4308.3065,N,07726.2628,W,0.00,0.00,170823,,,A*79
$GPGGA,162229.000,4308.3065,N,07726.2628,W,1,08,1.41,168.6,M,-34.4,M,,*5C
$GPRMC,162229.250,A,4308.3065,N,07726.2628,W,0.00,83.28,170823,,,A*4C
$GPGGA,162229.500,4308.3065,N,07726.2628,W,1,08,1.41,168.6,M,-34.4,M,,*59
$GPRMC,162229.750,A,4308.3065,N,07726.2628,W,0.00,264.21,170823,,,A*7B
$GPGGA,162230.000,4308.3065,N,07726.2628,W,1,08,1.41,168.6,M,-34.4,M,,*54
$GPRMC,162230.250,A,4308.3065,N,07726.2628,W,0.01,135.65,170823,,,A*70
$GPGGA,162230.500,4308.3065,N,07726.2628,W,1,08,1.41,168.6,M,-34.4,M,,*51
$GPRMC,162230.750,A,4308.3065,N,07726.2628,W,0.00,297.67,170823,,,A*7D
$GPGGA,162231.000,4308.3065,N,07726.2628,W,1,08,1.41,168.6,M,-34.4,M,,*55
$GPRMC,162231.250,A,4308.3065,N,07726.2628,W,0.00,310.86,170823,,,A*78
$GPGGA,162231.500,4308.3065,N,07726.2628,W,1,08,1.41,168.6,M,-34.4,M,,*50
$GPRMC,162231.750,A,4308.3065,N,07726.2628,W,0.00,0.00,170823,,,A*71
$GPGGA,162232.000,4308.3065,N,07726.2628,W,1,08,1.41,168.6,M,-34.4,M,,*56
$GPRMC,162232.250,A,4308.3065,N,07726.2628,W,0.00,288.15,170823,,,A*71
$GPGGA,162232.500,4308.3065,N,07726.2628,W,1,08,1.41,168.6,M,-34.4,M,,*53
$GPRMC,162232.750,A,4308.3065,N,07726.2628,W,0.00,75.50,170823,,,A*45
$GPGGA,162233.000,4308.3065,N,07726.2628,W,1,08,1.41,168.6,M,-34.4,M,,*57
$GPRMC,162233.250,A,4308.3065,N,07726.2628,W,0.00,110.30,170823,,,A*75
$GPGGA,162233.500,4308.3065,N,07726.2628,W,1,08,1.41,168.6,M,-34.4,M,,*52
$GPRMC,162233.750,A,4308.3065,N,07726.2628,W,0.00,96.97,170823,,,A*42
$GPGGA,162234.000,4308.3065,N,07726.2628,W,1,08,1.41,168.6,M,-34.4,M,,*50
$GPRMC,162234.250,A,4308.3065,N,07726.2628,W,0.00,355.15,170823,,,A*76
$GPGGA,162234.500,4308.3065,N,07726.2628,W,1,08,1.41,168.6,M,-34.4,M,,*55
$GPRMC,162234.750,A,4308.3065,N,07726.2628,W,0.00,152.41,170823,,,A*77
$GPGGA,162235.000,4308.3065,N,07726.2628,W,1,08,1.41,168.6,M,-34.4,M,,*51
$GPRMC,162235.250,A,4308.3065,N,07726.2628,W,0.01,296.96,170823,,,A*73
$GPGGA,162235.500,4308.3065,N,07726.2628,W,1,08,1.41,168.6,M,-34.4,M,,*54
$GPRMC,162235.750,A,4308.3065,N,07726.2628,W,0.00,0.00,170823,,,A*75
$GPGGA,162236.000,4308.3065,N,07726.2628,W,1,08,1.41,168.6,M,-34.4,M,,*52
$GPRMC,162236.250,A,4308.3065,N,07726.2628,W,0.00,305.14,170823,,,A*70
$GPGGA,162236.500,4308.3065,N,07726.2628,W,1,08,1.41,168.6,M,-34.4,M,,*57
$GPRMC,162236.750,A,4308.3065,N,07726.2628,W,0.00,232.42,170823,,,A*73
$GPGGA,162237.000,4308.3065,N,07726.2628,W,1,08,1.41,168.6,M,-34.4,M,,*53
$GPRMC,162237.250,A,4308.3065,N,07726.2628,W,0.00,177.54,170823,,,A*72
$GPGGA,162237.500,4308.3065,N,07726.2628,W,1,08,1.41,168.6,M,-34.4,M,,*56
$GPRMC,162237.750,A,4308.3065,N,07726.2628,W,0.00,100.56,170823,,,A*75
$GPGGA,162238.000,4308.3065,N,07726.2628,W,1,08,1.41,168.6,M,-34.4,M,,*5C
$GPRMC,162238.250,A,4308.3065,N,07726.2628,W,0.01,169.68,170823,,,A*7C
$GPGGA,162238.500,4308.3065,N,07726.2628,W,1,08,1.41,168.6,M,-34.4,M,,*59
$GPRMC,162238.750,A,4308.3065,N,07726.2628,W,0.00,0.00,170823,,,A*78
$GPGGA,162239.000,4308.3065,N,07726.2628,W,1,08,1.41,168.6,M,-34.4,M,,*5D
$GPRMC,162239.250,A,4308.3065,N,07726.2628,W,0.01,48.43,170823,,,A*46
$GPGGA,162239.500,4308.3065,N,07726.2628,W,1,08,1.41,168.6,M,-34.4,M,,*58
$GPRMC,162239.750,A,4308.3065,N,07726.2627,W,0.00,50.26,170823,,,A*47
$GPGGA,162240.000,4308.3065,N,07726.2627,W,1,08,1.41,168.6,M,-34.4,M,,*5C
$GPRMC,162240.250,A,4308.3065,N,07726.2627,W,0.01,164.84,170823,,,A*73
$GPGGA,162240.500,4308.3065,N,07726.2627,W,1,08,1.41,168.6,M,-34.4,M,,*59
$GPRMC,162240.750,A,4308.3065,N,07726.2627,W,0.01,73.47,170823,,,A*4E
$GPGGA,162241.000,4308.3065,N,07726.2627,W,1,08,1.41,168.6,M,-34.4,M,,*5D
$GPRMC,162241.250,A,4308.3065,N,07726.2627,W,0.00,51.00,170823,,,A*48
$GPGGA,162241.500,4308.3065,N,07726.2627,W,1,08,1.41,168.6,M,-34.4,M,,*58
$GPRMC,162241.750,A,4308.3065,N,07726.2627,W,0.00,130.78,170823,,,A*74
$GPGGA,162242.000,4308.3065,N,07726.2627,W,1,08,1.41,168.6,M,-34.4,M,,*5E
$GPRMC,162242.250,A,4308.3065,N,07726.2627,W,0.01,21.10,170823,,,A*4C
$GPGGA,162242.500,4308.3065,N,07726.2627,W,1,08,1.41,168.6,M,-34.4,M,,*5B
$GPRMC,162242.750,A,4308.3065,N,07726.2627,W,0.01,54.50,170823,,,A*4F
$GPGGA,162243.000,4308.3065,N,07726.2627,W,1,08,1.41,168.6,M,-34.4,M,,*5F
$GPRMC,162243.250,A,4308.3065,N,07726.2627,W,0.01,44.74,170823,,,A*4C
$GPGGA,162243.500,4308.3065,N,07726.2627,W,1,08,1.41,168.6,M,-34.4,M,,*5A
$GPRMC,162243.750,A,4308.3065,N,07726.2627,W,0.00,25.01,170823,,,A*4D
$GPGGA,162244.000,4308.3065,N,07726.2627,W,1,08,1.41,168.6,M,-34.4,M,,*58
$GPRMC,162244.250,A,4308.3065,N,07726.2627,W,0.01,180.17,170823,,,A*77
$GPGGA,162244.500,4308.3065,N,07726.2627,W,1,08,1.41,168.6,M,-34.4,M,,*5D
$GPRMC,162244.750,A,4308.3065,N,07726.2627,W,0.01,175.51,170823,,,A*7A
$GPGGA,162245.000,4308.3065,N,07726.2627,W,1,08,1.41,168.6,M,-34.4,M,,*59
$GPRMC,162245.250,A,4308.3065,N,07726.2627,W,0.01,34.93,170823,,,A*44
$GPGGA,162245.500,4308.3065,N,07726.2627,W,1,08,1.41,168.6,M,-34.4,M,,*5C
$GPRMC,162245.750,A,4308.3065,N,07726.2627,W,0.01,50.10,170823,,,A*48
$GPGGA,162246.000,4308.3065,N,07726.2627,W,1,08,1.41,168.6,M,-34.4,M,,*5A
$GPRMC,162246.250,A,4308.3065,N,07726.2627,W,0.01,221.98,170823,,,A*7A
$GPGGA,162246.500,4308.3065,N,07726.2627,W,1,08,1.41,168.6,M,-34.4,M,,*5F
$GPRMC,162246.750,A,4308.3065,N,07726.2627,W,0.01,111.74,170823,,,A*7D
$GPGGA,162247.000,4308.3065,N,07726.2627,W,1,08,1.41,168.6,M,-34.4,M,,*5B
$GPRMC,162247.250,A,4308.3065,N,07726.2627,W,0.01,69.47,170823,,,A*47
$GPGGA,162247.500,4308.3065,N,07726.2627,W,1,08,1.41,168.6,M,-34.4,M,,*5E
$GPRMC,162247.750,A,4308.3065,N,07726.2627,W,0.00,0.00,170823,,,A*7F
$GPGGA,162248.000,4308.3065,N,07726.2627,W,1,08,1.41,168.6,M,-34.4,M,,*54
$GPRMC,162248.250,A,4308.3065,N,07726.2627,W,0.01,176.04,170823,,,A*70
$GPGGA,162248.500,4308.3065,N,07726.2627,W,1,08,1.41,168.6,M,-34.4,M,,*51
$GPRMC,162248.750,A,4308.3065,N,07726.2627,W,0.01,125.95,170823,,,A*7B
$GPGGA,162249.000,4308.3065,N,07726.2627,W,1,08,1.41,168.6,M,-34.4,M,,*55
$GPRMC,162249.250,A,4308.3065,N,07726.2627,W,0.01,123.02,170823,,,A*77
$GPGGA,162249.500,4308.3065,N,07726.2627,W,1,08,1.41,168.6,M,-34.4,M,,*50
$GPRMC,162249.750,A,4308.3065,N,07726.2627,W,0.00,115.80,170823,,,A*7C
$GPGGA,162250.000,4308.3065,N,07726.2627,W,1,08,1.41,168.6,M,-34.4,M,,*5D
$GPRMC,162250.250,A,4308.3065,N,07726.2627,W,0.01,96.18,170823,,,A*4B
$GPGGA,162250.500,4308.3065,N,07726.2627,W,1,08,1.41,168.6,M,-34.4,M,,*58
$GPRMC,162250.750,A,4308.3065,N,07726.2627,W,0.00,104.47,170823,,,A*7F
$GPGGA,162251.000,4308.3065,N,07726.2627,W,1,08,1.41,168.6,M,-34.4,M,,*5C
$GPRMC,162251.250,A,4308.3065,N,07726.2627,W,0.01,106.63,170823,,,A*7E
$GPGGA,162251.500,4308.3065,N,07726.2627,W,1,08,1.41,168.6,M,-34.4,M,,*59
$GPRMC,162251.750,A,4308.3065,N,07726.2627,W,0.01,115.63,170823,,,A*79
$GPGGA,162252.000,4308.3065,N,07726.2627,W,1,08,1.41,168.6,M,-34.4,M,,*5F
$GPRMC,162252.250,A,4308.3065,N,07726.2627,W,0.01,72.07,170823,,,A*4D
$GPGGA,162252.500,4308.3065,N,07726.2627,W,1,08,1.41,168.6,M,-34.4,M,,*5A
$GPRMC,162252.750,A,4308.3065,N,07726.2627,W,0.01,130.90,170823,,,A*71
$GPGGA,162253.000,4308.3065,N,07726.2627,W,1,08,1.41,168.6,M,-34.4,M,,*5E
$GPRMC,162253.250,A,4308.3065,N,07726.2627,W,0.01,191.64,170823,,,A*75
$GPGGA,162253.500,4308.3065,N,07726.2627,W,1,08,1.41,168.6,M,-34.4,M,,*5B
$GPRMC,162253.750,A,4308.3065,N,07726.2627,W,0.01,211.83,170823,,,A*72
$GPGGA,162254.000,4308.3065,N,07726.2627,W,1,08,1.41,168.6,M,-34.4,M,,*59
$GPRMC,162254.250,A,4308.3065,N,07726.2627,W,0.00,162.59,170823,,,A*71
$GPGGA,162254.500,4308.3065,N,07726.2627,W,1,08,1.41,168.6,M,-34.4,M,,*5C
$GPRMC,162254.750,A,4308.3065,N,07726.2627,W,0.01,193.08,170823,,,A*7F
$GPGGA,162255.000,4308.3065,N,07726.2627,W,1,08,1.41,168.6,M,-34.4,M,,*58
$GPRMC,162255.250,A,4308.3065,N,07726.2627,W,0.01,118.82,170823,,,A*7A
$GPGGA,162255.500,4308.3065,N,07726.2627,W,1,08,1.41,168.6,M,-34.4,M,,*5D
$GPRMC,162255.750,A,4308.3065,N,07726.2627,W,0.01,124.76,170823,,,A*7B
$GPGGA,162256.000,4308.3065,N,07726.2627,W,1,08,1.41,168.6,M,-34.4,M,,*5B
$GPRMC,162256.250,A,4308.3065,N,07726.2627,W,0.01,194.20,170823,,,A*75
$GPGGA,162256.500,4308.3065,N,07726.2627,W,1,08,1.41,168.6,M,-34.4,M,,*5E
$GPRMC,162256.750,A,4308.3065,N,07726.2627,W,0.00,0.00,170823,,,A*7F
$GPGGA,162257.000,4308.3065,N,07726.2627,W,1,08,1.41,168.6,M,-34.4,M,,*5A
$GPRMC,162257.250,A,4308.3065,N,07726.2627,W,0.01,46.63,170823,,,A*4D
$GPGGA,162257.500,4308.3065,N,07726.2627,W,1,08,1.41,168.6,M,-34.4,M,,*5F
$GPRMC,162257.750,A,4308.3065,N,07726.2627,W,0.01,173.62,170823,,,A*7E
$GPGGA,162258.000,4308.3065,N,07726.2627,W,1,08,1.41,168.6,M,-34.4,M,,*55
$GPRMC,162258.250,A,4308.3065,N,07726.2627,W,0.00,225.24,170823,,,A*77
$GPGGA,162258.500,4308.3065,N,07726.2627,W,1,08,1.41,168.6,M,-34.4,M,,*50
$GPRMC,162258.750,A,4308.3065,N,07726.2627,W,0.01,72.06,170823,,,A*43
$GPGGA,162259.000,4308.3065,N,07726.2627,W,1,08,1.41,168.6,M,-34.4,M,,*54
$GPRMC,162259.250,A,4308.3065,N,07726.2627,W,0.01,250.60,170823,,,A*75
$GPGGA,162259.500,4308.3065,N,07726.2627,W,1,08,1.41,168.6,M,-34.4,M,,*51
$GPRMC,162259.750,A,4308.3065,N,07726.2627,W,0.00,65.68,170823,,,A*4D
$GPGGA,162300.000,4308.3065,N,07726.2627,W,1,08,1.41,168.6,M,-34.4,M,,*59
$GPRMC,162300.250,A,4308.3065,N,07726.2627,W,0.01,132.12,170823,,,A*7A
$GPGGA,162300.500,4308.3065,N,07726.2627,W,1,08,1.41,168.6,M,-34.4,M,,*5C
$GPRMC,162300.750,A,4308.3065,N,07726.2627,W,0.00,315.28,170823,,,A*70
$GPGGA,162301.000,4308.3065,N,07726.2627,W,1,08,1.41,168.6,M,-34.4,M,,*58
$GPRMC,162301.250,A,4308.3065,N,07726.2627,W,0.00,232.22,170823,,,A*7A
$GPGGA,162301.500,4308.3065,N,07726.2627,W,1,08,1.41,168.6,M,-34.4,M,,*5D
$GPRMC,162301.750,A,4308.3065,N,07726.2627,W,0.01,9.10,170823,,,A*75
$GPGGA,162302.000,4308.3065,N,07726.2627,W,1,08,1.41,168.6,M,-34.4,M,,*5B
$GPRMC,162302.250,A,4308.3065,N,07726.2627,W,0.00,250.16,170823,,,A*7A
$GPGGA,162302.500,4308.3065,N,07726.2627,W,1,08,1.41,168.6,M,-34.4,M,,*5E
$GPRMC,162302.750,A,4308.3065,N,07726.2627,W,0.01,145.67,170823,,,A*7F
$GPGGA,162303.000,4308.3065,N,07726.2627,W,1,08,1.41,168.6,M,-34.4,M,,*5A
$GPRMC,162303.250,A,4308.3065,N,07726.2627,W,0.01,48.74,170823,,,A*45
$GPGGA,162303.500,4308.3065,N,07726.2627,W,1,08,1.41,168.6,M,-34.4,M,,*5F
$GPRMC,162303.750,A,4308.3065,N,07726.2627,W,0.00,154.04,170823,,,A*7A
$GPGGA,162304.000,4308.3065,N,07726.2627,W,1,08,1.41,168.6,M,-34.4,M,,*5D
$GPRMC,162304.250,A,4308.3065,N,07726.2627,W,0.00,33.69,170823,,,A*43
$GPGGA,162304.500,4308.3065,N,07726.2627,W,1,08,1.41,168.6,M,-34.4,M,,*58
$GPRMC,162304.750,A,4308.3065,N,07726.2627,W,0.01,79.14,170823,,,A*43
$GPGGA,162305.000,4308.3065,N,07726.2627,W,1,08,1.41,168.6,M,-34.4,M,,*5C
$GPRMC,162305.250,A,4308.3065,N,07726.2627,W,0.01,115.50,170823,,,A*7C
$GPGGA,162305.500,4308.3065,N,07726.2627,W,1,08,1.41,168.6,M,-34.4,M,,*59
$GPRMC,162305.750,A,4308.3065,N,07726.2627,W,0.00,134.38,170823,,,A*75
$GPGGA,162306.000,4308.3065,N,07726.2627,W,1,08,1.41,168.6,M,-34.4,M,,*5F
$GPRMC,162306.250,A,4308.3065,N,07726.2627,W,0.00,0.00,170823,,,A*7E
$GPGGA,162306.500,4308.3065,N,07726.2627,W,1,08,1.41,168.6,M,-34.4,M,,*5A
$GPRMC,162306.750,A,4308.3065,N,07726.2627,W,0.01,118.80,170823,,,A*7A
$GPGGA,162307.000,4308.3065,N,07726.2627,W,1,08,1.41,168.6,M,-34.4,M,,*5E
$GPRMC,162307.250,A,4308.3065,N,07726.2627,W,0.00,177.13,170823,,,A*7C
$GPGGA,162307.500,4308.3065,N,07726.2627,W,1,08,1.41,168.6,M,-34.4,M,,*5B
$GPRMC,162307.750,A,4308.3065,N,07726.2627,W,0.01,142.08,170823,,,A*74
$GPGGA,162308.000,4308.3065,N,07726.2627,W,1,08,1.41,168.6,M,-34.4,M,,*51
$GPRMC,162308.250,A,4308.3065,N,07726.2627,W,0.01,156.78,170823,,,A*7C
$GPGGA,162308.500,4308.3065,N,07726.2626,W,1,08,1.41,168.6,M,-34.4,M,,*55
$GPRMC,162308.750,A,4308.3065,N,07726.2626,W,0.01,100.78,170823,,,A*7B
$GPGGA,162309.000,4308.3065,N,07726.2626,W,1,08,1.41,168.6,M,-34.4,M,,*51
$GPRMC,162309.250,A,4308.3065,N,07726.2626,W,0.02,124.01,170823,,,A*74
$GPGGA,162309.500,4308.3065,N,07726.2626,W,1,08,1.41,168.6,M,-34.4,M,,*54
$GPRMC,162309.750,A,4308.3065,N,07726.2626,W,0.01,116.95,170823,,,A*7E
$GPGGA,162310.000,4308.3065,N,07726.2626,W,1,08,1.41,168.6,M,-34.4,M,,*59
$GPRMC,162310.250,A,4308.3065,N,07726.2626,W,0.02,33.89,170823,,,A*4B
$GPGGA,162310.500,4308.3065,N,07726.2626,W,1,08,1.41,168.6,M,-34.4,M,,*5C
$GPRMC,162310.750,A,4308.3065,N,07726.2626,W,0.01,121.58,170823,,,A*73
$GPGGA,162311.000,4308.3065,N,07726.2626,W,1,08,1.41,168.6,M,-34.4,M,,*58
$GPRMC,162311.250,A,4308.3065,N,07726.2626,W,0.01,83.47,170823,,,A*40
$GPGGA,162311.500,4308.3065,N,07726.2626,W,1,08,1.41,168.6,M,-34.4,M,,*5D
$GPRMC,162311.750,A,4308.3065,N,07726.2626,W,0.01,138.45,170823,,,A*76
$GPGGA,162312.000,4308.3065,N,07726.2626,W,1,08,1.41,168.6,M,-34.4,M,,*5B
$GPRMC,162312.250,A,4308.3065,N,07726.2626,W,0.00,193.33,170823,,,A*71
$GPGGA,162312.500,4308.3065,N,07726.2626,W,1,08,1.41,168.6,M,-34.4,M,,*5E
$GPRMC,162312.750,A,4308.3065,N,07726.2626,W,0.01,132.23,170823,,,A*7F
$GPGGA,162313.000,4308.3065,N,07726.2626,W,1,08,1.41,168.6,M,-34.4,M,,*5A
$GPRMC,162313.250,A,4308.3065,N,07726.2626,W,0.00,90.18,170823,,,A*4B
$GPGGA,162313.500,4308.3065,N,07726.2626,W,1,08,1.41,168.6,M,-34.4,M,,*5F
$GPRMC,162313.750,A,4308.3065,N,07726.2626,W,0.00,213.35,170823,,,A*78
$GPGGA,162314.000,4308.3065,N,07726.2626,W,1,08,1.41,168.6,M,-34.4,M,,*5D
$GPRMC,162314.250,A,4308.3065,N,07726.2626,W,0.00,6.55,170823,,,A*7A
$GPGGA,162314.500,4308.3065,N,07726.2626,W,1,08,1.41,168.6,M,-34.4,M,,*58
$GPRMC,162314.750,A,4308.3065,N,07726.2626,W,0.01,36.01,170823,,,A*4C
$GPGGA,162315.000,4308.3065,N,07726.2626,W,1,08,1.41,168.6,M,-34.4,M,,*5C
$GPRMC,162315.250,A,4308.3065,N,07726.2626,W,0.01,2.83,170823,,,A*75
$GPGGA,162315.500,4308.3065,N,07726.2626,W,1,08,1.41,168.6,M,-34.4,M,,*59
$GPRMC,162315.750,A,4308.3065,N,07726.2626,W,0.00,41.61,170823,,,A*4A
$GPGGA,162316.000,4308.3065,N,07726.2626,W,1,08,1.41,168.6,M,-34.4,M,,*5F
$GPRMC,162316.250,A,4308.3065,N,07726.2626,W,0.00,102.91,170823,,,A*75
$GPGGA,162316.500,4308.3065,N,07726.2626,W,1,08,1.41,168.6,M,-34.4,M,,*5A
$GPRMC,162316.750,A,4308.3065,N,07726.2626,W,0.00,134.31,170823,,,A*7F
$GPGGA,162317.000,4308.3065,N,07726.2626,W,1,08,1.41,168.6,M,-34.4,M,,*5E
$GPRMC,162317.250,A,4308.3065,N,07726.2626,W,0.00,233.90,170823,,,A*74
$GPGGA,162317.500,4308.3065,N,07726.2626,W,1,08,1.41,168.6,M,-34.4,M,,*5B
$GPRMC,162317.750,A,4308.3065,N,07726.2626,W,0.00,196.02,170823,,,A*76
$GPGGA,162318.000,4308.3065,N,07726.2626,W,1,08,1.41,168.6,M,-34.4,M,,*51
$GPRMC,162318.250,A,4308.3065,N,07726.2626,W,0.01,146.62,170823,,,A*76
$GPGGA,162318.500,4308.3065,N,07726.2626,W,1,08,1.41,168.6,M,-34.4,M,,*54
$GPRMC,162318.750,A,4308.3065,N,07726.2626,W,0.00,57.65,170823,,,A*44
$GPGGA,162319.000,4308.3065,N,07726.2626,W,1,08,1.41,168.6,M,-34.4,M,,*50
$GPRMC,162319.250,A,4308.3065,N,07726.2626,W,0.00,0.00,170823,,,A*71
$GPGGA,162319.500,4308.3065,N,07726.2626,W,1,08,1.41,168.6,M,-34.4,M,,*55
$GPRMC,162319.750,A,4308.3065,N,07726.2626,W,0.01,172.00,170823,,,A*71
$GPGGA,162320.000,4308.3065,N,07726.2626,W,1,08,1.41,168.6,M,-34.4,M,,*5A
$GPRMC,162320.250,A,4308.3065,N,07726.2626,W,0.01,91.03,170823,,,A*41
$GPGGA,162320.500,4308.3065,N,07726.2626,W,1,08,1.41,168.6,M,-34.4,M,,*5F
$GPRMC,162320.750,A,4308.3065,N,07726.2626,W,0.01,133.65,170823,,,A*7D
$GPGGA,162321.000,4308.3065,N,07726.2626,W,1,08,1.41,168.6,M,-34.4,M,,*5B
$GPRMC,162321.250,A,4308.3065,N,07726.2626,W,0.00,166.62,170823,,,A*7F
$GPGGA,162321.500,4308.3065,N,07726.2626,W,1,08,1.41,168.6,M,-34.4,M,,*5E
$GPRMC,162321.750,A,4308.3065,N,07726.2626,W,0.01,282.13,170823,,,A*74
$GPGGA,162322.000,4308.3065,N,07726.2626,W,1,08,1.41,168.6,M,-34.4,M,,*58
$GPRMC,162322.250,A,4308.3065,N,07726.2626,W,0.01,206.44,170823,,,A*7C
$GPGGA,162322.500,4308.3065,N,07726.2626,W,1,08,1.41,168.6,M,-34.4,M,,*5D
$GPRMC,162322.750,A,4308.3065,N,07726.2626,W,0.01,213.42,170823,,,A*7B
$GPGGA,162323.000,4308.3065,N,07726.2626,W,1,08,1.41,168.6,M,-34.4,M,,*59
$GPRMC,162323.250,A,4308.3065,N,07726.2626,W,0.00,269.58,170823,,,A*78
$GPGGA,162323.500,4308.3065,N,07726.2626,W,1,08,1.41,168.6,M,-34.4,M,,*5C
$GPRMC,162323.750,A,4308.3065,N,07726.2626,W,0.00,306.97,170823,,,A*76
$GPGGA,162324.000,4308.3065,N,07726.2626,W,1,08,1.41,168.6,M,-34.4,M,,*5E
$GPRMC,162324.250,A,4308.3065,N,07726.2626,W,0.00,60.29,170823,,,A*42
